~VERSION INFORMATION
 VERS.                2.0:   CWLS LOG ASCII STANDARD - VERSION 2.0
 WRAP.                 NO:   ONE LINE PER DEPTH STEP
~WELL INFORMATION
#MNEM.UNIT      DATA TYPE    INFORMATION
#----------   ------------   ------------------------------
 STRT.F          500.0000:   START DEPTH
 STOP.F         2517.0000:   STOP DEPTH
 STEP.F            0.5000:   STEP LENGTH
 NULL.          -999.2500:   NO VALUE
 COMP.    FENIX & SCISSON:   COMPANY
 WELL. FENIX & SCISSON SHX #46-33:   WELL
 FLD .  TEAPOT DOME NPR-3:   FIELD
 LOC .      S33 T39N R78W:   LOCATION
 CNTY.            NATRONA:   COUNTY
 STAT.            WYOMING:   STATE
 CTRY. UNITED STATES OF AMERICA:   COUNTRY
 SRVC.           BIRDWELL:   SERVICE COMPANY
 DATE.        04-APR-1979:   LOGDATE
 API .     49025107670000:   API NUMBER
~CURVE INFORMATION
#MNEM.UNIT       API CODE    CURVE DESCRIPTION
#----------   ------------   ------------------------------
 DEPT.F                  :   
 GRD .GAPI   45 310 01 00:   GAMMA RAY FROM DENSITY LOG
 CALD.IN     45 280 60 00:   CALIPER FROM DENSITY LOG
 CORR.G/C3   45 356 01 00:   DENSITY CORRECTION
 RHOB.G/C3   45 350 01 00:   BULK DENSITY
~PARAMETER INFORMATION
#MNEM.UNIT          VALUE    DESCRIPTION
#----------   ------------   ------------------------------
 EKB .F         5217.0000:   Kelly bushing
 EGL .F         5207.0000:   Ground level
 EDF .F            0.0000:   Drilling floor
 TD  .F         2630.0000:   Total depth
 CLNT.            A2DTECH:   Client Code
 SL  . 1955' FSL & 1970' FWL:   Surface Location
 PD  .                 GL:   Permanent Datum
 EPD .F              5207:   Elevation Permanent Datum
 LMF .                 KB:   Log Measured From
 DMF .                 KB:   Drilling Measured From
 DAPD.                 10:   Feet Above Permanent Datum
 DATE.        04-APR-1979:   Date Logged [DD-MMM-YYYY]
 DD  .F              2630:   Depth driller
 DL  .F              2517:   Depth logger
 BLI .F              2517:   Bottom log interval
 TLI .F               504:   Top log interval
 CS1 .              9.625:   Casing size
 CBD1.      9.625" @ 300':   Casing driller 1
 CBL1.IN              306:   Casing logger 1
 BS1 .IN            7.875:   Bit size
 BSD1.F              2630:   Depth drilled with bit1
 DFT .                OIL:   Type fluid in hole
 LUL .             CASPER:   Logging unit location
 ENGI.            ROLLINS:   Recorded By
 ORIG.           5" PRINT:   Origin of data
 UWI .     49025107670000:   Unique Well ID
 DICO. A2D TECHNOLOGIES ,INC.:   Digitizing Company
 WITN.              AMUND:   Witnessed by
~OTHER INFORMATION
~A   DEPT      GRD       CALD       CORR       RHOB   
# ...
 2106.0000    49.9979     8.5887     0.3028     2.5863
 2106.5000    55.3529     8.4378     0.2631     2.5894
 2107.0000    61.8967     9.2172     0.2527     2.5910
 2107.5000    66.8060     9.1730     0.2498     2.5986
 2108.0000    67.2562     9.1139     0.2500     2.6069
 2108.5000    60.1313     9.0697     0.2502     2.5829
 2109.0000    56.1253     9.0403     0.2504     2.5582
 2109.5000    53.4566     9.0261     0.2761     2.5417
 2110.0000    53.0153     9.0720     0.3018     2.5109
 2110.5000    58.8176     9.1176     0.3245     2.5035
 2111.0000    58.2291     9.3130     0.3021     2.5141
 2111.5000    55.8576     9.3584     0.2963     2.5405
 2112.0000    56.9036     9.1498     0.3011     2.5699
 2112.5000    57.9496     9.0306     0.2537     2.5053
 2113.0000    54.8351     8.9716     0.2332     2.3917
 2113.5000    53.9466     8.9422     0.2526     2.3158
 2114.0000    54.1040     9.0328     0.3242     2.2956
 2114.5000    50.5383     8.4121     0.3695     2.3867
 2115.0000    45.6462     8.6153     0.3411     2.4545
 2115.5000    46.1186     8.8106     0.3081     2.4997
 2116.0000    46.0267     8.4371     0.3459     2.5675
 2116.5000    38.6817     8.4077     0.2799     2.5337
 2117.0000    31.4068     9.0996     0.2320     2.4696
 2117.5000    30.5196     9.2178     0.2171     2.4349
 2118.0000    33.0530     9.0539     0.2579     2.4263
 2118.5000    33.9504     9.5190     0.3091     2.5071
 2119.0000    32.9162     9.6691     0.3153     2.5243
 2119.5000    33.9622     8.8018     0.2734     2.4962
 2120.0000    34.7110     8.6826     0.2615     2.4575
 2120.5000    35.3113     9.3123     0.2887     2.4117
 2121.0000    36.5059     9.3729     0.3265     2.4584
 2121.5000    37.9977     9.6580     0.3387     2.5157
 2122.0000    40.2324     9.4492     0.3193     2.5300
 2122.5000    41.2784     9.2254     0.2533     2.5045
 2123.0000    41.7300     9.2411     0.2730     2.4783
 2123.5000    41.7359     9.3766     0.3036     2.4618
 2124.0000    41.8904     9.9761     0.3474     2.4920
 2124.5000    42.9364     9.4080     0.3429     2.5552
 2125.0000    44.7254     9.3040     0.3153     2.6215
 2125.5000    47.5544     9.2598     0.3055     2.6374
 2126.0000    50.8293     9.2006     0.2906     2.6307
 2126.5000    48.9035     9.1415     0.2501     2.6217
 2127.0000    45.1947     9.0824     0.2458     2.6203
 2127.5000    43.7147     9.0981     0.2595     2.6189
 2128.0000    44.3545     9.2336     0.2687     2.6129
 2128.5000    47.5087     9.3091     0.2734     2.5829
 2129.0000    51.1447     9.3698     0.2931     2.5717
 2129.5000    53.6183     9.3705     0.3293     2.5891
 2130.0000    54.4425     9.3253     0.3611     2.6253
 2130.5000    49.3979     9.1891     0.3477     2.6081
 2131.0000    47.7678     9.1781     0.3418     2.6006
 2131.5000    48.2209     9.2088     0.3540     2.6105
 2132.0000    51.0500     8.9702     0.3933     2.6324
 2132.5000    57.1480     8.9558     0.3529     2.5700
 2133.0000    60.5700     9.0765     0.3214     2.5527
 2133.5000    56.8626     9.2269     0.3291     2.5513
 2134.0000    57.4629     9.3923     0.3609     2.5872
 2134.5000    61.6292     9.4228     0.3625     2.6080
 2135.0000    64.1611     8.9745     0.3021     2.6065
 2135.5000    63.1269     9.1251     0.2619     2.5660
 2136.0000    60.9039     9.1707     0.2632     2.5179
 2136.5000    60.4626     9.1116     0.2970     2.4949
 2137.0000    62.2530     9.0822     0.3363     2.4901
 2137.5000    63.4476     9.1131     0.3921     2.5986
 2138.0000    64.7908    10.0420     0.4118     2.6528
 2138.5000    65.8368     9.3391     0.3443     2.6507
 2139.0000    68.2201     9.2948     0.2738     2.6327
 2139.5000    72.3865     9.3107     0.2424     2.6162
 2140.0000    78.6331     9.3114     0.2351     2.5975
 2140.5000    84.9769     9.3271     0.2382     2.5847
 2141.0000    94.2471     9.3129     0.2474     2.5901
 2141.5000  -999.2500     9.3136     0.2506     2.5999
 2142.0000  -999.2500     9.3950     0.2462     2.6030
 2142.5000  -999.2500     9.4349     0.2314     2.5880
 2143.0000  -999.2500     9.4404     0.2090     2.5655
 2143.5000  -999.2500     9.8555     0.1836     2.5491
 2144.0000  -999.2500     9.4465     0.1771     2.5190
 2144.5000  -999.2500     9.3183     0.1929     2.5003
 2145.0000  -999.2500     9.3190     0.2472     2.4823
 2145.5000  -999.2500     9.3796     0.3181     2.4869
 2146.0000  -999.2500     9.5750     0.3528     2.5592
 2146.5000  -999.2500     9.4110     0.2754     2.5736
 2147.0000  -999.2500     9.2920     0.2035     2.5376
 2147.5000  -999.2500     9.2327     0.1588     2.5256
 2148.0000  -999.2500     9.2035     0.1442     2.5234
 2148.5000  -999.2500     9.2194     0.1371     2.5235
 2149.0000  -999.2500     9.2351     0.1463     2.5236
 2149.5000  -999.2500     9.2358     0.1645     2.5221
 2150.0000  -999.2500     9.2366     0.1842     2.5207
 2150.5000  -999.2500     9.2373     0.1964     2.5253
 2151.0000  -999.2500     9.2354     0.1996     2.5140
 2151.5000  -999.2500     9.2220     0.2028     2.5058
 2152.0000  -999.2500     9.2070     0.2074     2.5162
 2152.5000  -999.2500     9.1771     0.2196     2.5550
 2153.0000  -999.2500     9.1503     0.2243     2.5752
 2153.5000    96.3465     9.1360     0.1884     2.5753
 2154.0000    84.1734     9.1217     0.1492     2.5384
 2154.5000    78.5359     9.1223     0.1418     2.5407
 2155.0000    77.5024     9.1229     0.1495     2.5445
 2155.5000    87.0231     9.1085     0.1556     2.5506
 2156.0000    93.5699     9.1091     0.1588     2.5454
 2156.5000    94.7674     9.1097     0.1589     2.5364
 2157.0000    90.9130     9.0951     0.1575     2.5311
 2157.5000    81.5608     9.0959     0.1607     2.5236
 2158.0000    65.8193     9.1264     0.2240     2.5307
 2158.5000    57.2100     9.1570     0.2933     2.5584
 2159.0000    54.2471     9.1875     0.3265     2.5946
 2159.5000    52.0271     9.2180     0.3251     2.6089
 2160.0000    49.2128     9.2635     0.2982     2.6512
 2160.5000    44.1696     9.2791     0.3359     2.6813
 2161.0000    32.1428     9.2797     0.3391     2.6558
 2161.5000    25.9110     9.2803     0.3347     2.6468
 2162.0000    28.8916     9.2809     0.3168     2.6642
 2162.5000    33.2095     9.2815     0.2523     2.6018
 2163.0000    35.5233     9.2821     0.2374     2.5582
 2163.5000    47.7352     9.2826     0.2345     2.4702
 2164.0000    59.0240     9.2832     0.3053     2.4417
 2164.5000    61.9388     9.2838     0.4303     2.4733
 2165.0000    58.6525     9.2844     0.4981     2.5275
 2165.5000    55.4796     9.2850     0.4997     2.6382
 2166.0000    54.4923     9.2856     0.4908     2.7030
 2166.5000    57.0567     9.2862     0.3586     2.5977
 2167.0000    62.7119     9.2868     0.2821     2.5375
 2167.5000    64.0581     9.2874     0.2596     2.5173
 2168.0000    60.6494     9.2881     0.2868     2.5211
 2168.5000    59.7645     9.2887     0.3065     2.5400
 2169.0000    63.3417     9.2592     0.3172     2.5648
 2169.5000    66.0252     9.2449     0.3053     2.5732
 2170.0000    67.5177     9.2157     0.2693     2.5521
 2170.5000    62.1796     9.1862     0.2604     2.5605
 2171.0000    62.3370     9.1420     0.2395     2.5658
 2171.5000    62.7894     9.1426     0.2171     2.5538
 2172.0000    60.4231     9.1432     0.2037     2.5515
 2172.5000    59.8354     9.1438     0.1903     2.5569
 2173.0000    59.2499     9.1444     0.1709     2.5600
 2173.5000    60.4497     9.1299     0.1635     2.5653
 2174.0000    59.8642     9.1306     0.1862     2.5774
 2174.5000    54.9696     9.1312     0.1984     2.5820
 2175.0000    52.7496     9.1468     0.2030     2.5752
 2175.5000    48.8952     9.1474     0.2212     2.5807
 2176.0000    48.0103     9.1779     0.2364     2.6011
 2176.5000    52.3304     9.2084     0.2440     2.6101
 2177.0000    54.5681     9.2539     0.2411     2.6131
 2177.5000    53.9826     9.2994     0.2217     2.5930
 2178.0000    53.9915     9.3150     0.1948     2.5821
 2178.5000    56.3777     9.3306     0.1889     2.5809
