~VERSION INFORMATION
 VERS.                2.0:   CWLS LOG ASCII STANDARD - VERSION 2.0
 WRAP.                 NO:   ONE LINE PER DEPTH STEP
~WELL INFORMATION
#MNEM.UNIT      DATA TYPE    INFORMATION
#----------   ------------   ------------------------------
 STRT.F          243.5000:   START DEPTH
 STOP.F         2836.0000:   STOP DEPTH
 STEP.F            0.5000:   STEP LENGTH
 NULL.          -999.2500:   NO VALUE
 COMP. FENIX & SCISSON U. S. NAVY:   COMPANY
 WELL.   FENIX "A" #86-20:   WELL
 FLD .             NPR #3:   FIELD
 LOC .      S20 T39N R78W:   LOCATION
 CNTY.            NATRONA:   COUNTY
 STAT.            WYOMING:   STATE
 CTRY. UNITED STATES OF AMERICA:   COUNTRY
 SRVC.       SCHLUMBERGER:   SERVICE COMPANY
 DATE.        22-MAR-1977:   LOGDATE
 API .     49025103130000:   API NUMBER
~CURVE INFORMATION
#MNEM.UNIT       API CODE    CURVE DESCRIPTION
#----------   ------------   ------------------------------
 DEPT.F                  :   
 SPR .MV     07 010 01 00:   SPONTANEOUS POTENTIAL
 ILD .OHMM   07 120 46 00:   DEEP INDUCTION RESISTIVITY
 ILM .OHMM   07 120 44 00:   INDUCTION LOG MEDIUM RESISTIVITY
 LL8 .OHMM   07 220 08 00:   LATEROLOG-8 RES.
 CALD.IN     45 280 60 00:   CALIPER FROM DENSITY LOG
 GRD .GAPI   45 310 01 00:   GAMMA RAY FROM DENSITY LOG
 RHOB.G/C3   45 350 01 00:   BULK DENSITY
 CORR.G/C3   45 356 01 00:   DENSITY CORRECTION
~PARAMETER INFORMATION
#MNEM.UNIT          VALUE    DESCRIPTION
#----------   ------------   ------------------------------
 EKB .F         5005.0000:   Kelly bushing
 EGL .F         4994.0000:   Ground level
 EDF .F            0.0000:   Drilling floor
 TD  .F         2836.0000:   Total depth
 DATE.        22-MAR-1977:   Date logged
 CLNT.            A2DTECH:   Client Code
 SL  . 330' FEL & 1650' FSL:   Surface Location
 PD  .                 GL:   Permanent Datum
 EPD .F              5005:   Elevation Permanent Datum
 LMF .                 KB:   Log Measured From
 DMF .                 KB:   Drilling Measured From
 DD  .F              2835:   Depth driller
 DL  .F              2836:   Depth logger
 BLI .F              2826:   Bottom log interval
 TLI .F               259:   Top log interval
 CBD1.      8.625" @ 258':   Casing driller 1
 CBL1.F               259:   Casing logger 1
 BS1 .IN            7.875:   Bit size
 DFT .                KCL:   Type fluid in hole
 DFD .                9.1:   Density
 DFV .                 35:   Viscosity
 DFPH.                  9:   pH
 DFL .                8.6:   Fluid loss
 MSS .              CIRC.:   Source of sample
 RMS .OHMM           0.22:   Rm
 MST .F                60:   Rm Meas. temp.
 RMF .OHMM           0.18:   Rmf
 MFST.F                60:   Rmf Meas. temp.
 RMC .OHMM           0.33:   Rmc
 MCST.F                60:   Rmc Meas. temp.
 MFSS.               MEAS:   Source Rmf.
 RMB .OHMM           0.12:   Rm. at BHT
 BHT .F               110:   BHT.
 TCS .HRS            0900:   Time Circ. stopped
 MRT .F               110:   Maximum recorded temp.
 LUN .               7980:   Logging unit number
 LUL .               CSPR:   Logging unit location
 ENGI.                FIX:   Recorded By
 WITN.               JAPP:   Witnessed by
 ORIG.           5" PRINT:   Origin of data
 UWI .     49025103130000:   Unique Well ID
 DICO. A2D TECHNOLOGIES, INC.:   Digitizing Company
 DAPD.                 11:   Feet Above Permanent Datum
 CS1 .              8.625:   Casing size
 BSD1.               2835:   Depth drilled with bit1
 MCSS.               CACL:   Source Rmc.
 TLAB.               1630:   Time logger at bottom
~OTHER INFORMATION
~A   DEPT      SPR        ILD        ILM        LL8       CALD         GRD      RHOB       CORR   
# ...
 1782.5000   -51.9430    11.3290    11.5370    21.5040     8.2630   132.2870     2.4140    -0.0020
 1783.0000   -51.9620    11.2470    11.4540    19.2190     8.2630   136.4230     2.4210     0.0080
 1783.5000   -51.9820    11.0700    11.2730    17.2270     8.2630   138.6940     2.4210     0.0080
 1784.0000   -52.0010    10.8930    11.0930    18.1950     8.2630   137.6320     2.4380     0.0290
 1784.5000   -52.0200    10.7160    10.9130    17.5090     8.2630   136.7130     2.4720     0.0490
 1785.0000   -52.0390    10.5390    10.7330    16.3110     8.2630   137.9910     2.4780     0.0590
 1785.5000   -52.0580    10.3420    10.5320    17.0140     8.2630   140.6360     2.4480     0.0360
 1786.0000   -52.0770    10.3420    10.5320    17.5440     8.2630   143.3770     2.4310     0.0270
 1786.5000   -52.0970    10.4860    10.6400    16.3110     8.2630   144.3140     2.4560     0.0430
 1787.0000   -52.1150    10.6190    11.0110    18.8300     8.2640   142.7340     2.4820     0.0610
 1787.5000   -52.1350    10.7510    11.3340    21.6540     8.2650   140.9470     2.4730     0.0570
 1788.0000   -52.1550    10.8840    11.9650    23.4840     8.2670   141.4230     2.4560     0.0490
 1788.5000   -52.1660    10.9230    11.8670    22.0630     8.2680   139.4040     2.4530     0.0410
 1789.0000   -52.2630    10.9230    11.5480    20.0490     8.2690   136.6680     2.4720     0.0340
 1789.5000   -52.4430    10.8650    11.1240    17.8670     8.2710   135.0640     2.4680     0.0260
 1790.0000   -52.6130    10.6820    11.1240    14.7820     8.2720   136.4710     2.4630     0.0180
 1790.5000   -52.7840    10.4980    10.8800    13.5930     8.2730   137.8120     2.4800     0.0270
 1791.0000   -52.9570    10.3140    10.6620    15.0680     8.2750   138.1510     2.4710     0.0440
 1791.5000   -53.1280    10.1310    10.4440    17.8730     8.2760   137.3190     2.4730     0.0530
 1792.0000   -53.3010     9.9720    10.1550    20.2980     8.2770   134.8080     2.5040     0.0630
 1792.5000   -53.4730     9.7920    10.1550    18.9210     8.2790   131.9200     2.4850     0.0500
 1793.0000   -53.6440     9.7920    10.3420    17.7080     8.2800   130.6230     2.4620     0.0330
 1793.5000   -53.8190     9.7920    10.4300    16.9160     8.2810   129.0970     2.4510     0.0240
 1794.0000   -53.9850     9.7920    10.5480    18.5300     8.2830   126.2680     2.4410     0.0180
 1794.5000   -54.1570    10.0250    10.6660    18.1030     8.2840   123.8290     2.4500     0.0160
 1795.0000   -54.1650    10.2280    10.7840    16.8990     8.2850   122.8870     2.4530     0.0210
 1795.5000   -54.1690    10.4310    10.9010    16.6110     8.2870   123.1950     2.4620     0.0220
 1796.0000   -54.1660    10.6340    11.0190    17.3270     8.2880   123.2520     2.4720     0.0200
 1796.5000   -54.1670    10.8370    11.1370    18.0700     8.2890   123.3300     2.4790     0.0270
 1797.0000   -54.1670    10.9230    11.2550    18.8130     8.2910   125.6710     2.4860     0.0240
 1797.5000   -54.1670    10.9230    11.3480    19.5710     8.2920   128.8660     2.4800     0.0210
 1798.0000   -54.1670    10.9230    11.4010    19.9310     8.2930   131.6740     2.4740     0.0280
 1798.5000   -54.1670    10.7260    11.4530    19.9310     8.2950   132.9060     2.4670     0.0330
 1799.0000   -54.1670    10.7260    11.5050    19.5710     8.2960   134.0780     2.4550     0.0230
 1799.5000   -54.1670    10.7260    11.5370    18.8370     8.2970   134.0850     2.4440     0.0150
 1800.0000   -54.1670    10.7260    11.3880    17.8710     8.2990   132.8020     2.4470     0.0200
 1800.5000   -54.1670    10.7260    11.2390    16.6110     8.3000   131.1990     2.4530     0.0290
 1801.0000   -54.1670    10.7260    11.0890    17.6090     8.3010   129.8160     2.4580     0.0350
 1801.5000   -54.1670    10.5320    10.9400    18.5300     8.3030   129.9180     2.4500     0.0290
 1802.0000   -54.1670    10.4280    10.7910    18.3940     8.3040   129.1780     2.4420     0.0200
 1802.5000   -54.1670    10.2660    10.6410    18.1950     8.3060   128.1960     2.4540     0.0170
 1803.0000   -54.1670    10.1030    10.5320    18.7680     8.3070   128.0470     2.4650     0.0210
 1803.5000   -54.1670     9.9410    10.4420    19.2180     8.3080   129.3030     2.4450     0.0210
 1804.0000   -54.1670     9.7790    10.2550    17.3400     8.3100   129.4580     2.4330     0.0100
 1804.5000   -54.1670     9.6160    10.0680    15.1150     8.3110   128.0780     2.4260     0.0030
 1805.0000   -54.1670     9.4410     9.8800    13.5930     8.3120   126.7220     2.4230     0.0070
 1805.5000   -54.1680     9.4410     9.7920    13.5930     8.3140   125.6390     2.4280     0.0130
 1806.0000   -54.1660     9.4410     9.7920    15.4760     8.3150   124.1350     2.4410     0.0180
 1806.5000   -54.1660     9.4410     9.7920    17.5440     8.3160   121.5490     2.4540     0.0180
 1807.0000   -54.0730     9.4410     9.9550    17.3510     8.3180   118.2240     2.4590     0.0180
 1807.5000   -53.9470     9.5860    10.1700    16.9160     8.3190   114.8950     2.4640     0.0200
 1808.0000   -53.8190     9.8390    10.3840    17.2930     8.3200   110.6970     2.4690     0.0230
 1808.5000   -53.6950    10.0930    10.5990    17.8670     8.3220   112.0010     2.4860     0.0390
 1809.0000   -53.5700    10.3420    10.7260    18.1950     8.3230   115.7480     2.5040     0.0600
 1809.5000   -53.4320    10.3420    10.7260    17.5610     8.3240   120.3730     2.4910     0.0490
 1810.0000   -53.4170    10.3420    10.7260    17.0690     8.3260   126.5750     2.4630     0.0340
 1810.5000   -53.5550    10.3120    10.6660    16.5770     8.3270   132.8500     2.4400     0.0190
 1811.0000   -53.6790    10.2650    10.6080    15.8390     8.3280   137.8000     2.4370     0.0140
 1811.5000   -53.8020    10.2180    10.5500    15.8440     8.3300   141.8730     2.4370     0.0210
 1812.0000   -53.9310    10.1710    10.4920    16.2740     8.3310   145.1790     2.4530     0.0320
 1812.5000   -54.0560    10.1240    10.4350    16.7040     8.3320   147.0130     2.4690     0.0380
 1813.0000   -54.1630    10.0780    10.3770    17.2270     8.3340   148.6660     2.4640     0.0240
 1813.5000   -54.1640    10.0310    10.3190    17.2270     8.3350   150.9600     2.4580     0.0240
 1814.0000   -54.1300     9.9840    10.2610    16.9440     8.3360   149.8020     2.4900     0.0370
 1814.5000   -54.0870     9.9720    10.2040    16.6370     8.3380   146.9830     2.4870     0.0450
 1815.0000   -54.0450     9.7950    10.1550    16.3310     8.3390   144.0410     2.4780     0.0400
 1815.5000   -54.0030     9.6080    10.1550    16.0160     8.3400   141.1970     2.4640     0.0330
 1816.0000   -53.9610     9.4210     9.9130    15.5460     8.3420   139.4780     2.4500     0.0220
 1816.5000   -53.9200     9.2350     9.6650    15.4430     8.3420   138.8580     2.4470     0.0180
 1817.0000   -53.8770     9.0480     9.4160    14.7350     8.3430   140.3120     2.4520     0.0250
 1817.5000   -53.8350     8.9390     9.2710    13.5580     8.3440   144.4980     2.4580     0.0230
 1818.0000   -53.7980     8.9390     9.2710    12.1850     8.3440   146.0390     2.4650     0.0180
 1818.5000   -53.6860     9.0270     9.3450    13.3050     8.3450   145.4850     2.4580     0.0270
 1819.0000   -53.4800     9.2280     9.5140    15.8560     8.3450   143.3710     2.4410     0.0130
 1819.5000   -53.2790     9.4290     9.6840    17.5480     8.3460   141.2820     2.4270     0.0090
 1820.0000   -53.0790     9.6300     9.8530    18.2410     8.3460   140.6600     2.4250     0.0110
 1820.5000   -52.8780     9.8310    10.0230    18.8710     8.3470   140.4650     2.4300     0.0180
 1821.0000   -52.6710     9.9720    10.1920    18.4820     8.3480   140.5490     2.4500     0.0210
 1821.5000   -52.5700     9.9720    10.3420    17.1860     8.3480   139.9980     2.4370     0.0150
 1822.0000   -52.7450     9.7860    10.5320    16.3110     8.3490   138.1980     2.4880     0.0420
 1822.5000   -52.9850     9.7700    10.5150    16.4120     8.3490   139.0480     2.4770     0.0340
