~VERSION INFORMATION
 VERS.                2.0:   CWLS LOG ASCII STANDARD - VERSION 2.0
 WRAP.                 NO:   ONE LINE PER DEPTH STEP
~WELL INFORMATION
#MNEM.UNIT      DATA TYPE    INFORMATION
#----------   ------------   ------------------------------
 STRT.F            0.0000:   START DEPTH
 STOP.F         5670.0000:   STOP DEPTH
 STEP.F            0.5000:   STEP LENGTH
 NULL.          -999.2500:   NO VALUE
 COMP.          INTEX OIL:   COMPANY
 WELL.    INTEX TP #71-15:   WELL
 FLD .             TEAPOT:   FIELD
 LOC .      S15 T38N R78W:   LOCATION
 CNTY.            NATRONA:   COUNTY
 STAT.            WYOMING:   STATE
 CTRY. UNITED STATES OF AMERICA:   COUNTRY
 SRVC.       SCHLUMBERGER:   SERVICE COMPANY
 DATE.        05-AUG-1966:   LOGDATE
 API .     49025097110000:   API NUMBER
~CURVE INFORMATION
#MNEM.UNIT       API CODE    CURVE DESCRIPTION
#----------   ------------   ------------------------------
 DEPT.F                  :   
 GRD .GAPI   45 310 01 00:   GAMMA RAY FROM DENSITY LOG
 CALD.IN     45 280 60 00:   CALIPER FROM DENSITY LOG
 CORR.G/C3   45 356 01 00:   DENSITY CORRECTION
 RHOB.G/C3   45 350 01 00:   BULK DENSITY
 SPR .MV     05 010 01 00:   SPONTANEOUS POTENTIAL FROM RES.
 ASN .OHMM   05 041 16 00:   AMPLIFIED SHORT NORMAL 16"
 ILD .OHMM   05 120 46 00:   INDUCTION LOG DEEP RESISTIVITY
~PARAMETER INFORMATION
#MNEM.UNIT          VALUE    DESCRIPTION
#----------   ------------   ------------------------------
 EKB .F         5247.5500:   Kelly bushing
 EGL .F         5236.1000:   Ground level
 EDF .F            0.0000:   Drilling floor
 EPD .F         5236.1000:   Permanent datum
 TD  .F         5670.0000:   Total depth
 CLNT.            A2DTECH:   Client Code
 SL  . 610' FNL & 710' FEL:   Surface Location
 PD  .                 GL:   Permanent Datum
 LMF .                 KB:   Log Measured From
 DMF .                 KB:   Drilling Measured From
 DAPD.F             11.45:   Feet Above Permanent Datum
 DATE.        05-AUG-1966:   Date Logged [DD-MMM-YYYY]
 DD  .F              5665:   Depth driller
 DL  .F              5670:   Depth logger
 BLI .F              5669:   Bottom log interval
 TLI .F              5551:   Top log interval
 CS1 .IN            10.75:   Casing size
 CBD1.    10.75" @ 567.9':   Casing driller 1
 CBL1.F               569:   Casing logger 1
 BS1 .IN           8.9375:   Bit size
 BSD1.F              5665:   Depth drilled with bit1
 DFT .            DEXTRID:   Type fluid in hole
 DFD .                9.4:   Density
 DFV .                 59:   Viscosity
 DFPH.                7.5:   pH
 DFL .                8.2:   Fluid loss
 MSS .           FLOWLINE:   Source of sample
 RMS .OHMM           1.80:   Rm
 MST .F                72:   Rm Meas. temp.
 RMF .OHMM           1.00:   Rmf
 MFST.F                82:   Rmf Meas. temp.
 MFSS.               MEAS:   Source Rmf.
 BHT .F               163:   BHT.
 TCS .HRS               3:   Time Circ. stopped
 MRT .F               163:   Maximum recorded temp.
 LUN .               4507:   Logging unit number
 LUL .               CSPR:   Logging unit location
 ENGI.            MANGOLD:   Recorded By
 ORIG.      2.5" 5" PRINT:   Origin of data
 UWI .     49025097110000:   Unique Well ID
 DICO. A2D TECHNOLOGIES, INC.:   Digitizing Company
~OTHER INFORMATION
~A    DEPT      GRD      CALD       CORR       RHOB        SPR        ASN        ILD   
# ...
 4732.0000    88.8612    11.0543     0.0259     2.6850   -44.3229    21.4388    17.4986
 4732.5000    83.6002    11.0545     0.0170     2.6671   -44.3124    21.8168    19.5330
 4733.0000    79.4498    11.0546     0.0245     2.6552   -44.6013    22.5686    20.9211
 4733.5000    76.7328    11.0548     0.0349     2.6507   -44.8901    23.3951    23.1121
 4734.0000    74.1018    11.0549     0.0275     2.6493   -45.0294    24.1468    24.6097
 4734.5000    71.8563    11.0551     0.0216     2.6598   -45.1687    24.6743    25.9581
 4735.0000    70.5090    11.0552     0.0306     2.6733   -45.3080    24.9777    26.7095
 4735.5000    69.1617    11.0554     0.0484     2.6794   -45.1458    25.1315    27.0130
 4736.0000    68.2635    11.0555     0.0375     2.6792   -45.1357    25.2108    27.0181
 4736.5000    68.7126    11.0557     0.0188     2.6672   -44.9760    25.2160    26.7246
 4737.0000    70.9581    11.0558     0.0254     2.6646   -44.8161    25.1446    26.1991
 4737.5000    70.0599    11.0560     0.0328     2.6788   -44.8037    24.9258    24.9431
 4738.0000    69.1617    11.0761     0.0368     2.6826   -44.6440    24.6312    22.8606
 4738.5000    69.6359    11.0861     0.0221     2.6699   -44.6339    24.2619    20.9254
 4739.0000    71.4538    11.0863     0.0146     2.6663   -44.4742    23.6683    18.9652
 4739.5000    73.4084    11.0864     0.0268     2.6689   -44.3146    22.4769    16.9057
 4740.0000    77.1557    11.0866     0.0330     2.6777   -44.1549    21.2999    14.5227
 4740.5000    81.3952    11.0749     0.0289     2.6885   -43.9953    19.9213    12.7368
 4741.0000    86.1269    11.0570     0.0210     2.6949   -43.8356    18.5292    11.9209
 4741.5000    94.9640    11.0572     0.0171     2.6822   -43.6756    17.1667    11.4036
 4742.0000    99.6047    11.0573     0.0170     2.6895   -43.5138    16.1474    11.4846
 4742.5000   100.3478    11.0575     0.0216     2.6965   -43.5037    15.8528    11.7882
 4743.0000   100.3783    11.0576     0.0307     2.6906   -43.6430    15.7813    12.0172
 4743.5000    99.4585    11.0578     0.0366     2.6742   -43.7823    16.1605    12.3208
 4744.0000    98.0113    11.0579     0.0314     2.6683   -43.9242    16.5385    12.9975
 4744.5000    91.6168    11.0581     0.0151     2.6758   -44.0613    17.0660    14.8682
 4745.0000    83.0838    11.0582     0.0122     2.6848   -44.0508    17.8925    17.1867
 4745.5000    77.2455    11.0584     0.0137     2.6744   -44.2049    19.1674    18.5351
 4746.0000    72.7545    11.0585     0.0212     2.6715   -44.4789    20.1643    19.6128
 4746.5000    70.0599    11.0587     0.0286     2.6820   -44.6182    21.1952    20.8600
 4747.0000    68.2635    11.0588     0.0331     2.6929   -44.6055    21.7227    21.3874
 4747.5000    66.9162    11.0551     0.0302     2.7032   -44.2964    21.8755    20.9447
 4748.0000    66.9162    11.0292     0.0243     2.7024   -43.9873    21.4325    18.4871
 4748.5000    69.6503    11.0294     0.0258     2.6912   -43.8276    21.0632    16.9997
 4749.0000    74.7395    11.0296     0.0333     2.6800   -43.5185    20.4696    15.5869
 4749.5000    81.7922    11.0297     0.0259     2.6810   -43.3587    19.4276    14.0248
 4750.0000    91.8404    11.0449     0.0141     2.6893   -43.3483    17.9852    13.2094
 4750.5000    95.0494    11.0753     0.0276     2.6929   -43.0370    17.0879    12.7453
 4751.0000    97.8108    11.1057     0.0320     2.6780   -42.8774    16.6764    12.2489
 4751.5000    98.3533    11.1362     0.0119     2.6603   -42.8672    16.6049    12.1059
 4752.0000    95.0479    11.1367     0.0024     2.6572   -42.7076    16.8346    12.1110
 4752.5000    95.7604    11.1373     0.0262     2.6619   -42.8495    16.9884    12.5638
 4753.0000    98.3146    11.1678     0.0099     2.6752   -42.9862    17.2169    13.9121
 4753.5000    99.2470    11.1684     0.0055     2.6708   -43.2750    17.5202    15.8575
 4754.0000    96.4138    11.1690     0.0291     2.6529   -43.4309    18.0569    18.3160
 4754.5000    85.3293    11.1696     0.0382     2.6500   -44.2985    19.6974    20.3464
 4755.0000    72.7545    11.1612     0.0111     2.6560   -44.5873    21.4207    21.9186
 4755.5000    62.8743    11.1408     0.0027     2.6680   -44.8761    23.2935    23.8640
 4756.0000    60.1796    11.1415     0.0140     2.6755   -44.8659    25.0168    26.6302
 4756.5000    60.1796    11.1275     0.0227     2.6815   -44.8557    25.6938    29.1726
 4757.0000    61.5269    11.1128     0.0164     2.6906   -44.6961    26.1465    29.6254
 4757.5000    62.4251    11.0836     0.0177     2.6937   -44.6860    26.3824    29.6306
 4758.0000    63.7725    11.0843     0.0266     2.6929   -44.5262    26.5300    29.2636
 4758.5000    64.6707    11.0549     0.0089     2.6715   -44.5136    26.5343    28.6716
 4759.0000    64.6545    11.0556     0.0149     2.6541   -44.3540    26.5386    28.1543
 4759.5000    63.2856    11.0562     0.0194     2.6472   -44.3438    26.5430    27.7862
 4760.0000    62.3048    11.0567     0.0091     2.6483   -44.3336    26.4715    27.2688
 4760.5000    61.0778    11.0573    -0.0028     2.6560   -44.4730    26.2527    26.6751
 4761.0000    61.3877    11.0280     0.0062     2.6631   -44.7617    26.0269    26.0622
 4761.5000    64.5961    11.0287     0.0151     2.6677   -44.9013    25.3656    25.2703
 4762.0000    67.3563    11.0293     0.0181     2.6695   -45.0404    24.9962    24.6037
 4762.5000    68.8809    11.0299     0.0122     2.6680   -45.1981    24.7752    23.6386
 4763.0000    69.8007    11.0304     0.0049     2.6650   -45.4685    24.3674    22.9720
 4763.5000    70.7205    11.0310     0.0034     2.6599   -45.4558    23.9413    22.3054
 4764.0000    71.4072    11.0316     0.0079     2.6599   -45.5976    23.5152    21.4871
 4764.5000    71.4072    11.0322     0.0213     2.6645   -45.7369    23.0891    20.7249
 4765.0000    71.2347    11.0328     0.0288     2.6675   -45.5748    22.6631    20.0830
 4765.5000    72.3054    11.0036     0.0079     2.6765   -45.5646    22.1125    19.5656
 4766.0000    73.6527    11.0043     0.0036     2.6885   -45.4050    21.8168    19.1975
 4766.5000    74.1018    11.0048     0.0267     2.6826   -45.2451    21.4485    18.7548
 4767.0000    75.0000    11.0054     0.0381     2.6707   -45.0831    21.0654    18.6104
 4767.5000    75.4491    11.0060     0.0315     2.6663   -44.7740    20.7856    18.6903
 4768.0000    75.8982    11.0066     0.0124     2.6573   -44.7639    20.6394    18.6955
 4768.5000    75.4491    11.0072     0.0193     2.6469   -44.4548    20.6448    18.7763
 4769.0000    74.0991    11.0078     0.0291     2.6554   -44.2951    20.6491    18.7972
 4769.5000    71.8096    11.0084     0.0200     2.6719   -44.2849    20.6534    18.8825
 4770.0000    70.0599    11.0388     0.0114     2.6871   -44.2748    20.8072    18.9406
 4770.5000    69.9934    11.0394     0.0231     2.6972   -44.2646    20.8918    19.0203
 4771.0000    70.1481    11.0400     0.0329     2.6879   -44.2541    20.9665    19.1761
 4771.5000    72.0759    11.0406     0.0304     2.6746   -44.5432    20.9708    19.3291
 4772.0000    73.9155    11.0547     0.0227     2.6712   -44.6826    21.0499    19.4845
 4772.5000    74.5509    11.0716     0.0354     2.6755   -44.6699    20.9795    19.4149
 4773.0000    72.4053    11.0895     0.0474     2.6802   -44.8117    20.9836    19.3440
 4773.5000    70.3118    11.1028     0.0453     2.6818   -44.7990    20.9881    19.3503
 4774.0000    69.3921    11.1332     0.0162     2.6810   -44.6394    20.9925    19.1315
 4774.5000    69.8510    11.1039     0.0053     2.6790   -44.6292    20.8484    18.9837
 4775.0000    70.5844    11.1045     0.0163     2.6715   -44.5379    20.7033    18.7563
 4775.5000    73.2036    11.1051     0.0208     2.6611   -44.4569    20.7076    18.4762
 4776.0000    77.2455    11.1057     0.0105     2.6447   -44.2972    20.6361    18.4067
 4776.5000    79.0419    11.1063     0.0105     2.6415   -44.2871    20.6415    18.1866
 4777.0000    79.4910    11.1069     0.0165     2.6613   -44.2769    20.4964    18.0436
