~VERSION INFORMATION
 VERS.                2.0:   CWLS LOG ASCII STANDARD - VERSION 2.0
 WRAP.                 NO:   ONE LINE PER DEPTH STEP
~WELL INFORMATION
#MNEM.UNIT      DATA TYPE    INFORMATION
#----------   ------------   ------------------------------
 STRT.F          206.0000:   START DEPTH
 STOP.F         2974.0000:   STOP DEPTH
 STEP.F            0.5000:   STEP LENGTH
 NULL.          -999.2500:   NO VALUE
 COMP.    FENIX & SCISSON:   COMPANY
 WELL.    FENIX AX #32-21:   WELL
 FLD .                NPR:   FIELD
 LOC .      S21 T39N R78W:   LOCATION
 CNTY.            NATRONA:   COUNTY
 STAT.            WYOMING:   STATE
 CTRY. UNITED STATES OF AMERICA:   COUNTRY
 SRVC.              WELEX:   SERVICE COMPANY
 DATE.        29-JUL-1977:   LOGDATE
 API .     49025104050000:   API NUMBER
~CURVE INFORMATION
#MNEM.UNIT       API CODE    CURVE DESCRIPTION
#----------   ------------   ------------------------------
 DEPT.F                  :   
 SPR .MV     07 010 01 00:   SPONTANEOUS POTENTIAL
 RILM.OHMM   07 120 44 00:   INDUCTION LOG MEDIUM RESISTIVITY
 RILD.OHMM   07 120 46 00:   INDUCTION LOG DEEP RESISTIVITY
 SGRD.OHMM   07 220 05 00:   SHALLOW GUARD LOG RESISTIVITY
 CALD.IN     45 280 60 00:   CALIPER FROM DENSITY LOG
 RHOB.G/C3   45 350 01 00:   BULK DENSITY
 DCOR.G/C3   45 356 01 00:   DENSITY CORRECTION
 GRD .GAPI   45 310 01 00:   GAMMA RAY FROM DENSITY LOG
~PARAMETER INFORMATION
#MNEM.UNIT          VALUE    DESCRIPTION
#----------   ------------   ------------------------------
 EKB .F         4995.0000:   Kelly bushing
 EGL .F         4985.0000:   Ground level
 EDF .F            0.0000:   Drilling floor
 EPD .F         4985.0000:   Permanent datum
 TD  .F         2978.0000:   Total depth
 DATE.        29-JUL-1977:   Date logged
 CLNT.            A2DTECH:   Client Code
 SL  . 1040' FNL & 1500' FWL:   Surface Location
 PD  .                 GL:   Permanent Datum
 LMF .                 KB:   Log Measured From
 DMF .                 KB:   Drilling Measured From
 DAPD.F                10:   Feet Above Permanent Datum
 DD  .F              2972:   Depth driller
 DL  .F              2978:   Depth logger
 BLI .F              2976:   Bottom log interval
 TLI .F               120:   Top log interval
 CS1 .IN            8.625:   Casing size
 CBD1.      8.625" @ 205':   Casing driller 1
 CBL1.F               220:   Casing logger 1
 BS1 .IN            7.875:   Bit size
 BSD1.F              2972:   Depth drilled with bit1
 DFT .                KCL:   Type fluid in hole
 DFD .                9.2:   Density
 DFV .                 43:   Viscosity
 DFPH.                 10:   pH
 DFL .                  8:   Fluid loss
 MSS .            MUD PIT:   Source of sample
 RMS .OHMM            .21:   Rm
 MST .F                91:   Rm Meas. temp.
 RMF .OHMM            .18:   Rmf
 MFST.F                91:   Rmf Meas. temp.
 RMC .OHMM            .23:   Rmc
 MCST.F                91:   Rmc Meas. temp.
 MFSS.               MEAS:   Source Rmf.
 MCSS.               MEAS:   Source Rmc.
 RMB .OHMM            .17:   Rm. at BHT
 BHT .F               110:   BHT.
 TCS .HRS               3:   Time Circ. stopped
 MRT .F               110:   Maximum recorded temp.
 LUN .               9685:   Logging unit number
 LUL .             CASPER:   Logging unit location
 ENGI.   T JOYNER/ E HOCH:   Recorded By
 WITN.         PETTINGILL:   Witnessed by
 ORIG.     2.5", 5" PRINT:   Origin of data
 UWI .     49025104050000:   Unique Well ID
 DICO. A2D TECHNOLOGIES, INC.:   Digitizing Company
~OTHER INFORMATION
~A   DEPT      SPR       RILM       RILD       SGRD       CALD       RHOB       DCOR         GRD  
# ...
 2393.0000   -44.2190     6.0790     5.5970     7.8910     8.4310     2.5170     0.0350   121.2720
 2393.5000   -42.9290     5.9550     5.5970     7.6590     8.4260     2.5080     0.0310   119.2930
 2394.0000   -41.2080     5.8070     5.5970     7.9900     8.4200     2.5030     0.0260   117.8430
 2394.5000   -39.6050     5.8620     5.5970     8.3200     8.4050     2.5060     0.0270   116.5910
 2395.0000   -37.7050     5.9300     5.6880     8.7160     8.3890     2.5140     0.0340   115.3430
 2395.5000   -35.5770     5.9980     5.8420     8.6800     8.3720     2.5230     0.0400   114.0660
 2396.0000   -32.5730     6.4690     6.0250     8.6360     8.3560     2.5310     0.0460   111.8450
 2396.5000   -29.5110     7.2080     6.3020     8.5920     8.3400     2.5390     0.0520   107.6010
 2397.0000   -26.3970     8.0960     6.6490     8.5560     8.3240     2.5360     0.0490   103.3460
 2397.5000   -23.4400    10.7100     7.2710     9.5970     8.3070     2.5310     0.0450    99.0330
 2398.0000   -20.5180    13.3250     8.3080    10.2910     8.2910     2.5390     0.0460    94.7490
 2398.5000   -17.8390    36.6560     9.3450    33.3000     8.2750     2.5460     0.0530    90.4580
 2399.0000   -14.7820    56.0990    10.3810    52.4750     8.2590     2.5400     0.0610    86.1670
 2399.5000   -13.5380    75.5410    11.4180    71.3060     8.2420     2.5390     0.0670    81.8860
 2400.0000   -12.0550    58.6410    12.4550    85.9600     8.2260     2.5480     0.0760    77.6380
 2400.5000   -11.1220    41.7410    13.2780    63.3380     8.2100     2.5380     0.0720    73.2830
 2401.0000   -10.6820    24.8410    13.7750    44.4860     8.1940     2.5230     0.0670    70.6590
 2401.5000   -10.1920    13.8280    14.2720    25.6340     8.1770     2.5140     0.0640    70.7410
 2402.0000   -10.1620    12.4590    14.7710    17.3480     8.1610     2.5060     0.0650    72.8480
 2402.5000   -10.1580    10.4830    14.5560    17.1550     8.1450     2.4620     0.0620    74.8730
 2403.0000   -10.1730    10.5130    14.1260    16.9390     8.1290     2.4170     0.0570    76.9320
 2403.5000   -10.3050    10.5660    13.6960    17.1620     8.1120     2.4090     0.0520    78.4050
 2404.0000   -10.4230    10.6200    13.3250    17.8060     8.1010     2.4060     0.0470    79.0490
 2404.5000   -10.5500    10.6780    13.1880    18.4500     8.1040     2.4060     0.0430    79.8280
 2405.0000   -10.6730    10.5130    13.0820    19.1830     8.1070     2.4040     0.0410    80.5890
 2405.5000   -10.7900    10.3340    13.0270    18.9700     8.1110     2.4030     0.0390    81.3210
 2406.0000   -10.9310    10.1030    12.9790    18.5450     8.1140     2.4070     0.0370    82.0960
 2406.5000   -10.8400    10.1850    12.9300    17.9030     8.1180     2.4070     0.0360    82.8420
 2407.0000   -10.6300    10.2910    12.8820    17.9850     8.1210     2.4030     0.0370    84.0330
 2407.5000   -10.4420    10.9690    12.8330    18.2370     8.1240     2.3990     0.0380    85.1790
 2408.0000   -10.2540    11.9570    12.7840    17.9030     8.1270     2.4010     0.0380    86.3480
 2408.5000   -10.0620    13.0820    12.7360    18.7980     8.1300     2.4040     0.0390    87.5130
 2409.0000    -9.8740    13.1860    12.6870    20.8040     8.1360     2.4070     0.0390    88.6720
 2409.5000    -9.6820    13.3250    12.6390    19.6340     8.1340     2.4090     0.0400    89.8200
 2410.0000    -9.4940    14.6310    12.5900    15.1630     8.1720     2.4140     0.0440    91.0540
 2410.5000    -9.3030    16.1740    12.5420    17.0540     8.1780     2.4210     0.0500    91.5850
 2411.0000    -9.1090    17.7160    12.4930    20.0210     8.1770     2.4270     0.0580    91.3710
 2411.5000    -8.9980    18.5940    12.4450    22.7580     8.1740     2.4330     0.0650    91.2400
 2412.0000    -9.1290    17.0860    12.3770    21.0590     8.1730     2.4390     0.0680    91.1110
 2412.5000    -9.2530    15.5780    12.4360    18.9720     8.1700     2.4440     0.0660    90.9450
 2413.0000    -9.3950    14.0710    12.5340    16.8850     8.1690     2.4430     0.0640    90.7690
 2413.5000    -9.5120    12.8420    12.6320    16.0260     8.1670     2.4360     0.0570    89.7910
 2414.0000    -9.6590    11.7100    12.7300    16.6290     8.1650     2.4070     0.0490    88.6810
 2414.5000    -9.8160    11.9880    12.8280    16.4150     8.1630     2.4030     0.0410    87.5570
 2415.0000   -10.5250    12.4740    12.9260    16.0260     8.1610     2.3970     0.0370    86.4440
 2415.5000   -11.1380    12.9600    13.0240    17.7500     8.1590     2.3960     0.0340    85.3300
 2416.0000   -11.7930    12.3440    13.1220    20.3730     8.1570     2.4010     0.0340    84.2200
 2416.5000   -12.4270    11.4960    13.2200    18.8390     8.1550     2.4050     0.0400    83.0810
 2417.0000   -13.0640    11.7010    13.3250    16.8750     8.1530     2.4150     0.0450    82.1780
 2417.5000   -13.7220    11.8820    13.0800    16.6830     8.1510     2.4250     0.0500    83.9240
 2418.0000   -14.6000    12.1510    12.8160    17.3450     8.1490     2.4330     0.0560    86.2050
 2418.5000   -15.8640    12.0400    12.5520    18.2370     8.1470     2.4370     0.0560    85.0060
 2419.0000   -17.2710    11.8210    12.2880    17.2570     8.1460     2.4410     0.0560    82.9470
 2419.5000   -18.4820    11.6500    12.0240    16.3700     8.1430     2.4460     0.0560    84.7780
 2420.0000   -19.7830    11.5290    11.7600    15.7630     8.1420     2.4440     0.0560    89.0150
 2420.5000   -21.0680    11.4070    11.4960    15.8670     8.1410     2.4370     0.0560    88.8060
 2421.0000   -22.3830    11.2860    11.2320    16.0260     8.1490     2.4340     0.0560    88.1890
 2421.5000   -23.5770    11.1640    10.9680    15.7070     8.1560     2.4330     0.0560    87.7780
 2422.0000   -25.1070    11.0420    10.8640    15.0130     8.1630     2.4320     0.0520    90.0230
 2422.5000   -26.8880    10.8770    10.8450    14.3460     8.1710     2.4220     0.0470    91.9160
 2423.0000   -28.5380    11.0920    10.8260    14.6040     8.1780     2.4130     0.0430    93.9880
 2423.5000   -30.2000    11.5020    10.8070    14.8520     8.1860     2.4040     0.0380    95.9720
 2424.0000   -31.9400    12.0080    10.7890    15.1000     8.1930     2.4040     0.0370    97.9840
 2424.5000   -33.4750    12.5140    10.7700    15.3480     8.2000     2.4180     0.0390    99.9970
 2425.0000   -34.8670    13.0190    10.7510    16.8120     8.2080     2.4350     0.0400   101.9840
 2425.5000   -36.0550    13.5730    10.7320    20.0000     8.2150     2.4520     0.0420   104.0390
 2426.0000   -36.8750    14.0840    10.7130    19.4810     8.2220     2.4700     0.0440   105.9670
 2426.5000   -37.7500    14.6330    10.6940    18.5990     8.2300     2.4820     0.0420   108.2240
 2427.0000   -38.6360    15.0960    10.6780    17.7170     8.2370     2.4840     0.0370   108.7590
 2427.5000   -39.0390    15.5590    10.4620    16.8360     8.2450     2.4750     0.0320   109.5620
 2428.0000   -39.2760    16.0220    10.2780    15.9540     8.2520     2.4660     0.0270   110.7830
 2428.5000   -39.5390    16.6290    10.0940    16.8310     8.2590     2.4730     0.0220   112.2520
 2429.0000   -39.5810    17.0720     9.9100    19.2750     8.2670     2.4800     0.0200   111.7470
 2429.5000   -39.4210    17.5760     9.7260    18.8600     8.2740     2.4720     0.0200   110.8530
 2430.0000   -39.2830    17.5030     9.5410    17.6050     8.2810     2.4650     0.0190   109.9800
 2430.5000   -39.2910    17.4240     9.3570    15.7330     8.2890     2.4570     0.0180   108.9410
 2431.0000   -39.3640    17.3450     9.0440    15.8820     8.2960     2.4610     0.0160   107.8850
 2431.5000   -39.4360    17.2660     9.1060    16.3250     8.3040     2.4700     0.0180   109.5240
 2432.0000   -39.5050    17.1870     9.2460    16.2520     8.3110     2.4820     0.0230   112.5030
 2432.5000   -39.5760    17.1080     9.3140    16.0260     8.3180     2.4930     0.0280   107.8690
 2433.0000   -39.6470    17.0290     9.3830    16.2330     8.3260     2.5060     0.0330   108.8800
