~VERSION INFORMATION
 VERS.                2.0:   CWLS LOG ASCII STANDARD - VERSION 2.0
 WRAP.                 NO:   ONE LINE PER DEPTH STEP
~WELL INFORMATION
#MNEM.UNIT      DATA TYPE    INFORMATION
#----------   ------------   ------------------------------
 STRT.F          200.0000:   START DEPTH
 STOP.F         3000.0000:   STOP DEPTH
 STEP.F            0.5000:   STEP LENGTH
 NULL.          -999.2500:   NO VALUE
 COMP.    FENIX & SCISSON:   COMPANY
 WELL.   FENIX "A" #65-28:   WELL
 FLD .              NPR 3:   FIELD
 LOC .      S28 T39N R78W:   LOCATION
 CNTY.            NATRONA:   COUNTY
 STAT.            WYOMING:   STATE
 CTRY. UNITED STATES OF AMERICA:   COUNTRY
 SRVC.              WELEX:   SERVICE COMPANY
 DATE.        25-JUL-1977:   LOGDATE
 API .     49025104010000:   API NUMBER
~CURVE INFORMATION
#MNEM.UNIT       API CODE    CURVE DESCRIPTION
#----------   ------------   ------------------------------
 DEPT.F                  :   
 GRD .GAPI   45 310 01 00:   GAMMA RAY FROM DENSITY LOG
 CALD.IN     45 280 60 00:   CALIPER FROM DENSITY LOG
 RHOB.G/C3   45 350 01 00:   BULK DENSITY
 DCOR.G/C3   45 356 01 00:   DENSITY CORRECTION
 SPR .MV     07 010 01 00:   SPONTANEOUS POTENTIAL
 RILM.OHMM   07 120 44 00:   INDUCTION LOG MEDIUM RESISTIVITY
 RILD.OHMM   07 120 46 00:   DEEP INDUCTION RESISTIVITY
 SGRD.OHMM   07 220 05 00:   SHALLOW GUARD
~PARAMETER INFORMATION
#MNEM.UNIT          VALUE    DESCRIPTION
#----------   ------------   ------------------------------
 EKB .F         5069.0000:   Kelly bushing
 EGL .F         5059.0000:   Ground level
 EDF .F            0.0000:   Drilling floor
 TD  .F         3006.0000:   Total depth
 DATE.        25-JUL-1977:   Date logged
 CLNT.            A2DTECH:   Client Code
 SL  . 2310' FSL & 1650' FEL:   Surface Location
 PD  .                 GL:   Permanent Datum
 EPD .F              5059:   Elevation Permanent Datum
 LMF .                 KB:   Log Measured From
 DMF .                 KB:   Drilling Measured From
 DAPD.F                10:   Feet Above Permanent Datum
 DD  .F              3006:   Depth driller
 DL  .F              3006:   Depth logger
 BLI .F              3004:   Bottom log interval
 TLI .F               200:   Top log interval
 CS1 .IN            8.625:   Casing size
 CBD1.      8.625" @ 205':   Casing driller 1
 CBL1.F               220:   Casing logger 1
 BS1 .IN            7.875:   Bit size
 BSD1.F              3006:   Depth drilled with bit1
 DFT .            KCL MUD:   Type fluid in hole
 DFD .                8.9:   Density
 DFV .                 39:   Viscosity
 DFPH.                7.5:   pH
 DFL .                7.2:   Fluid loss
 MSS .           FLOWLINE:   Source of sample
 RMS .OHMM           0.29:   Rm
 MST .F                78:   Rm Meas. temp.
 RMF .OHMM           0.19:   Rmf
 MFST.F                78:   Rmf Meas. temp.
 RMC .OHMM           0.80:   Rmc
 MCST.F                78:   Rmc Meas. temp.
 MFSS.               FANN:   Source Rmf.
 MCSS.                KIT:   Source Rmc.
 RMB .OHMM           0.20:   Rm. at BHT
 BHT .F               113:   BHT.
 TCS .HRS               3:   Time Circ. stopped
 MRT .F               113:   Maximum recorded temp.
 LUN .               8766:   Logging unit number
 LUL .             CASPER:   Logging unit location
 ENGI.         G. BENTSEN:   Recorded By
 WITN.      B. HARRINGTON:   Witnessed by
 ORIG.           5" PRINT:   Origin of data
 UWI .     49025104010000:   Unique Well ID
 DICO. A2D TECHNOLOGIES, INC.:   Digitizing Company
~OTHER INFORMATION
~A   DEPT       GRD        CALD       RHOB      DCOR       SPR       RILM         RILD       SGRD 
# ...
  929.0000    72.7370    10.2780     2.4890     0.0330   -36.3260     8.2800     7.4020    11.0380
  929.5000    72.1620    10.2930     2.4800     0.0290   -36.3610     8.4720     7.5830    11.2540
  930.0000    71.2650    10.3090     2.4760     0.0290   -36.3950     8.6090     7.7630    11.4080
  930.5000    68.3990    10.3250     2.4800     0.0320   -36.4300     8.6830     7.9050    11.5610
  931.0000    69.9680    10.3410     2.4840     0.0340   -36.4640     8.7570     7.9390    11.7060
  931.5000    69.1610    10.3560     2.4880     0.0330   -36.4980     8.8300     7.9720    11.6610
  932.0000    71.2800    10.3720     2.4920     0.0360   -36.5330     8.9040     8.0060    11.6170
  932.5000    71.3730    10.3880     2.4890     0.0380   -36.5670     8.9780     8.0390    11.5730
  933.0000    69.6550    10.4040     2.4850     0.0330   -36.6020     9.0520     8.0730    11.5290
  933.5000    67.9170    10.4190     2.4810     0.0260   -36.6360     9.1250     8.1060    11.4860
  934.0000    68.1940    10.4240     2.4770     0.0250   -36.6700     9.2270     8.1400    11.4420
  934.5000    70.3490    10.4290     2.4710     0.0240   -36.7050     9.1770     8.1730    11.3980
  935.0000    69.6210    10.4340     2.4660     0.0210   -36.7390     9.0990     8.2070    11.3550
  935.5000    68.9590    10.4390     2.4630     0.0180   -36.7740     9.0200     8.2400    11.3110
  936.0000    69.3390    10.4430     2.4690     0.0160   -36.8080     8.9410     8.2670    11.2860
  936.5000    71.0550    10.4480     2.4780     0.0240   -36.8430     8.8950     8.2140    11.4560
  937.0000    70.7150    10.4530     2.4870     0.0310   -36.8260     9.1080     8.1700    11.6000
  937.5000    70.8870    10.4580     2.4960     0.0380   -36.7700     9.2390     8.1270    11.4710
  938.0000    72.5700    10.4630     2.5000     0.0430   -36.7140     9.4000     8.0830    11.3120
  938.5000    74.2700    10.4680     2.4970     0.0460   -36.6570     9.5610     8.0400    11.1830
  939.0000    72.4990    10.4730     2.4950     0.0450   -36.6010     9.6590     7.9960    11.5630
  939.5000    70.3070    10.4780     2.4930     0.0450   -36.5450     9.5440     7.9690    11.8820
  940.0000    69.7910    10.4830     2.4900     0.0450   -36.4890     9.4610     8.0420    12.1430
  940.5000    71.1390    10.4870     2.4930     0.0420   -36.5060     9.3790     8.0950    11.7160
  941.0000    71.5700    10.4920     2.4970     0.0390   -36.6390     9.2960     8.1480    11.3530
  941.5000    70.8880    10.4970     2.5020     0.0420   -36.7690     9.2130     8.1910    10.9800
  942.0000    70.7490    10.5020     2.5000     0.0460   -36.8780     9.1300     8.1580    11.7060
  942.5000    71.8030    10.5070     2.4950     0.0440   -36.9350     9.0480     8.1300    11.5780
  943.0000    71.9760    10.5120     2.4900     0.0420   -36.9930     8.9650     8.1010    11.3490
  943.5000    71.7090    10.5170     2.4850     0.0390   -37.0510     8.8950     8.0730    11.1200
  944.0000    70.5540    10.5220     2.4880     0.0370   -37.1090     8.9100     8.0430    10.8800
  944.5000    72.5540    10.5270     2.4910     0.0360   -37.1670     8.9230     8.0580    11.2860
  945.0000    71.5060    10.5310     2.4980     0.0390   -37.2260     8.9360     8.0740    11.1460
  945.5000    70.4390    10.5360     2.5020     0.0410   -37.1320     8.9490     8.0900    10.9580
  946.0000    69.8620    10.5410     2.5050     0.0410   -36.8990     8.9630     8.1060    10.6820
  946.5000    70.0340    10.5460     2.5030     0.0390   -36.6680     8.9760     8.1160    10.7660
  947.0000    70.6160    10.5510     2.4990     0.0370   -36.4760     8.9270     8.0560    10.9240
  947.5000    71.0020    10.5560     2.4950     0.0350   -36.6520     8.8720     8.0110    11.0820
  948.0000    72.2180    10.5610     2.4910     0.0330   -36.8250     8.8180     7.9650    11.2860
  948.5000    73.8530    10.5660     2.4870     0.0330   -36.9950     8.7640     7.9200    11.1810
  949.0000    73.5220    10.5700     2.4830     0.0340   -37.1690     8.7100     7.8750    11.0130
  949.5000    73.9600    10.5750     2.4840     0.0360   -37.0530     8.6560     7.8250    10.7950
  950.0000    74.5470    10.5800     2.4900     0.0390   -36.9320     8.6020     7.8750    10.5760
  950.5000    72.5630    10.5850     2.4960     0.0430   -37.0690     8.5750     7.9300    10.3580
  951.0000    73.5600    10.5900     2.5020     0.0460   -37.2140     8.6910     7.9690    10.2040
  951.5000    75.1790    10.5950     2.5080     0.0500   -37.0960     8.7680     7.8970    10.3960
  952.0000    75.5050    10.5990     2.5070     0.0460   -36.8800     8.8450     7.8420    10.5440
  952.5000    74.5120    10.5990     2.5000     0.0380   -36.9580     8.9220     7.7860    10.6920
  953.0000    73.6580    10.5990     2.4910     0.0310   -37.0700     8.9770     7.7310    10.8400
  953.5000    75.1700    10.5990     2.4810     0.0230   -37.1840     8.9350     7.6750    10.9880
  954.0000    75.4290    10.5990     2.4720     0.0210   -37.2960     8.9030     7.6130    11.1830
  954.5000    74.6970    10.5990     2.4630     0.0180   -37.4090     8.8700     7.6630    11.0840
  955.0000    73.6250    10.5990     2.4540     0.0150   -37.5220     8.8380     7.7200    10.9400
  955.5000    71.9040    10.5990     2.4460     0.0150   -37.6350     8.8060     7.7760    10.7950
  956.0000    71.9550    10.5990     2.4410     0.0160   -37.6250     8.7730     7.8330    10.6510
  956.5000    74.0630    10.5990     2.4370     0.0180   -37.5970     8.7410     7.8970    10.4880
  957.0000    73.7360    10.5990     2.4410     0.0130   -37.5690     8.7090     7.8710    10.6500
  957.5000    72.8110    10.5990     2.4490     0.0190   -37.5420     8.6760     7.8410    10.8350
  958.0000    73.5460    10.5990     2.4580     0.0100   -37.5150     8.6440     7.7690    11.0190
  958.5000    74.1560    10.5990     2.4660     0.0270   -37.4870     8.6120     7.6830    11.0810
  959.0000    72.5160    10.5990     2.4750     0.0280   -37.4580     8.5750     7.6970    10.7710
  959.5000    71.0940    10.5990     2.4830     0.0360   -37.5450     8.6430     7.7090    10.4880
  960.0000    70.5080    10.5990     2.4920     0.0440   -37.6650     8.7220     7.7200    10.5450
  960.5000    70.2730    10.5990     2.5010     0.0420   -37.7310     8.8850     7.7310    10.6310
  961.0000    71.5230    10.5990     2.5060     0.0460   -37.7970     9.0600     7.7430    10.7170
  961.5000    72.4210    10.6010     2.5100     0.0470   -37.8630     9.2270     7.7540    10.7810
  962.0000    71.2560    10.6120     2.5130     0.0470   -37.9280     8.8080     7.6620    10.7810
  962.5000    71.2610    10.6230     2.5120     0.0460   -37.9940     8.4160     7.5750    10.7810
  963.0000    72.1970    10.6330     2.5100     0.0400   -38.0600     8.0430     7.4750    10.7810
  963.5000    71.6450    10.6430     2.5050     0.0350   -38.1260     8.0430     7.5530    10.6600
  964.0000    70.8940    10.6540     2.4990     0.0330   -38.1910     8.0670     7.6460    10.5450
  964.5000    72.0490    10.6600     2.5000     0.0320   -38.2570     8.1650     7.7540    10.4300
  965.0000    72.2250    10.6610     2.5020     0.0340   -38.3230     8.2640     7.7040    10.3150
  965.5000    71.3300    10.6630     2.5070     0.0360   -38.3890     8.3620     7.6460    10.2000
  966.0000    72.3190    10.6640     2.5110     0.0400   -38.4540     8.4600     7.5870    10.0850
  966.5000    72.2570    10.6650     2.5090     0.0420   -38.5210     8.5590     7.5280     9.9280
  967.0000    70.7690    10.6670     2.5040     0.0420   -38.5860     8.6540     7.4700     9.9430
  967.5000    72.1430    10.6680     2.5070     0.0480   -38.6060     8.5330     7.4110     9.9670
  968.0000    72.0290    10.6690     2.5110     0.0560   -38.4450     8.3880     7.3530     9.9910
  968.5000    72.6330    10.6710     2.5160     0.0530   -38.2890     8.2420     7.2940    10.0190
  969.0000    74.2170    10.6720     2.5110     0.0520   -38.1350     8.0970     7.2360     9.9750
