~VERSION INFORMATION
 VERS.                2.0:   CWLS LOG ASCII STANDARD - VERSION 2.0
 WRAP.                 NO:   ONE LINE PER DEPTH STEP
~WELL INFORMATION
#MNEM.UNIT      DATA TYPE    INFORMATION
#----------   ------------   ------------------------------
 STRT.F          230.0000:   START DEPTH
 STOP.F         3480.0000:   STOP DEPTH
 STEP.F            0.5000:   STEP LENGTH
 NULL.          -999.2500:   NO VALUE
 COMP.    FENIX & SCISSON:   COMPANY
 WELL. FENIX NPR 3 "AX" #33-15:   WELL
 FLD .                NPR:   FIELD
 LOC .      S15 T38N R78W:   LOCATION
 CNTY.            NATRONA:   COUNTY
 STAT.            WYOMING:   STATE
 CTRY. UNITED STATES OF AMERICA:   COUNTRY
 SRVC.       SCHLUMBERGER:   SERVICE COMPANY
 DATE.        19-MAR-1981:   LOGDATE
 API .     49025108760000:   API NUMBER
~CURVE INFORMATION
#MNEM.UNIT       API CODE    CURVE DESCRIPTION
#----------   ------------   ------------------------------
 DEPT.F                  :   
 TENR.LBS    07 635 01 00:   TENSION
 SFL .OHMM   07 220 01 00:   SHALLOW FOCUSED LOG RESISTIVITY
 ILM .OHMM   07 120 44 00:   INDUCTION LOG MEDIUM RESISTIVITY
 ILD .OHMM   07 120 46 00:   INDUCTION LOG DEEP RESISTIVITY
 SPR .MV     07 010 01 00:   SPONTANEOUS POTENTIAL
 CALD.IN     45 280 60 00:   CALIPER FROM DENSITY LOG
 GRD .GAPI   45 310 01 00:   GAMMA RAY FROM DENSITY LOG
 CORR.G/C3   45 356 01 00:   DENSITY CORRECTION
 RHOB.G/C3   45 350 01 00:   BULK DENSITY
~PARAMETER INFORMATION
#MNEM.UNIT          VALUE    DESCRIPTION
#----------   ------------   ------------------------------
 EKB .F         5286.0000:   Kelly bushing
 EGL .F         5276.0000:   Ground level
 EDF .F            0.0000:   Drilling floor
 TD  .F         3500.0000:   Total depth
 DATE.        19-MAR-1981:   Date logged
 CLNT.            A2DTECH:   Client Code
 SL  . 1545' FNL & 1467' FWL:   Surface Location
 PD  .                 GL:   Permanent Datum
 EPD .F              5276:   Elevation Permanent Datum
 LMF .                 KB:   Log Measured From
 DMF .                 KB:   Drilling Measured From
 DAPD.F                10:   Feet Above Permanent Datum
 DD  .F              3500:   Depth driller
 DL  .F              3476:   Depth logger
 BLI .F              3470:   Bottom log interval
 TLI .F               234:   Top log interval
 CS1 .IN            8.625:   Casing size
 CBD1.      8.625" @ 250':   Casing driller 1
 CBL1.F               234:   Casing logger 1
 BS1 .IN            7.875:   Bit size
 BSD1.F              3500:   Depth drilled with bit1
 DFT .                FGM:   Type fluid in hole
 DFD .                8.9:   Density
 DFV .                 39:   Viscosity
 DFPH.                9.5:   pH
 DFL .                 10:   Fluid loss
 MSS .               TANK:   Source of sample
 RMS .OHMM           2.26:   Rm
 MST .F                54:   Rm Meas. temp.
 RMF .OHMM           1.60:   Rmf
 MFST.F                54:   Rmf Meas. temp.
 MFSS.               MEAS:   Source Rmf.
 RMB .OHMM            .87:   Rm. at BHT
 BHT .F               140:   BHT.
 TCS .HRS            1030:   Time Circ. stopped
 TLAB.HRS            1300:   Time logger at bottom
 MRT .F               140:   Maximum recorded temp.
 LUN .               8039:   Logging unit number
 LUL .               CSPR:   Logging unit location
 ENGI.           C. PFARR:   Recorded By
 WITN.           R. SCOTT:   Witnessed by
 ORIG.     2.5", 5" PRINT:   Origin of data
 UWI .     49025108760000:   Unique Well ID
 DICO. A2D TECHNOLOGIES, INC.:   Digitizing Company
~OTHER INFORMATION
~A   DEPT     TENR          SFL      ILM        ILD        SPR         CALD       GRD      CORR         RHOB 
# ...
 2383.5000  1381.3890    11.8790     7.7980     8.6840   -27.7440     8.4190   134.9390     0.0200     2.5160
 2384.0000  1381.6000    10.6510     7.7720     8.6310   -27.6230     8.4190   134.7900     0.0190     2.5090
 2384.5000  1381.8120    10.7630     7.7720     8.5780   -27.5020     8.4190   137.9100     0.0110     2.4990
 2385.0000  1382.0229    11.1050     7.7730     8.5280   -27.3810     8.4190   141.0630     0.0040     2.4890
 2385.5000  1382.2340    11.6390     7.7730     8.5280   -27.2600     8.4190   142.1440    -0.0010     2.4820
 2386.0000  1382.4460    12.1260     7.7730     8.5280   -27.1390     8.4190   137.7370    -0.0020     2.4870
 2386.5000  1382.6570    11.8280     7.7780     8.5270   -27.0180     8.4190   134.4100     0.0010     2.4960
 2387.0000  1382.8680    11.4700     7.7860     8.5270   -26.8970     8.4190   135.6350     0.0050     2.5050
 2387.5000  1383.0790    11.5980     7.7930     8.5270   -26.7770     8.4190   138.7680     0.0050     2.5140
 2388.0000  1383.2910    11.7810     7.8010     8.5270   -26.6510     8.4190   141.6240     0.0120     2.5160
 2388.5000  1383.5020    11.9640     7.8080     8.5270   -26.5390     8.4190   142.8420     0.0180     2.5110
 2389.0000  1383.7130    12.1260     7.8160     8.5270   -26.4030     8.4190   143.5530     0.0190     2.5080
 2389.5000  1383.9250    11.9500     7.8230     8.5270   -26.5200     8.4190   145.8040     0.0200     2.5090
 2390.0000  1384.1360    11.7920     7.8310     8.5270   -26.6840     8.4190   147.3680     0.0180     2.5050
 2390.5000  1384.3470    11.2600     7.8390     8.5270   -26.8530     8.4190   147.7000     0.0070     2.4910
 2391.0000  1384.5590    11.3360     7.8460     8.5270   -27.0170     8.4190   146.7260     0.0070     2.4860
 2391.5000  1384.7700    11.4180     7.8540     8.5270   -27.1820     8.4190   146.8720     0.0090     2.4950
 2392.0000  1384.9810    11.5000     7.8610     8.5270   -27.3470     8.4190   150.6400     0.0160     2.5040
 2392.5000  1385.1930    11.5820     7.8690     8.5270   -27.5140     8.4190   153.9250     0.0240     2.5100
 2393.0000  1385.4041    11.6640     7.8770     8.5270   -27.7380     8.4190   155.6690     0.0200     2.5030
 2393.5000  1385.6310    11.9250     7.8840     8.5270   -28.3340     8.4190   155.6130     0.0130     2.4950
 2394.0000  1385.8860    12.2480     7.8920     8.5270   -28.1910     8.4190   153.7420     0.0060     2.4880
 2394.5000  1386.1410    12.5840     7.9000     8.5270   -27.8480     8.4190   150.3950     0.0020     2.4930
 2395.0000  1386.3960    12.5840     7.9070     8.5270   -27.5080     8.4190   148.9090     0.0040     2.4990
 2395.5000  1386.6520    12.0440     7.9170     8.5270   -27.1870     8.4190   145.1430     0.0060     2.5040
 2396.0000  1386.9070    11.5370     7.9120     8.5270   -26.8470     8.4190   142.2570     0.0040     2.5050
 2396.5000  1387.1620    11.6600     7.9000     8.5280   -26.5290     8.4190   144.5320     0.0040     2.5000
 2397.0000  1387.4180    11.9060     7.8890     8.5220   -26.1810     8.4190   148.0770     0.0070     2.5010
 2397.5000  1387.6730    12.1520     7.8770     8.5100   -25.8560     8.4190   151.5650     0.0070     2.5090
 2398.0000  1387.9280    12.3530     7.8660     8.5000   -25.6720     8.4220   151.7290     0.0110     2.5180
 2398.5000  1388.1830    12.3530     7.8540     8.4890   -26.0910     8.4270   149.5550     0.0230     2.5240
 2399.0000  1388.4390    12.3530     7.8430     8.4790   -26.1800     8.4310   147.1950     0.0170     2.5070
 2399.5000  1388.6940    12.3530     7.8320     8.4680   -26.3500     8.4350   146.7260     0.0100     2.4870
 2400.0000  1388.9490    12.1360     7.8200     8.4570   -26.4940     8.4390   149.7880     0.0050     2.4850
 2400.5000  1389.2050    11.7740     7.8090     8.4470   -26.6380     8.4440   151.0840     0.0050     2.4890
 2401.0000  1389.4600    11.4110     7.7960     8.4360   -26.7890     8.4480   150.7910     0.0060     2.4900
 2401.5000  1389.7150    11.0530     7.7870     8.4260   -26.9340     8.4520   148.6470     0.0070     2.4880
 2402.0000  1389.9700    11.1240     7.7750     8.4150   -27.0830     8.4560   146.4750     0.0060     2.4860
 2402.5000  1390.2260    11.1940     7.7730     8.4050   -27.2310     8.4600   145.7400     0.0050     2.4860
 2403.0000  1390.4810    11.2630     7.7730     8.3950   -27.3740     8.4580   146.7880     0.0040     2.4880
 2403.5000  1390.7360    11.3330     7.7730     8.3840   -27.5340     8.4570   148.5690     0.0050     2.4900
 2404.0000  1390.9910    11.4030     7.5530     8.3720   -27.5140     8.4560   150.5390     0.0120     2.5020
 2404.5000  1391.2469    11.4700     7.2170     8.3060   -27.3750     8.4550   147.1650     0.0180     2.5170
 2405.0000  1391.5020    10.9380     7.0850     8.1550   -27.2510     8.4540   141.8450     0.0170     2.5180
 2405.5000  1391.7570    10.5790     7.0850     8.0030   -27.1290     8.4530   135.6360     0.0110     2.5150
 2406.0000  1392.0129    10.4960     7.2850     7.8520   -27.0010     8.4520   131.3390     0.0040     2.5030
 2406.5000  1392.2679    10.6510     7.4770     7.7730   -26.8810     8.4510   135.1780     0.0040     2.4920
 2407.0000  1392.5229    11.4700     7.6690     7.8330   -26.7530     8.4500   142.7760     0.0060     2.4920
 2407.5000  1392.7780    11.6110     7.9180     7.9260   -26.6230     8.4490   146.5800     0.0080     2.4900
 2408.0000  1393.0341    11.7760     7.9180     8.0190   -26.5240     8.4480   150.0730     0.0050     2.4870
 2408.5000  1393.2889    11.9410     7.9180     8.1120   -26.3510     8.4470   151.3500     0.0020     2.4870
 2409.0000  1393.5439    12.1260     7.7690     8.2170   -26.7100     8.4460   150.4920     0.0040     2.4900
 2409.5000  1393.7990    12.1260     7.6300     8.1890   -26.7900     8.4450   145.1430     0.0060     2.4910
 2410.0000  1394.0551    11.9760     7.4900     8.1300   -26.7760     8.4440   140.8500     0.0100     2.4920
 2410.5000  1394.3101    11.4370     7.3510     8.0720   -26.9960     8.4430   141.7400     0.0140     2.4940
 2411.0000  1394.5649    10.8700     7.2110     8.0130   -27.5390     8.4420   143.3020     0.0150     2.4990
 2411.5000  1394.8210    10.2330     7.0850     7.9540   -28.0150     8.4410   144.0550     0.0190     2.5040
 2412.0000  1395.0760     9.5300     7.1050     7.8960   -28.5130     8.4400   144.0870     0.0220     2.5120
 2412.5000  1395.3311    10.1980     7.1730     7.8370   -29.0910     8.4390   144.8580     0.0230     2.5130
 2413.0000  1395.5861    10.9420     7.2400     7.7730   -29.6950     8.4390   150.4480     0.0180     2.5050
 2413.5000  1395.8420    11.8720     7.3080     7.8400   -29.9020     8.4430   152.4190     0.0140     2.4910
 2414.0000  1396.0970    11.7950     7.3760     7.9140   -30.1910     8.4510   152.5800     0.0080     2.4760
 2414.5000  1396.3521    11.6430     7.4440     7.9890   -30.4640     8.4580   150.7560     0.0020     2.4720
 2415.0000  1396.6080    11.4910     7.6300     8.0630   -30.7290     8.4660   154.0870     0.0010     2.4720
 2415.5000  1396.8630    11.3380     7.6300     8.1370   -31.0070     8.4740   156.9720     0.0020     2.4740
 2416.0000  1397.1180    11.1860     7.5510     8.2170   -31.2760     8.4790   159.7830     0.0060     2.4770
 2416.5000  1397.3730    11.0530     7.4900     8.3710   -31.5410     8.4660   163.9440     0.0010     2.4790
 2417.0000  1397.6290    11.1180     7.4900     8.3140   -31.8400     8.4600   168.3470     0.0030     2.4780
 2417.5000  1397.8840    11.3100     7.5570     8.2370   -31.8270     8.4590   172.7830     0.0060     2.4690
 2418.0000  1398.1390    11.5020     7.6820     8.2170   -31.5370     8.4580   177.1620    -0.0010     2.4540
 2418.5000  1398.3940    11.6950     7.8070     8.2170   -31.2780     8.4570   175.6610     0.0030     2.4400
 2419.0000  1398.6500    11.8870     7.9330     8.3750   -31.0200     8.4560   173.6270    -0.0010     2.4470
 2419.5000  1398.9050    12.0790     8.0580     8.5120   -30.7530     8.4550   174.5750    -0.0040     2.4580
