~VERSION INFORMATION
 VERS.                2.0:   CWLS LOG ASCII STANDARD - VERSION 2.0
 WRAP.                 NO:   ONE LINE PER DEPTH STEP
~WELL INFORMATION
#MNEM.UNIT      DATA TYPE    INFORMATION
#----------   ------------   ------------------------------
 STRT.F            0.0000:   START DEPTH
 STOP.F         4030.0000:   STOP DEPTH
 STEP.F            0.5000:   STEP LENGTH
 NULL.          -999.2500:   NO VALUE
 COMP.  FENIX AND SCISSON:   COMPANY
 WELL.  FENIX "LX" #33-10:   WELL
 FLD . TEAPOT DOME (NPR #3):   FIELD
 LOC .      S10 T38N R78W:   LOCATION
 CNTY.            NATRONA:   COUNTY
 STAT.            WYOMING:   STATE
 CTRY. UNITED STATES OF AMERICA:   COUNTRY
 SRVC.       SCHLUMBERGER:   SERVICE COMPANY
 DATE.        03-APR-1978:   LOGDATE
 API .     49025105980000:   API NUMBER
~CURVE INFORMATION
#MNEM.UNIT       API CODE    CURVE DESCRIPTION
#----------   ------------   ------------------------------
 DEPT.F                  :   
 SPR .MV     07 010 01 00:   SPONTANEOUS POTENTIAL
 ILD .OHMM   07 120 46 00:   DEEP INDUCTION RESISTIVITY
 SFL .OHMM   07 220 01 00:   SHALLOW FOCUSED LOG RESISTIVITY
 ILM .OHMM   07 120 44 00:   INDUCTION LOG MEDIUM RESISTIVITY
 NPHI.DEC    42 890 03 00:   NEUTRON POROSITY SANDSTONE
 GRD .GAPI   45 310 01 00:   GAMMA RAY FROM DENSITY LOG
 CALD.IN     45 280 60 00:   CALIPER FROM DENSITY LOG
 RHOB.G/C3   45 350 01 00:   BULK DENSITY
 CORR.G/C3   45 356 01 00:   DENSITY CORRECTION
~PARAMETER INFORMATION
#MNEM.UNIT          VALUE    DESCRIPTION
#----------   ------------   ------------------------------
 EKB .F         5232.0000:   Kelly bushing
 EGL .F         5222.0000:   Ground level
 EDF .F            0.0000:   Drilling floor
 EPD .F         5222.0000:   Permanent datum
 TD  .F         4040.0000:   Total depth
 DATE.        03-APR-1978:   Date logged
 CLNT.            A2DTECH:   Client Code
 SL  . 1700' FNL & 1700' FWL:   Surface Location
 PD  .                 GL:   Permanent Datum
 DD  .F              4040:   Depth driller
 DL  .F              4031:   Depth logger
 BLI .F              4025:   Bottom log interval
 CS1 .IN            8.625:   Casing size
 CBD1.      8.625" @ 503':   Casing driller 1
 CBL1.F               504:   Casing logger 1
 BS1 .IN            7.875:   Bit size
 DFT .           CHEM GEL:   Type fluid in hole
 DFD .                9.5:   Density
 DFV .                 43:   Viscosity
 DFPH.               11.5:   pH
 DFL .                4.4:   Fluid loss
 MSS .            MUD PIT:   Source of sample
 RMS .OHMM           1.16:   Rm
 MST .F                80:   Rm Meas. temp.
 RMF .OHMM           0.93:   Rmf
 MFST.F                80:   Rmf Meas. temp.
 RMC .OHMM           1.74:   Rmc
 MCST.F                80:   Rmc Meas. temp.
 MFSS.               MEAS:   Source Rmf.
 RMB .OHMM          0.742:   Rm. at BHT
 BHT .F               125:   BHT.
 TCS .HRS            0800:   Time Circ. stopped
 MRT .F               125:   Maximum recorded temp.
 LUN .               7660:   Logging unit number
 LUL .                GLT:   Logging unit location
 ENGI.            TOEPPER:   Recorded By
 WITN.           MCGINLEY:   Witnessed by
 ORIG.         2.5" PRINT:   Origin of data
 UWI .     49025105980000:   Unique Well ID
 DICO. A2D TECHNOLOGIES, INC.:   Digitizing Company
 DAPD.                 10:   Feet Above Permanent Datum
 BSD1.               4040:   Depth drilled with bit1
 MCSS.               CALC:   Source Rmc.
 LMF .                 KB:   Log Measured From
 DMF .                 KB:   Drilling Measured From
 TLI .                504:   Top log interval
 TLAB.               1000:   Time logger at bottom
~OTHER INFORMATION
~A    DEPT     SPR        ILD        SFL        ILM       NPHI         GRD      CALD       RHOB       CORR   
# ...
  985.5000   -37.4180     7.7590     7.1860     7.6010     0.3100    86.6250    13.5020     2.5320     0.0290
  986.0000   -37.1890     7.6880     7.1390     7.5260     0.3100    85.6430    13.4900     2.5400     0.0350
  986.5000   -37.5820     7.6160     7.0930     7.4510     0.3090    84.6480    13.4790     2.5450     0.0400
  987.0000   -37.6520     7.5460     7.0470     7.3760     0.3090    86.4720    13.4680     2.5370     0.0450
  987.5000   -37.5750     7.4750     7.0010     7.3010     0.3110    87.7830    13.4570     2.5290     0.0410
  988.0000   -37.2730     7.4110     6.9550     7.2260     0.3120    87.6880    13.4460     2.5270     0.0360
  988.5000   -37.5290     7.4370     6.9080     7.1440     0.3120    87.7380    13.4380     2.5450     0.0320
  989.0000   -37.6850     7.5210     6.8860     7.2300     0.3130    88.6810    13.4340     2.5180     0.0390
  989.5000   -37.8700     7.6060     6.9440     7.3250     0.3110    89.7300    13.4290     2.5290     0.0460
  990.0000   -38.0580     7.6900     7.0260     7.4200     0.3090    90.8390    13.4240     2.5400     0.0530
  990.5000   -38.2360     7.7740     7.1080     7.5150     0.3070    91.8650    13.4200     2.5600     0.0440
  991.0000   -38.4210     7.8580     7.1900     7.6090     0.3060    92.9410    13.4150     2.5560     0.0360
  991.5000   -38.6010     7.9420     7.2720     7.7040     0.3050    91.6770    13.4110     2.5400     0.0270
  992.0000   -38.7880     8.0270     7.3530     7.7990     0.2990    89.4250    13.4060     2.5260     0.0190
  992.5000   -38.8350     8.1110     7.4350     7.8940     0.2940    86.9690    13.4010     2.5330     0.0280
  993.0000   -38.7770     8.1950     7.5170     7.9890     0.2810    86.9270    13.4050     2.5620     0.0360
  993.5000   -38.7250     8.2790     7.5990     8.0840     0.2690    88.9140    13.4090     2.5930     0.0490
  994.0000   -38.6720     8.3630     7.6810     8.1790     0.2640    90.6480    13.4140     2.5540     0.0440
  994.5000   -38.6190     8.4480     7.7630     8.2740     0.2780    92.5160    13.4190     2.5260     0.0370
  995.0000   -38.5660     8.5320     7.8310     8.3690     0.2900    93.3110    13.4230     2.5570     0.0450
  995.5000   -38.5130     8.5850     7.8560     8.4290     0.2960    93.1550    13.4280     2.5700     0.0520
  996.0000   -38.4600     8.5430     7.8770     8.3880     0.3000    91.6270    13.4330     2.5460     0.0590
  996.5000   -38.3930     8.5000     7.8980     8.3450     0.3000    90.0600    13.4370     2.5610     0.0650
  997.0000   -38.3210     8.4560     7.9180     8.3020     0.3000    88.2470    13.4420     2.5770     0.0660
  997.5000   -38.2510     8.4290     7.9390     8.2760     0.3010    86.7260    13.4470     2.5580     0.0680
  998.0000   -38.1750     8.4500     7.9600     8.2860     0.2980    85.6410    13.4510     2.5900     0.0700
  998.5000   -38.1070     8.4860     7.9810     8.3040     0.2920    89.4280    13.4560     2.5850     0.0660
  999.0000   -38.0640     8.5210     8.0020     8.3230     0.2850    92.9740    13.4610     2.5590     0.0630
  999.5000   -38.2560     8.5570     8.0230     8.3410     0.2780    94.1690    13.4650     2.5340     0.0500
 1000.0000   -38.4190     8.5920     8.0440     8.3590     0.2820    91.5190    13.4700     2.5160     0.0250
 1000.5000   -38.5960     8.6280     8.0650     8.3780     0.2880    89.1960    13.4750     2.5010     0.0130
 1001.0000   -38.7670     8.6640     8.0860     8.3960     0.2920    86.9500    13.4800     2.5380     0.0430
 1001.5000   -38.9390     8.6990     8.1050     8.4120     0.2920    84.7040    13.4890     2.5670     0.0730
 1002.0000   -39.1100     8.7430     8.1200     8.4270     0.2880    85.6480    13.5010     2.5820     0.0840
 1002.5000   -39.2870     8.7170     8.0600     8.3590     0.3090    86.6510    13.5120     2.5590     0.0690
 1003.0000   -39.4510     8.6310     8.0040     8.2980     0.3120    87.9000    13.5230     2.5370     0.0520
 1003.5000   -39.6240     8.5450     7.9470     8.2370     0.3100    88.5480    13.5340     2.5170     0.0350
 1004.0000   -39.5130     8.4590     7.8900     8.1760     0.2880    88.4490    13.5450     2.5350     0.0240
 1004.5000   -39.3750     8.3730     7.8340     8.1140     0.2900    88.5700    13.5570     2.5630     0.0460
 1005.0000   -39.2340     8.2870     7.7770     8.0530     0.2920    87.7010    13.5680     2.5740     0.0490
 1005.5000   -39.0420     8.2020     7.7200     7.9920     0.3000    85.9740    13.5790     2.5600     0.0460
 1006.0000   -38.8610     8.1160     7.6640     7.9310     0.2910    85.0440    13.5900     2.5490     0.0420
 1006.5000   -38.6730     8.0300     7.6080     7.8680     0.2980    84.6380    13.5980     2.5650     0.0450
 1007.0000   -38.4890     7.9770     7.5500     7.8300     0.3030    84.2030    13.5950     2.5680     0.0620
 1007.5000   -38.3090     7.9840     7.5500     7.8160     0.3100    83.7760    13.5920     2.5540     0.0650
 1008.0000   -38.1080     7.9910     7.5390     7.8010     0.3110    84.1980    13.5890     2.5460     0.0590
 1008.5000   -38.1300     7.9980     7.5240     7.7860     0.3050    84.6840    13.5850     2.5410     0.0540
 1009.0000   -38.3150     8.0050     7.5100     7.7710     0.2980    85.1680    13.5820     2.5380     0.0520
 1009.5000   -38.4520     8.0120     7.4960     7.7560     0.2910    85.6890    13.5790     2.5530     0.0550
 1010.0000   -38.5370     8.0190     7.4820     7.7410     0.2840    86.2050    13.5750     2.5620     0.0580
 1010.5000   -38.6290     8.0260     7.4680     7.7260     0.2770    87.7160    13.5720     2.5530     0.0620
 1011.0000   -38.7100     8.0330     7.4530     7.7110     0.2950    89.0910    13.5690     2.5460     0.0620
 1011.5000   -38.7620     8.0400     7.4390     7.6960     0.3080    90.5280    13.5650     2.5500     0.0620
 1012.0000   -39.0630     8.0470     7.4260     7.6810     0.3170    91.9060    13.5620     2.5570     0.0640
 1012.5000   -38.9410     8.0540     7.4120     7.6660     0.3150    93.4180    13.5590     2.5740     0.0600
 1013.0000   -38.8470     8.0610     7.4120     7.6500     0.3080    93.9830    13.5560     2.5900     0.0820
 1013.5000   -38.8220     8.0680     7.4110     7.6350     0.2910    93.5820    13.5520     2.5690     0.0650
 1014.0000   -38.8620     8.0750     7.4110     7.6200     0.2960    93.4470    13.5490     2.5390     0.0350
 1014.5000   -38.9060     8.0820     7.4100     7.6050     0.3040    92.2100    13.5460     2.5180     0.0070
 1015.0000   -39.2850     8.0890     7.3740     7.5900     0.3060    90.3480    13.5420     2.5190     0.0080
 1015.5000   -39.3050     8.0970     7.3360     7.5750     0.3010    88.6460    13.5390     2.5370     0.0100
 1016.0000   -39.6810     8.1000     7.2960     7.5600     0.2990    86.9450    13.5360     2.5530     0.0180
 1016.5000   -39.6060     8.1140     7.2570     7.5420     0.2900    85.2380    13.5320     2.5680     0.0280
 1017.0000   -39.1710     8.1070     7.2180     7.5160     0.2920    83.4930    13.5290     2.5500     0.0380
 1017.5000   -38.7820     8.1360     7.1790     7.4900     0.2930    82.9320    13.5250     2.5620     0.0570
 1018.0000   -39.0130     7.9610     7.1400     7.4640     0.2920    83.0490    13.5230     2.5520     0.0740
 1018.5000   -38.6410     7.9720     7.1000     7.4380     0.2890    83.1140    13.5220     2.5590     0.0950
 1019.0000   -38.4110     7.9420     7.0610     7.4120     0.2860    83.1710    13.5550     2.5710     0.1080
 1019.5000   -38.4730     7.9300     7.0220     7.4070     0.2900    83.2450    13.5820     2.5890     0.1520
 1020.0000   -38.1380     7.9160     6.9830     7.3990     0.2960    83.3080    13.6120     2.5760     0.1310
 1020.5000   -38.0410     7.9020     6.9440     7.3910     0.3230    83.3730    13.6410     2.5390     0.1080
 1021.0000   -38.0370     7.8880     6.8860     7.3840     0.3310    83.4410    13.6640     2.5080     0.1150
 1021.5000   -38.0570     7.8740     6.8910     7.3760     0.3390    83.5050    13.7400     2.5400     0.1340
