~VERSION INFORMATION
 VERS.                2.0:   CWLS LOG ASCII STANDARD - VERSION 2.0
 WRAP.                 NO:   ONE LINE PER DEPTH STEP
~WELL INFORMATION
#MNEM.UNIT      DATA TYPE    INFORMATION
#----------   ------------   ------------------------------
 STRT.F            0.5000:   START DEPTH
 STOP.F         3195.0000:   STOP DEPTH
 STEP.F            0.5000:   STEP LENGTH
 NULL.          -999.2500:   NO VALUE
 COMP.   TESORO PETROLEUM:   COMPANY
 WELL. TESORO NPR 3 "A" #15-10:   WELL
 FLD .        TEAPOT DOME:   FIELD
 LOC .      S10 T38N R78W:   LOCATION
 CNTY.            NATRONA:   COUNTY
 STAT.            WYOMING:   STATE
 CTRY. UNITED STATES OF AMERICA:   COUNTRY
 SRVC.       SCHLUMBERGER:   SERVICE COMPANY
 DATE.        03-JUL-1969:   LOGDATE
 API .     49025600130000:   API NUMBER
~CURVE INFORMATION
#MNEM.UNIT       API CODE    CURVE DESCRIPTION
#----------   ------------   ------------------------------
 DEPT.F                  :   
 SPR .MV     05 010 01 00:   SPONTANEOUS POTENTIAL FROM RES.
 ASN .OHMM   05 041 16 00:   AMPLIFIED SHORT NORMAL 16"
 ILD .OHMM   05 120 46 00:   INDUCTION LOG DEEP
 CALD.IN     45 280 60 00:   CALIPER FROM DENSITY LOG
 GRD .GAPI   45 310 01 00:   GAMMA RAY FROM DENSITY LOG
 RHOB.G/C3   45 350 01 00:   BULK DENSITY
~PARAMETER INFORMATION
#MNEM.UNIT          VALUE    DESCRIPTION
#----------   ------------   ------------------------------
 EKB .F         5250.0000:   Kelly bushing
 EGL .F         5237.0000:   Ground level
 EDF .F            0.0000:   Drilling floor
 TD  .F         3200.0000:   Total depth
 CLNT.            A2DTECH:   Client Code
 SL  . 990' FWL & 1980' FSL:   Surface Location
 PD  .                 GL:   Permanent Datum
 EPD .F              5237:   Elevation Permanent Datum
 LMF .                 KB:   Log Measured From
 DMF .                 KB:   Drilling Measured From
 DAPD.F                13:   Feet Above Permanent Datum
 DATE.        03-JUL-1969:   Date Logged [DD-MMM-YYYY]
 DD  .F              3200:   Depth driller
 DL  .F              3196:   Depth logger
 BLI .F              3195:   Bottom log interval
 TLI .F               676:   Top log interval
 CS1 .IN            10.75:   Casing size
 CBD1.      10.75" @ 675':   Casing driller 1
 CBL1.F               676:   Casing logger 1
 BS1 .IN            6.125:   Bit size
 BSD1.F              3200:   Depth drilled with bit1
 DFT .      FRESH GEL MUD:   Type fluid in hole
 DFD .                9.5:   Density
 DFV .                 46:   Viscosity
 DFPH.                9.5:   pH
 DFL .                6.4:   Fluid loss
 MSS .           FLOWLINE:   Source of sample
 RMS .OHMM           2.05:   Rm
 MST .F                76:   Rm Meas. temp.
 RMF .OHMM           1.49:   Rmf
 MFST.F                78:   Rmf Meas. temp.
 MFSS.               MEAS:   Source Rmf.
 RMB .OHMM           1.34:   Rm. at BHT
 BHT .F               116:   BHT.
 TCS .HRS               2:   Time Circ. stopped
 MRT .F               116:   Maximum recorded temp.
 LUN .               4507:   Logging unit number
 LUL .               CSPR:   Logging unit location
 ENGI.             KNOBEL:   Recorded By
 WITN.                MAY:   Witnessed by
 ORIG.        2" 5" PRINT:   Origin of data
 UWI .     49025600130000:   Unique Well ID
 DICO. A2D TECHNOLOGIES, INC.:   Digitizing Company
~OTHER INFORMATION
~A    DEPT     SPR          ASN      ILD       CALD        GRD       RHOB   
# ...
 2912.5000   -27.3529    13.1955    10.2899     9.4045    87.8493     2.5542
 2913.0000   -27.3393    13.2758    10.2196     9.4047    89.1855     2.5558
 2913.5000   -27.3284    13.3551    10.1509     9.3931    92.0634     2.5565
 2914.0000   -27.4647    13.5098    10.0838     9.3782    95.6029     2.5565
 2914.5000   -27.4508    13.3635    10.0916     9.3634    97.3804     2.5550
 2915.0000   -27.4399    12.7672    10.1728     9.3485    99.1553     2.5505
 2915.5000   -27.4290    12.3202    10.2541     9.3484    98.9449     2.5483
 2916.0000   -27.2683    12.1740    10.1119     9.3482    89.9135     2.5498
 2916.5000   -27.1103    12.7807     9.8933     9.3481    88.1564     2.5619
 2917.0000   -27.2491    13.0857     9.8996     9.3627    87.7279     2.5648
 2917.5000   -27.5296    13.3164     9.9824     9.3772    87.7407     2.5663
 2918.0000   -27.6657    13.6213    10.1385     9.3918    88.1920     2.5687
 2918.5000   -27.8019    13.7006    10.2198     9.4063    89.0846     2.5739
 2919.0000   -27.9353    13.0291    10.3103     9.4209    91.5238     2.5776
 2919.5000   -27.9216    12.8829    10.3831     9.4501    92.8575     2.5799
 2920.0000   -27.7636    12.9633    10.3900     9.4647    90.0000     2.5776
 2920.5000   -27.7527    13.2682    10.4728     9.4646    88.2455     2.5754
 2921.0000   -27.8888    13.4228    10.5540     9.4938    88.2582     2.5724
 2921.5000   -27.8752    13.5783    10.7102     9.5084    89.1507     2.5694
 2922.0000   -27.8642    13.6577    10.7916     9.5229    91.5899     2.5656
 2922.5000   -28.0198    13.8122    10.6493     9.4934    92.7037     2.5551
 2923.0000   -28.4306    13.8926    10.4307     9.4638    92.2726     2.5499
 2923.5000   -28.2699    13.8968    10.2827     9.4195    91.8162     2.5469
 2924.0000   -28.1040    13.6002     9.9950     9.3753    91.1925     2.5657
 2924.5000   -27.8041    13.3036     9.8513     9.3457    90.9795     2.5837
 2925.0000   -27.7932    13.0070     9.7826     9.3456    91.4359     2.6006
 2925.5000   -27.7823    12.7104     9.7139     9.3602    91.6667     2.5803
 2926.0000   -27.6216    12.5652     9.7217     9.3894    91.8974     2.5556
 2926.5000   -27.7604    12.5704     9.7280     9.3892    91.0252     2.5586
 2927.0000   -27.7468    12.7250     9.9607     9.3891    91.2585     2.5684
 2927.5000   -27.8802    13.0309    10.1169     9.3889    92.3715     2.5736
 2928.0000   -28.0190    13.2606    10.2731     9.3741    95.0313     2.5766
 2928.5000   -28.0054    13.4904    10.4308     9.3593    99.0120     2.5742
 2929.0000   -27.9941    13.7963    10.5870     9.3444   100.7868     2.5638
 2929.5000   -27.8337    14.1012    10.8931     9.3443    98.1525     2.5556
 2930.0000   -27.6757    14.5565    11.1344     9.3588    95.0220     2.5541
 2930.5000   -27.6648    14.8625    11.1305     9.3587    93.2573     2.5563
 2931.0000   -28.0951    14.8666    11.2133     9.3733    93.2553     2.5563
 2931.5000   -28.2312    14.8708    11.3001     9.3878    93.2533     2.5593
 2932.0000   -28.3646    14.8760    11.6022     9.3876    91.4886     2.5631
 2932.5000   -28.2039    14.8802    11.9832     9.3875    89.9447     2.5548
 2933.0000   -28.0459    15.2603    12.3665     9.3873    88.8414     2.5443
 2933.5000   -27.8879    15.7918    12.7469     9.3725    86.8564     2.5511
 2934.0000   -28.0213    16.5478    12.9031     9.3724    84.6517     2.5593
 2934.5000   -28.3045    17.1535    12.9843     9.3722    82.6143     2.5683
 2935.0000   -28.4434    17.9106    13.1405     9.3574    83.9434     2.5743
 2935.5000   -28.1353    18.2155    12.9968     9.3572    84.1698     2.5818
 2936.0000   -27.8278    18.0692    12.8546     9.3424    83.5150     2.5998
 2936.5000   -27.8169    17.3226    12.5611     9.3422    83.5226     2.6269
 2937.0000   -27.9530    16.7252    12.4175     9.3421    84.1895     2.6224
 2937.5000   -28.0891    16.2031    12.2738     9.3272    84.8578     2.6104
 2938.0000   -28.6637    15.6809    11.6835     9.3271    88.6084     2.5998
 2938.5000   -28.6528    15.3843    11.3149     9.3269    90.1681     2.5893
 2939.0000   -28.4921    15.3895    10.9464     9.3239    88.8423     2.5841
 2939.5000   -28.3341    15.3185    10.5713     9.3119    86.4255     2.5848
 2940.0000   -28.3232    15.2475    10.4342     9.3117    85.1099     2.6006
 2940.5000   -28.3095    15.1022    10.4420     9.3116    85.7783     2.5901
 2941.0000   -28.2986    14.6554    10.4483     9.3114    86.8857     2.5878
 2941.5000   -28.1406    14.1342    10.3061     9.3113    88.8756     2.5886
 2942.0000   -28.1155    13.1610    10.2359     9.3112    89.7612     2.5616
 2942.5000   -27.9690    12.3391     9.7939     9.3110    86.6851     2.5533
 2943.0000   -28.1078    11.3658     9.1271     9.3109    86.9130     2.5563
 2943.5000   -28.2412    10.9253     8.7585     9.3107    88.6811     2.5518
 2944.0000   -28.5244    10.0970     8.1651     9.3106    95.5612     2.5465
 2944.5000   -28.9519     9.4244     7.5732     9.3251   106.9767     2.5383
 2945.0000   -29.0882     9.9547     7.0547     9.3250   109.1854     2.5353
 2945.5000   -29.2242     9.2964     6.6112     9.3395   111.7176     2.5465
 2946.0000   -29.2105     8.8181     5.7944     9.3394   116.2475     2.5428
 2946.5000   -29.0525     7.9192     5.2759     9.3392   118.0157     2.5345
 2947.0000   -28.8918     7.1701     4.4576     9.3538   126.8339     2.5233
 2947.5000   -28.8809     5.9103     3.7745     9.3536   138.2937     2.4985
 2948.0000   -29.0198     5.3266     3.0474     9.3535   150.6350     2.4677
 2948.5000   -29.4473     4.5023     2.5289     9.3387   158.3513     2.4249
 2949.0000   -29.5834     3.8140     2.0854     9.3385   169.5909     2.4024
 2949.5000   -29.5697     3.5612     2.0932     9.3237   174.6630     2.3881
 2950.0000   -29.5588     3.3383     2.0995     9.3088   175.3314     2.3934
 2950.5000   -29.2510     3.1162     2.1807     9.2792   172.4740     2.4084
 2951.0000   -28.9460     3.0137     2.4134     9.2203   164.0250     2.4122
 2951.5000   -28.7880     2.9563     2.5696     9.0721   159.7108     2.4006
 2952.0000   -29.0167     2.9290     2.8757     9.1452   171.1722     2.3611
 2952.5000   -29.1627     3.5941     3.0319     9.2037   172.4998     2.3754
 2953.0000   -29.3064     4.2291     2.9396     9.2327   149.1593     2.3967
 2953.5000   -29.4893     4.6529     3.3378     9.2764   128.0786     2.4369
 2954.0000   -29.8153     5.1369     3.7098     9.2907   104.2259     2.4865
 2954.5000   -29.7996     5.8321     4.0889     9.2901    90.2487     2.5214
 2955.0000   -29.6870     7.0980     4.4679     9.3190    90.2718     2.5338
 2955.5000   -29.5098     8.2768     4.9401     9.3334    91.3361     2.5323
 2956.0000   -29.1974     8.5177     5.9017     9.3477    95.0744     2.5233
 2956.5000   -29.0435     8.7310     6.6556     9.3471    94.1872     2.5158
 2957.0000   -28.8857     9.2156     7.3345     9.3762    91.7566     2.5113
 2957.5000   -28.7280     9.7297     8.1834     9.3757    87.3451     2.5083
 2958.0000   -28.5694    10.3913     8.8432     9.3753    82.7134     2.5158
 2958.5000   -28.4461    11.5245     9.5221     9.3454    78.6179     2.5251
 2959.0000   -28.0732    13.0348    10.3509     9.3450    74.5497     2.5431
 2959.5000   -28.3033    15.1454    10.9661     9.3593    73.2235     2.5618
 2960.0000   -28.4491    16.9552    12.0846     9.3735    75.6387     2.5634
 2960.5000   -28.5872    18.4656    14.0378     9.3878    77.3946     2.5635
 2961.0000   -28.7236    19.4484    14.9416     9.4021    77.6087     2.5724
 2961.5000   -28.8603    19.6779    14.1973     9.4310    75.3983     2.5769
 2962.0000   -29.0027    18.9326    13.7517     9.4453    74.0706     2.5747
 2962.5000   -29.0367    18.1830    12.9314     9.4301    76.4858     2.5739
 2963.0000   -28.9843    17.4408    12.4109     9.4444    79.1227     2.5650
 2963.5000   -28.9181    16.9950    11.6665     9.4439    82.6408     2.5545
 2964.0000   -28.8307    16.0980    11.4459     9.4435    83.5157     2.5470
