~VERSION INFORMATION
 VERS.                2.0:   CWLS LOG ASCII STANDARD - VERSION 2.0
 WRAP.                 NO:   ONE LINE PER DEPTH STEP
~WELL INFORMATION
#MNEM.UNIT      DATA TYPE    INFORMATION
#----------   ------------   ------------------------------
 STRT.F            2.0000:   START DEPTH
 STOP.F         3008.0000:   STOP DEPTH
 STEP.F            0.5000:   STEP LENGTH
 NULL.          -999.2500:   NO VALUE
 COMP.       FLUOR DANIEL:   COMPANY
 WELL.   FLUOR "X" #25-23:   WELL
 FLD .          N.P.R. #3:   FIELD
 LOC .      S23 T38N R78W:   LOCATION
 CNTY.            NATRONA:   COUNTY
 STAT.            WYOMING:   STATE
 CTRY. UNITED STATES OF AMERICA:   COUNTRY
 SRVC.      WESTERN ATLAS:   SERVICE COMPANY
 DATE.        21-APR-1995:   LOGDATE
 API .     49025227090000:   API NUMBER
~CURVE INFORMATION
#MNEM.UNIT       API CODE    CURVE DESCRIPTION
#----------   ------------   ------------------------------
 DEPT.F                  :   
 GRR .GAPI   07 310 01 00:   GAMMA RAY FROM RESISTIVITY
 TENR.LBS    07 635 01 00:   TENSION FROM RESISTIVITY
 RILD.OHMM   07 120 46 00:   RESISTIVITY INDUCTION LOG DEEP
 RILM.OHMM   07 120 44 00:   RESISTIVITY INDUCTION LOG MEDIUM
~PARAMETER INFORMATION
#MNEM.UNIT          VALUE    DESCRIPTION
#----------   ------------   ------------------------------
 EKB .F         5285.0000:   Kelly bushing
 EGL .F         5275.0000:   Ground level
 EDF .F         5284.0000:   Drilling floor
 TD  .F         3000.0000:   Total depth
 CLNT.            A2DTECH:   Client Code
 SL  . 2343' FSL & 1264' FWL:   Surface Location
 PD  .                 GL:   Permanent Datum
 EPD .F              5275:   Elevation Permanent Datum
 DMF .                 KB:   Drilling Measured From
 DAPD.                 10:   Feet Above Permanent Datum
 DATE.        21-APR-1995:   Date Logged [DD-MMM-YYYY]
 DD  .F              3000:   Depth driller
 DL  .F              3000:   Depth logger
 BLI .F              2999:   Bottom log interval
 TLI .F                 0:   Top log interval
 CS1 .IN            9.625:   Casing size
 CBD1.       9.625" @ 53':   Casing driller 1
 CBL1.F                53:   Casing logger 1
 BS1 .IN             6.25:   Bit size
 BSD1.F              3000:   Depth drilled with bit1
 DFT .                OIL:   Type fluid in hole
 MRT .F               114:   Maximum recorded temp.
 LUN .            HL 6530:   Logging unit number
 LUL .             CASPER:   Logging unit location
 ENGI.        VERN RAUTIO:   Recorded By
 WITN.        GARY STRONG:   Witnessed by
 ORIG.         2.5" PRINT:   Origin of data
 UWI .     49025227090000:   Unique Well ID
 DICO. A2D TECHNOLOGIES,INC.:   Digitizing Company
 LMF .                 KB:   Log Measured From
~OTHER INFORMATION
~A    DEPT      GRR      TENR       RILD       RILM   
# ...
 1243.0000   122.6508    27.3529     8.6002     8.6686
 1243.5000   122.0473    27.5276     8.6667     8.9043
 1244.0000   119.6050    27.6654     8.9023     9.1465
 1244.5000   117.2899    27.8033     9.0209     9.1441
 1245.0000   117.2781    27.9412     9.1418     9.1418
 1245.5000   118.4061    28.0882     9.3901     9.2766
 1246.0000   122.0590    28.2353     9.3877     9.4393
 1246.5000   124.3413    28.3823     9.6430     9.6823
 1247.0000   124.4773    28.5294     9.6403     9.9590
 1247.5000   123.7270    28.6995     9.8124    10.1742
 1248.0000   115.4317    28.8373     9.8996    10.1709
 1248.5000   111.2784    28.9752     9.9683    10.1683
 1249.0000   114.3078    29.1176    10.1659    10.1657
 1249.5000   114.8061    29.2647    10.1628    10.1631
 1250.0000   113.2152    29.4118    10.1602    10.1604
 1250.5000   111.2308    29.5588    10.1576    10.3102
 1251.0000   113.9294    29.7334    10.1549    10.4341
 1251.5000   114.7574    29.8713    10.1522    10.4310
 1252.0000   113.5606    30.0092    10.1494    10.6280
 1252.5000   111.1824    30.1471    10.1467    10.7116
 1253.0000   103.4788    30.2941    10.1439    10.7081
 1253.5000   102.8697    30.4412    10.1412    10.4193
 1254.0000   102.2728    15.8548    10.1380    10.4166
 1254.5000   105.2201    30.7353    10.1354    10.2738
 1255.0000   105.3849    30.9053    10.1328    10.2711
 1255.5000   107.4398    31.0432    10.1301    10.2683
 1256.0000   111.0927    31.1811    10.1275    10.2656
 1256.5000   112.2722    31.3235    10.1247    10.2628
 1257.0000   114.0337    31.4706    10.1220    10.2600
 1257.5000   115.2059    31.6177    10.1192    10.2572
 1258.0000   116.3787    31.7647    10.1165    10.2539
 1258.5000   115.1833    31.9393    10.1138    10.2513
 1259.0000   112.1264    32.0772    10.1106    10.2486
 1259.5000   109.8343    32.2151    10.1080    10.1081
 1260.0000   109.9803    17.6470     9.8353    10.1055
 1260.5000   111.8008    17.7941     9.8328     9.9535
 1261.0000   113.3015    32.6471     9.5584     9.5674
 1261.5000   117.6137    32.7941     9.3092     9.4881
 1262.0000   121.0158    32.9412     9.3067     9.3067
 1262.5000   121.0045    33.1112     9.1327     9.0555
 1263.0000   122.1767    33.2491     9.0530     9.0526
 1263.5000   125.1239    33.3870     9.0506     8.8084
 1264.0000   126.8878    33.5294     8.9260     8.8061
 1264.5000   126.7949    33.6765     8.8037     8.8038
 1265.0000   123.7672    33.8235     8.6830     8.5663
 1265.5000   119.1779    33.9706     8.5640     8.5525
 1266.0000   114.7534    34.1452     8.5517     8.3329
 1266.5000   113.5009    34.2831     8.3306     8.2970
 1267.0000   112.6132    34.4210     8.2958     8.1058
 1267.5000   115.5605    34.5588     8.1036     8.0491
 1268.0000   123.2416    34.7059     8.1014     7.8845
 1268.5000   126.7806    34.8529     8.0988     7.8824
 1269.0000   130.9309    35.0000     7.9878     7.8804
 1269.5000   138.0612    35.1471     7.8783     7.7724
 1270.0000   139.7645    35.3171     7.8762     7.6658
 1270.5000   138.0411    35.4550     7.8742     7.7789
 1271.0000   134.3078    35.5928     7.8721     7.8723
 1271.5000   125.2611    34.7549     7.8699     7.8699
 1272.0000   121.9622    21.1627     7.8678     7.8678
 1272.5000   125.5012    21.3235     7.8657     7.6555
 1273.0000   127.8568    21.4706     7.6534     7.4485
 1273.5000   127.2537    21.6452     7.5480     7.4465
 1274.0000   124.8756    36.4890     7.4445     7.2457
 1274.5000   121.3140    36.6268     7.4426     7.2438
 1275.0000   124.6552    36.7647     7.3406     7.2419
 1275.5000   128.5463    36.9118     7.2400     7.0465
 1276.0000   127.9060    37.0588     7.1291     7.0446
 1276.5000   126.0000    37.2059     7.0426     6.9199
 1277.0000   127.2982    37.3529     6.8526     6.8526
 1277.5000   137.2170    37.5230     6.8507     6.7131
 1278.0000   136.0222    37.6609     6.7088     6.6655
 1278.5000   129.5021    37.7987     6.6637     6.5741
 1279.0000   125.3488    37.9412     6.4839     6.4840
 1279.5000   123.5621    38.0882     6.4823     6.3091
 1280.0000   123.6291    38.2353     6.3074     6.3074
 1280.5000   124.4021    38.3823     6.2999     6.2209
 1281.0000   125.8953    38.5570     6.1356     6.3042
 1281.5000   128.7496    38.6948     6.3025     6.3281
 1282.0000   130.3195    38.8327     6.4162     6.5447
 1282.5000   130.5917    38.9706     6.5504     6.7862
 1283.0000   131.1700    39.1177     6.7884     7.2102
 1283.5000   133.5256    39.2647     7.2083     7.4063
 1284.0000   135.2894    39.4118     7.4046     7.7115
 1284.5000   135.2763    39.5588     7.8145     8.0292
 1285.0000   133.4320    39.7289     7.9191     8.2475
 1285.5000   131.4710    39.8667     8.0306     8.2679
 1286.0000   128.1108    40.0046     8.2432     8.4925
 1286.5000   123.3964    40.1470     8.3823     8.7000
 1287.0000   123.9603    40.2941     8.4652     8.8640
 1287.5000   129.8793    40.4412     8.4625     8.8142
 1288.0000   131.6432    40.5882     8.4602     8.4598
 1288.5000   131.0402    40.7629     8.4576     8.3438
 1289.0000   125.1117    40.9007     8.4554     8.2295
 1289.5000   125.0654    41.0386     8.2273     8.1167
 1290.0000   131.0453    41.1765     8.0054     8.0054
 1290.5000   131.5867    41.3235     8.0032     8.0032
 1291.0000   128.7456    41.4706     7.8934     8.0011
 1291.5000   125.4340    41.6176     7.7851     7.9989
 1292.0000   125.0414    41.7647     7.7830     7.9967
 1292.5000   125.6213    41.9347     7.8870     8.0491
 1293.0000   126.2012    42.0726     7.8849     8.1014
 1293.5000   126.1879    42.2105     7.8824     7.9899
 1294.0000   125.5849    42.3529     7.7744     7.9879
 1294.5000   122.0233    42.5000     7.7724     7.8784
 1295.0000   120.8284    42.6471     7.5627     7.7704
 1295.5000   119.4793    42.7941     7.5434     7.5505
 1296.0000   117.8474    42.9688     7.3200     7.3172
 1296.5000   119.8009    43.1066     7.1029     6.9109
 1297.0000   121.6212    43.2445     6.7081     6.5270
 1297.5000   122.5444    43.3823     6.2091     6.1236
 1298.0000   124.8972    43.5294     5.6045     5.4547
 1298.5000   126.0710    43.6765     5.2362     4.8933
 1299.0000   124.8746    43.8235     4.8920     4.3897
 1299.5000   125.4551    29.2647     4.3885     3.8326
 1300.0000   127.8107    26.1795     3.5326     3.0026
 1300.5000   133.7015    15.0275     3.1012     2.5413
 1301.0000   137.2293    30.0092     2.6209     2.2647
 1301.5000   135.4316    45.0000     2.2637     2.0532
 1302.0000   130.3195    45.2941     2.0803     2.1035
 1302.5000   123.2546    45.5882     2.2104     2.2564
 1303.0000   117.5691    45.8824     2.3801     2.4798
 1303.5000   115.8107    31.5257     2.6516     2.7629
 1304.0000   115.1953    31.8015     3.0766     3.0783
 1304.5000   116.0986    17.3529     3.5698     3.4297
 1305.0000   119.8779    17.6470     4.1458     3.8734
 1305.5000   122.8139    19.9019     4.7082     4.5459
 1306.0000   124.5666    32.9412     5.2747     5.4919
 1306.5000   123.3606    39.1176     5.7000     6.0761
 1307.0000   121.5227    48.2353     5.9164     6.2162
 1307.5000   120.3569    48.5754     6.1243     6.2142
 1308.0000   123.2929    48.8511     6.2904     6.2122
 1308.5000   123.2663    49.1268     6.4609     6.3811
 1309.0000   123.2426    49.4118     6.6359     6.5546
 1309.5000   124.1460    49.7059     6.6338     6.6424
 1310.0000   132.0672    50.0000     6.6316     6.6406
 1310.5000   132.0447    50.2941     6.6294     6.6388
 1311.0000   132.0222    50.6434     6.6271     6.6370
 1311.5000   133.7748    50.9191     6.6249     6.6352
 1312.0000   138.6430    51.1949     6.6226     6.6334
 1312.5000   142.2090    51.4706     6.6204     6.5424
 1313.0000   143.7663    51.7647     6.6178     6.5403
 1313.5000   140.8797    52.0588     6.6156     6.3638
 1314.0000   135.4714    52.3529     6.4367     6.3622
 1314.5000   134.2249    52.6471     6.2627     6.1906
 1315.0000   134.7891    52.9871     6.2606     6.1890
 1315.5000   136.5444    53.2629     6.2585     6.1873
