~VERSION INFORMATION
 VERS.                2.0:   CWLS LOG ASCII STANDARD - VERSION 2.0
 WRAP.                 NO:   ONE LINE PER DEPTH STEP
~WELL INFORMATION
#MNEM.UNIT      DATA TYPE    INFORMATION
#----------   ------------   ------------------------------
 STRT.F            5.5000:   START DEPTH
 STOP.F         3261.0000:   STOP DEPTH
 STEP.F            0.5000:   STEP LENGTH
 NULL.          -999.2500:   NO VALUE
 COMP. LAWRENCE ALLISON & ASSOCIATES:   COMPANY
 WELL. LAWRENCE "X" #12-14:   WELL
 FLD .              NPR 3:   FIELD
 LOC .      S14 T38N R78W:   LOCATION
 CNTY.            NATRONA:   COUNTY
 STAT.            WYOMING:   STATE
 CTRY. UNITED STATES OF AMERICA:   COUNTRY
 SRVC.      DRESSER ATLAS:   SERVICE COMPANY
 DATE.        18-AUG-1986:   LOGDATE
 API .     49025111080000:   API NUMBER
~CURVE INFORMATION
#MNEM.UNIT       API CODE    CURVE DESCRIPTION
#----------   ------------   ------------------------------
 DEPT.F                  :   
 RILM.OHMM   07 120 44 00:   INDUCTION LOG MEDIUM RESISTIVITY
 GRR .GAPI   07 310 01 00:   GAMMA RAY FROM RESISTIVITY
 SPR .MV     07 010 01 00:   SPONTANEOUS POTENTIAL
 NPHI.DEC    42 890 03 00:   NEUTRON POROSITY SANDSTONE
 CALD.IN     45 280 60 00:   CALIPER FROM DENSITY LOG
 TEND.LBS    45 635 01 00:   TENSION FORM DENSITY LOG
 DRHO.G/C3   45 356 01 00:   DENSITY CORRECTION
 DEN .G/C3   45 350 01 00:   BULK DENSITY
 RILD.OHMM   07 120 46 00:   DEEP INDUCTION RESISTIVITY
 RFOC.OHMM   07 220 04 00:   RESISTIVITY FOCUSED LOG RES.
~PARAMETER INFORMATION
#MNEM.UNIT          VALUE    DESCRIPTION
#----------   ------------   ------------------------------
 EKB .F         5245.0000:   Kelly bushing
 EGL .F         5234.0000:   Ground level
 TD  .F         3250.0000:   Total depth
 CLNT.            A2DTECH:   Client Code
 SL  . 901' FNL & 485' FWL:   Surface Location
 PD  .                 GL:   Permanent Datum
 EPD .F              5234:   Elevation Permanent Datum
 LMF .                 KB:   Log Measured From
 DMF .                 KB:   Drilling Measured From
 DAPD.F                11:   Feet Above Permanent Datum
 DATE.        18-AUG-1986:   Date Logged [DD-MMM-YYYY]
 DD  .F              3250:   Depth driller
 DL  .F              3246:   Depth logger
 BLI .F              3244:   Bottom log interval
 TLI .F                 0:   Top log interval
 CS1 .IN            8.625:   Casing size
 CBD1.      8.625" @ 733':   Casing driller 1
 CBL1.F               735:   Casing logger 1
 BS1 .IN            7.875:   Bit size
 BSD1.F              3250:   Depth drilled with bit1
 DFT .            KCL-GEL:   Type fluid in hole
 DFD .                8.8:   Density
 DFV .                 36:   Viscosity
 DFPH.                8.5:   pH
 DFL .               12.8:   Fluid loss
 MSS .           FLOWLINE:   Source of sample
 RMS .OHMM          0.292:   Rm
 MST .F                73:   Rm Meas. temp.
 RMF .OHMM          0.224:   Rmf
 MFST.F                73:   Rmf Meas. temp.
 MFSS.               MEAS:   Source Rmf.
 RMC .OHMM          0.365:   Rmc
 MCST.F                73:   Rmc Meas. temp.
 MCSS.               CALC:   Source Rmc.
 RMB .OHMM          0.154:   Rm. at BHT
 BHT .F               138:   BHT.
 TCS .HRS               5:   Time Circ. stopped
 MRT .F               138:   Maximum recorded temp.
 LUN .            HL-6214:   Logging unit number
 LUL .           GILLETTE:   Logging unit location
 ENGI.             RAUTIO:   Recorded By
 WITN.             STRONG:   Witnessed by
 ORIG.        2" 5" PRINT:   Origin of data
 UWI .     49025111080000:   Unique Well ID
 DICO. A2D TECHNOLOGIES, INC.:   Digitizing Company
~OTHER INFORMATION
~A    DEPT    RILM         GRR       SPR       NPHI       CALD       TEND       DRHO        DEN       RILD       RFOC   
# ...
 2853.0000    13.9471    86.7829   -17.7338     0.2259     8.8466  -219.9248     0.0650     2.4150    16.1877    13.9336
 2853.5000    14.0473    87.9949   -17.7281     0.2262     8.8463  -219.9248     0.0604     2.4265    16.3030    14.2298
 2854.0000    14.1483    87.6996   -18.0236     0.2274     8.8157  -218.7255     0.0528     2.4289    16.3052    13.9373
 2854.5000    14.2499    88.0066   -18.1699     0.2283     8.8154  -204.8872     0.0498     2.4237    16.4213    13.7448
 2855.0000    14.3523    89.8502   -18.3133     0.2265     8.8151  -189.8496     0.0559     2.4163    16.4235    13.5579
 2855.5000    14.3553    90.7624   -18.3061     0.2223     8.7845  -174.8120     0.0769     2.4043    16.4258    13.3725
 2856.0000    14.4590    88.6466   -18.4524     0.2183     8.7842  -182.3308     0.0632     2.3954    16.4285    13.2810
 2856.5000    14.9738    83.2517   -18.8971     0.2166     8.7839  -197.3684     0.0556     2.3947    16.6611    12.9964
 2857.0000    15.0814    82.6557   -19.7950     0.2166     8.7836  -204.8872     0.0511     2.4017    17.0150    13.5523
 2857.5000    15.2958    86.5822   -20.0904     0.2159     8.7530  -219.9248     0.0510     2.4207    17.3400    14.5314
 2858.0000    16.4010    90.5064   -20.0833     0.2150     8.7527  -219.9248     0.0556     2.4375    17.8297    14.4314
 2858.5000    16.9849    91.4187   -20.0775     0.2132     8.7524  -204.8872     0.0736     2.4490    18.2060    14.4324
 2859.0000    16.9885    90.8249   -19.9212     0.2111     8.7521  -189.8496     0.0675     2.4552    18.5902    14.5343
 2859.5000    16.9926    91.4380   -19.9155     0.2079     8.7576  -189.8496     0.0342     2.4712    18.8508    15.4758
 2860.0000    16.9961    93.2539   -19.9096     0.2051     8.7576  -204.8872     0.0221     2.4856    18.8508    20.1679
 2860.5000    16.5330    95.0697   -20.0546     0.2057     8.7576  -219.9248     0.0568     2.4828    18.8508    20.0295
 2861.0000    16.1940    92.6687   -20.3501     0.2117     8.7727  -234.9624     0.0844     2.4617    18.7201    18.4243
 2861.5000    16.0850    86.9566   -20.6441     0.2141     8.7727  -204.8872     0.1065     2.4407    18.2060    15.2660
 2862.0000    16.2013    87.2664   -20.7892     0.2153     8.7727  -174.8120     0.1080     2.4317    18.2060    13.7521
 2862.5000    16.3178    91.1907   -20.9464     0.2153     8.7727  -174.8120     0.1049     2.4425    17.6959    14.1498
 2863.0000    16.3218    92.7053   -21.5291     0.2125     8.7727  -189.8496     0.0973     2.4570    17.2197    15.7008
 2863.5000    16.2634    92.1114   -22.1258     0.2096     8.7727  -204.8872     0.0912     2.4866    16.7468    17.5534
 2864.0000    15.9288    90.3150   -22.4227     0.2087     8.7879  -227.4436     0.0912     2.4943    16.4007    18.1769
 2864.5000    15.2787    90.3236   -22.8673     0.2153     8.7879  -219.9248     0.0851     2.4853    16.6306    17.6785
 2865.0000    14.9641    91.8383   -23.0122     0.2241     8.7879  -219.9248     0.0700     2.4719    16.8638    17.3101
 2865.5000    14.7583    95.4614   -23.0050     0.2277     8.7879  -197.3684     0.0578     2.4599    16.7468    16.3768
 2866.0000    14.8624    96.9760   -22.9993     0.2213     8.7727  -107.1429     0.0457     2.4389    16.6306    15.1696
 2866.5000    15.0716    96.5899   -22.6924     0.2156     8.7727   -84.5865     0.0351     2.4171    16.6306    14.4483
 2867.0000    15.2840    93.3809   -21.9336     0.2163     8.7727  -114.6617     0.0320     2.4044    16.5153    14.5505
 2867.5000    15.2850    92.4859   -21.4759     0.2163     8.7727  -144.7368     0.0441     2.3938    16.4007    14.7556
 2868.0000    15.3927    90.3861   -21.4689     0.2153     8.7879  -167.2932     0.0606     2.3875    16.5153    15.2800
 2868.5000    15.3938    84.0694   -21.4632     0.2135     8.8182  -144.7368     0.0847     2.3897    16.7468    15.1749
 2869.0000    15.3948    83.4756   -21.6080     0.2105     8.8485  -144.7368     0.0953     2.3943    16.8638    15.1759
 2869.5000    15.3961    84.0888   -21.7530     0.2081     8.8485  -159.7744     0.0816     2.4003    16.8638    15.0713
 2870.0000    15.2903    83.7940   -22.3695     0.2075     8.8788  -189.8496     0.0725     2.4048    16.8638    15.0725
 2870.5000    15.2914    83.5014   -23.2460     0.2069     8.8939  -167.2932     0.0589     2.4109    16.8638    14.9689
 2871.0000    15.2924    84.1146   -23.9933     0.2045     8.9242  -128.9046     0.0015     2.4177    16.8638    14.7630
 2871.5000    15.2934    85.7047   -24.7406     0.1966     8.9242   -84.5865    -0.0031     2.4199    16.8638    14.7640
 2872.0000    15.1884    88.3509   -25.6385     0.1906     8.9242   -84.5865     0.0256     2.4260    16.6306    15.0768
 2872.5000    15.1896    91.3715   -26.7318     0.1972     8.9242  -129.6992     0.0225     2.4366    15.9503    15.9420
 2873.0000    14.9808    93.4886   -28.3364     0.2020     8.9242  -189.8496     0.0147     2.4789    15.1839    17.7085
 2873.5000    14.4696    94.7020   -30.4391     0.1984     8.9242  -219.9248     0.0133     2.5031    14.4691    18.2008
 2874.0000    14.0631    92.3010   -31.9394     0.1918     8.9091  -219.9248     0.0178     2.5332    14.0717    16.1692
 2874.5000    13.4993    92.6129   -32.8373     0.1851     8.9242  -197.3684     0.0238     2.5536    13.8771    13.3975
 2875.0000    12.7694    92.3182   -34.3362     0.1791     8.9242  -182.3308     0.0343     2.5680    13.4960    13.3984
 2875.5000    11.9121    90.8229   -35.2340     0.1766     8.9242  -189.8496     0.0358     2.5740    12.6700    13.4930
 2876.0000    11.5859    89.0243   -35.9813     0.1776     8.9242  -204.8872     0.0267     2.5740    11.8239    13.3074
 2876.5000    11.2547    89.3615   -36.5780     0.1842     8.9309  -219.9248     0.0176     2.5672    11.3402    13.0330
 2877.0000    10.8090    93.8630   -37.3253     0.1845     8.9394  -174.8120     0.0160     2.5518    10.8763    12.7640
 2877.5000    10.5864    96.2812   -37.6207     0.1851     8.9394  -159.7744     0.0160     2.5468    10.5042    12.8543
 2878.0000    10.2966    97.1935   -37.6136     0.1887     8.9545  -144.7368     0.0235     2.5468    10.2157    13.0356
 2878.5000     9.8079    98.7081   -37.9105     0.1972     8.9697  -137.2180     0.0280     2.5476     9.5287    13.0367
 2879.0000     8.9428   101.7734   -38.3551     0.2123     8.9697  -137.2180     0.0008     2.5408     9.0125    11.6623
 2879.5000     7.8517   106.0199   -38.6506     0.2277     8.9697  -152.2556    -0.0008     2.5295     8.2327    10.2884
 2880.0000     7.3245   111.9891   -38.9461     0.2345     8.9848  -174.8120     0.0067     2.5181     7.3138     9.3982
 2880.5000     6.7854   122.5399   -39.0909     0.2371     8.9697  -174.1091     0.0052     2.5189     6.9176     9.0140
 2881.0000     6.2424   131.2834   -39.0838     0.2432     8.9697  -129.6992     0.0021     2.5196     6.4371     8.4467
 2881.5000     5.8616   139.3994   -39.0780     0.2480     8.9697   -92.1053    -0.0010     2.5144     5.9767     7.2642
 2882.0000     5.7433   150.2787   -38.9217     0.2516     8.9697   -84.5865    -0.0131     2.5098     5.7723     6.9671
 2882.5000     5.7437   150.8876   -38.9145     0.2540     8.9697   -84.5865    -0.0177     2.5106     5.6530     7.0655
 2883.0000     5.7441   145.4767   -38.9088     0.2543     8.9697  -114.6617    -0.0162     2.5122     5.6138     7.5758
 2883.5000     5.9893   136.4491   -38.9031     0.2533     8.9697  -144.7368     0.0049     2.5196     5.6162     7.8997
 2884.0000     6.3343   137.3967   -38.7467     0.2459     8.9697  -114.6617     0.0230     2.5257     5.8126     7.7909
 2884.5000     6.6954   141.5890   -38.5904     0.2289     8.9697   -77.0677     0.0366     2.5295     6.2317     7.7916
 2885.0000     7.0300   140.6940   -38.1314     0.2184     8.9697   -69.5489     0.0395     2.5347     6.8220     8.0683
 2885.5000     7.3301   129.8592   -38.1257     0.2102     8.9697   -69.5489     0.0409     2.5431     7.3649     9.1469
 2886.0000     7.7501   112.6992   -37.8188     0.2008     8.9697   -69.5489     0.0424     2.5485     7.7340    11.3557
