~VERSION INFORMATION
 VERS.                2.0:   CWLS LOG ASCII STANDARD - VERSION 2.0
 WRAP.                 NO:   ONE LINE PER DEPTH STEP
~WELL INFORMATION
#MNEM.UNIT      DATA TYPE    INFORMATION
#----------   ------------   ------------------------------
 STRT.F          210.0000:   START DEPTH
 STOP.F         2998.0000:   STOP DEPTH
 STEP.F            0.5000:   STEP LENGTH
 NULL.          -999.2500:   NO VALUE
 COMP.    FENIX & SCISSON:   COMPANY
 WELL. FENIX & SCISSON "A" #41-28:   WELL
 FLD .          N.P.R. #3:   FIELD
 LOC .      S28 T39N R78W:   LOCATION
 CNTY.            NATRONA:   COUNTY
 STAT.            WYOMING:   STATE
 CTRY. UNITED STATES OF AMERICA:   COUNTRY
 SRVC.       SCHLUMBERGER:   SERVICE COMPANY
 DATE.        08-MAY-1977:   LOGDATE
 API .     49025103670000:   API NUMBER
~CURVE INFORMATION
#MNEM.UNIT       API CODE    CURVE DESCRIPTION
#----------   ------------   ------------------------------
 DEPT.F                  :   
 CALD.IN     45 280 60 00:   CALIPER FROM DENSITY LOG
 GRD .GAPI   45 310 01 00:   GAMMA RAY FROM DENSITY LOG
 CORR.G/C3   45 356 01 00:   DENSITY CORRECTION
 RHOB.G/C3   45 350 01 00:   BULK DENSITY
 SPR .MV     07 010 01 00:   SPONTANEOUS POTENTIAL
 LL8 .OHMM   07 220 08 00:   LATEROLOG-8 RES.
 ILM .OHMM   07 120 44 00:   INDUCTION LOG MEDIUM RESISTIVITY
 ILD .OHMM   07 120 46 00:   DEEP INDUCTION RESISTIVITY
~PARAMETER INFORMATION
#MNEM.UNIT          VALUE    DESCRIPTION
#----------   ------------   ------------------------------
 EKB .F         5012.0000:   Kelly bushing
 EGL .F         5002.0000:   Ground level
 TD  .F         3000.0000:   Total depth
 CLNT.            A2DTECH:   Client Code
 SL  . 330' FNL & 2310' FWL:   Surface Location
 DATE.        08-MAY-1977:   Date Logged [DD-MMM-YYYY]
 DD  .F              3000:   Depth driller
 DL  .F              2999:   Depth logger
 BLI .F              2993:   Bottom log interval
 TLI .F               222:   Top log interval
 CS1 .              8.625:   Casing size
 CBD1.      8.625" @ 112':   Casing driller 1
 CBL1.IN              222:   Casing logger 1
 BS1 .IN            7.875:   Bit size
 BSD1.F              3000:   Depth drilled with bit1
 DFT .                KCL:   Type fluid in hole
 DFD .                8.8:   Density
 DFV .                 32:   Viscosity
 DFPH.                8.0:   pH
 DFL .                8.8:   Fluid loss
 MSS .           FLOWLINE:   Source of sample
 RMS .OHMM          0.124:   Rm
 MST .F                80:   Rm Meas. temp.
 RMF .OHMM          0.117:   Rmf
 MFST.F                80:   Rmf Meas. temp.
 MFSS.               MEAS:   Source Rmf.
 RMB .OHMM         0.0886:   Rm. at BHT
 BHT .F               112:   BHT.
 TCS .HRS            0200:   Time Circ. stopped
 TLAB.HRS            0515:   Time logger at bottom
 MRT .F               112:   Maximum recorded temp.
 LUN .               5642:   Logging unit number
 LUL .               CSPR:   Logging unit location
 ENGI.            MARATIN:   Recorded By
 WITN.         PETTINGILL:   Witnessed by
 ORIG.      2.5" 5" PRINT:   Origin of data
 UWI .     49025103670000:   Unique Well ID
 DICO. A2D TECHNOLOGIES, INC.:   Digitizing Company
 PD  .                 GL:   Permanent Datum
 EPD .               5002:   Elevation Permanent Datum
 LMF .                 KB:   Log Measured From
 DMF .                 KB:   Drilling Measured From
 DAPD.                 10:   Feet Above Permanent Datum
~OTHER INFORMATION
~A   DEPT     CALD         GRD      CORR       RHOB        SPR        LL8        ILM        ILD   
# ...
 2599.5000     8.7680   120.4744     0.1204     2.5210   -39.2068    10.5457     9.1307     8.9167
 2600.0000     8.7543   122.4327     0.1264     2.5300   -41.8994    10.5609     9.1533     8.9167
 2600.5000     8.7413   119.7146     0.1294     2.5391   -44.2098    10.7744     9.2928     8.9843
 2601.0000     8.7431   116.2131     0.1257     2.5218   -46.8969    11.0441     9.4324     9.0407
 2601.5000     8.7452   113.8493     0.1183     2.5025   -47.5065    11.3138     9.5720     9.0407
 2602.0000     8.7170   113.7159     0.1116     2.5026   -48.1173    11.5386     9.6659     9.0407
 2602.5000     8.7188   113.7418     0.1117     2.5071   -47.1824    10.8990     9.8047     9.0407
 2603.0000     8.7206   112.4213     0.1190     2.5140   -45.9402    10.3412     9.9454     9.0407
 2603.5000     8.7070   110.2066     0.1260     2.5162   -44.3892     9.8591    10.0883     9.0407
 2604.0000     8.7092   108.4381     0.1235     2.4953   -43.4556    10.5900    10.2331     9.2089
 2604.5000     8.7110   109.5029     0.1108     2.5275   -43.3554    11.3729    10.3801     9.3370
 2605.0000     8.6974   111.9081     0.1029     2.5171   -44.3661    11.9245    10.5291     9.5541
 2605.5000     8.6842   115.2076     0.1015     2.5103   -46.5189    12.2690    10.5291     9.6433
 2606.0000     8.6565   116.8676     0.1031     2.5037   -49.2890    12.3854    10.5291     9.8216
 2606.5000     8.6433   116.9058     0.1084     2.4955   -48.6640    12.3844    10.3801     9.6870
 2607.0000     8.6451   114.5246     0.1121     2.4777   -48.0390    12.3249    10.2331     9.5541
 2607.5000     8.6468   114.5455     0.1145     2.4808   -47.7227    12.0924     9.6659     9.5104
 2608.0000     8.6486   114.5661     0.1145     2.4907   -47.7150    11.6392     9.2611     9.2096
 2608.5000     8.6354   112.4632     0.1124     2.5025   -47.7073    11.3106     8.8734     8.7146
 2609.0000     8.6372   110.5837     0.1086     2.4859   -48.0093    10.9914     8.5018     8.3610
 2609.5000     8.6390   110.7705     0.1103     2.4787   -49.2351    10.6811     8.0305     8.0582
 2610.0000     8.6408   113.3586     0.1163     2.4995   -50.7706    10.4289     7.7385     7.6602
 2610.5000     8.6576   117.1488     0.1252     2.5186   -52.3061    10.0393     7.3526     7.3838
 2611.0000     8.6593   118.9181     0.1209     2.5292   -53.2243     9.4372     7.1465     7.1165
 2611.5000     8.6611   121.7210     0.1216     2.5099   -54.4512     8.7022     6.9053     6.8277
 2612.0000     8.6779   122.7849     0.1276     2.5332   -54.5227     8.2572     6.7115     6.6117
 2612.5000     8.6797   123.1037     0.1329     2.5280   -54.1271     8.1396     6.5231     6.4014
 2613.0000     8.6815   123.8696     0.1300     2.5154   -53.5021     7.9474     6.3401     6.2564
 2613.5000     8.6832   125.3807     0.1159     2.5072   -53.1858     7.8341     6.1622     6.0297
 2614.0000     8.7150   127.9350     0.1061     2.5050   -52.8694     7.8336     6.0752     5.8116
 2614.5000     8.7467   129.8931     0.1107     2.5133   -52.5531     7.9458     5.9046     5.8116
 2615.0000     8.7485   133.7887     0.1213     2.5291   -52.2368     7.9451     5.7854     5.7319
 2615.5000     8.7503   136.7901     0.1064     2.5243   -52.2291     7.8319     5.7035     5.7057
 2616.0000     8.7521   137.5508     0.1146     2.5045   -52.5309     7.7943     5.6227     5.6275
 2616.5000     8.7539   133.1057     0.1214     2.5218   -53.1396     7.7197     5.5431     5.4993
 2617.0000     8.7557   130.1459     0.1266     2.5346   -53.4405     7.6098     5.4647     5.4742
 2617.5000     8.7575   129.2672     0.1252     2.5302   -53.7423     7.5013     5.3873     5.4239
 2618.0000     8.7593   130.9325     0.1223     2.5116   -54.3510     7.4654     5.3456     5.4239
 2618.5000     8.7614   131.5442     0.1104     2.5056   -54.6520     7.2546     5.2702     5.3495
 2619.0000     8.7782   128.2914     0.1015     2.5192   -55.5702     6.9829     5.2358     5.3495
 2619.5000     8.7646   128.9083     0.1068     2.5327   -56.7971     6.7537     5.2358     5.3495
 2620.0000     8.7668   133.5490     0.1165     2.5410   -57.7153     6.5943     5.2358     5.3495
 2620.5000     8.7686   134.9110     0.1225     2.5425   -58.0170     6.5938     5.3110     5.3743
 2621.0000     8.7704   132.6963     0.1256     2.5366   -58.6258     6.7527     5.3110     5.4491
 2621.5000     8.7722   129.1403     0.1279     2.5344   -58.6181     7.3922     5.3509     5.5248
 2622.0000     8.7739   124.3920     0.1220     2.5375   -58.6104     7.8247     5.3873     5.6795
 2622.5000     8.7757   122.4702     0.1041     2.5428   -57.6768     7.8241     5.4647     5.8116
 2623.0000     8.7625   122.9432     0.1034     2.5399   -56.7431     7.7865     5.5839     6.0021
 2623.5000     8.7643   122.3679     0.1161     2.5227   -55.8095     7.6028     5.8278     6.0855
 2624.0000     8.7507   119.2589     0.1206     2.5288   -54.8759     8.0902     6.0400     6.1991
 2624.5000     8.7375   119.8758     0.1103     2.5416   -53.9422     8.8530     6.2142     6.4311
 2625.0000     8.7243   122.7281     0.1059     2.5461   -53.8838     9.1517     6.4384     6.4904
 2625.5000     8.7266   124.0902     0.1074     2.5432   -54.2361     9.1509     6.5305     6.4904
 2626.0000     8.7129   125.7503     0.1156     2.5515   -55.1537     9.1071     6.6719     6.3721
 2626.5000     8.7152   128.1555     0.1269     2.5568   -55.4552     8.8920     6.6257     6.1417
 2627.0000     8.7169   130.5607     0.1188     2.5583   -55.4949     8.7653     6.3957     6.0297
 2627.5000     8.7187   132.0718     0.1180     2.5554   -55.4392     8.5591     6.0830     5.8116
 2628.0000     8.7205   135.5203     0.1166     2.5488   -55.1229     8.0836     5.8723     5.6798
 2628.5000     8.7069   137.6274     0.1003     2.5272   -54.8065     7.6343     5.7078     5.4494
 2629.0000     8.7091   139.1415     0.0958     2.5138   -54.7988     7.3480     5.5060     5.2038
 2629.5000     8.7109   139.9044     0.0966     2.5108   -55.1003     7.1745     5.3515     5.0859
 2630.0000     8.6823   135.9312     0.1004     2.5124   -55.4012     7.0722     5.1617     4.9017
 2630.5000     8.6691   130.6794     0.0996     2.5170   -56.0103     7.0717     5.0224     4.8126
 2631.0000     8.6559   129.8325     0.0990     2.5267   -56.6204     7.1730     4.8756     4.6383
 2631.5000     8.6282   133.9790     0.1006     2.5380   -57.2295     7.2757     4.7755     4.5957
 2632.0000     8.6300   136.6531     0.1083     2.5463   -57.8390     7.1045     4.7385     4.5957
 2632.5000     8.6318   138.3231     0.1209     2.5441   -57.2141     6.8062     4.7385     4.5957
 2633.0000     8.6336   141.0980     0.1231     2.5411   -56.5891     6.5510     4.8375     4.6596
 2633.5000     8.6354   142.4600     0.1207     2.5342   -55.6554     6.4883     5.0090     4.7253
 2634.0000     8.6372   140.6924     0.1143     2.5294   -54.1045     6.4878     5.3024     4.9937
 2634.5000     8.6240   136.5403     0.1069     2.5335   -52.8623     6.4873     5.6131     5.2772
 2635.0000     8.6108   134.1765     0.1155     2.5400   -51.3113     6.5803     5.8579     5.6035
 2635.5000     8.5677   131.8127     0.1196     2.5415   -50.0691     7.2578     6.2399     6.1428
 2636.0000     8.5245   122.1465     0.1078     2.5364   -48.8268    10.0136     6.7964     6.7986
 2636.5000     8.5114   120.5227     0.1033     2.5238   -47.5845    12.1787     7.4023     7.6981
 2637.0000     8.5131   122.6350     0.1034     2.5208   -46.6509    13.6270     7.9482     8.3235
 2637.5000     8.5149   122.3577     0.1071     2.5314   -46.0259    13.4356     8.4825     8.9999
 2638.0000     8.5317   122.3785     0.1109     2.5426   -45.7096    12.3889     9.1633     9.6434
 2638.5000     8.5336   124.1876     0.1117     2.5278   -45.7019    12.1532     9.8390    10.2390
 2639.0000     8.5354   125.4006     0.1050     2.5166   -46.6201    12.1523    10.3534    10.5237
 2639.5000     8.5371   127.0607     0.1059     2.5084   -48.7729    12.3263    10.1747    10.2852
