~VERSION INFORMATION
 VERS.                2.0:   CWLS LOG ASCII STANDARD - VERSION 2.0
 WRAP.                 NO:   ONE LINE PER DEPTH STEP
~WELL INFORMATION
#MNEM.UNIT      DATA TYPE    INFORMATION
#----------   ------------   ------------------------------
 STRT.F          196.5000:   START DEPTH
 STOP.F         3219.0000:   STOP DEPTH
 STEP.F            0.5000:   STEP LENGTH
 NULL.          -999.2500:   NO VALUE
 COMP.    FENIX & SCISSON:   COMPANY
 WELL.  FENIX "AX" #73-15:   WELL
 FLD .              NPR 3:   FIELD
 LOC .      S15 T38N R78W:   LOCATION
 CNTY.            NATRONA:   COUNTY
 STAT.            WYOMING:   STATE
 CTRY. UNITED STATES OF AMERICA:   COUNTRY
 SRVC.       SCHLUMBERGER:   SERVICE COMPANY
 DATE.        30-AUG-1977:   LOGDATE
 API .     49025104270000:   API NUMBER
~CURVE INFORMATION
#MNEM.UNIT       API CODE    CURVE DESCRIPTION
#----------   ------------   ------------------------------
 DEPT.F                  :   
 NPHI.DEC    42 890 03 00:   NEUTRON POROSITY SANDSTONE
 CALD.IN     45 280 60 00:   CALIPER FROM DENSITY LOG
 GRD .GAPI   45 310 01 00:   GAMMA RAY FROM DENSITY LOG
 CORR.G/C3   45 356 01 00:   DENSITY CORRECTION
 RHOB.G/C3   45 350 01 00:   BULK DENSITY
 SPR .MV     07 010 01 00:   SPONTANEOUS POTENTIAL
 RILD.OHMM   07 120 46 00:   DEEP INDUCTION RESISTIVITY
 RILM.OHMM   07 120 44 00:   INDUCTION LOG MEDIUM RESISTIVITY
 LL8 .OHMM   07 220 08 00:   LATEROLOG-8 RES.
~PARAMETER INFORMATION
#MNEM.UNIT          VALUE    DESCRIPTION
#----------   ------------   ------------------------------
 EKB .F         5263.0000:   Kelly bushing
 EGL .F         5253.0000:   Ground level
 TD  .F         3220.0000:   Total depth
 CLNT.            A2DTECH:   Client Code
 SL  . 1650' FNL & 875' FEL:   Surface Location
 PD  .                 GL:   Permanent Datum
 EPD .F              5253:   Elevation Permanent Datum
 LMF .                 KB:   Log Measured From
 DMF .                 KB:   Drilling Measured From
 DAPD.F                10:   Feet Above Permanent Datum
 DATE.        30-AUG-1977:   Date Logged [DD-MMM-YYYY]
 DD  .F              3220:   Depth driller
 DL  .F              3219:   Depth logger
 BLI .F              3209:   Bottom log interval
 TLI .F               216:   Top log interval
 CS1 .IN            8.625:   Casing size
 CBL1.F               216:   Casing logger 1
 BS1 .IN            7.875:   Bit size
 BSD1.F              3220:   Depth drilled with bit1
 DFT .                FGM:   Type fluid in hole
 DFD .                8.9:   Density
 DFPH.                 11:   pH
 MSS .            MUDTANK:   Source of sample
 RMS .OHMM           0.40:   Rm
 MST .F                82:   Rm Meas. temp.
 RMF .OHMM           0.25:   Rmf
 MFST.F                72:   Rmf Meas. temp.
 MFSS.               MEAS:   Source Rmf.
 RMC .OHMM           0.60:   Rmc
 MCST.F                82:   Rmc Meas. temp.
 MCSS.               CALC:   Source Rmc.
 RMB .OHMM           0.27:   Rm. at BHT
 BHT .F               120:   BHT.
 MRT .F               120:   Maximum recorded temp.
 LUN .               5642:   Logging unit number
 LUL .               CSPR:   Logging unit location
 ENGI.                FIX:   Recorded By
 WITN.         RETTINGILL:   Witnessed by
 ORIG.           5" PRINT:   Origin of data
 UWI .     49025104270000:   Unique Well ID
 DICO. A2D TECHNOLOGIES, INC.:   Digitizing Company
 DFV .                 35:   Viscosity
 DFL .                8.4:   Fluid loss
 CBD1.      8.625" @ 216':   Casing driller 1
~OTHER INFORMATION
~A   DEPT       NPHI     CALD        GRD       CORR       RHOB        SPR       RILD       RILM        LL8   
# ...
  780.5000     0.3421    10.9256    79.1776     0.0115     2.4178   -76.9812     9.8611     9.9265    10.0397
  781.0000     0.3438    10.9267    80.9875     0.0162     2.4410   -76.9589     9.7971     9.8588     9.9781
  781.5000     0.3417    10.9280    83.2439     0.0230     2.4422   -76.9365     9.7348     9.6731     9.9153
  782.0000     0.3318    10.9295    85.5002     0.0156     2.4452   -76.9138     9.7411     9.6096     9.9214
  782.5000     0.3169    10.9309    85.5245     0.0209     2.4596   -76.8911     9.7465     9.5476     9.8970
  783.0000     0.2981    10.9322    83.6979     0.0233     2.4634   -76.8684     9.8881     9.5534     9.9336
  783.5000     0.3025    10.9186    81.2747     0.0219     2.4770   -76.9927     9.9623     9.6246    10.0088
  784.0000     0.3142    10.9199    80.2399     0.0287     2.4673   -76.9704    10.0370     9.6963    10.0845
  784.5000     0.3287    10.9213    80.2702     0.0258     2.4569   -76.9480    10.1123     9.7686    10.3026
  785.0000     0.3301    10.9226    80.2944     0.0274     2.4442   -76.9256    10.1882     9.9790    10.4527
  785.5000     0.3277    10.9090    77.6401     0.0252     2.4473   -76.9033    10.2023    10.1235    10.6050
  786.0000     0.3156    10.9104    74.9857     0.0221     2.4354   -76.7296    10.3417    10.2252    10.7656
  786.5000     0.2975    10.8968    74.1110     0.0179     2.4265   -76.7072    10.4929    10.3466    10.9596
  787.0000     0.2907    10.8832    75.4805     0.0255     2.4513   -76.6849    10.6451    10.6432    11.0066
  787.5000     0.2924    10.8547    78.1833     0.0301     2.4561   -76.6625    10.7249    10.7972    11.1225
  788.0000     0.2996    10.8262    80.2165     0.0317     2.4492   -76.6401    10.8053    11.0299    11.2453
  788.5000     0.3125    10.8127    80.9103     0.0130     2.4297   -76.4665    10.8112    11.1896    11.3436
  789.0000     0.3274    10.8140    80.0356     0.0108     2.4261   -76.4441    10.8171    11.2730    11.5754
  789.5000     0.3316    10.8153    79.1730     0.0109     2.4271   -76.2705    10.8231    11.3571    11.6630
  790.0000     0.3306    10.8167    76.9651     0.0125     2.4391   -76.2481    10.7542    11.2837    11.6701
  790.5000     0.2967    10.8180    75.2036     0.0126     2.4294   -76.0745    10.6859    11.0577    11.5949
  791.0000     0.2871    10.8210    74.3349     0.0097     2.4242   -76.2034    10.6652    10.6853    11.4443
  791.5000     0.2856    10.8356    73.9127     0.0083     2.4318   -76.1800    10.5490    10.3975    11.2158
  792.0000     0.2975    10.8372    76.1335    -0.0112     2.4649   -76.1530    10.3391     9.9779    10.9161
  792.5000     0.3055    10.8385    84.3304     0.0069     2.4860   -76.2876     9.9238     9.7091    10.6244
  793.0000     0.3166    10.8398    87.3843     0.0371     2.5184   -76.2596     9.6579     9.5135    10.3405
  793.5000     0.3287    10.8412    90.0870     0.0192     2.4704   -76.2372     9.4645     9.4510    10.2044
  794.0000     0.3382    10.8425    93.4595     0.0072     2.4645   -76.3717     9.2750     9.3901    10.0009
  794.5000     0.3489    10.8438    95.2694     0.0112     2.4601   -76.5007     9.1524     9.3296     9.7984
  795.0000     0.3495    10.8452    93.7311     0.0134     2.4534   -76.4727     9.0944     9.3352     9.6724
  795.5000     0.3321    10.8465    89.2910     0.0198     2.4662   -76.4503     9.0994     9.3396     9.6786
  796.0000     0.3251    10.8478    87.0831     0.0219     2.4641   -76.5849     9.1687     9.4093     9.6175
  796.5000     0.3248    10.8491    86.8780     0.0197     2.4619   -76.7138     9.2375     9.4138     9.6238
  797.0000     0.3353    10.8352    87.5780     0.0213     2.4605   -76.6858     9.2425     9.4183     9.6308
  797.5000     0.3403    10.8216    89.3879     0.0214     2.4590   -76.8154     9.2476     9.4229     9.6367
  798.0000     0.3445    10.8233    88.0728     0.0185     2.4689   -76.7924     9.2526     9.3621     9.5746
  798.5000     0.3424    10.8097    87.2042     0.0208     2.4682   -76.9213     9.1304     9.2914     9.5144
  799.0000     0.3396    10.8111    87.0045     0.0202     2.4605   -76.8986     9.0097     8.9896     9.4545
  799.5000     0.3369    10.8273    86.8061     0.0187     2.4539   -77.1791     8.8293     8.7073     9.2672
  800.0000     0.3342    10.8286    86.1607     0.0234     2.4480   -77.3323     8.5928     8.3586     8.8342
  800.5000     0.3320    10.8150    88.2572     0.0242     2.4428   -77.5827     8.4195     8.0796     8.4798
  801.0000     0.3311    10.8015    91.8408     0.0153     2.4444   -77.5603     8.3083     7.9189     8.2930
  801.5000     0.3341    10.7998    93.6004     0.0169     2.4370   -77.6892     8.1996     7.8139     8.1272
  802.0000     0.3409    10.7953    93.6297     0.0155     2.4453   -77.8237     8.0641     7.7130     7.9614
  802.5000     0.3346    10.7932    93.4307     0.0201     2.4476   -77.9526     7.9442     7.6637     7.7715
  803.0000     0.3283    10.8105    93.9013     0.0157     2.4447   -77.9247     7.8244     7.6160     7.7231
  803.5000     0.3286    10.8274    95.0416     0.0309     2.4568   -77.7510     7.7045     7.6222     7.7285
  804.0000     0.3368    10.8591    93.7265     0.0464     2.4657   -77.7287     7.5846     7.5749     7.6816
  804.5000     0.3418    10.8610    93.0811     0.0204     2.4337   -77.7063     7.4842     7.5801     7.6858
  805.0000     0.3402    10.8630    92.8760     0.0041     2.4128   -77.6839     7.4918     7.5854     7.6920
  805.5000     0.3381    10.8649    92.9063     0.0087     2.4151   -77.6616     7.5500     7.6434     7.6965
  806.0000     0.3468    10.8668    93.3769     0.0058     2.4265   -77.6392     7.5562     7.6497     7.6494
  806.5000     0.3576    10.8687    96.3029     0.0119     2.4363   -77.6168     7.5623     7.6549     7.6546
  807.0000     0.3581    10.8707   100.3450     0.0150     2.4416   -77.5945     7.5164     7.6601     7.6069
  807.5000     0.3557    10.8726   103.0478     0.0159     2.4357   -77.5721     7.5226     7.6653     7.6117
  808.0000     0.3509    10.8745   105.0809     0.0115     2.4313   -78.3510     7.4912     7.6103     7.6170
  808.5000     0.3449    10.8765   105.7748     0.0146     2.4411   -80.6479     7.4831     7.5689     7.6222
  809.0000     0.3367    10.8784   106.0267     0.0125     2.4427   -82.4918     7.4904     7.5218     7.6030
  809.5000     0.3301    10.8803   106.2701     0.0110     2.4443   -83.6798     7.4965     7.3225     7.5801
  810.0000     0.3322    10.8972   106.0120     0.0081     2.4309   -84.8734     7.4500     7.1768     7.5461
  810.5000     0.3352    10.9140   102.9759     0.0135     2.4279   -85.7509     7.4423     7.0614     7.5348
  811.0000     0.3398    10.9159    97.1965     0.0121     2.4415   -87.8447     7.4100     7.0388     7.4395
  811.5000     0.3490    10.9328    93.6493     0.0152     2.4326   -90.2411     7.4176     7.0436     7.3945
  812.0000     0.3606    10.9496    90.7717     0.0199     2.4469   -90.9734     7.4752     7.1468     7.2978
  812.5000     0.3594    10.9516    88.3406     0.0109     2.4508   -90.9492     7.5856     7.2599     7.3027
  813.0000     0.3539    10.9535    86.3559     0.0058     2.4306   -91.0824     7.6977     7.5132     7.3077
  813.5000     0.3545    10.9558    86.6033     0.0036     2.4119   -91.2094     7.8380     7.7294     7.3635
  814.0000     0.3605    10.9424    90.1976     0.0097     2.4308   -91.1792     8.0211     8.0629     7.5232
  814.5000     0.3605    10.9448    93.5703     0.0083     2.4361   -91.1550     8.1600     8.3526     7.7398
  815.0000     0.3586    10.9611    95.6037     0.0047     2.4347   -91.1309     8.3938     8.6528     8.1298
  815.5000     0.3535    10.9481    96.7442     0.0131     2.4378   -91.2580     8.5770     8.9018     8.5394
  816.0000     0.3430    10.9506    96.0990     0.0087     2.4341   -91.2330     8.7642     9.0321     8.8462
  816.5000     0.3295    10.9227    91.6592     0.0216     2.4402   -91.2036     8.9555     9.1643     9.1009
