~VERSION INFORMATION
 VERS.                2.0:   CWLS LOG ASCII STANDARD - VERSION 2.0
 WRAP.                 NO:   ONE LINE PER DEPTH STEP
~WELL INFORMATION
#MNEM.UNIT      DATA TYPE    INFORMATION
#----------   ------------   ------------------------------
 STRT.F           44.0000:   START DEPTH
 STOP.F         6166.0000:   STOP DEPTH
 STEP.F            0.5000:   STEP LENGTH
 NULL.          -999.2500:   NO VALUE
 COMP.   TESORO PETROLEUM:   COMPANY
 WELL. TESORO 11X NPR #3-23:   WELL
 FLD .             TEAPOT:   FIELD
 LOC .      S23 T38N R78W:   LOCATION
 CNTY.            NATRONA:   COUNTY
 STAT.            WYOMING:   STATE
 CTRY. UNITED STATES OF AMERICA:   COUNTRY
 SRVC.       SCHLUMBERGER:   SERVICE COMPANY
 DATE.        29-OCT-1968:   LOGDATE
 API .     49025100170000:   API NUMBER
~CURVE INFORMATION
#MNEM.UNIT       API CODE    CURVE DESCRIPTION
#----------   ------------   ------------------------------
 DEPT.F                  :   
 SN  .OHMM   05 040 18 00:   SHORT NORMAL 18"
 RES .OHMM   05 000 00 00:   RESISTIVITY
 ILD .OHMM   05 120 46 00:   INDUCTION LOG DEEP RESISTIVITY
 SPR .MV     05 010 01 00:   SPONTANEOUS POTENTIAL FROM RES.
~PARAMETER INFORMATION
#MNEM.UNIT          VALUE    DESCRIPTION
#----------   ------------   ------------------------------
 EKB .F         5283.0000:   Kelly bushing
 EGL .F         5272.0000:   Ground level
 EDF .F            0.0000:   Drilling floor
 TD  .F         6171.0000:   Total depth
 CLNT.            A2DTECH:   Client Code
 SL  . 380' FNL & 380' FWL:   Surface Location
 PD  .                 GL:   Permanent Datum
 EPD .F              5272:   Elevation Permanent Datum
 LMF .                 KB:   Log Measured From
 DMF .                 KB:   Drilling Measured From
 DAPD.F                11:   Feet Above Permanent Datum
 DATE.        29-OCT-1968:   Date Logged [DD-MMM-YYYY]
 DD  .F              6171:   Depth driller
 DL  .F              6167:   Depth logger
 BLI .F              6166:   Bottom log interval
 TLI .F               975:   Top log interval
 CS1 .IN            10.75:   Casing size
 CBD1.      10.75" @ 975':   Casing driller 1
 CBL1.F               975:   Casing logger 1
 BS1 .IN            9.125:   Bit size
 BSD1.F              6171:   Depth drilled with bit1
 DFT .           GEL-CHEM:   Type fluid in hole
 DFD .                9.6:   Density
 DFV .                 61:   Viscosity
 DFPH.                 10:   pH
 DFL .                6.8:   Fluid loss
 MSS .           FLOWLINE:   Source of sample
 RMS .OHMM           0.89:   Rm
 MST .F                80:   Rm Meas. temp.
 RMF .OHMM           0.60:   Rmf
 MFST.F                80:   Rmf Meas. temp.
 MFSS.               MEAS:   Source Rmf.
 RMB .OHMM           0.45:   Rm. at BHT
 BHT .F               160:   BHT.
 TCS .HRS               4:   Time Circ. stopped
 MRT .F               160:   Maximum recorded temp.
 LUN .               7041:   Logging unit number
 LUL .               CSPR:   Logging unit location
 ENGI.            MANGOLD:   Recorded By
 WITN.                MAY:   Witnessed by
 ORIG.         2.5" PRINT:   Origin of data
 UWI .     49025100170000:   Unique Well ID
 DICO. A2D TECHNIOLOGIES,INC.:   Digitizing Company
~OTHER INFORMATION
~A  DEPTH       SN        RES        ILD        SPR
# ...
  847.0000    10.9453    10.4496     8.3495   -10.9091
  847.5000    10.7778    10.7742     8.3514   -10.9091
  848.0000    10.6303    10.9907     8.3528   -10.9091
  848.5000    10.6242    11.1527     8.5063   -10.9091
  849.0000    10.6182    11.4983     8.5077   -10.9091
  849.5000    10.5293    11.6519     8.6612   -10.6061
  850.0000    10.3021    11.8055     8.6626   -10.6061
  850.5000    10.2964    11.8048     8.6641   -10.1778
  851.0000    10.2222    11.9584     8.5136   -10.0000
  851.5000    10.1293    11.9698     8.5152    -9.5232
  852.0000     9.9758    12.1112     8.4661    -9.3939
  852.5000     9.9697    12.1103     8.3660    -9.3939
  853.0000     9.9051    12.1096     8.3678    -9.3939
  853.5000     9.7293    12.1545     8.3696    -9.3939
  854.0000     9.6474    12.3164     8.3711    -9.3939
  854.5000     9.6417    12.4159     8.2204    -9.6970
  855.0000     9.6360    12.5566     8.2220   -10.0000
  855.5000     9.6303    12.8021     8.2235   -10.0000
  856.0000     9.6242    12.9640     8.2249   -10.3030
  856.5000     9.6182    13.2217     8.2264   -10.4161
  857.0000     9.6647    13.4421     8.3799   -10.6061
  857.5000     9.7576    13.6041     8.3815   -10.7677
  858.0000     9.7503    13.6451     8.3830   -10.9091
  858.5000     9.7446    13.7985     8.3845   -11.2121
  859.0000     9.7389    13.9521     8.3860   -11.5152
  859.5000     9.5817    13.9513     8.3878   -11.8182
  860.0000     9.4242    13.9506     8.3893   -11.8182
  860.5000     9.4182    14.1042     8.3908   -11.5111
  861.0000     9.4121    14.1034     8.3922   -11.2121
  861.5000     9.3414    14.1277     8.3937   -10.8566
  862.0000     9.2485    14.2562     8.3951   -10.5293
  862.5000     9.2415    14.2554     8.3967   -10.0000
  863.0000     9.2358    14.2546     8.3982   -10.0000
  863.5000     9.2300    14.2539     8.3997    -9.6970
  864.0000     9.2242    14.2531     8.4012    -9.8707
  864.5000     9.2182    14.2523     8.4027   -10.0000
  865.0000     9.2121    14.2515     8.4043   -10.0000
  865.5000     9.2061    14.3427     8.4058   -10.0000
  866.0000     9.2000    14.5046     8.4075   -10.0000
  866.5000     9.1929    14.5579     8.4090   -10.3030
  867.0000     9.1879    14.5571     8.4105   -10.3030
  867.5000     9.1814    14.5562     8.4119   -10.3030
  868.0000     9.1757    14.5555     8.4134   -10.3030
  868.5000     9.1697    14.5547     8.4149   -10.6061
  869.0000     9.1636    14.5540     8.4164   -10.6061
  869.5000     9.1576    14.5532     8.4179   -10.6061
  870.0000     9.1515    14.5525     8.4195   -10.6061
  870.5000     9.1455    14.5517     8.4210   -10.6061
  871.0000     9.1386    14.5509     8.4225   -10.6061
  871.5000     9.1328    14.5122     8.4240   -10.6061
  872.0000     9.1271    14.3951     8.4258   -10.3030
  872.5000     9.1212    14.3396     8.4272   -10.3030
  873.0000     9.1152    14.2392     8.4287   -10.0000
  873.5000     9.1091    14.2384     8.4302   -10.0000
  874.0000     9.1030    14.1579     8.4316    -9.9475
  874.5000     9.0970    14.0826     8.4331    -9.6970
  875.0000     9.0900    14.0818     8.4347    -9.6970
  875.5000     9.0842    13.9762     8.4362    -9.6970
  876.0000     9.0785    13.9259     8.4377    -9.6970
  876.5000     9.0727    13.9252     8.4392    -9.8707
  877.0000     9.0667    13.9243     8.4407   -10.0000
  877.5000     9.0606    13.7692     8.4426   -10.3030
  878.0000     9.0545    13.7685     8.4440   -10.3030
  878.5000     8.8970    13.6134     8.4455   -10.6061
  879.0000     8.7383    13.6127     8.4469   -10.6061
  879.5000     8.7326    13.6119     8.4484   -10.9091
  880.0000     8.7269    13.6111     8.4498   -10.9091
  880.5000     8.7212    13.6103     8.4514   -11.2121
  881.0000     8.7152    13.6096     8.3008   -11.2121
  881.5000     8.7091    13.6088     8.3024   -11.0990
  882.0000     8.7030    13.6080     8.3040   -10.3313
  882.5000     8.6970    13.6073     8.3055    -9.8384
  883.0000     8.6909    13.6065     8.3070    -9.3939
  883.5000     8.6848    13.6057     8.3088    -9.3939
  884.0000     8.6788    13.6049     8.3103    -9.3939
  884.5000     8.6727    13.6042     8.3117    -9.3939
  885.0000     8.6667    13.6034     8.1612    -9.3939
  885.5000     8.6606    13.6026     8.1627    -9.3939
  886.0000     8.6545    13.6017     8.1641    -9.3939
  886.5000     8.6485    13.6010     8.1657    -9.6970
  887.0000     8.6424    13.6003     8.1672    -9.6970
  887.5000     8.6354    13.5995     8.1307    -9.7980
  888.0000     8.6297    13.5936     8.0182   -10.0000
  888.5000     8.6240    13.4302     8.0198   -10.0000
  889.0000     8.6182    13.2886     7.8693   -10.0000
  889.5000     8.6121    13.2878     7.8711   -10.0000
  890.0000     8.6061    13.2870     7.8726   -10.0000
  890.5000     8.6000    13.2863     7.8739   -10.3030
  891.0000     8.5939    13.2302     7.8755   -10.0000
  891.5000     8.5868    13.1304     7.8770   -10.0000
  892.0000     8.5811    13.0576     7.8784   -10.0000
  892.5000     8.5754    12.9745     7.8799    -9.6970
  893.0000     8.5697    13.0625     7.8815    -9.6970
  893.5000     8.5636    13.1273     7.8830    -9.6081
  894.0000     8.5576    13.1265     7.8845    -9.3939
  894.5000     8.5515    13.1258     7.8860    -9.0909
  895.0000     8.5455    13.1248     7.8875    -8.7879
  895.5000     8.5382    13.1241     7.8894    -8.4848
  896.0000     8.3810    13.1234     7.8908    -8.4848
  896.5000     8.3753    13.1227     7.8923    -8.7192
  897.0000     8.5211    13.1219     7.8937    -9.3939
  897.5000     8.5152    13.1115     7.8952    -9.6970
  898.0000     8.5091    12.9660     7.8967   -10.0000
  898.5000     8.5030    12.9653     7.7461   -10.0000
  899.0000     8.4970    12.9645     7.7477   -10.0000
  899.5000     8.4909    12.9637     7.7492   -10.0000
  900.0000     8.4839    12.7552     7.7508   -10.0000
  900.5000     8.4782    12.4023     7.6003   -10.0000
  901.0000     8.4725    12.4907     7.6018   -10.0000
  901.5000     8.4667    12.4053     7.5147   -10.0000
  902.0000     8.4606    12.3272     7.4529   -10.0000
  902.5000     8.4545    12.3225     7.3026   -10.0000
  903.0000     8.5071    12.3179     7.3041   -10.0000
  903.5000     8.5939    12.3133     7.3055    -9.6970
  904.0000     8.5868    12.3079     7.3070    -9.6970
  904.5000     8.7333    12.7666     7.3085   -10.0000
  905.0000     8.7269    13.5338     7.3100   -10.0000
  905.5000     8.7212    14.6420     7.3116    -9.9753
  906.0000     8.7152    15.7573     7.3131    -9.6970
  906.5000     8.7434    16.5247     7.4666   -10.0000
  907.0000     8.9071    17.0803     7.6780   -10.0000
  907.5000     9.0000    17.5463     8.1738   -10.3066
  908.0000     9.2958    17.0494     8.6276   -10.6061
  908.5000     9.2901    16.5524     9.0815   -10.9091
  909.0000    10.0419    15.8364     9.3834   -11.2121
  909.5000    10.9453    14.9300     9.5455   -11.6544
  910.0000    11.1010    14.2901     9.6832   -12.2944
  910.5000    11.2369    13.8956     9.6353   -13.0303
  911.0000    11.0788    13.5628     9.2503   -14.2424
  911.5000    10.8566    13.4729     8.8377   -14.8485
  912.0000    10.6808    13.4685     8.3062   -15.4545
  912.5000    10.4536    13.4641     8.3041   -15.4545
  913.0000    10.5697    13.4598     8.3021   -15.4545
  913.5000    10.4112    13.4419     8.3000   -15.4545
  914.0000    10.2540    13.1255     8.2878   -15.4545
  914.5000    10.2484    12.9568     8.1437   -15.4545
  915.0000    10.2424    12.7521     8.1416   -15.1515
  915.5000    10.0848    12.4193     8.1394   -15.1515
  916.0000     9.9273    12.1975     8.1372   -15.1515
  916.5000     9.9212    12.1929     8.1346   -15.1515
  917.0000     9.9142    12.2634     8.1326   -14.8485
  917.5000     9.9086    12.4229     8.2827   -14.8485
  918.0000     9.9029    12.5823     8.2804   -14.8485
  918.5000     9.8970    12.7418     8.4304   -14.8485
  919.0000     9.8535    13.0154     8.4281   -14.5455
  919.5000     9.7333    13.0910     8.4672   -14.5455
