~VERSION INFORMATION
 VERS.                2.0:   CWLS LOG ASCII STANDARD - VERSION 2.0
 WRAP.                 NO:   ONE LINE PER DEPTH STEP
~WELL INFORMATION
#MNEM.UNIT      DATA TYPE    INFORMATION
#----------   ------------   ------------------------------
 STRT.F          740.0000:   START DEPTH
 STOP.F         2749.0000:   STOP DEPTH
 STEP.F            0.5000:   STEP LENGTH
 NULL.          -999.2500:   NO VALUE
 COMP.    FENIX & SCISSON:   COMPANY
 WELL.   FENIX SHX #11-10:   WELL
 FLD .                NPR:   FIELD
 LOC .      S10 T38N R78W:   LOCATION
 CNTY.            NATRONA:   COUNTY
 STAT.            WYOMING:   STATE
 CTRY. UNITED STATES OF AMERICA:   COUNTRY
 SRVC.              WELEX:   SERVICE COMPANY
 DATE.        09-APR-1980:   LOGDATE
 API .     49025108060000:   API NUMBER
~CURVE INFORMATION
#MNEM.UNIT       API CODE    CURVE DESCRIPTION
#----------   ------------   ------------------------------
 DEPT.F                  :   
 GRD .GAPI   45 310 01 00:   GAMMA RAY FROM DENSITY LOG
 CALD.IN     45 280 60 00:   CALIPER FROM DENSITY LOG
 TEND.LBS    45 635 01 00:   TENSION FROM DENSITY LOG
 RHOB.G/C3   45 350 01 00:   BULK DENSITY
 CORR.G/C3   45 356 01 00:   DENSITY CORRECTION
~PARAMETER INFORMATION
#MNEM.UNIT          VALUE    DESCRIPTION
#----------   ------------   ------------------------------
 EKB .F         5287.0000:   Kelly bushing
 EGL .F         5277.0000:   Ground level
 EDF .F            0.0000:   Drilling floor
 EPD .F         5277.0000:   Permanent datum
 TD  .F         2762.0000:   Total depth
 DATE.        09-APR-1980:   Date logged
 CLNT.            A2DTECH:   Client Code
 SL  . 474' FNL & 644' FWL:   Surface Location
 PD  .                 GL:   Permanent Datum
 LMF .                 KB:   Log Measured From
 DMF .                 KB:   Drilling Measured From
 DAPD.F                10:   Feet Above Permanent Datum
 DD  .F              2762:   Depth driller
 DL  .F            2751.5:   Depth logger
 BLI .F              2750:   Bottom log interval
 TLI .F               750:   Top log interval
 CS1 .IN            9.625:   Casing size
 CBD1.      9.625" @ 760':   Casing driller 1
 BS1 .IN             8.75:   Bit size
 BSD1.F              2762:   Depth drilled with bit1
 DFT .                AIR:   Type fluid in hole
 TCS .HRS               3:   Time Circ. stopped
 MRT .F               118:   Maximum recorded temp.
 ENGI.            BENTSEN:   Recorded By
 WITN.           DINSMORE:   Witnessed by
 ORIG.         2.5" PRINT:   Origin of data
 UWI .     49025108060000:   Unique Well ID
 DICO. A2D TECHNOLOGIES, INC.:   Digitizing Company
~OTHER INFORMATION
~A   DEPT       GRD      CALD       TEND       RHOB       CORR   
# ...
  862.0000    67.6040     9.0230  1022.0440     2.5310     0.0740
  862.5000    67.7470     9.0280  1022.0440     2.5490     0.0920
  863.0000    68.1150     9.0310  1022.0440     2.5550     0.0910
  863.5000    68.5220     9.0340  1022.0440     2.5340     0.0820
  864.0000    68.8980     8.9920  1022.0440     2.5220     0.0730
  864.5000    69.3330     8.9350  1022.0440     2.5130     0.0600
  865.0000    69.9800     8.8720  1022.0440     2.5090     0.0430
  865.5000    70.7930     8.8340  1022.0440     2.4830     0.0270
  866.0000    71.5260     8.8380  1022.0440     2.4900     0.0140
  866.5000    72.2060     8.8370  1022.0440     2.4980     0.0300
  867.0000    71.0890     8.8420  1022.0440     2.4750     0.0240
  867.5000    70.0500     8.8530  1022.0440     2.4800     0.0220
  868.0000    70.5180     8.8630  1022.0440     2.4990     0.0370
  868.5000    70.9570     8.8720  1022.0440     2.5030     0.0490
  869.0000    73.1220     8.8830  1022.0440     2.5030     0.0480
  869.5000    73.7140     8.8920  1022.0440     2.5000     0.0470
  870.0000    72.6830     8.9020  1022.0440     2.5030     0.0460
  870.5000    71.7420     8.9130  1022.0440     2.5040     0.0450
  871.0000    70.9410     8.9060  1022.0440     2.4970     0.0370
  871.5000    70.0360     8.8780  1022.0440     2.4900     0.0280
  872.0000    70.9030     8.8520  1022.0440     2.4850     0.0220
  872.5000    72.0400     8.8270  1022.0440     2.4980     0.0320
  873.0000    71.3200     8.8010  1022.0440     2.5110     0.0410
  873.5000    69.2790     8.7750  1022.0440     2.5210     0.0520
  874.0000    68.3120     8.7500  1022.0440     2.5200     0.0540
  874.5000    67.8130     8.7240  1022.0440     2.5140     0.0430
  875.0000    67.2340     8.7430  1022.0440     2.5090     0.0340
  875.5000    66.6410     8.7760  1022.0440     2.5210     0.0380
  876.0000    66.3420     8.8090  1022.0440     2.5230     0.0420
  876.5000    66.3660     8.8410  1022.0440     2.5230     0.0440
  877.0000    66.3660     8.8740  1022.0440     2.5300     0.0420
  877.5000    66.3660     8.9070  1022.0440     2.5440     0.0470
  878.0000    66.3460     8.9400  1022.0440     2.5520     0.0560
  878.5000    66.6180     8.9730  1022.0440     2.5410     0.0480
  879.0000    67.2570     8.9920  1022.0440     2.5270     0.0390
  879.5000    67.8750     8.9770  1022.0440     2.5130     0.0280
  880.0000    68.4880     8.9630  1022.0440     2.5240     0.0400
  880.5000    69.0970     8.9480  1022.0440     2.5410     0.0560
  881.0000    69.7480     8.9330  1022.0440     2.5380     0.0530
  881.5000    69.7930     8.9170  1022.0440     2.5300     0.0500
  882.0000    69.4800     8.8920  1022.0440     2.5200     0.0460
  882.5000    69.2000     8.8640  1022.0440     2.5100     0.0370
  883.0000    68.8940     8.8370  1022.0440     2.5000     0.0250
  883.5000    68.8930     8.8060  1022.0440     2.4900     0.0140
  884.0000    69.3430     8.8080  1022.0440     2.4850     0.0060
  884.5000    69.7610     8.8310  1022.0440     2.4890     0.0100
  885.0000    70.1770     8.8520  1022.0440     2.4950     0.0160
  885.5000    70.5270     8.8720  1022.0440     2.4810     0.0090
  886.0000    70.5310     8.8920  1022.0440     2.4690    -0.0160
  886.5000    70.5400     8.9150  1022.0440     2.4820    -0.0060
  887.0000    70.5360     8.9070  1022.0440     2.4940     0.0220
  887.5000    70.5370     8.8970  1022.0440     2.5070     0.0290
  888.0000    70.5380     8.8850  1022.0440     2.5020     0.0270
  888.5000    70.5360     8.8750  1022.0440     2.5040     0.0250
  889.0000    70.5390     8.8640  1022.0440     2.5180     0.0350
  889.5000    70.5400     8.8520  1022.0440     2.5400     0.0560
  890.0000    70.5270     8.8410  1022.0440     2.5420     0.0670
  890.5000    70.5550     8.8300  1022.0440     2.5300     0.0580
  891.0000    70.5290     8.8190  1022.0440     2.5270     0.0490
  891.5000    70.4310     8.8080  1022.0440     2.5140     0.0400
  892.0000    69.3170     8.7980  1022.0440     2.5050     0.0310
  892.5000    68.2530     8.7980  1022.0440     2.4990     0.0220
  893.0000    68.1610     8.7970  1022.0440     2.4950     0.0250
  893.5000    68.1400     8.7980  1022.0440     2.5040     0.0290
  894.0000    68.1630     8.7970  1022.0440     2.4920     0.0300
  894.5000    68.1480     8.7980  1022.0440     2.4990     0.0260
  895.0000    68.1710     8.7980  1022.0440     2.5070     0.0440
  895.5000    67.9540     8.8130  1022.0440     2.5270     0.0660
  896.0000    67.4740     8.8320  1022.0440     2.5220     0.0570
  896.5000    67.0230     8.8510  1022.0440     2.5100     0.0380
  897.0000    66.5260     8.8710  1022.0440     2.4980     0.0370
  897.5000    66.5370     8.8710  1022.0440     2.4840     0.0270
  898.0000    66.9210     8.8590  1022.0440     2.4690     0.0180
  898.5000    67.2600     8.8470  1022.0440     2.4750     0.0270
  899.0000    67.6010     8.8360  1022.0440     2.4860     0.0360
  899.5000    67.9450     8.8240  1022.0440     2.4970     0.0430
  900.0000    68.2770     8.8130  1022.0440     2.4790     0.0380
  900.5000    68.6600     8.8020  1022.0440     2.4540    -0.0050
  901.0000    68.4270     8.7930  1022.0440     2.4620     0.0040
  901.5000    67.7970     8.7870  1022.0440     2.4830     0.0100
  902.0000    67.1740     8.7800  1022.0440     2.4880     0.0200
  902.5000    67.2730     8.7740  1022.0440     2.4850    -0.0030
  903.0000    67.8760     8.7680  1022.0440     2.4840     0.0070
  903.5000    68.8250     8.7590  1022.0440     2.4760     0.0190
  904.0000    69.9190     8.7740  1022.0440     2.4630     0.0130
  904.5000    71.0300     8.8120  1022.0440     2.4600     0.0060
  905.0000    70.1530     8.8480  1022.0440     2.4760     0.0220
  905.5000    69.1830     8.8860  1022.0440     2.4760     0.0330
  906.0000    68.1120     8.9220  1022.0440     2.4800     0.0300
  906.5000    67.0680     8.9540  1022.0440     2.4980     0.0410
  907.0000    66.4950     8.9320  1022.0440     2.5140     0.0530
  907.5000    66.9480     8.9120  1022.0440     2.5080     0.0480
  908.0000    67.3700     8.8890  1022.0440     2.5000     0.0230
  908.5000    67.8140     8.8670  1022.0440     2.4920     0.0130
  909.0000    68.2580     8.8450  1022.0440     2.4950     0.0150
  909.5000    68.6970     8.8370  1022.0440     2.4980     0.0170
  910.0000    69.1400     8.8370  1022.0440     2.4880     0.0130
  910.5000    69.5830     8.8370  1022.0440     2.4740     0.0010
  911.0000    70.0230     8.8380  1022.0440     2.4700     0.0030
  911.5000    70.4620     8.8510  1022.0440     2.4870     0.0200
  912.0000    70.9160     8.8620  1022.0440     2.5020     0.0340
  912.5000    71.2660     8.8740  1022.0440     2.5180     0.0480
  913.0000    71.5110     8.8850  1022.0440     2.5280     0.0530
  913.5000    71.7800     8.8970  1022.0440     2.5130     0.0420
  914.0000    72.0180     8.9090  1022.0440     2.5170     0.0390
  914.5000    72.2930     8.9080  1022.0440     2.5380     0.0620
  915.0000    71.9290     8.8700  1022.0440     2.5450     0.0720
  915.5000    71.4750     8.8330  1022.0440     2.5350     0.0660
  916.0000    70.9970     8.7960  1022.0440     2.5280     0.0610
  916.5000    70.5380     8.7600  1022.0440     2.5290     0.0640
  917.0000    70.0850     8.7660  1022.0440     2.5350     0.0660
  917.5000    69.5910     8.7730  1022.0440     2.5390     0.0680
  918.0000    69.1610     8.7820  1022.0440     2.5420     0.0540
  918.5000    68.8410     8.7890  1022.0440     2.5150     0.0380
  919.0000    70.0190     8.7970  1022.0440     2.5220     0.0450
  919.5000    71.0680     8.8050  1022.0440     2.5330     0.0540
  920.0000    72.2040     8.8130  1022.0440     2.5250     0.0420
  920.5000    73.2860     8.8210  1022.0440     2.5100     0.0350
  921.0000    74.3950     8.8290  1022.0440     2.5020     0.0390
  921.5000    74.7540     8.8370  1022.0440     2.4940     0.0400
  922.0000    74.7760     8.8430  1022.0440     2.4920     0.0180
  922.5000    74.8130     8.8490  1022.0440     2.4980     0.0290
