~VERSION INFORMATION
 VERS.                2.0:   CWLS LOG ASCII STANDARD - VERSION 2.0
 WRAP.                 NO:   ONE LINE PER DEPTH STEP
~WELL INFORMATION
#MNEM.UNIT      DATA TYPE    INFORMATION
#----------   ------------   ------------------------------
 STRT.F          170.5000:   START DEPTH
 STOP.F         3160.0000:   STOP DEPTH
 STEP.F            0.5000:   STEP LENGTH
 NULL.          -999.2500:   NO VALUE
 COMP.  FENIX AND SCISSON:   COMPANY
 WELL.    FENIX "A" #85-3:   WELL
 FLD .       TEA POT DOME:   FIELD
 LOC .       S3 T38N R78W:   LOCATION
 CNTY.            NATRONA:   COUNTY
 STAT.            WYOMING:   STATE
 CTRY. UNITED STATES OF AMERICA:   COUNTRY
 SRVC.           BIRDWELL:   SERVICE COMPANY
 DATE.        20-DEC-1977:   LOGDATE
 API .     49025104450000:   API NUMBER
~CURVE INFORMATION
#MNEM.UNIT       API CODE    CURVE DESCRIPTION
#----------   ------------   ------------------------------
 DEPT.F                  :   
 CALD.IN     45 280 60 00:   CALIPER FROM DENSITY LOG
 GRD .GAPI   45 310 01 00:   GAMMA RAY FROM DENSITY LOG
 RHOB.G/C3   45 350 01 00:   BULK DENSITY
 CORR.G/C3   45 356 01 00:   DENSITY CORRECTION
 SPR .MV     05 010 01 00:   SPONTANEOUS POTENTIAL
 SN  .OHMM   05 040 00 00:   SHORT NORMAL
 ILD .OHMM   05 120 46 00:   DEEP INDUCTION RESISTIVITY
~PARAMETER INFORMATION
#MNEM.UNIT          VALUE    DESCRIPTION
#----------   ------------   ------------------------------
 EKB .F         5165.0000:   Kelly bushing
 EGL .F         5155.0000:   Ground level
 TD  .F         3151.0000:   Total depth
 DATE.        20-DEC-1977:   Date logged
 CLNT.            A2DTECH:   Client Code
 SL  . 2000' FSL & 100'FEL:   Surface Location
 PD  .                 GL:   Permanent Datum
 EPD .F              5155:   Elevation Permanent Datum
 LMF .                 KB:   Log Measured From
 DMF .                 KB:   Drilling Measured From
 DAPD.F                10:   Feet Above Permanent Datum
 DD  .F              3150:   Depth driller
 DL  .F              3151:   Depth logger
 BLI .F              3146:   Bottom log interval
 TLI .F               200:   Top log interval
 CS1 .IN            8.625:   Casing size
 CBD1.      8.625" @ 223':   Casing driller 1
 BS1 .IN            7.875:   Bit size
 BSD1.F              3150:   Depth drilled with bit1
 DFT .                KCL:   Type fluid in hole
 DFD .                8.9:   Density
 DFV .                 40:   Viscosity
 DFPH.                 11:   pH
 DFL .                7.2:   Fluid loss
 MSS .           FLOWLINE:   Source of sample
 RMS .OHMM            0.4:   Rm
 MST .F                62:   Rm Meas. temp.
 RMF .OHMM           0.48:   Rmf
 MFST.F                63:   Rmf Meas. temp.
 RMC .OHMM           0.52:   Rmc
 MCST.F                63:   Rmc Meas. temp.
 MFSS.               MEAS:   Source Rmf.
 MCSS.               MEAS:   Source Rmc.
 TCS .HRS             3.5:   Time Circ. stopped
 MRT .F               118:   Maximum recorded temp.
 LUN .               2958:   Logging unit number
 LUL .             CASPER:   Logging unit location
 ENGI.             MILLER:   Recorded By
 WITN.         HERRINGTON:   Witnessed by
 ORIG.           5" PRINT:   Origin of data
 UWI .     49025104450000:   Unique Well ID
 DICO. A2D TECHNOLOGIES, INC.:   Digitizing Company
~OTHER INFORMATION
~A   DEPT     CALD        GRD       RHOB        CORR       SPR         SN        ILD   
# ...
 2172.5000     9.5424    89.7235     2.5152     0.0452   -63.6899     9.9822     7.2941
 2173.0000     9.5431    89.9275     2.5282     0.0533   -63.7147    10.0638     7.3522
 2173.5000     9.6436    91.1308     2.5343     0.0553   -63.7394     9.9606     7.4140
 2174.0000     9.7640    98.9126     2.5293     0.0564   -63.7642     9.9432     7.5440
 2174.5000     9.8845   106.6880     2.5314     0.0664   -63.5898     9.9371     7.5358
 2175.0000     9.9651   106.8920     2.5314     0.0725   -63.6146    10.3015     7.6008
 2175.5000     9.7665   102.9208     2.5235     0.0655   -63.6393    10.8761     7.8747
 2176.0000     9.8874    99.3416     2.5255     0.0646   -63.6641    11.1693     8.1620
 2176.5000     9.6484    98.9481     2.5326     0.0506   -63.8880    11.2605     8.4617
 2177.0000     9.4299    98.3585     2.5506     0.0587   -64.3110    11.3550     8.7704
 2177.5000     9.2712    96.9721     2.5586     0.0717   -64.7341    11.5539     8.8421
 2178.0000     9.2321    95.5858     2.5597     0.0808   -65.7545    11.7563     8.7514
 2178.5000     9.2529    93.4050     2.5617     0.0938   -66.1775    11.8523     8.7419
 2179.0000     9.2537    93.4099     2.5648     0.1239   -66.7996    11.9491     8.7325
 2179.5000     9.2345    96.2068     2.5578     0.1379   -67.0234    11.9361     8.7230
 2180.0000     9.2154    95.2188     2.5549     0.1530   -67.6454    12.1451     8.7136
 2180.5000     9.2162    96.8213     2.5460     0.1990   -67.4710    12.0205     8.5450
 2181.0000     9.1971   100.8134     2.5240     0.1921   -67.6948    12.0074     8.5357
 2181.5000     9.1979    99.2278     2.4972     0.1641   -68.3316    11.9943     8.4482
 2182.0000     9.2185    98.6367     2.4673     0.0312   -68.3414    11.8712     8.2848
 2182.5000     9.2193    98.6447     2.4394     0.0302   -68.5652    11.8582     8.1998
 2183.0000     9.2201    99.0464     2.5223     0.0928   -68.3907    11.7365     8.1157
 2183.5000     9.2209    99.6569     2.5582     0.1493   -68.0172    11.4037     7.8856
 2184.0000     9.2416   105.4442     2.5752     0.1813   -67.4446    11.2867     7.8048
 2184.5000     9.2424   109.0355     2.5723     0.2145   -67.0711    11.0684     7.4449
 2185.0000     9.2432   108.6476     2.5634     0.2135   -66.6926    11.0563     7.4369
 2185.5000     9.2640   110.2469     2.5535     0.2105   -66.3192    11.0443     7.3607
 2186.0000     9.2847   108.2629     2.5515     0.2126   -65.7466    11.0323     7.2852
 2186.5000     9.2855   107.4741     2.5476     0.2126   -65.3732    11.0203     7.2105
 2187.0000     9.3063   107.2814     2.5376     0.1957   -65.1989    10.9072     7.2028
 2187.5000     9.2872   109.0871     2.4977     0.1457   -65.0245    10.8953     7.1950
 2188.0000     9.2880   109.0903     2.4469     0.0568   -65.0492    10.8835     7.1873
 2188.5000     9.2688   107.1047     2.4479     0.0318   -65.0740    10.7719     7.1795
 2189.0000     9.2896   108.1120     2.4899     0.0179   -65.4968    10.6567     7.2382
 2189.5000     9.3901   108.1201     2.4900     0.0239   -65.7205    10.5520     7.1641
 2190.0000     9.3311   105.9369     2.5160     0.0280   -65.9442    10.4461     7.2227
 2190.5000     9.2720   106.1442     2.5220     0.0340   -66.1680    10.3367     7.0891
 2191.0000     9.2727   108.1410     2.5260     0.0391   -66.1926    10.3255     7.0785
 2191.5000     9.2336   109.5451     2.5221     0.0401   -66.4164    10.3143     7.1994
 2192.0000     9.2344   109.1548     2.5192     0.0442   -66.6401    10.3053     7.1916
 2192.5000     9.2153   106.1748     2.5182     0.0462   -66.4608    10.1996     7.1179
 2193.0000     9.2360   106.5796     2.5133     0.0423   -66.4855    10.1886     7.1761
 2193.5000     9.2568   109.9757     2.5073     0.0453   -66.5101    10.1775     7.1026
 2194.0000     9.3573   110.1830     2.5144     0.0554   -66.3358    10.0731     7.1607
 2194.5000     9.3780   107.8006     2.5284     0.0684   -65.9625    10.0622     7.1530
 2195.0000     9.4187   103.8246     2.5304     0.0825   -65.7882    10.1378     7.1453
 2195.5000     9.3797   100.8446     2.5295     0.1035   -65.8129    10.0404     7.2053
 2196.0000     9.3406    99.6567     2.5275     0.1086   -65.8376    10.0295     7.1975
 2196.5000     9.3214    96.6767     2.5286     0.1286   -65.8623    10.0186     7.1898
 2197.0000     9.2824    99.0752     2.5326     0.1507   -66.0859    10.0077     7.1820
 2197.5000     9.3231   101.2753     2.5327     0.1717   -66.3096     9.9052     7.1743
 2198.0000     9.3637   100.4865     2.5227     0.1478   -66.7322     9.6246     7.1008
 2198.5000     9.4443    99.8969     2.4320     0.0888   -66.9558     9.3519     6.8997
 2199.0000     9.5049    98.9090     2.4280     0.0609   -67.1794     9.2561     6.7014
 2199.5000     9.5057    97.7218     2.4201     0.0130   -67.2041     8.9939     6.4546
 2200.0000     9.4667    97.7299     2.4192     0.0250   -67.2288     8.8201     6.0652
 2200.5000     9.4280    94.7827     2.4855     0.0336   -67.4265     8.5748     5.6992
 2201.0000     9.4283    95.1564     2.5041     0.0451   -67.4803     8.6380     5.6520
 2201.5000     9.4291    93.3724     2.5101     0.0451   -67.5066     8.7880     5.6987
 2202.0000     9.4499    91.7875     2.5061     0.0362   -67.7318     8.7772     6.0696
 2202.5000     9.4906    92.3941     2.4892     0.0252   -67.7581     8.8476     6.1198
 2203.0000     9.5513    90.4106     2.4873     0.0262   -67.9834     8.8368     6.1688
 2203.5000     9.5122    88.6262     2.4913     0.0313   -68.0097     8.8260     6.3291
 2204.0000     9.4533    86.4432     2.4973     0.0403   -68.2349     8.8124     6.2107
 2204.5000     9.4142    87.0497     2.5073     0.0474   -68.0623     8.3308     6.1461
 2205.0000     9.4948    88.2540     2.5204     0.0494   -68.2875     8.0936     5.7536
 2205.5000     9.5555    86.4694     2.5294     0.0464   -68.3086     7.7911     5.5925
 2206.0000     9.4566    85.4817     2.5274     0.0435   -68.9316     7.2267     5.0913
 2206.5000     9.4175    84.4940     2.5175     0.0455   -68.5601     7.1516     4.9009
 2207.0000     9.4383    80.9155     2.5205     0.0556   -68.5864     7.2090     4.8949
 2207.5000     9.4990    78.5359     2.5246     0.0616   -68.6127     7.2686     4.8888
 2208.0000     9.5796    78.5410     2.5196     0.0756   -68.6390     7.3269     4.9737
 2208.5000     9.6603    85.3258     2.5166     0.0907   -69.2620     7.2508     4.7002
 2209.0000     9.7010    86.3311     2.5077     0.1077   -69.2883     7.1754     4.7379
 2209.5000     9.5622    86.9377     2.4818     0.1228   -69.3146     7.2330     4.7771
 2210.0000     9.3437    88.5410     2.4659     0.1378   -69.7492     7.4267     5.1351
 2210.5000     9.3042    89.1478     2.4424     0.1528   -69.5661     7.4176     5.1776
 2211.0000     9.3652    90.7513     2.3870     0.1439   -69.5924     7.2731     5.2675
 2211.5000     9.3860    91.7568     2.3333     0.1379   -69.8176     7.4679     5.2610
 2212.0000     9.4267    96.5464     2.3004     0.1510   -70.0427     7.7389     5.3032
 2212.5000     9.4675   100.1474     2.2944     0.1660   -70.0690     7.8733     5.4452
 2213.0000     9.5082   101.3527     2.2775     0.1860   -70.0953     7.8636     5.6428
 2213.5000     9.5889   104.1529     2.2157     0.2081   -70.1216     8.1490     5.6400
 2214.0000     9.6696    95.3881     2.1069     0.2161   -70.1479     8.5251     6.1741
 2214.5000    10.0498    96.3958     2.0082     0.1472   -70.1741     8.7534     6.3395
 2215.0000    10.1502    99.7906     2.0002     0.1792   -70.2004     8.9054     6.3919
 2215.5000    10.1709   100.9942     1.8703     0.1802   -70.4256     9.1440     6.5013
 2216.0000    10.2715   103.3979     1.8623     0.0243   -70.4519     8.9659     6.5535
 2216.5000    10.4921   101.2156     1.7803    -0.0037   -70.4781     8.8728     6.5454
 2217.0000     9.5946   102.2218     1.7684     0.0104   -70.5044     8.7806     6.5979
 2217.5000     9.5954   107.0150     1.7684     0.0184   -70.5307     8.7698     6.5326
