~VERSION INFORMATION
 VERS.                2.0:   CWLS LOG ASCII STANDARD - VERSION 2.0
 WRAP.                 NO:   ONE LINE PER DEPTH STEP
~WELL INFORMATION
#MNEM.UNIT      DATA TYPE    INFORMATION
#----------   ------------   ------------------------------
 STRT.F          637.0000:   START DEPTH
 STOP.F         3158.0000:   STOP DEPTH
 STEP.F            0.5000:   STEP LENGTH
 NULL.          -999.2500:   NO VALUE
 COMP.    FENIX & SCISSON:   COMPANY
 WELL.  FENIX "AX" #34-33:   WELL
 FLD .             NPR #3:   FIELD
 LOC .      S33 T39N R78W:   LOCATION
 CNTY.            NATRONA:   COUNTY
 STAT.            WYOMING:   STATE
 CTRY. UNITED STATES OF AMERICA:   COUNTRY
 SRVC.       SCHLUMBERGER:   SERVICE COMPANY
 DATE.        15-APR-1977:   LOGDATE
 API .     49025103450000:   API NUMBER
~CURVE INFORMATION
#MNEM.UNIT       API CODE    CURVE DESCRIPTION
#----------   ------------   ------------------------------
 DEPT.F                  :   
 CALD.IN     45 280 60 00:   CALIPER FROM DENSITY LOG
 GRD .GAPI   45 310 01 00:   GAMMA RAY FROM DENSITY LOG
 RHOB.G/C3   45 350 01 00:   BULK DENSITY
 CORR.G/C3   45 356 01 00:   DENSITY CORRECTION
 SPR .MV     07 010 01 00:   SPONTANEOUS POTENTIAL
 SFLU.OHMM   07 220 01 00:   SPHERICALLY FOCUSED LOG UNAVERAGED RESISTIVITY
 ILD .OHMM   07 120 46 00:   INDUCTION LOG DEEP RESISTIVITY
 ILM .OHMM   07 120 44 00:   INDUCTION LOG MEDIUM RESISTIVITY
~PARAMETER INFORMATION
#MNEM.UNIT          VALUE    DESCRIPTION
#----------   ------------   ------------------------------
 EKB .F         5196.0000:   Kelly bushing
 EGL .F         5185.0000:   Ground level
 EDF .F            0.0000:   Drilling floor
 TD  .F         3159.0000:   Total depth
 DATE.        15-APR-1977:   Date logged
 CLNT.            A2DTECH:   Client Code
 SL  . 2132' FNL & 1750' FWL:   Surface Location
 PD  .                 GL:   Permanent Datum
 EPD .F              5185:   Elevation Permanent Datum
 LMF .                 KB:   Log Measured From
 DMF .                 KB:   Drilling Measured From
 DAPD.F                11:   Feet Above Permanent Datum
 DD  .F              3156:   Depth driller
 DL  .F              3159:   Depth logger
 BLI .F              3153:   Bottom log interval
 TLI .F               637:   Top log interval
 CS1 .IN            8.625:   Casing size
 CBD1.      8.625" @ 637':   Casing driller 1
 CBL1.F               637:   Casing logger 1
 BS1 .IN            7.875:   Bit size
 BSD1.F              3156:   Depth drilled with bit1
 DFT .                FGM:   Type fluid in hole
 DFD .                7.5:   Density
 DFV .                 35:   Viscosity
 DFPH.                8.5:   pH
 DFL .                  9:   Fluid loss
 MSS .                PIT:   Source of sample
 RMS .OHMM            .48:   Rm
 MST .F                60:   Rm Meas. temp.
 RMF .OHMM            .28:   Rmf
 MFST.F                60:   Rmf Meas. temp.
 MFSS.               MEAS:   Source Rmf.
 RMB .OHMM            .24:   Rm. at BHT
 BHT .F               120:   BHT.
 TCS .HRS            0200:   Time Circ. stopped
 MRT .F               120:   Maximum recorded temp.
 LUN .               7680:   Logging unit number
 LUL .               CSPR:   Logging unit location
 ENGI.             TAYLOR:   Recorded By
 WITN.         PETTINGILL:   Witnessed by
 ORIG.           5" PRINT:   Origin of data
 UWI .     49025103450000:   Unique Well ID
 DICO. A2D TECHNOLOGIES, INC.:   Digitizing Company
 TLAB.               0530:   Time logger at bottom
~OTHER INFORMATION
~A   DEPT       CALD      GRD       RHOB       CORR        SPR         SFLU        ILD        ILM 
# ...
  799.0000     9.1032    79.0698     2.5164     0.0668   -46.8130    10.3181    11.5113     9.9153
  799.5000     9.1014    79.2739     2.5275     0.0798   -46.8125    10.3181    11.6278     9.9457
  800.0000     9.0678    79.6810     2.6056     0.0898   -46.8120    10.3182    11.5215    10.1303
  800.5000     9.0724    80.1323     2.6156     0.1319   -46.9856    10.2923    11.4383    10.2237
  801.0000     9.0771    80.4900     2.6086     0.1129   -47.0102    10.2672    11.3178    10.2237
  801.5000     9.0817    80.6953     2.5476     0.1029   -47.2090    10.2421    11.1985    10.1301
  802.0000     9.0863    81.2989     2.5246     0.0819   -47.2086    10.2171    11.1053    10.0373
  802.5000     9.0910    81.7032     2.5386     0.0989   -47.6064    10.1922    11.0397     9.9454
  803.0000     9.0956    81.9084     2.5416     0.0879   -47.6060    10.1674    10.9745     9.9453
  803.5000     9.1002    82.1123     2.5247     0.0879   -47.8047    10.1426    10.9097     9.9453
  804.0000     9.1049    82.3186     2.5107     0.0779   -48.0034    10.1179    10.8453     9.9452
  804.5000     9.1095    82.3246     2.5027     0.0769   -48.2021    10.0932    10.7813     9.9452
  805.0000     9.1141    81.1384     2.5267     0.0780   -48.2017    10.0686    10.7176    10.0369
  805.5000     9.1188    81.9372     2.5307     0.0740   -48.4003    10.0440    10.6543    10.0368
  806.0000     9.1234    82.3425     2.5328     0.0700   -48.3999     9.8539    10.5914    10.0368
  806.5000     9.1280    81.9491     2.5298     0.0660   -48.3995     9.8538    10.5288     9.9448
  807.0000     9.1327    79.9658     2.5198     0.0730   -48.3989     9.8538    10.4667     9.8538
  807.5000     9.1373    79.9731     2.5128     0.0680   -48.3987     9.6742    10.3172     9.5856
  808.0000     9.1419    81.1722     2.4968     0.0725   -48.3979     9.5856    10.1337     9.3248
  808.5000     9.1466    83.1672     2.5118     0.0769   -48.3977     9.4978     9.9534     9.1549
  809.0000     9.1512    83.9704     2.5219     0.0814   -48.3970     9.3520     9.7763     8.9880
  809.5000     9.1558    80.9925     2.5289     0.1011   -48.3964     9.2084     9.6024     8.9057
  810.0000     9.1605    81.1975     2.5349     0.0981   -48.3959     9.0669     9.4315     8.7433
  810.5000     9.1651    82.3486     2.5269     0.0921   -48.5948     8.9277     9.2637     8.6632
  811.0000     9.1697    83.8893     2.5209     0.0871   -48.5942     8.7906     9.0707     8.4275
  811.5000     9.1744    85.7424     2.5200     0.0921   -48.5936     8.6556     8.9877     8.3503
  812.0000     9.1790    89.7286     2.5230     0.0962   -48.5931     8.5227     8.8892     8.1981
  812.5000     9.1836    89.7293     2.5260     0.1182   -48.7918     8.3501     8.7919     8.1230
  813.0000     9.1883    89.5372     2.5410     0.1052   -48.7913     8.3501     8.6956     8.0486
  813.5000     9.1929    88.7427     2.5441     0.0822   -48.7908     8.2736     8.6004     7.9019
  814.0000     9.1975    88.2068     2.5351     0.0962   -49.1887     8.1978     8.5062     7.8855
  814.5000     9.2022    89.4068     2.5291     0.1022   -49.3873     8.1516     8.4130     7.8691
  815.0000     9.2068    89.4123     2.5211     0.0802   -49.7851     8.1057     8.3498     7.8528
  815.5000     9.2114    88.4236     2.5111     0.0702   -49.9838     8.0482     8.4269     7.8292
  816.0000     9.2161    86.6397     2.5051     0.0663   -50.1824     8.0481     8.3883     7.8292
  816.5000     9.2472    85.6513     2.4992     0.0583   -50.3811     8.0481     8.3498     7.8291
  817.0000     9.2419    88.4405     2.5212     0.0723   -50.5797     8.0480     8.3116     7.7896
  817.5000     9.2366    90.6329     2.5342     0.0773   -50.7783     8.0234     8.3494     7.7573
  818.0000     9.2313    91.6324     2.5292     0.1053   -50.7778     7.9988     8.3494     7.6862
  818.5000     9.2260    92.6294     2.5262     0.0873   -50.9765     7.9741     8.1972     7.6862
  819.0000     9.2207    90.4506     2.5223     0.0713   -50.7768     7.8287     8.0606     7.6098
  819.5000     9.2154    91.2511     2.5163     0.0713   -50.7763     7.6860     7.9264     7.5343
  820.0000     9.2101    92.6478     2.5103     0.0494   -50.9748     7.5564     7.7944     7.4083
  820.5000     9.2048    95.2367     2.4923     0.0494   -50.9743     7.4290     7.6646     7.2733
  821.0000     9.1995    96.0367     2.4843     0.0568   -50.9738     7.3038     7.5369     7.1080
  821.5000     9.1942    96.4393     2.5034     0.0642   -50.9733     7.1807     7.4114     6.9465
  822.0000     9.1889    95.6497     2.5214     0.0724   -50.9728     7.0596     7.2730     6.7887
  822.5000     9.1836    95.2575     2.5214     0.0954   -50.9723     6.8825     7.2064     6.6345
  823.0000     9.1783    94.0707     2.5134     0.0894   -51.1709     6.8195     7.0367     6.4837
  823.5000     9.1730    93.2813     2.5074     0.0995   -50.9713     6.6338     6.8709     6.3364
  824.0000     9.1677    92.8880     2.4995     0.1085   -51.1699     6.5129     6.7091     6.1925
  824.5000     9.1624    92.0998     2.4855     0.1115   -51.1694     6.5128     6.5128     6.0518
  825.0000     9.1571    91.7069     2.4685     0.0835   -51.1689     6.5127     6.2775     5.9954
  825.5000     9.1518    91.1175     2.4485     0.0875   -51.3675     6.7199     5.9953     5.7258
  826.0000     9.1465    90.7247     2.4195     0.0805   -52.1634     6.9336     5.9403     5.2709
  826.5000     9.1412    90.3329     2.3846     0.1135   -52.5611     7.0745     5.9403     5.0340
  827.0000     9.1359    88.7523     2.3376     0.1286   -52.9587     6.4528     5.8648     4.8521
  827.5000     9.1306    87.1693     2.2066     0.1426   -53.1573     5.0804     5.7784     4.7636
  828.0000     9.1253    86.7779     2.1367     0.1466   -52.9577     4.1497     5.8318     4.7635
  828.5000     9.1226    85.9895     2.0607     0.1746   -52.7581     4.3850     6.0901     5.3684
  829.0000     9.1243    85.5981     2.0487     0.2086   -52.7575     6.3349     6.3598     5.5695
  829.5000     9.1260    87.3906     2.0778     0.1786   -52.5579     7.4069     6.6329     5.7253
  830.0000     9.1277    88.1903     2.2421     0.1886   -52.5574     7.4753     6.8815     5.8854
  830.5000     9.1295    94.3493     2.3997     0.1996   -52.5569     7.5443     7.1927     6.0500
  831.0000     9.1312    98.7212     2.3888     0.2046   -52.3573     7.6139     7.5180     6.3346
  831.5000     9.1329    98.7237     2.3888     0.2016   -52.7549     7.7552     7.8580     6.8169
  832.0000     9.1347    96.1512     2.3998     0.1897   -52.3562     7.8991     8.2134     7.2716
  832.5000     9.1364    91.1951     2.4448     0.1507   -53.1519     7.8991     8.6600     7.4065
  833.0000     9.1381    89.6142     2.4928     0.1167   -52.5542     7.8990     8.6600     7.5439
  833.5000     9.1398    88.6276     2.5298     0.1317   -52.5537     7.7550     8.4242     7.6839
  834.0000     9.1416    87.6411     2.5718     0.1557   -52.3541     7.8377     8.3470     7.7548
  834.5000     9.1433    87.0516     2.5589     0.1487   -52.3535     7.9214     8.3909     7.8264
  835.0000     9.1450    87.2556     2.5559     0.1477   -52.3530     8.0060     8.4240     7.8987
  835.5000     9.1468    89.8402     2.5539     0.1398   -52.3525     8.1196     8.3793     7.8986
  836.0000     9.1485    92.0278     2.5609     0.1258   -52.7501     8.1196     8.2703     7.8985
  836.5000     9.1502    95.6025     2.5559     0.1208   -52.7496     8.0452     8.2396     7.8261
  837.0000     9.1519    95.2120     2.5390     0.1188   -52.7491     8.0211     8.2091     7.8261
  837.5000     9.1537    95.6139     2.5259     0.1018   -52.7485     7.9971     8.1786     7.7543
  838.0000     9.1554    97.6043     2.5200     0.0908   -52.9471     7.9712     8.1483     7.6833
  838.5000     9.1571    96.0209     2.5170     0.1008   -52.9465     7.8982     8.1181     7.6128
  839.0000     9.1589    93.2499     2.5180     0.1069   -53.1451     7.8981     8.0880     7.5431
