~VERSION INFORMATION
 VERS.                2.0:   CWLS LOG ASCII STANDARD - VERSION 2.0
 WRAP.                 NO:   ONE LINE PER DEPTH STEP
~WELL INFORMATION
#MNEM.UNIT      DATA TYPE    INFORMATION
#----------   ------------   ------------------------------
 STRT.F          203.5000:   START DEPTH
 STOP.F         3126.0000:   STOP DEPTH
 STEP.F            0.5000:   STEP LENGTH
 NULL.          -999.2500:   NO VALUE
 COMP.    FENIX & SCISSON:   COMPANY
 WELL. FENIX NPR 3 "AX" #88-33:   WELL
 FLD .        TEAPOT DOME:   FIELD
 LOC .      S33 T39N R78W:   LOCATION
 CNTY.            NATRONA:   COUNTY
 STAT.            WYOMING:   STATE
 CTRY. UNITED STATES OF AMERICA:   COUNTRY
 SRVC.       SCHLUMBERGER:   SERVICE COMPANY
 DATE.        23-JAN-1978:   LOGDATE
 API .     49025105610000:   API NUMBER
~CURVE INFORMATION
#MNEM.UNIT       API CODE    CURVE DESCRIPTION
#----------   ------------   ------------------------------
 DEPT.F                  :   
 CALD.IN     45 280 60 00:   CALIPER FROM DENSITY LOG
 GRD .GAPI   45 310 01 00:   GAMMA RAY FROM DENSITY LOG
 RHOB.G/C3   45 350 01 00:   BULK DENSITY
 CORR.G/C3   45 356 01 00:   DENSITY CORRECTION
 SPR .MV     05 010 01 00:   SPONTANEOUS POTENTIAL
 SN  .OHMM   05 040 16 00:   SHORT NORMAL 16"
 ILD .OHMM   05 120 46 00:   DEEP INDUCTION RESISTIVITY
~PARAMETER INFORMATION
#MNEM.UNIT          VALUE    DESCRIPTION
#----------   ------------   ------------------------------
 EKB .F         5174.0000:   Kelly bushing
 EGL .F         5164.0000:   Ground level
 EDF .F            0.0000:   Drilling floor
 TD  .F         3115.0000:   Total depth
 DATE.        23-JAN-1978:   Date logged
 CLNT.            A2DTECH:   Client Code
 PD  .                 GL:   Permanent Datum
 EPD .F              5164:   Elevation Permanent Datum
 LMF .                 KB:   Log Measured From
 DMF .                 KB:   Drilling Measured From
 DD  .F              3115:   Depth driller
 DL  .F              3115:   Depth logger
 BLI .F              3115:   Bottom log interval
 TLI .F               210:   Top log interval
 CS1 .IN            8.625:   Casing size
 CBD1.      9.625" @ 219':   Casing driller 1
 CBL1.F               219:   Casing logger 1
 BS1 .IN            7.875:   Bit size
 BSD1.F              3115:   Depth drilled with bit1
 DFT .                GEL:   Type fluid in hole
 DFD .                8.9:   Density
 DFV .                 36:   Viscosity
 DFPH.                 10:   pH
 DFL .                7.8:   Fluid loss
 MSS .           FLOWLINE:   Source of sample
 RMS .OHMM            2.2:   Rm
 MST .F                62:   Rm Meas. temp.
 RMF .OHMM           1.94:   Rmf
 MFST.F                54:   Rmf Meas. temp.
 RMC .OHMM            3.4:   Rmc
 MCST.F                54:   Rmc Meas. temp.
 MFSS.               MEAS:   Source Rmf.
 MCSS.               MEAS:   Source Rmc.
 RMB .OHMM            1.1:   Rm. at BHT
 BHT .F               114:   BHT.
 TCS .HRS             4.5:   Time Circ. stopped
 MRT .F               114:   Maximum recorded temp.
 LUN .               2958:   Logging unit number
 LUL .             CASPER:   Logging unit location
 ENGI.           REYNOLDS:   Recorded By
 WITN.           MCGINLEY:   Witnessed by
 ORIG.           5" PRINT:   Origin of data
 UWI .     49025105610000:   Unique Well ID
 DICO. A2D TECHNOLOGIES, INC.:   Digitizing Company
 DAPD.F              5164:   Feet Above Permanent Datum
 SL  . 100' FSL & 550' FEL:   Surface Location
~OTHER INFORMATION
~A   DEPT     CALD        GRD       RHOB       CORR        SPR         SN        ILD   
# ...
 1159.0000    10.7938   104.6635     2.5229     0.1291   -42.5081     6.9242     7.3875
 1159.5000    10.7938   104.6635     2.5119     0.1231   -42.5061     6.8612     7.3202
 1160.0000    10.7938   104.8619     2.4969     0.1231   -42.5041     6.8011     7.1865
 1160.5000    10.7938   106.6476     2.4909     0.1211   -42.7009     6.7415     7.1870
 1161.0000    10.7938   106.8460     2.4819     0.1251   -42.6989     6.6755     7.2542
 1161.5000    10.8137   105.8540     2.4731     0.1410   -42.6968     6.6759     7.1879
 1162.0000    10.8137   105.6556     2.4711     0.1550   -42.4960     6.6763     7.1222
 1162.5000    10.8137   105.6556     2.4839     0.1590   -42.4940     6.6766     7.2556
 1163.0000    10.8335   106.6476     2.4999     0.1590   -42.0944     6.6772     7.0576
 1163.5000    10.8335   105.0603     2.5009     0.1610   -41.8935     6.6776     7.1898
 1164.0000    10.8335   103.8698     2.4981     0.1610   -41.8915     6.6779     7.0585
 1164.5000    10.8137   101.8857     2.4901     0.1630   -41.8895     6.6783     6.9940
 1165.0000    10.8137   100.7227     2.4962     0.1670   -42.0863     6.6175     6.9945
 1165.5000    10.8137   105.4571     2.4962     0.1690   -42.0847     6.6179     6.9949
 1166.0000    10.7938   106.0524     2.4982     0.1710   -42.0827     6.6183     6.9954
 1166.5000    10.7938   107.6610     2.5042     0.1630   -42.0806     6.5580     6.9315
 1167.0000    10.7938   104.0683     2.5048     0.1570   -42.0786     6.5585     6.9964
 1167.5000    10.8533   105.4571     2.5048     0.1550   -42.0766     6.4987     6.9324
 1168.0000    10.7740   104.8619     2.5048     0.1550   -42.0746     6.4395     6.9325
 1168.5000    10.7938   105.2587     2.5028     0.1510   -42.0726     6.4996     6.8693
 1169.0000    10.7938   104.0683     2.4988     0.1510   -42.0706     6.5602     6.8699
 1169.5000    10.7938   105.2587     2.4948     0.1530   -42.0685     6.5605     6.8704
 1170.0000    10.7938   102.6794     2.4938     0.1530   -42.0665     6.5609     6.9990
 1170.5000    10.7938   101.4889     2.4948     0.1569   -42.0645     6.6221     6.9994
 1171.0000    10.8335    99.9016     2.4928     0.1649   -42.2613     6.6840     6.9998
 1171.5000    10.7938   100.1000     2.4858     0.1889   -42.2593     6.6843     7.0003
 1172.0000    10.8137   100.6952     2.4818     0.2128   -42.4561     6.6847     7.1313
 1172.5000    10.8137   101.8857     2.4798     0.2328   -42.4545     6.6852     7.1980
 1173.0000    10.8137   103.0762     2.4758     0.2428   -42.6513     6.6856     7.1985
 1173.5000    10.8137   102.6794     2.4748     0.2548   -42.4504     6.7480     7.1989
 1174.0000    10.8137   101.2905     2.4808     0.2621   -42.3354     6.8109     7.1994
 1174.5000    10.8137    99.7032     2.4948     0.2421   -42.3340     6.8113     7.4025
 1175.0000    10.8137   102.0841     2.5177     0.1822   -42.0468     6.9385     7.5409
 1175.5000    10.8137    98.9095     2.5047     0.1469   -41.8459     7.0032     7.6114
 1176.0000    10.8335    98.3143     2.4937     0.1090   -41.8439     7.0685     7.7539
 1176.5000    10.8137    97.9175     2.5137     0.0910   -41.6431     7.0689     7.8991
 1177.0000    10.8137    97.9175     2.4867     0.0910   -41.4423     7.1349     7.8996
 1177.5000    10.8137    98.1159     2.4967     0.0870   -41.2414     7.2681     8.0474
 1178.0000    10.8335    97.7190     2.5127     0.0850   -41.6370     7.2685     8.0479
 1178.5000    10.8137    95.9333     2.5047     0.0910   -41.6350     7.3363     8.1232
 1179.0000    10.8137    95.5365     2.5027     0.0950   -41.8318     7.4047     8.1237
 1179.5000    10.8137    96.3302     2.5017     0.1070   -42.2278     7.4052     8.1242
 1180.0000    10.8533    96.7270     2.5037     0.1149   -42.6234     7.4743     8.1248
 1180.5000    10.8335    97.7190     2.5107     0.1189   -42.6214     7.4062     8.1253
 1181.0000    10.8335    97.3222     2.5187     0.1169   -42.8182     7.4753     8.1259
 1181.5000    10.8335    96.1317     2.5286     0.1149   -42.8162     7.4071     8.1264
 1182.0000    10.8335    94.9413     2.5003     0.1149   -42.8142     7.4762     8.1269
 1182.5000    10.8335    95.7349     2.5033     0.1149   -42.8122     7.4767     8.2791
 1183.0000    10.8335    96.1317     2.5073     0.1249   -42.8102     7.6163     8.5124
 1183.5000    10.8335    96.1317     2.4857     0.1449   -42.6093     7.6876     8.5920
 1184.0000    10.8335    96.5286     2.4957     0.1628   -42.6073     7.8309     8.6723
 1184.5000    10.8137    96.3302     2.5037     0.1648   -42.6053     7.9039     8.6727
 1185.0000    10.7938    96.5286     2.5066     0.1668   -42.4045     7.9776     9.0001
 1185.5000    10.8137    96.7270     2.5056     0.1748   -42.2036     7.9781     9.0005
 1186.0000    10.8533    96.3302     2.4917     0.1888   -42.2016     8.0525     9.2544
 1186.5000    10.8137    95.1397     2.4897     0.1948   -42.1996     8.0531     9.2550
 1187.0000    10.8137    93.3540     2.4896     0.2048   -41.9992     8.1282     9.1705
 1187.5000    10.8137    92.7587     2.4936     0.2028   -41.9972     8.1287     9.2562
 1188.0000    10.8137    92.5603     2.5176     0.2048   -42.1940     8.1293     9.2568
 1188.5000    10.8137    93.1556     2.5276     0.1588   -42.1919     8.2051     9.5176
 1189.0000    10.8137    93.7508     2.5316     0.1249   -42.1899     8.4357     9.5184
 1189.5000    10.8137    93.9492     2.5176     0.1089   -42.1879     8.4363     9.9693
 1190.0000    10.8137    93.9492     2.5006     0.1089   -42.3847     8.5150     9.9699
 1190.5000    10.8137    94.7429     2.4986     0.1149   -42.5815     8.5155    10.0633
 1191.0000    10.8137    94.7429     2.4996     0.1189   -42.5795     8.7548     9.9711
 1191.5000    10.8137    93.7508     2.5026     0.1208   -42.5775     8.8365     9.9718
 1192.0000    10.8137    94.1476     2.5106     0.1228   -42.7743     8.8371    10.1586
 1192.5000    10.8137    94.3460     2.5126     0.1268   -42.7722     8.8376    10.1592
 1193.0000    10.8137    93.9492     2.5066     0.1388   -42.7702     8.8382    10.1599
 1193.5000    10.8137    93.9492     2.5056     0.1488   -42.7682     8.8388    10.1606
 1194.0000    10.8137    93.5524     2.5145     0.1528   -43.3626     8.8394    10.1613
 1194.5000    10.8137    92.1635     2.5215     0.1528   -43.5598     8.8400    10.1619
 1195.0000    10.8137    90.9730     2.5225     0.1448   -43.7566     8.8406    10.1626
 1195.5000    10.8137    90.1794     2.5165     0.1388   -44.1522     8.8411    10.1633
 1196.0000    10.8137    89.5841     2.5005     0.1308   -43.9502     8.8417    10.2584
 1196.5000    10.8137    89.1873     2.5015     0.1268   -43.9494     8.8423    10.1647
 1197.0000    10.8137    89.3857     2.5015     0.1208   -43.5497     8.8429    10.1653
 1197.5000    10.7938    90.3778     2.5015     0.1188   -43.1501     8.8435    10.1659
 1198.0000    10.7938    90.7746     2.5015     0.1108   -42.5517     8.9259    10.2610
 1198.5000    10.7938    90.9730     2.5025     0.1068   -41.9532     9.0091    10.1672
 1199.0000    10.7938    90.3778     2.4965     0.1088   -41.9512     9.0097    10.1679
 1199.5000    10.8137    90.1794     2.4925     0.1108   -41.9492     9.0938    10.2630
 1200.0000    10.8137    90.7746     2.4925     0.1168   -41.9472     9.2637    10.3590
 1200.5000    10.8137    91.2939     2.4935     0.1218   -42.1117     9.1856    10.7627
 1201.0000    10.8137    91.3695     2.4945     0.1248   -42.3396     9.2655    11.0537
 1201.5000    10.8137    90.9725     2.4965     0.1268   -42.7352     9.2664    11.2611
 1202.0000    10.8137    91.5676     2.4975     0.1328   -42.7347     9.6155    11.3668
 1202.5000    10.8137    91.5674     2.4965     0.1328   -43.0987     9.8862    11.7961
 1203.0000    10.8137    91.7657     2.4885     0.1328   -43.3244     9.9787    12.1288
 1203.5000    10.8138    91.5671     2.4845     0.1388   -43.1210    10.1655    12.5872
 1204.0000    10.8138    89.7809     2.4815     0.1408   -43.1199    10.4516    12.9424
