~VERSION INFORMATION
 VERS.                2.0:   CWLS LOG ASCII STANDARD - VERSION 2.0
 WRAP.                 NO:   ONE LINE PER DEPTH STEP
~WELL INFORMATION
#MNEM.UNIT      DATA TYPE    INFORMATION
#----------   ------------   ------------------------------
 STRT.F          204.0000:   START DEPTH
 STOP.F         3104.0000:   STOP DEPTH
 STEP.F            0.5000:   STEP LENGTH
 NULL.          -999.2500:   NO VALUE
 COMP.    FENIX & SCISSON:   COMPANY
 WELL. FENIX NPR 83 "AX" #3-10:   WELL
 FLD .                NPR:   FIELD
 LOC .      S10 T38N R78W:   LOCATION
 CNTY.            NATRONA:   COUNTY
 STAT.            WYOMING:   STATE
 CTRY. UNITED STATES OF AMERICA:   COUNTRY
 SRVC.              WELEX:   SERVICE COMPANY
 DATE.        14-JUL-1977:   LOGDATE
 API .     49025103980000:   API NUMBER
~CURVE INFORMATION
#MNEM.UNIT       API CODE    CURVE DESCRIPTION
#----------   ------------   ------------------------------
 DEPT.F                  :   
 ILD .OHMM   07 120 46 00:   DEEP INDUCTION RESISTIVITY
 GURD.OHMM   07 220 05 00:   GUARD LOG RESISTIVITY
 ILM .OHMM   07 120 44 00:   INDUCTION LOG MEDIUM RESISTIVITY
 SPR .MV     07 010 01 00:   SPONTANEOUS POTENTIAL
 CALD.IN     45 280 60 00:   CALIPER FROM DENSITY LOG
 GRD .GAPI   45 310 01 00:   GAMMA RAY FROM DENSITY LOG
 RHOB.G/C3   45 350 01 00:   BULK DENSITY
 CORR.G/C3   45 356 01 00:   DENSITY CORRECTION
 NPHI.DEC    42 890 03 00:   NEUTRON POROSITY SANDSTONE
~PARAMETER INFORMATION
#MNEM.UNIT          VALUE    DESCRIPTION
#----------   ------------   ------------------------------
 EKB .F         5176.0000:   Kelly bushing
 EGL .F         5166.0000:   Ground level
 TD  .F         3105.0000:   Total depth
 DATE.        14-JUL-1977:   Date logged
 CLNT.            A2DTECH:   Client Code
 SL  . 1650' FNL & 100' FEL:   Surface Location
 PD  .                 GL:   Permanent Datum
 DD  .F              3094:   Depth driller
 DL  .F              3105:   Depth logger
 BLI .F              3103:   Bottom log interval
 CS1 .IN            8.625:   Casing size
 CBD1.      8.625" @ 218':   Casing driller 1
 CBL1.F               220:   Casing logger 1
 BS1 .IN            7.875:   Bit size
 DFT .            KCL/GEL:   Type fluid in hole
 DFD .                9.4:   Density
 DFV .                 36:   Viscosity
 DFPH.                  8:   pH
 DFL .                 12:   Fluid loss
 MSS .           FLOWLINE:   Source of sample
 RMS .OHMM           1.54:   Rm
 MST .F               100:   Rm Meas. temp.
 RMF .OHMM            1.5:   Rmf
 MFST.F               100:   Rmf Meas. temp.
 RMC .OHMM           3.47:   Rmc
 MCST.F               100:   Rmc Meas. temp.
 MFSS.               FANN:   Source Rmf.
 RMB .OHMM           1.36:   Rm. at BHT
 BHT .F               113:   BHT.
 TCS .HRS             2.5:   Time Circ. stopped
 MRT .F               113:   Maximum recorded temp.
 LUN .               8766:   Logging unit number
 LUL .             CASPER:   Logging unit location
 ENGI. G. BENTSEN/T. JOYNER:   Recorded By
 WITN.      B. HARRINGTON:   Witnessed by
 ORIG.           5" PRINT:   Origin of data
 UWI .     49025103980000:   Unique Well ID
 DICO. A2D TECHNOLOGIES, INC.:   Digitizing Company
 DAPD.F                10:   Feet Above Permanent Datum
 BSD1.F              3094:   Depth drilled with bit1
 MCSS.                KIT:   Source Rmc.
 TLI .F               210:   Top log interval
 EPD .F              5166:   Elevation Permanent Datum
 LMF .                 KB:   Log Measured From
 DMF .                 KB:   Drilling Measured From
~OTHER INFORMATION
~A   DEPT      ILD       GURD        ILM        SPR       CALD        GRD       RHOB       CORR       NPHI   
# ...
  788.0000     6.8190     8.1000     7.3110   -61.6830    10.1730   104.1730     2.5020     0.0340     0.2840
  788.5000     6.9480     8.1430     7.4840   -61.6830    10.1750   105.7370     2.4930     0.0300     0.2830
  789.0000     7.0770     8.2200     7.6560   -61.6830    10.1770   105.6860     2.4840     0.0270     0.2820
  789.5000     7.2060     8.3240     7.8290   -61.6830    10.1790   103.3280     2.4750     0.0240     0.2810
  790.0000     7.3350     8.4280     8.0020   -61.6830    10.1810   100.9490     2.4670     0.0230     0.2810
  790.5000     7.4640     8.5310     8.1740   -61.6830    10.1830   100.6600     2.4680     0.0260     0.2810
  791.0000     7.5920     8.6350     8.3930   -61.6830    10.1850   102.5760     2.4740     0.0270     0.2810
  791.5000     7.7210     8.7390     8.2790   -61.6830    10.1860   104.5040     2.4790     0.0310     0.2800
  792.0000     7.8500     8.8430     8.1240   -61.6830    10.1960   106.4760     2.4840     0.0350     0.2790
  792.5000     7.9790     8.8710     7.9690   -61.6830    10.2060   106.0860     2.4900     0.0390     0.2770
  793.0000     8.0380     8.7980     7.8140   -61.6830    10.2160   104.7500     2.4950     0.0400     0.2760
  793.5000     8.0830     8.7430     7.6590   -61.6830    10.2260   103.3480     2.4990     0.0410     0.2760
  794.0000     8.1280     8.6880     7.5050   -61.6830    10.2360   104.1010     2.4890     0.0390     0.2740
  794.5000     8.1730     8.6280     7.3500   -61.6830    10.2460   105.5170     2.4780     0.0310     0.2720
  795.0000     8.2180     8.6280     7.3070   -61.6830    10.2560   107.5480     2.4670     0.0240     0.2710
  795.5000     8.2630     8.6900     7.3310   -61.6830    10.2670   106.5000     2.4590     0.0190     0.2710
  796.0000     8.3080     8.7360     7.3570   -61.6830    10.2770   105.2630     2.4640     0.0210     0.2710
  796.5000     8.3530     8.7820     7.3840   -61.6830    10.2870   104.0380     2.4770     0.0260     0.2710
  797.0000     8.3990     8.8290     7.4100   -61.6830    10.2970   102.9480     2.4910     0.0300     0.2710
  797.5000     8.4440     8.8750     7.4360   -61.6830    10.3070   103.2280     2.5040     0.0350     0.2720
  798.0000     8.4890     8.9210     7.4630   -61.6830    10.3180   103.5610     2.5060     0.0390     0.2740
  798.5000     8.5340     8.9670     7.4890   -61.6830    10.3390   103.8890     2.5040     0.0410     0.2770
  799.0000     8.5790     9.0140     7.5160   -61.6830    10.3510   104.2170     2.4970     0.0390     0.2800
  799.5000     8.6280     9.0600     7.5420   -61.6830    10.3240   104.5480     2.4900     0.0370     0.2820
  800.0000     8.6280     9.1200     7.5820   -61.6830    10.3170   104.8840     2.4830     0.0340     0.2860
  800.5000     8.4940     9.1110     7.5570   -61.6850    10.3760   104.5990     2.4770     0.0320     0.2890
  801.0000     8.3710     9.0920     7.5090   -61.6930    10.4230   104.2550     2.4710     0.0340     0.2900
  801.5000     8.2480     9.0730     7.4600   -61.7000    10.4220   103.9130     2.4740     0.0360     0.2920
  802.0000     8.1250     9.0540     7.4120   -61.7080    10.4310   103.5720     2.4770     0.0380     0.2960
  802.5000     8.0030     9.0350     7.3630   -61.7150    10.4520   103.2320     2.4800     0.0380     0.3040
  803.0000     7.9000     9.0160     7.3150   -61.7220    10.4130   102.9300     2.4830     0.0370     0.3130
  803.5000     7.7600     8.9970     7.2660   -61.7300    10.3750   102.7720     2.4860     0.0360     0.3220
  804.0000     7.6200     8.9790     7.2170   -61.7370    10.3380   102.5940     2.4900     0.0360     0.3310
  804.5000     7.4800     8.9600     7.1730   -61.7440    10.3010   102.4170     2.4870     0.0350     0.3390
  805.0000     7.3400     8.8590     7.2370   -61.7520    10.2640   102.2370     2.4840     0.0340     0.3530
  805.5000     7.2330     8.7210     7.3100   -61.7590    10.2270   102.4860     2.4810     0.0340     0.3600
  806.0000     7.2110     8.5820     7.3830   -61.7670    10.1900   103.0880     2.4810     0.0330     0.3610
  806.5000     7.1880     8.4440     7.4560   -61.7740    10.1520   103.6950     2.4830     0.0330     0.3630
  807.0000     7.1650     8.3150     7.5290   -61.7810    10.1460   104.3040     2.4850     0.0330     0.3660
  807.5000     7.1430     8.3100     7.5820   -61.7890    10.1700   104.8940     2.4870     0.0350     0.3680
  808.0000     7.1200     8.3060     7.4990   -61.7960    10.1970   104.7770     2.4930     0.0380     0.3680
  808.5000     7.0980     8.3010     7.4030   -61.8040    10.2230   103.2500     2.5030     0.0400     0.3670
  809.0000     7.0750     8.2960     7.3080   -61.8110    10.2500   101.7460     2.5100     0.0420     0.3640
  809.5000     7.0520     8.2910     7.2130   -61.8180    10.2760   100.1540     2.5160     0.0440     0.3600
  810.0000     7.0300     8.2870     7.1170   -61.8260    10.3030   100.8960     2.5190     0.0450     0.3560
  810.5000     7.0070     8.2820     7.0220   -61.8330    10.3250   102.4170     2.5130     0.0450     0.3520
  811.0000     6.9770     8.2770     6.9130   -61.8410    10.3460   103.9630     2.5070     0.0440     0.3480
  811.5000     7.0090     8.2720     6.9780   -61.8480    10.3680   105.5080     2.5030     0.0440     0.3440
  812.0000     7.0570     8.2670     7.1230   -61.8550    10.3900   105.2660     2.5040     0.0440     0.3410
  812.5000     7.1050     8.2630     7.2670   -61.8630    10.4120   104.7730     2.5060     0.0430     0.3400
  813.0000     7.1540     8.2580     7.4120   -61.8700    10.4070   104.2770     2.5070     0.0450     0.3390
  813.5000     7.2020     8.2530     7.5560   -61.8770    10.3810   103.7830     2.5070     0.0460     0.3380
  814.0000     7.2510     8.2480     7.7950   -61.8850    10.3550   103.3510     2.5000     0.0470     0.3380
  814.5000     7.2990     8.2440     7.7790   -61.8920    10.3290   103.6410     2.4960     0.0480     0.3380
  815.0000     7.3740     8.2390     7.7440   -61.8990    10.3020   103.9380     2.5000     0.0470     0.3390
  815.5000     7.3410     8.2310     7.7090   -61.9070    10.2760   104.2300     2.5020     0.0440     0.3400
  816.0000     7.2650     8.2230     7.6740   -61.9140    10.2500   104.5220     2.4980     0.0420     0.3390
  816.5000     7.1880     8.2150     7.6390   -61.9210    10.2240   104.8140     2.4940     0.0400     0.3370
  817.0000     7.1120     8.2070     7.6040   -61.9290    10.1980   105.1050     2.4890     0.0370     0.3370
  817.5000     7.0360     8.1980     7.5690   -61.9360    10.1860   105.4500     2.4850     0.0370     0.3360
  818.0000     6.9770     8.1900     7.5330   -61.9430    10.1860   105.8960     2.4940     0.0400     0.3340
  818.5000     6.9550     8.1820     7.4980   -61.9500    10.1860   106.3420     2.5050     0.0430     0.3320
  819.0000     6.9330     8.1740     7.4630   -61.9580    10.1860   106.7980     2.5160     0.0460     0.3300
  819.5000     6.9110     8.1660     7.4400   -61.9650    10.1860   107.1520     2.5240     0.0490     0.3270
  820.0000     6.8900     8.1630     7.4290   -61.9720    10.1860   106.3660     2.5230     0.0470     0.3250
  820.5000     6.8680     8.1630     7.4180   -61.9790    10.1860   105.6710     2.5140     0.0450     0.3220
  821.0000     6.8460     8.1630     7.4060   -61.9870    10.1860   104.9880     2.5050     0.0420     0.3200
  821.5000     6.8250     8.1390     7.3950   -61.9940    10.1860   104.3110     2.5040     0.0400     0.3190
  822.0000     6.8030     8.0820     7.3830   -62.0010    10.1860   103.6160     2.5050     0.0370     0.3180
  822.5000     6.7860     8.0140     7.3070   -62.0090    10.1860   104.7710     2.5060     0.0360     0.3190
  823.0000     6.8330     8.0220     7.3140   -62.0160    10.1860   107.2920     2.5010     0.0380     0.3200
  823.5000     6.8710     8.0320     7.3270   -62.0230    10.1860   106.8410     2.4870     0.0380     0.3210
  824.0000     6.9100     8.0420     7.3390   -62.0300    10.1860   105.8690     2.4740     0.0360     0.3210
