~VERSION INFORMATION
 VERS.                2.0:   CWLS LOG ASCII STANDARD - VERSION 2.0
 WRAP.                 NO:   ONE LINE PER DEPTH STEP
~WELL INFORMATION
#MNEM.UNIT      DATA TYPE    INFORMATION
#----------   ------------   ------------------------------
 STRT.F          648.0000:   START DEPTH
 STOP.F         3196.0000:   STOP DEPTH
 STEP.F            0.5000:   STEP LENGTH
 NULL.          -999.2500:   NO VALUE
 COMP.    FENIX & SCISSON:   COMPANY
 WELL.   FENIX "AX" #18-2:   WELL
 FLD .             NPR #3:   FIELD
 LOC .       S2 T38N R78W:   LOCATION
 CNTY.            NATRONA:   COUNTY
 STAT.            WYOMING:   STATE
 CTRY. UNITED STATES OF AMERICA:   COUNTRY
 SRVC.              WELEX:   SERVICE COMPANY
 DATE.        05-OCT-1980:   LOGDATE
 API .     49025108500000:   API NUMBER
~CURVE INFORMATION
#MNEM.UNIT       API CODE    CURVE DESCRIPTION
#----------   ------------   ------------------------------
 DEPT.F                  :   
 GRD .GAPI   45 310 01 00:   GAMMA RAY FROM DENSITY LOG
 CALD.IN     45 280 60 00:   CALIPER FROM DENSITY LOG
 CORR.G/C3   45 356 01 00:   DENSITY CORRECTION
 RHOB.G/C3   45 350 01 00:   BULK DENSITY
 SPR .MV     07 010 01 00:   SPONTANEOUS POTENTIAL FROM RES.
 ILD .OHMM   07 120 46 00:   INDUCTION LOG DEEP RESISTIVITY
 ILM .OHMM   07 120 44 00:   INDUCTION LOG MEDIUM RESISTIVITY
 SGRD.OHMM   07 220 05 00:   SHORT GUARD RESISTIVITY
~PARAMETER INFORMATION
#MNEM.UNIT          VALUE    DESCRIPTION
#----------   ------------   ------------------------------
 EKB .F         5162.0000:   Kelly bushing
 EGL .F         5152.0000:   Ground level
 EDF .F            0.0000:   Drilling floor
 TD  .F         3200.0000:   Total depth
 CLNT.            A2DTECH:   Client Code
 PD  .                 GL:   Permanent Datum
 EPD .F              5152:   Elevation Permanent Datum
 LMF .                 KB:   Log Measured From
 DMF .                 KB:   Drilling Measured From
 DAPD.F                10:   Feet Above Permanent Datum
 DATE.        05-OCT-1980:   Date Logged [DD-MMM-YYYY]
 DD  .F              3200:   Depth driller
 DL  .F              3198:   Depth logger
 BLI .F              3196:   Bottom log interval
 TLI .F               646:   Top log interval
 CS1 .IN            8.625:   Casing size
 CBD1.      8.625" @ 647':   Casing driller 1
 CBL1.F               650:   Casing logger 1
 BS1 .IN            7.875:   Bit size
 BSD1.F              3200:   Depth drilled with bit1
 DFT .           CHEM GEL:   Type fluid in hole
 DFD .                8.6:   Density
 DFV .                 38:   Viscosity
 DFPH.                9.5:   pH
 MSS .           FLOWLINE:   Source of sample
 MFSS.               MEAS:   Source Rmf.
 MCSS.               MEAS:   Source Rmc.
 RMB .OHMM           1.24:   Rm. at BHT
 BHT .F               118:   BHT.
 TCS .HRS               5:   Time Circ. stopped
 MRT .F               118:   Maximum recorded temp.
 LUN .               1892:   Logging unit number
 LUL .             CASPER:   Logging unit location
 ORIG.           5" PRINT:   Origin of data
 UWI .     49025108500000:   Unique Well ID
 DICO. A2D TECHNOLOGIES, INC.:   Digitizing Company
 SL  . 313' FSL & 565' FWL:   Surface Location
 RMS .               2.34:   Rm
~OTHER INFORMATION
~A   DEPT       GRD      CALD       CORR       RHOB        SPR        ILD        ILM       SGRD   
# ...
 2673.0000    49.8759     9.9323     0.0355     2.3960   -33.1442    24.2825    23.5526    23.1156
 2673.5000    50.7653     9.9489     0.0312     2.3849   -33.0137    24.2973    22.2938    27.4634
 2674.0000    48.5819     9.9356     0.0374     2.3857   -32.8832    24.3120    22.1575    29.0206
 2674.5000    46.6153     9.9526     0.0466     2.3941   -32.7525    24.8354    22.4807    29.6271
 2675.0000    45.9683     9.9398     0.0543     2.4069   -32.6202    25.0515    22.9636    29.8320
 2675.5000    46.2010     9.9416     0.0500     2.4130   -32.5942    25.5644    23.2954    29.6271
 2676.0000    50.2168     9.9582     0.0441     2.4153   -32.6950    25.5799    23.4694    29.0206
 2676.5000    52.8281     9.9749     0.0412     2.4102   -32.7977    25.4196    23.6448    28.4266
 2677.0000    53.9407    10.0062     0.0369     2.4103   -32.9001    25.0829    23.8214    28.4266
 2677.5000    55.0532    10.0379     0.0355     2.4089   -33.0023    24.5882    23.6703    27.6534
 2678.0000    55.2860    10.0545     0.0342     2.4030   -33.1045    24.2625    23.3582    27.7581
 2678.5000    55.0756    10.0711     0.0328     2.3964   -33.2068    23.7839    23.0450    27.7604
 2679.0000    54.4286    10.0877     0.0315     2.3928   -33.3090    23.6344    22.5900    28.8033
 2679.5000    54.2243    10.1043     0.0317     2.3929   -33.4112    23.4866    21.9894    29.7776
 2680.0000    54.2375    10.1209     0.0303     2.3953   -33.5135    23.5012    21.6996    27.8088
 2680.5000    54.7162    10.1374     0.0275     2.3937   -33.6157    23.5152    21.4135    26.1499
 2681.0000    55.3661    10.1540     0.0261     2.3932   -33.7180    23.3678    21.4251    26.8955
 2681.5000    56.2587    10.1727     0.0263     2.3911   -33.8204    23.2214    21.4366    28.6325
 2682.0000    56.9281    10.1877     0.0249     2.3844   -33.9271    23.0758    21.4482    27.6773
 2682.5000    55.4046    10.2043     0.0267     2.3770   -33.7808    22.7771    21.4597    26.2063
 2683.0000    55.4174    10.2061     0.0328     2.3779   -33.5378    22.6309    21.6201    25.1579
 2683.5000    56.0900    10.2080     0.0390     2.3930   -33.2927    22.4891    21.6318    26.7955
 2684.0000    56.9826    10.2246     0.0452     2.4035   -33.0477    22.1980    21.7937    27.9293
 2684.5000    57.8864    10.2264     0.0484     2.4059   -32.8027    22.0577    21.9591    28.1409
 2685.0000    58.5484    10.2578     0.0486     2.4043   -32.5598    21.9195    22.1232    28.5470
 2685.5000    56.1445    10.2596     0.0472     2.4009   -32.4233    21.9361    22.1351    28.1712
 2686.0000    54.1779    10.2616     0.0459     2.3995   -32.5653    21.7953    21.9946    26.8585
 2686.5000    53.5277    10.2491     0.0476     2.4033   -32.7024    21.8119    21.5525    25.4310
 2687.0000    53.5437    10.2505     0.0478     2.4109   -32.8395    21.6752    21.1220    25.7979
 2687.5000    54.4363    10.2376     0.0494     2.4215   -32.9765    21.6883    20.9903    28.2319
 2688.0000    55.7688    10.2547     0.0526     2.4388   -33.1135    21.7015    20.8574    23.2885
 2688.5000    57.1012    10.2860     0.0558     2.4516   -33.2505    21.7147    20.8690    24.1291
 2689.0000    58.6761    10.2879     0.0590     2.4547   -33.3876    21.7309    20.8805    25.3719
 2689.5000    59.9893    10.2897     0.0606     2.4579   -33.5248    22.0600    20.8942    27.7173
 2690.0000    59.1224    10.3063     0.0593     2.4639   -33.6609    22.5206    20.9054    30.5423
 2690.5000    57.5956    10.3234     0.0579     2.4707   -33.7414    23.0052    20.9167    33.6551
 2691.0000    57.1653    10.3100     0.0611     2.4791   -33.6767    23.8264    20.6382    34.8542
 2691.5000    58.0611    10.3124     0.0628     2.4881   -33.6145    24.6770    20.2287    30.1727
 2692.0000    60.2734    10.2995     0.0615     2.4800   -33.5523    25.3824    19.8247    27.2231
 2692.5000    61.6058    10.3013     0.0556     2.4524   -33.4902    26.1079    19.4288    28.5844
 2693.0000    62.2786    10.3032     0.0497     2.4226   -33.4281    26.1237    19.0408    28.0144
 2693.5000    62.0056    10.3050     0.0439     2.4137   -33.3659    25.6045    18.9200    26.6973
 2694.0000    60.3279    10.3069     0.0395     2.4101   -33.3038    25.0956    19.0793    26.7486
 2694.5000    59.2410    10.3248     0.0351     2.4062   -33.2417    24.4262    19.4733    27.1089
 2695.0000    58.3740    10.3553     0.0308     2.4036   -33.1796    23.7619    20.0294    26.5683
 2695.5000    57.9470    10.3572     0.0310     2.4052   -33.1174    22.8317    20.6014    27.5058
 2696.0000    57.5167    10.3590     0.0357     2.4150   -33.0552    22.0715    21.1897    28.6227
 2696.5000    57.5327    10.3609     0.0418     2.4331   -32.9917    21.9298    21.2011    30.3261
 2697.0000    58.8652    10.3476     0.0526     2.4452   -33.0051    22.4051    20.2117    32.9614
 2697.5000    59.5567    10.3347     0.0648     2.4812   -33.0479    22.8872    18.7436    47.8567
 2698.0000    55.5949    10.3222     0.0725     2.5164   -33.0913    23.0595    18.3693    54.9565
 2698.5000    56.0476    10.2800     0.0742     2.5044   -33.1346    22.9046    18.2527    30.8211
 2699.0000    56.9402    10.2671     0.0678     2.4555   -33.1779    22.1291    18.3899    29.9858
 2699.5000    58.0528    10.2395     0.0489     2.4023   -33.2211    21.2671    18.1490    29.4044
 2700.0000    58.7243    10.2119     0.0385     2.3815   -33.2644    20.7040    18.1599    28.4294
 2700.5000    60.1018    10.1995     0.0341     2.3800   -33.3076    20.1557    17.6766    27.2939
 2701.0000    61.3781    10.1867     0.0418     2.3899   -33.3509    19.7577    17.4477    26.3849
 2701.5000    62.4842    10.1733     0.0571     2.4042   -33.3941    19.6352    17.3356    25.1570
 2702.0000    63.3704    10.1437     0.0633     2.4245   -33.4374    19.6501    17.3487    23.4952
 2702.5000    64.2565    10.1451     0.0634     2.4381   -33.4811    19.8014    17.3591    25.5369
 2703.0000    63.3832    10.1758     0.0605     2.4397   -33.5244    20.0929    17.6107    24.8573
 2703.5000    61.8500    10.1918     0.0607     2.4353   -33.5458    20.5448    17.8660    25.0481
 2704.0000    59.6570    10.1637     0.0654     2.4421   -33.4096    20.9889    18.2503    26.3023
 2704.5000    57.8819    10.1502     0.0656     2.4460   -33.2735    21.4522    18.6575    29.1853
 2705.0000    55.3443    10.1518     0.0642     2.4438   -33.1377    21.7420    19.3113    29.4049
 2705.5000    51.7599    10.1531     0.0644     2.4447   -33.0020    22.0602    19.7267    29.2160
 2706.0000    51.3249    10.1544     0.0646     2.4553   -32.8686    22.2291    19.8751    30.6835
 2706.5000    52.8725    10.1704     0.0648     2.4643   -32.8151    22.3994    19.6118    37.3102
 2707.0000    54.1985    10.1865     0.0664     2.4719   -32.9283    22.5710    19.3549    44.5763
 2707.5000    55.3047    10.2175     0.0575     2.4721   -33.0385    22.5878    18.8426    37.2894
 2708.0000    54.6512    10.2482     0.0441     2.4466   -33.1492    22.4270    18.5957    30.3408
 2708.5000    54.8776    10.2495     0.0398     2.4204   -33.2597    22.1580    18.3522    27.7565
 2709.0000    57.8098    10.2655     0.0430     2.4197   -33.3702    21.7244    17.8665    27.2047
 2709.5000    59.2908    10.2815     0.0492     2.4243   -33.4807    21.4428    17.6298    25.4077
 2710.0000    59.0773    10.2828     0.0539     2.4281   -33.5912    21.0193    17.3988    26.1338
 2710.5000    58.8622    10.2841     0.0586     2.4290   -33.7018    20.7430    17.1735    27.4545
 2711.0000    58.8702    10.2854     0.0632     2.4283   -33.8123    20.1974    16.9478    28.0369
 2711.5000    59.5364    10.3015     0.0664     2.4291   -33.9228    19.6625    16.8418    27.2907
 2712.0000    61.0824    10.3178     0.0711     2.4307   -34.0333    19.1352    16.7365    26.0206
 2712.5000    63.9481    10.3190     0.0743     2.4362   -34.1438    18.6142    16.5174    25.3281
 2713.0000    65.5016    10.3053     0.0775     2.4436   -34.2545    18.2670    16.5298    24.8245
