~VERSION INFORMATION
 VERS.                2.0:   CWLS LOG ASCII STANDARD - VERSION 2.0
 WRAP.                 NO:   ONE LINE PER DEPTH STEP
~WELL INFORMATION
#MNEM.UNIT      DATA TYPE    INFORMATION
#----------   ------------   ------------------------------
 STRT.F          172.0000:   START DEPTH
 STOP.F         3376.0000:   STOP DEPTH
 STEP.F            0.5000:   STEP LENGTH
 NULL.          -999.2500:   NO VALUE
 COMP.    FENIX & SCISSON:   COMPANY
 WELL. FENIX NPR 3 "AX" #23-2:   WELL
 FLD .                NPR:   FIELD
 LOC .       S2 T38N R78W:   LOCATION
 CNTY.            NATRONA:   COUNTY
 STAT.            WYOMING:   STATE
 CTRY. UNITED STATES OF AMERICA:   COUNTRY
 SRVC.              WELEX:   SERVICE COMPANY
 DATE.        02-DEC-1980:   LOGDATE
 API .     49025108740000:   API NUMBER
~CURVE INFORMATION
#MNEM.UNIT       API CODE    CURVE DESCRIPTION
#----------   ------------   ------------------------------
 DEPT.F                  :   
 CALD.IN     45 280 60 00:   CALIPER FROM DENSITY LOG
 CORR.G/C3   45 356 01 00:   DENSITY CORRECTION
 GRD .GAPI   45 310 01 00:   GAMMA RAY FROM DENSITY LOG
 RHOB.G/C3   45 350 01 00:   BULK DENSITY
 TENR.LBS    07 635 01 00:   TENSION
 SPR .MV     07 010 01 00:   SPONTANEOUS POTENTIAL
 SGRD.OHMM   07 220 05 00:   SHALLOW GUARD
 ILD .OHMM   07 120 46 00:   INDUCTION LOG DEEP RESISTIVITY
 ILM .OHMM   07 120 44 00:   INDUCTION LOG MEDIUM RESISTIVITY
~PARAMETER INFORMATION
#MNEM.UNIT          VALUE    DESCRIPTION
#----------   ------------   ------------------------------
 EKB .F         5133.0000:   Kelly bushing
 EGL .F         5123.0000:   Ground level
 EDF .F            0.0000:   Drilling floor
 TD  .F         3375.0000:   Total depth
 DATE.        02-DEC-1980:   Date logged
 CLNT.            A2DTECH:   Client Code
 SL  . 3800' FSL & 827' FWL:   Surface Location
 PD  .                 GL:   Permanent Datum
 EPD .F              5123:   Elevation Permanent Datum
 LMF .                 KB:   Log Measured From
 DMF .                 KB:   Drilling Measured From
 DAPD.F                10:   Feet Above Permanent Datum
 DD  .F              3375:   Depth driller
 DL  .F              3373:   Depth logger
 BLI .F              3371:   Bottom log interval
 TLI .F               181:   Top log interval
 CS1 .IN            8.625:   Casing size
 CBD1.      8.625" @ 181':   Casing driller 1
 CBL1.F               181:   Casing logger 1
 BS1 .IN            7.875:   Bit size
 BSD1.F              3375:   Depth drilled with bit1
 DFT .           CHEM/GEL:   Type fluid in hole
 DFD .                8.8:   Density
 DFV .                 45:   Viscosity
 DFPH.                  9:   pH
 DFL .                 16:   Fluid loss
 MSS .           FLOWLINE:   Source of sample
 RMS .OHMM           1.25:   Rm
 MST .F                64:   Rm Meas. temp.
 RMF .OHMM           1.17:   Rmf
 MFST.F                64:   Rmf Meas. temp.
 RMC .OHMM            1.1:   Rmc
 MCST.F                64:   Rmc Meas. temp.
 MFSS.               MEAS:   Source Rmf.
 MCSS.               MEAS:   Source Rmc.
 RMB .OHMM            .67:   Rm. at BHT
 BHT .F               120:   BHT.
 TCS .HRS               2:   Time Circ. stopped
 MRT .F               120:   Maximum recorded temp.
 LUN .               1892:   Logging unit number
 LUL .             CASPER:   Logging unit location
 ENGI.  PFRIMMER/MONNAHAN:   Recorded By
 WITN.              FIVAS:   Witnessed by
 ORIG.           5" PRINT:   Origin of data
 UWI .     49025108740000:   Unique Well ID
 DICO. A2D TECHNOLOGIES, INC.:   Digitizing Company
~OTHER INFORMATION
~A   DEPT     CALD       CORR         GRD      RHOB       TENR        SPR       SGRD        ILD        ILM   
# ...
 2070.0000     8.9360     0.0110   208.5450     2.4180   150.6020   -18.7900    17.3560    13.0200    17.9540
 2070.5000     8.9330     0.0070   199.5390     2.4080   150.6020   -18.5420    15.5970    13.4600    18.6150
 2071.0000     8.9290     0.0040   192.2610     2.4240   150.6020   -18.2900    18.1390    13.4600    18.9720
 2071.5000     8.9250     0.0050   186.5960     2.4390   150.6020   -18.0450    21.3320    13.2840    18.4910
 2072.0000     8.9220     0.0080   182.8060     2.4420   139.7590   -17.7950    21.0290    12.9010    18.0110
 2072.5000     8.9180     0.0110   178.9860     2.4320   139.2000   -17.5330    19.8160    12.5180    17.7430
 2073.0000     8.9140     0.0140   174.9640     2.4470   158.7640   -17.4000    18.6030    12.1360    17.3330
 2073.5000     8.9100     0.0170   167.2670     2.4710   178.3280   -17.6070    17.4190    11.7530    16.6890
 2074.0000     8.9070     0.0190   159.2490     2.4970   197.8920   -17.8010    15.8870    11.3700    16.0450
 2074.5000     8.9030     0.0210   153.1330     2.5140   217.4560   -17.9990    15.2150    10.9910    15.4010
 2075.0000     8.8990     0.0220   151.1780     2.4910   237.0200   -18.1890    14.2240    10.8860    14.7570
 2075.5000     8.8950     0.0160   154.1390     2.4720   256.5830   -18.1980    14.6320    10.7120    14.1120
 2076.0000     8.8920     0.0110   158.0380     2.4530   276.1470   -18.2020    15.8870    10.5390    13.4680
 2076.5000     8.8880     0.0060   161.6550     2.4420   295.7110   -18.1990    15.5970    10.3650    12.8240
 2077.0000     8.8840     0.0110   159.5950     2.4540   315.2750   -18.2000    15.3120    10.1920    12.1800
 2077.5000     8.8810     0.0170   157.2520     2.4630   334.8390   -18.2000    14.7350    10.0180    11.5360
 2078.0000     8.8770     0.0200   158.1730     2.4650   351.4060   -18.2000    13.9150     9.8450    10.9910
 2078.5000     8.8730     0.0190   160.4860     2.4720   351.4060   -18.1990    13.7100     9.6610    10.5930
 2079.0000     8.8690     0.0190   162.1950     2.4790   359.0550   -18.2030    13.7100     9.6610    10.5930
 2079.5000     8.8660     0.0190   160.9430     2.4860   367.1620   -18.1970    13.7100     9.5570    10.3700
 2080.0000     8.8620     0.0210   159.6370     2.4950   375.2690   -18.1870    13.4600     9.4650    10.1740
 2080.5000     8.8680     0.0240   162.6660     2.5080   383.3750   -17.9470    12.7920     9.3730     9.9770
 2081.0000     8.8760     0.0270   166.4240     2.5200   391.4820   -17.6880    12.5030     9.2810     9.7810
 2081.5000     8.8840     0.0300   168.4580     2.5180   399.5890   -17.4240    12.5030     9.1890     9.5850
 2082.0000     8.8910     0.0320   170.5600     2.5150   407.6960   -17.1610    12.5030     9.1420     9.4850
 2082.5000     8.8990     0.0350   169.8900     2.5210   415.8030   -16.9010    12.5030     9.1420     9.4850
 2083.0000     8.9060     0.0360   168.4270     2.5270   423.9100   -16.6410    12.3100     9.1420     9.4850
 2083.5000     8.9140     0.0370   166.9070     2.5330   432.0160   -16.3580    12.0900     9.1420     9.4850
 2084.0000     8.9220     0.0370   166.8240     2.5250   440.1230   -16.1810    11.8690     9.1420     9.4850
 2084.5000     8.9290     0.0380   167.0040     2.5190   448.2300   -16.2470    11.6150     9.0160     9.3550
 2085.0000     8.9370     0.0380   167.3000     2.5330   456.3370   -16.3330    11.6800     8.8980     9.2320
 2085.5000     8.9450     0.0390   167.6170     2.5420   464.4440   -16.4180    11.7570     8.7790     9.1090
 2086.0000     8.9520     0.0400   167.8140     2.5210   472.5510   -16.5060    11.8310     8.6610     8.9860
 2086.5000     8.9600     0.0400   168.8920     2.5090   480.6580   -16.5920    11.7730     8.5420     8.8630
 2087.0000     8.9670     0.0370   171.0900     2.5110   488.7640   -16.6780    11.5080     8.4230     8.7400
 2087.5000     8.9750     0.0330   173.1030     2.5070   471.8880   -16.7680    10.2100     8.3050     8.6160
 2088.0000     8.9830     0.0290   175.1450     2.4910   471.8880   -16.8480    10.4000     8.1850     8.4920
 2088.5000     8.9750     0.0260   176.9040     2.4750   471.8880   -16.9410    10.7260     8.2050     8.5130
 2089.0000     8.9660     0.0240   174.9900     2.4650   471.8880   -17.0320    11.0550     8.2240     8.5340
 2089.5000     8.9560     0.0230   173.0560     2.4740   471.8880   -17.5130    11.1950     8.2440     8.5550
 2090.0000     8.9460     0.0220   171.1450     2.4830   471.8880   -18.1420    10.9910     8.2630     8.5750
 2090.5000     8.9370     0.0210   169.3840     2.4920   471.8880   -18.0030    11.2880     8.2830     8.5960
 2091.0000     8.9270     0.0200   167.7680     2.4960   471.8880   -17.7910    11.6150     8.3020     8.6170
 2091.5000     8.9180     0.0190   166.1520     2.5010   471.8880   -17.5570    11.6150     8.3220     8.6380
 2092.0000     8.9080     0.0180   164.5320     2.5000   473.0650   -17.3430    11.6150     8.3410     8.6590
 2092.5000     8.8980     0.0180   163.3940     2.4950   474.6690   -17.1190    11.6150     8.3610     8.6790
 2093.0000     8.8890     0.0190   162.6490     2.4900   476.2730   -16.9030    11.6150     8.3800     8.7000
 2093.5000     8.8790     0.0210   161.9070     2.4850   477.8780   -16.6690    11.6150     8.4000     8.7210
 2094.0000     8.8690     0.0220   161.1530     2.4820   479.4820   -16.6640    11.1950     8.4200     8.7420
 2094.5000     8.8600     0.0230   161.4730     2.4890   481.0860   -16.8000    11.1950     8.4390     8.7630
 2095.0000     8.8840     0.0250   162.2520     2.4960   482.6910   -16.9180    11.1950     8.4590     8.7840
 2095.5000     8.9130     0.0260   163.0390     2.5020   484.2950   -17.0350    11.1950     8.4880     8.8090
 2096.0000     8.9410     0.0280   163.8240     2.5090   485.8990   -17.1570    11.1950     8.4800     8.7830
 2096.5000     8.9640     0.0290   164.6420     2.5160   487.5030   -17.2750    11.1330     8.4320     8.7350
 2097.0000     8.9630     0.0300   166.4940     2.5090   489.1080   -17.3950    11.0600     8.3850     8.6870
 2097.5000     8.9630     0.0300   168.3380     2.4990   490.7120   -17.5150    10.9910     8.3370     8.6400
 2098.0000     8.9630     0.0300   166.5640     2.5030   492.3160   -17.6320    11.2570     8.2890     8.5940
 2098.5000     8.9630     0.0300   164.1710     2.5110   493.9200   -17.7570    11.4030     8.2420     8.5480
 2099.0000     8.9630     0.0300   161.6930     2.5130   495.5250   -17.8020    11.4030     8.1850     8.4920
 2099.5000     8.9630     0.0300   160.2200     2.5080   497.1290   -17.7930    11.4030     8.1620     8.4680
 2100.0000     8.9630     0.0300   159.1010     2.5030   498.7330   -17.7000    11.5970     8.1060     8.4100
 2100.5000     8.9630     0.0300   162.0400     2.5030   500.3380   -17.6030    11.9180     8.0490     8.3520
 2101.0000     8.9630     0.0300   161.5640     2.5090   501.9420   -17.5020    12.0510     7.9930     8.2930
 2101.5000     8.9630     0.0300   160.8200     2.5110   503.5460   -17.4040    11.1320     7.9370     8.2350
 2102.0000     8.9630     0.0300   159.7230     2.5010   505.1500   -17.3050     9.8410     7.8910     8.1870
 2102.5000     8.9630     0.0300   156.6940     2.4910   506.7550   -17.2070     9.9980     7.9170     8.2140
 2103.0000     8.9630     0.0300   155.6630     2.4780   508.3590   -17.1070    10.2100     7.9400     8.2380
 2103.5000     8.9630     0.0280   157.0250     2.4630   509.9630   -17.0080     9.7090     7.9620     8.2610
 2104.0000     8.9650     0.0260   159.0210     2.4500   511.5680   -16.9120     9.3120     7.9850     8.2850
 2104.5000     8.9670     0.0250   161.0300     2.4610   511.4370   -16.8070    11.6470     8.0080     8.3090
 2105.0000     8.9690     0.0230   162.5430     2.4700   509.3710   -16.7180    11.8070     8.0310     8.3330
 2105.5000     8.9710     0.0220   163.3560     2.4890   507.3040   -16.6180    11.6150     8.0540     8.3560
 2106.0000     8.9730     0.0210   164.1670     2.5030   505.2380   -16.8860    11.1740     8.0770     8.3800
