~VERSION INFORMATION
 VERS.                2.0:   CWLS LOG ASCII STANDARD - VERSION 2.0
 WRAP.                 NO:   ONE LINE PER DEPTH STEP
~WELL INFORMATION
#MNEM.UNIT      DATA TYPE    INFORMATION
#----------   ------------   ------------------------------
 STRT.F            0.0000:   START DEPTH
 STOP.F         2870.0000:   STOP DEPTH
 STEP.F            0.5000:   STEP LENGTH
 NULL.          -999.2500:   NO VALUE
 COMP.  FENIX AND SCISSON:   COMPANY
 WELL.  FENIX "A" #304-28:   WELL
 FLD .             NPR #3:   FIELD
 LOC .      S28 T39N R78W:   LOCATION
 CNTY.            NATRONA:   COUNTY
 STAT.            WYOMING:   STATE
 CTRY. UNITED STATES OF AMERICA:   COUNTRY
 SRVC.         MCCULLOUGH:   SERVICE COMPANY
 DATE.        21-DEC-1977:   LOGDATE
 API .     49025105600000:   API NUMBER
~CURVE INFORMATION
#MNEM.UNIT       API CODE    CURVE DESCRIPTION
#----------   ------------   ------------------------------
 DEPT.F                  :   
 GR  .GAPI   30 310 01 00:   GAMMA RAY
 CALI.IN     70 280 01 00:   CALIPER
~PARAMETER INFORMATION
#MNEM.UNIT          VALUE    DESCRIPTION
#----------   ------------   ------------------------------
 EKB .F            0.0000:   Kelly bushing
 EGL .F            0.0000:   Ground level
 EDF .F         5074.7000:   Drilling floor
 EPD .F         5074.7000:   Permanent datum
 TD  .F         2868.0000:   Total depth
 DATE.        21-DEC-1977:   Date logged
 CLNT.            A2DTECH:   Client Code
 DL  .F              2868:   Depth logger
 BLI .F              2866:   Bottom log interval
 TLI .F              2000:   Top log interval
 CS1 .IN             6.25:   Casing size
 CBD1.     6.625" @ 2935':   Casing driller 1
 BS1 .IN             6.25:   Bit size
 BSD1.F              2868:   Depth drilled with bit1
 DFT .              WATER:   Type fluid in hole
 TCS .HRS             1.5:   Time Circ. stopped
 ENGI.             CONLEY:   Recorded By
 WITN.           HARRISON:   Witnessed by
 ORIG.           5" PRINT:   Origin of data
 UWI .     49025105600000:   Unique Well ID
 DICO. A2D TECHNOLOGIES, INC.:   Digitizing Company
~OTHER INFORMATION
~A    DEPT      GR         CALI 
# ...
 1822.5000  -999.2500     6.9080
 1823.0000  -999.2500     6.9050
 1823.5000  -999.2500     6.9030
 1824.0000  -999.2500     6.8980
 1824.5000  -999.2500     6.8920
 1825.0000  -999.2500     6.8890
 1825.5000  -999.2500     6.8900
 1826.0000  -999.2500     6.8920
 1826.5000  -999.2500     6.8930
 1827.0000  -999.2500     6.8950
 1827.5000  -999.2500     6.8970
 1828.0000  -999.2500     6.8970
 1828.5000  -999.2500     6.8980
 1829.0000  -999.2500     6.8980
 1829.5000  -999.2500     6.8940
 1830.0000  -999.2500     6.8910
 1830.5000  -999.2500     6.8900
 1831.0000  -999.2500     6.8900
 1831.5000  -999.2500     6.8900
 1832.0000  -999.2500     6.8900
 1832.5000  -999.2500     6.8900
 1833.0000  -999.2500     6.8900
 1833.5000  -999.2500     6.9850
 1834.0000  -999.2500     6.8120
 1834.5000  -999.2500     6.8160
 1835.0000  -999.2500     6.7910
 1835.5000  -999.2500     6.7690
 1836.0000  -999.2500     6.7490
 1836.5000  -999.2500     6.7480
 1837.0000  -999.2500     6.7470
 1837.5000  -999.2500     6.7470
 1838.0000  -999.2500     6.7460
 1838.5000  -999.2500     6.7460
 1839.0000  -999.2500     6.7460
 1839.5000  -999.2500     6.7510
 1840.0000  -999.2500     6.7580
 1840.5000  -999.2500     6.7680
 1841.0000  -999.2500     6.7730
 1841.5000  -999.2500     6.7770
 1842.0000  -999.2500     6.7810
 1842.5000  -999.2500     6.7810
 1843.0000  -999.2500     6.7800
 1843.5000  -999.2500     6.7800
 1844.0000  -999.2500     6.7790
 1844.5000  -999.2500     6.7790
 1845.0000  -999.2500     6.7780
 1845.5000  -999.2500     6.7770
 1846.0000  -999.2500     6.7770
 1846.5000  -999.2500     6.7760
 1847.0000  -999.2500     6.7760
 1847.5000  -999.2500     6.7760
 1848.0000  -999.2500     6.7760
 1848.5000  -999.2500     6.7760
 1849.0000  -999.2500     6.7910
 1849.5000  -999.2500     6.8070
 1850.0000  -999.2500     6.8240
 1850.5000  -999.2500     6.8250
 1851.0000  -999.2500     6.8190
 1851.5000  -999.2500     6.8140
 1852.0000  -999.2500     6.8090
 1852.5000  -999.2500     6.8050
 1853.0000  -999.2500     6.8070
 1853.5000  -999.2500     6.8100
 1854.0000  -999.2500     6.8150
 1854.5000  -999.2500     6.8270
 1855.0000  -999.2500     6.8370
 1855.5000  -999.2500     6.8460
 1856.0000  -999.2500     6.9720
 1856.5000  -999.2500     6.7660
 1857.0000  -999.2500     6.7610
 1857.5000  -999.2500     6.7580
 1858.0000  -999.2500     6.7500
 1858.5000  -999.2500     6.7270
 1859.0000  -999.2500     6.7200
 1859.5000  -999.2500     6.7180
 1860.0000  -999.2500     6.7170
 1860.5000  -999.2500     6.7170
 1861.0000  -999.2500     6.7160
 1861.5000  -999.2500     6.7150
 1862.0000  -999.2500     6.7130
 1862.5000  -999.2500     6.7110
 1863.0000  -999.2500     6.7090
 1863.5000  -999.2500     6.7020
 1864.0000  -999.2500     6.6960
 1864.5000  -999.2500     6.6890
 1865.0000  -999.2500     6.6830
 1865.5000  -999.2500     6.6820
 1866.0000  -999.2500     6.6810
 1866.5000  -999.2500     6.6830
 1867.0000  -999.2500     6.6870
 1867.5000  -999.2500     6.6920
 1868.0000  -999.2500     6.6980
 1868.5000  -999.2500     6.6990
 1869.0000  -999.2500     6.7000
 1869.5000  -999.2500     6.7040
 1870.0000  -999.2500     6.7060
 1870.5000  -999.2500     6.7090
 1871.0000  -999.2500     6.7230
 1871.5000  -999.2500     6.7370
 1872.0000  -999.2500     6.7390
 1872.5000  -999.2500     6.7360
 1873.0000  -999.2500     6.7240
 1873.5000  -999.2500     6.7120
 1874.0000  -999.2500     6.7070
 1874.5000  -999.2500     6.7060
 1875.0000  -999.2500     6.7050
 1875.5000  -999.2500     6.7050
 1876.0000  -999.2500     6.7060
 1876.5000  -999.2500     6.7100
 1877.0000  -999.2500     6.7130
 1877.5000  -999.2500     6.7020
 1878.0000  -999.2500     6.6950
 1878.5000  -999.2500     6.6990
 1879.0000  -999.2500     6.7050
 1879.5000  -999.2500     6.9490
 1880.0000  -999.2500     6.8730
 1880.5000  -999.2500     6.8440
 1881.0000  -999.2500     6.8220
 1881.5000  -999.2500     6.7970
 1882.0000  -999.2500     6.7950
 1882.5000  -999.2500     6.7920
 1883.0000  -999.2500     6.7930
 1883.5000  -999.2500     6.8060
 1884.0000  -999.2500     6.8280
 1884.5000  -999.2500     6.8280
 1885.0000  -999.2500     6.8290
 1885.5000  -999.2500     6.8240
 1886.0000  -999.2500     6.8140
 1886.5000  -999.2500     6.8050
 1887.0000  -999.2500     6.8070
 1887.5000  -999.2500     6.8090
 1888.0000  -999.2500     6.8130
 1888.5000  -999.2500     6.8340
 1889.0000  -999.2500     6.8550
 1889.5000  -999.2500     6.8580
 1890.0000  -999.2500     6.8560
 1890.5000  -999.2500     6.8550
 1891.0000  -999.2500     6.8660
 1891.5000  -999.2500     6.8890
 1892.0000  -999.2500     6.9120
 1892.5000  -999.2500     6.9350
 1893.0000  -999.2500     6.9520
 1893.5000  -999.2500     6.9590
 1894.0000  -999.2500     6.9640
 1894.5000  -999.2500     6.9360
 1895.0000  -999.2500     6.9230
 1895.5000  -999.2500     6.9000
 1896.0000  -999.2500     6.8750
 1896.5000  -999.2500     6.8650
 1897.0000  -999.2500     6.8600
 1897.5000  -999.2500     6.8600
 1898.0000  -999.2500     6.8650
 1898.5000  -999.2500     6.8790
 1899.0000  -999.2500     6.8790
 1899.5000  -999.2500     6.8770
 1900.0000  -999.2500     6.8760
 1900.5000  -999.2500     6.8610
 1901.0000  -999.2500     6.8570
 1901.5000  -999.2500     6.8580
 1902.0000  -999.2500     6.8530
 1902.5000  -999.2500     7.0590
 1903.0000  -999.2500     6.6770
 1903.5000  -999.2500     6.7000
 1904.0000  -999.2500     6.6780
 1904.5000  -999.2500     6.6680
 1905.0000  -999.2500     6.6680
 1905.5000  -999.2500     6.6680
 1906.0000  -999.2500     6.6670
 1906.5000     6.4660     6.6640
 1907.0000    17.3310     6.6630
 1907.5000    15.9780     6.6630
 1908.0000    14.6500     6.6630
 1908.5000    13.8460     6.6630
 1909.0000    15.8010     6.6630
 1909.5000    15.2320     6.6630
 1910.0000    16.6690     6.6620
 1910.5000    15.5520     6.6620
 1911.0000    13.9350     6.6630
 1911.5000    11.6430     6.6640
 1912.0000    10.5520     6.6650
 1912.5000     9.4170     6.6760
 1913.0000     8.7700     6.6920
 1913.5000     9.8110     6.6920
 1914.0000    13.0870     6.6920
 1914.5000    11.9640     6.6920
 1915.0000    10.8780     6.6920
 1915.5000     9.5630     6.6920
 1916.0000    14.8230     6.6920
 1916.5000    14.3880     6.7060
 1917.0000    13.6180     6.7070
 1917.5000    12.9970     6.6970
 1918.0000    13.7320     6.6840
 1918.5000    13.2570     6.6630
 1919.0000    14.1350     6.6480
 1919.5000    16.4560     6.6390
 1920.0000    14.6070     6.6360
 1920.5000    14.4740     6.6330
 1921.0000    14.1370     6.6310
 1921.5000    15.4950     6.6290
 1922.0000    16.3970     6.6290
 1922.5000    15.8850     6.6280
 1923.0000    14.5320     6.6280
 1923.5000    13.5140     6.6280
 1924.0000    13.2340     6.6260
 1924.5000    12.3400     7.0110
 1925.0000    12.9320     6.7320
 1925.5000    13.4750     6.7520
 1926.0000    13.0310     6.7380
 1926.5000    11.0050     6.7370
 1927.0000    12.0770     6.7370
 1927.5000    14.8000     6.7370
 1928.0000    14.3720     6.7370
 1928.5000    13.7540     6.7290
 1929.0000    14.0980     6.7230
 1929.5000    16.3630     6.7230
 1930.0000    16.1840     6.7220
 1930.5000    14.0000     6.7210
 1931.0000    13.2990     6.7200
 1931.5000    13.1950     6.7210
 1932.0000    14.6180     6.7230
 1932.5000    16.1310     6.7260
 1933.0000    14.9590     6.7280
 1933.5000    13.4660     6.7290
 1934.0000    12.5430     6.7330
 1934.5000    11.9250     6.7370
 1935.0000    12.6200     6.7410
 1935.5000    13.4830     6.7420
 1936.0000    14.3140     6.7420
 1936.5000    14.6880     6.7440
 1937.0000    15.0850     6.7460
 1937.5000    14.7450     6.7470
 1938.0000    12.2100     6.7490
 1938.5000    13.1100     6.7450
 1939.0000    14.8790     6.7410
 1939.5000    14.5830     6.7440
 1940.0000    14.3810     6.7470
 1940.5000    14.8260     6.7470
 1941.0000    15.2090     6.7470
 1941.5000    15.2260     6.7470
 1942.0000    12.4420     6.7480
 1942.5000    12.1950     6.7480
 1943.0000    10.5540     6.7490
 1943.5000    13.3890     6.7550
