~VERSION INFORMATION
 VERS.                2.0:   CWLS LOG ASCII STANDARD - VERSION 2.0
 WRAP.                 NO:   ONE LINE PER DEPTH STEP
~WELL INFORMATION
#MNEM.UNIT      DATA TYPE    INFORMATION
#----------   ------------   ------------------------------
 STRT.F          218.0000:   START DEPTH
 STOP.F         3062.0000:   STOP DEPTH
 STEP.F            0.5000:   STEP LENGTH
 NULL.          -999.2500:   NO VALUE
 COMP.    FEXIN & SCISSON:   COMPANY
 WELL. FEXIN 32 "A" #3-34:   WELL
 FLD .              N P R:   FIELD
 LOC .      S34 T39N R78W:   LOCATION
 CNTY.            NATRONA:   COUNTY
 STAT.            WYOMING:   STATE
 CTRY. UNITED STATES OF AMERICA:   COUNTRY
 SRVC.              WELEX:   SERVICE COMPANY
 DATE.        18-JUL-1977:   LOGDATE
 API .     49025103960000:   API NUMBER
~CURVE INFORMATION
#MNEM.UNIT       API CODE    CURVE DESCRIPTION
#----------   ------------   ------------------------------
 DEPT.F                  :   
 CALD.IN     45 280 60 00:   CALIPER FROM DENSITY LOG
 RHOB.G/C3   45 350 01 00:   BULK DENSITY
 GRD .GAPI   45 310 01 00:   GAMMA RAY FROM DENSITY LOG
 CORR.G/C3   45 356 01 00:   DENSITY CORRECTION
 SPR .MV     07 010 01 00:   SPONTANEOUS POTENTIAL
 SGRD.OHMM   07 220 05 00:   SHALLOW SHORT GUARD RESISTIVITY
 ILM .OHMM   07 120 44 00:   INDUCTION LOG MEDIUM RESISTIVITY
 ILD .OHMM   07 120 46 00:   DEEP INDUCTION RESISTIVITY
~PARAMETER INFORMATION
#MNEM.UNIT          VALUE    DESCRIPTION
#----------   ------------   ------------------------------
 EKB .F         5080.0000:   Kelly bushing
 EGL .F         5070.0000:   Ground level
 TD  .F         3070.0000:   Total depth
 DATE.        18-JUL-1977:   Date logged
 CLNT.            A2DTECH:   Client Code
 SL  . 900' FNL & 1650'FWL:   Surface Location
 PD  .                 GL:   Permanent Datum
 DD  .F              3070:   Depth driller
 DL  .F              3063:   Depth logger
 BLI .F              3061:   Bottom log interval
 CS1 .IN            8.625:   Casing size
 CBD1.      8.625" @ 212':   Casing driller 1
 CBL1.F               222:   Casing logger 1
 BS1 .IN            7.875:   Bit size
 DFT .           CEHM-GEL:   Type fluid in hole
 DFD .                8.8:   Density
 DFV .                 42:   Viscosity
 DFPH.                7.5:   pH
 DFL .                  8:   Fluid loss
 MSS .           FLOWLINE:   Source of sample
 RMS .OHMM            .89:   Rm
 MST .F                94:   Rm Meas. temp.
 RMF .OHMM            .54:   Rmf
 MFST.F                94:   Rmf Meas. temp.
 RMC .OHMM           1.24:   Rmc
 MCST.F                94:   Rmc Meas. temp.
 MFSS.               FANN:   Source Rmf.
 RMB .OHMM            .67:   Rm. at BHT
 BHT .F               122:   BHT.
 TCS .HRS               4:   Time Circ. stopped
 MRT .F               122:   Maximum recorded temp.
 LUN .               8611:   Logging unit number
 LUL .             CASPER:   Logging unit location
 ENGI.          C.A. DOAK:   Recorded By
 WITN.         PETTINGILL:   Witnessed by
 ORIG.           5" PRINT:   Origin of data
 UWI .     49025103960000:   Unique Well ID
 DICO. A2D TECHNOLOGIES, INC.:   Digitizing Company
 DAPD.                 12:   Feet Above Permanent Datum
 BSD1.F              3950:   Depth drilled with bit1
 MCSS.                KIT:   Source Rmc.
 EPD .F              5070:   Elevation Permanent Datum
 LMF .                 KB:   Log Measured From
 DMF .                 KB:   Drilling Measured From
 TLI .F               200:   Top log interval
~OTHER INFORMATION
~A   DEPT     CALD       RHOB        GRD       CORR        SPR       SGRD        ILM        ILD   
# ...
 1514.0000     8.3560     2.5560    98.0020     0.0180   -69.3050    42.1160    30.6980    28.5920
 1514.5000     8.3570     2.5510    98.9240     0.0160   -69.2950    43.4690    30.7330    28.5860
 1515.0000     8.3570     2.5470    99.8440     0.0150   -69.2840    42.2530    30.7680    28.5800
 1515.5000     8.3570     2.5420   100.7650     0.0140   -69.2740    40.9420    30.8030    28.5740
 1516.0000     8.3570     2.5380   100.8380     0.0140   -69.2630    39.7500    30.8370    28.5700
 1516.5000     8.3570     2.5380    99.8340     0.0170   -69.2520    38.9380    30.8720    28.5700
 1517.0000     8.3570     2.5420    98.8370     0.0190   -69.2420    39.2840    30.9070    28.5700
 1517.5000     8.3570     2.5460    97.8580     0.0220   -69.2310    39.7770    30.9420    28.5700
 1518.0000     8.3570     2.5490    96.8070     0.0210   -69.2200    40.3010    30.9770    28.5700
 1518.5000     8.3570     2.5490    97.5260     0.0190   -69.2100    40.3010    31.0110    28.5700
 1519.0000     8.3570     2.5490    99.3180     0.0160   -69.2080    40.4400    31.0290    28.5700
 1519.5000     8.3570     2.5530   100.3940     0.0140   -69.2080    41.5240    31.0290    28.5700
 1520.0000     8.3570     2.5450   100.3530     0.0110   -69.2080    41.9990    31.0290    28.5700
 1520.5000     8.3570     2.5380    99.3160     0.0080   -69.2080    41.4250    31.0260    28.5700
 1521.0000     8.3570     2.5300    98.2450     0.0060   -69.2080    43.4690    31.0290    28.5700
 1521.5000     8.3570     2.5230    97.1780     0.0040   -69.2080    41.5840    30.6630    28.2250
 1522.0000     8.3570     2.5240    96.1120     0.0050   -69.2080    39.8700    30.3310    27.5090
 1522.5000     8.3570     2.5270    95.0460     0.0090   -69.2080    38.6710    29.9990    27.4150
 1523.0000     8.3570     2.5260    94.5660     0.0120   -69.2080    38.8780    29.6660    27.4740
 1523.5000     8.3570     2.5310    95.1380     0.0160   -69.2080    39.2930    29.3670    27.5280
 1524.0000     8.3570     2.5390    96.3100     0.0190   -69.2080    39.7500    29.5700    27.5820
 1524.5000     8.3570     2.5410    97.4400     0.0220   -69.2080    40.0490    29.7530    27.6350
 1525.0000     8.3570     2.5390    98.5660     0.0180   -69.2080    40.4750    29.9190    27.6890
 1525.5000     8.3570     2.5370    99.6940     0.0140   -69.2080    40.8590    30.0850    27.7430
 1526.0000     8.3570     2.5350   100.8210     0.0100   -69.2080    40.0730    30.2510    27.7970
 1526.5000     8.3570     2.5320   101.9610     0.0080   -69.2080    39.2000    30.4170    27.8510
 1527.0000     8.3570     2.5300   103.1630     0.0110   -69.2080    38.9380    30.5830    27.9050
 1527.5000     8.3570     2.5320   101.0100     0.0140   -69.2080    41.1410    30.7490    27.9590
 1528.0000     8.3580     2.5490    98.1500     0.0170   -69.2080    40.9400    30.9150    28.0130
 1528.5000     8.3600     2.5420    95.6460     0.0200   -69.2080    40.5790    31.0810    28.0660
 1529.0000     8.3610     2.5350    96.7530     0.0250   -69.2080    41.2150    31.2470    28.1200
 1529.5000     8.3630     2.5540    98.6090     0.0300   -69.2080    42.4010    31.4130    28.1800
 1530.0000     8.3640     2.5480   100.4900     0.0360   -69.2080    43.4690    31.5790    28.2230
 1530.5000     8.3660     2.5400   102.3900     0.0340   -69.2080    42.4010    31.7450    28.2710
 1531.0000     8.3670     2.5450   103.0100     0.0300   -69.2080    41.2150    31.8950    28.3190
 1531.5000     8.3690     2.5530   102.2730     0.0330   -69.2080    40.8590    31.8630    28.3670
 1532.0000     8.3700     2.5510   101.5360     0.0380   -69.2080    42.5810    31.7990    28.4160
 1532.5000     8.3720     2.5460   100.7970     0.0380   -69.2080    42.0490    31.7350    28.4640
 1533.0000     8.3730     2.5410   100.0590     0.0350   -69.2080    41.4250    31.6710    28.5120
 1533.5000     8.3740     2.5360    99.3210     0.0320   -69.2080    43.1710    31.6070    28.5600
 1534.0000     8.3760     2.5310    98.5780     0.0280   -69.2080    42.7070    31.5430    28.6080
 1534.5000     8.3760     2.5330    97.7140     0.0250   -69.2080    42.1470    31.4800    28.6560
 1535.0000     8.3730     2.5400    96.3830     0.0210   -69.2080    41.5870    31.4160    28.7050
 1535.5000     8.3710     2.5470    95.6490     0.0200   -69.2080    41.0270    31.3520    28.7670
 1536.0000     8.3680     2.5550    96.5840     0.0200   -69.2080    39.7500    31.2880    28.5750
 1536.5000     8.3660     2.5620    97.9310     0.0210   -69.2080    39.7770    31.1390    28.3000
 1537.0000     8.3640     2.5610    99.3060     0.0210   -69.2080    39.8320    30.7900    28.0240
 1537.5000     8.3610     2.5540   100.7720     0.0220   -69.2080    39.8870    30.4410    27.7490
 1538.0000     8.3590     2.5470    98.8020     0.0220   -69.2080    39.9420    30.0930    27.4740
 1538.5000     8.3560     2.5410    97.9870     0.0210   -69.2080    39.9970    29.7440    27.2270
 1539.0000     8.3540     2.5350    99.8450     0.0190   -69.2080    40.0240    29.5700    27.0300
 1539.5000     8.3510     2.5320   101.3910     0.0180   -69.2080    40.0240    29.5700    26.9970
 1540.0000     8.3490     2.5290    97.9270     0.0140   -69.2080    39.6880    29.5700    26.9640
 1540.5000     8.3470     2.5260   100.2140     0.0100   -69.2080    39.5640    29.5700    26.9310
 1541.0000     8.3440     2.5240   102.5330     0.0060   -69.2080    39.4770    29.5700    26.8990
 1541.5000     8.3420     2.5260   103.1010     0.0050   -69.2080    40.4270    29.5700    26.8660
 1542.0000     8.3390     2.5270   101.8530     0.0040   -69.2080    40.8590    29.5700    26.8330
 1542.5000     8.3370     2.5290   100.6170     0.0040   -69.2080    39.2510    29.5700    26.8000
 1543.0000     8.3400     2.5310    99.3790     0.0040   -69.2080    38.4060    29.5700    26.7670
 1543.5000     8.3440     2.5290    98.1210     0.0040   -69.2080    39.2780    29.5700    26.7340
 1544.0000     8.3470     2.5260    97.5830     0.0040   -69.2080    39.7500    29.5700    26.7010
 1544.5000     8.3500     2.5320    99.2800     0.0040   -69.2080    38.9850    29.5700    26.6680
 1545.0000     8.3530     2.5390   100.2980     0.0040   -69.2080    38.6710    29.4450    26.6360
 1545.5000     8.3560     2.5380   100.1770     0.0040   -69.2080    39.4770    29.3060    26.6030
 1546.0000     8.3600     2.5400    99.0940     0.0090   -69.2080    39.3320    29.1670    26.5700
 1546.5000     8.3630     2.5460    98.0220     0.0190   -69.2080    39.1250    29.0280    26.5370
 1547.0000     8.3660     2.5520    96.9600     0.0220   -69.2080    38.9380    28.8890    26.5040
 1547.5000     8.3690     2.5500    95.8960     0.0210   -69.2080    39.1660    28.7510    26.4880
 1548.0000     8.3720     2.5570    94.7900     0.0200   -69.2080    39.4770    28.6120    26.9950
 1548.5000     8.3760     2.5550    94.4720     0.0200   -69.2080    39.2760    28.5700    27.4570
 1549.0000     8.3760     2.5510    95.2170     0.0190   -69.2080    38.8730    29.1750    27.9180
 1549.5000     8.3740     2.5380    96.2960     0.0190   -69.2080    38.6710    29.6400    28.3800
 1550.0000     8.3730     2.5240    97.3800     0.0180   -69.2080    40.6690    30.1050    28.8410
 1550.5000     8.3720     2.5230    98.4680     0.0180   -69.2080    40.1910    30.5700    29.3670
 1551.0000     8.3700     2.5220    99.4720     0.0160   -69.2080    39.2340    31.0350    29.3670
 1551.5000     8.3690     2.5200   100.3610     0.0160   -69.2080    38.9380    31.4590    29.3200
 1552.0000     8.3670     2.5210   101.2360     0.0150   -69.2080    41.9970    30.7560    29.2760
 1552.5000     8.3660     2.5240   102.1090     0.0150   -69.2080    44.8350    30.1110    29.2320
 1553.0000     8.3640     2.5290   102.9810     0.0140   -69.2080    46.8870    29.7740    29.1890
 1553.5000     8.3630     2.5360   103.5650     0.0150   -69.2080    43.0270    29.9440    29.1620
 1554.0000     8.3620     2.5420   103.5270     0.0190   -69.2080    40.3010    30.1970    29.1540
