~VERSION INFORMATION
 VERS.                2.0:   CWLS LOG ASCII STANDARD - VERSION 2.0
 WRAP.                 NO:   ONE LINE PER DEPTH STEP
~WELL INFORMATION
#MNEM.UNIT      DATA TYPE    INFORMATION
#----------   ------------   ------------------------------
 STRT.F            5.0000:   START DEPTH
 STOP.F         4012.0000:   STOP DEPTH
 STEP.F            0.5000:   STEP LENGTH
 NULL.          -999.2500:   NO VALUE
 COMP.   LAWRENCE ALLISON:   COMPANY
 WELL. LAWRENCE "X" 51 #1-15:   WELL
 FLD .                NPR:   FIELD
 LOC .      S15 T38N R78W:   LOCATION
 CNTY.            NATRONA:   COUNTY
 STAT.            WYOMING:   STATE
 CTRY. UNITED STATES OF AMERICA:   COUNTRY
 SRVC.      DRESSER ATLAS:   SERVICE COMPANY
 DATE.        03-JUN-1985:   LOGDATE
 API .     49025110270000:   API NUMBER
~CURVE INFORMATION
#MNEM.UNIT       API CODE    CURVE DESCRIPTION
#----------   ------------   ------------------------------
 DEPT.F                  :   
 NPHI.DEC    42 890 03 00:   NEUTRON POROSITY SANDSTONE
 RHOB.G/C3   45 350 01 00:   BULK DENSITY
 CORR.G/C3   45 356 01 00:   DENSITY CORRECTION
 TEND.LBS    45 635 01 00:   TENSION FROM DENSITY LOG
 CALD.IN     45 280 60 00:   CALIPER FROM DENSITY LOG
 GRR .GAPI   07 310 01 00:   GAMMA RAY FROM RESISTIVITY
 SPR .MV     07 010 01 00:   SPONTANEOUS POTENTIAL
 RSFL.OHMM   07 220 01 00:   SPHERICALLY FOCUSED LOG RES.
 RILD.OHMM   07 120 46 00:   DEEP INDUCTION RESISTIVITY
 RILM.OHMM   07 120 44 00:   INDUCTION LOG MEDIUM RESISTIVITY
 TENR.LBS    07 635 01 00:   TENSION
~PARAMETER INFORMATION
#MNEM.UNIT          VALUE    DESCRIPTION
#----------   ------------   ------------------------------
 EKB .F         5235.0000:   Kelly bushing
 EGL .F         5222.0000:   Ground level
 EDF .F            0.0000:   Drilling floor
 TD  .F         4010.0000:   Total depth
 DATE.        03-JUN-1985:   Date logged
 CLNT.            A2DTECH:   Client Code
 SL  . 202' FNL & 2478' FEL:   Surface Location
 PD  .                 GL:   Permanent Datum
 EPD .F              5222:   Elevation Permanent Datum
 LMF .                 KB:   Log Measured From
 DMF .                 KB:   Drilling Measured From
 DAPD.F                13:   Feet Above Permanent Datum
 DD  .F              4010:   Depth driller
 DL  .F              4005:   Depth logger
 BLI .F              4003:   Bottom log interval
 CS1 .IN            8.625:   Casing size
 CBD1.      8.625" @ 605':   Casing driller 1
 CBL1.F               608:   Casing logger 1
 BS1 .IN            7.875:   Bit size
 BSD1.F              4010:   Depth drilled with bit1
 DFT .            KCL/GEL:   Type fluid in hole
 DFD .                  9:   Density
 DFV .                 45:   Viscosity
 DFPH.                  8:   pH
 DFL .                9.8:   Fluid loss
 MSS .           FLOWLINE:   Source of sample
 RMS .OHMM            .40:   Rm
 MST .F                65:   Rm Meas. temp.
 RMF .OHMM            .32:   Rmf
 MFST.F                65:   Rmf Meas. temp.
 RMC .OHMM            .50:   Rmc
 MCST.F                65:   Rmc Meas. temp.
 MFSS.               MEAS:   Source Rmf.
 MCSS.               CALC:   Source Rmc.
 RMB .OHMM            .20:   Rm. at BHT
 BHT .F               130:   BHT.
 TCS .HRS               3:   Time Circ. stopped
 MRT .F               130:   Maximum recorded temp.
 LUN .               6274:   Logging unit number
 LUL .               GLTE:   Logging unit location
 ENGI.             RAUTIO:   Recorded By
 WITN.             STRONG:   Witnessed by
 ORIG.     2.5", 5" PRINT:   Origin of data
 UWI .     49025110270000:   Unique Well ID
 DICO. A2D TECHNOLOGIES, INC.:   Digitizing Company
~OTHER INFORMATION
~A    DEPT    NPHI       RHOB       CORR       TEND       CALD        GRR        SPR       RSFL       RILD       RILM       TENR   
# ...
 2170.5000  -999.2500  -999.2500  -999.2500  -999.2500  -999.2500    74.7840   -83.2990     9.2950     7.7330     7.8530   -58.4480
 2171.0000  -999.2500  -999.2500  -999.2500  -999.2500  -999.2500    80.5930   -83.2030     8.9580     7.9060     8.0330   -58.2520
 2171.5000  -999.2500  -999.2500  -999.2500  -999.2500  -999.2500    86.4800   -83.1080     8.5540     8.0790     8.3760   -58.0550
 2172.0000  -999.2500  -999.2500  -999.2500  -999.2500  -999.2500    89.6770   -83.0110     8.2990     8.2990     8.3760   -57.8590
 2172.5000  -999.2500  -999.2500  -999.2500  -999.2500  -999.2500    88.2270   -82.9140     9.3210     8.2990     8.1290   -57.6620
 2173.0000  -999.2500  -999.2500  -999.2500  -999.2500  -999.2500    86.0790   -82.8430    10.3800     7.5560     7.6650   -57.4660
 2173.5000  -999.2500  -999.2500  -999.2500  -999.2500  -999.2500    84.3410   -83.1600    11.4390     7.0120     7.2020   -57.2690
 2174.0000  -999.2500  -999.2500  -999.2500  -999.2500  -999.2500    85.9400   -83.5200    11.7770     6.4680     6.7390   -57.0730
 2174.5000  -999.2500  -999.2500  -999.2500  -999.2500  -999.2500    93.2100   -84.0010    10.0720     6.2430     6.2750   -56.8760
 2175.0000  -999.2500  -999.2500  -999.2500  -999.2500  -999.2500   100.3970   -84.4800     8.5210     6.1030     6.0510   -56.6800
 2175.5000  -999.2500  -999.2500  -999.2500  -999.2500  -999.2500   107.5920   -84.9610     7.6720     5.9630     5.9280   -56.4830
 2176.0000  -999.2500  -999.2500  -999.2500  -999.2500  -999.2500   114.8780   -85.4380     6.8230     5.8230     5.8060   -56.2870
 2176.5000  -999.2500  -999.2500  -999.2500  -999.2500  -999.2500   116.9980   -85.7440     5.9740     5.7350     5.6830   -56.0900
 2177.0000  -999.2500  -999.2500  -999.2500  -999.2500  -999.2500   110.3440   -85.3190     5.4830     5.7180     5.6370   -55.8940
 2177.5000  -999.2500  -999.2500  -999.2500  -999.2500  -999.2500   103.3900   -84.9080     6.8860     5.7020     5.7410   -55.6970
 2178.0000  -999.2500  -999.2500  -999.2500  -999.2500  -999.2500    96.2630   -84.4990     8.1440     5.6890     5.8680   -55.5010
 2178.5000  -999.2500  -999.2500  -999.2500  -999.2500  -999.2500    99.3100   -84.0920     9.1000     5.8070     5.9940   -55.3040
 2179.0000  -999.2500  -999.2500  -999.2500  -999.2500  -999.2500   104.7320   -83.8870     7.8540     5.9020     6.1210   -55.1080
 2179.5000  -999.2500  -999.2500  -999.2500  -999.2500  -999.2500   110.5190   -83.7200     6.9030     5.9980     6.2470   -54.8450
 2180.0000  -999.2500  -999.2500  -999.2500  -999.2500  -999.2500   111.5810   -83.5550     6.9670     6.0940     6.3730   -54.5000
 2180.5000  -999.2500  -999.2500  -999.2500  -999.2500  -999.2500   108.6760   -83.4390     6.9320     6.1890     6.5000   -54.1550
 2181.0000  -999.2500  -999.2500  -999.2500  -999.2500  -999.2500   105.7410   -83.4830     6.9030     6.2850     6.5920   -53.8110
 2181.5000  -999.2500  -999.2500  -999.2500  -999.2500  -999.2500   102.8220   -83.5230     6.9030     6.3770     6.6530   -53.4660
 2182.0000  -999.2500  -999.2500  -999.2500  -999.2500  -999.2500   100.3020   -83.5630     6.7770     6.4620     6.6530   -53.1220
 2182.5000  -999.2500  -999.2500  -999.2500  -999.2500  -999.2500   102.0710   -83.6030     8.1090     6.4720     6.5420   -52.7770
 2183.0000  -999.2500  -999.2500  -999.2500  -999.2500  -999.2500   104.8800   -83.6430     9.6150     6.3370     6.4130   -52.4330
 2183.5000  -999.2500  -999.2500  -999.2500  -999.2500  -999.2500   110.4630   -83.6830    10.1630     6.2190     6.2370   -52.0880
 2184.0000  -999.2500  -999.2500  -999.2500  -999.2500  -999.2500   118.0050   -83.7230    10.1630     6.0380     6.0710   -51.7440
 2184.5000  -999.2500  -999.2500  -999.2500  -999.2500  -999.2500   127.3950   -83.7620     8.2790     5.8560     5.9040   -51.3990
 2185.0000  -999.2500  -999.2500  -999.2500  -999.2500  -999.2500   135.1380   -83.8020     7.2070     5.6750     5.7370   -51.0550
 2185.5000  -999.2500  -999.2500  -999.2500  -999.2500  -999.2500   135.8460   -83.8420     6.9310     5.4930     5.5700   -50.7100
 2186.0000  -999.2500  -999.2500  -999.2500  -999.2500  -999.2500   130.3690   -83.8820     6.6550     5.3120     5.4030   -50.3660
 2186.5000  -999.2500  -999.2500  -999.2500  -999.2500  -999.2500   124.8860   -83.9220     6.4130     5.1300     5.2370   -50.0210
 2187.0000  -999.2500  -999.2500  -999.2500  -999.2500  -999.2500   125.2070   -83.9610     6.4130     5.0470     5.0940   -49.6770
 2187.5000  -999.2500  -999.2500  -999.2500  -999.2500  -999.2500   125.7870   -84.0020     6.5620     5.0470     5.1590   -49.3320
 2188.0000  -999.2500  -999.2500  -999.2500  -999.2500  -999.2500   126.3950   -84.0970     6.6930     5.0010     5.2170   -48.9880
 2188.5000  -999.2500  -999.2500  -999.2500  -999.2500  -999.2500   127.6620   -84.3900     6.7770     5.0460     5.2740   -48.6430
 2189.0000  -999.2500  -999.2500  -999.2500  -999.2500  -999.2500   128.6620   -84.1350     6.0240     5.1050     5.3340   -48.2990
 2189.5000  -999.2500  -999.2500  -999.2500  -999.2500  -999.2500   127.7390   -83.8840     5.2360     5.1640     5.5090   -47.9540
 2190.0000  -999.2500  -999.2500  -999.2500  -999.2500  -999.2500   126.8520   -83.6350     5.6740     5.2230     5.6900   -47.6100
 2190.5000  -999.2500  -999.2500  -999.2500  -999.2500  -999.2500   125.9360   -83.4920     6.4330     5.3820     5.8710   -47.2650
 2191.0000  -999.2500  -999.2500  -999.2500  -999.2500  -999.2500   127.6120   -83.8850     7.4990     5.6330     6.0510   -46.9210
 2191.5000  -999.2500  -999.2500  -999.2500  -999.2500  -999.2500   131.0110   -84.2750     7.3870     5.8840     6.2320   -46.5760
 2192.0000  -999.2500  -999.2500  -999.2500  -999.2500  -999.2500   131.8560   -84.3270     7.1990     6.1340     6.4130   -46.2320
 2192.5000  -999.2500  -999.2500  -999.2500  -999.2500  -999.2500   131.1380   -84.1730     7.0960     6.3850     6.7560   -45.8870
 2193.0000  -999.2500  -999.2500  -999.2500  -999.2500  -999.2500   130.2950   -84.0150     7.1980     6.5540     7.0980   -45.5420
 2193.5000  -999.2500  -999.2500  -999.2500  -999.2500  -999.2500   127.1700   -83.8570     7.6960     6.6530     7.2280   -45.1980
 2194.0000  -999.2500  -999.2500  -999.2500  -999.2500  -999.2500   121.2050   -83.7000     8.4530     6.7710     7.1810   -45.0000
 2194.5000  -999.2500  -999.2500  -999.2500  -999.2500  -999.2500   110.3990   -83.5420     9.1840     6.8610     7.1620   -45.0000
 2195.0000  -999.2500  -999.2500  -999.2500  -999.2500  -999.2500   110.3600   -83.3840     8.8520     6.9510     7.2080   -45.0000
 2195.5000  -999.2500  -999.2500  -999.2500  -999.2500  -999.2500   110.6860   -83.2370     8.4550     7.0410     7.3140   -45.0000
 2196.0000  -999.2500  -999.2500  -999.2500  -999.2500  -999.2500   110.9720   -83.2330     8.0570     7.1310     7.4210   -45.0000
 2196.5000  -999.2500  -999.2500  -999.2500  -999.2500  -999.2500   111.1880   -83.2310     7.9990     7.1620     7.4990   -45.0000
 2197.0000  -999.2500  -999.2500  -999.2500  -999.2500  -999.2500   114.3590   -83.2530     8.2590     7.1620     7.4990   -45.0000
 2197.5000  -999.2500  -999.2500  -999.2500  -999.2500  -999.2500   117.8850   -83.6780     8.4370     7.1620     7.4690   -45.0000
 2198.0000  -999.2500  -999.2500  -999.2500  -999.2500  -999.2500   120.3690   -84.1010     8.6310     7.0900     7.3570   -45.0000
 2198.5000  -999.2500  -999.2500  -999.2500  -999.2500  -999.2500   112.0740   -84.5210     8.9950     6.9820     7.2450   -45.0000
 2199.0000  -999.2500  -999.2500  -999.2500  -999.2500  -999.2500   106.5890   -84.8960     9.3590     6.8750     7.1320   -45.0000
 2199.5000  -999.2500  -999.2500  -999.2500  -999.2500  -999.2500   105.2550   -85.1770     9.7220     6.7670     7.0200   -45.0000
 2200.0000  -999.2500  -999.2500  -999.2500  -999.2500  -999.2500   113.6860   -85.3840     9.9780     6.6600     6.9070   -45.0000
 2200.5000  -999.2500  -999.2500  -999.2500  -999.2500  -999.2500   122.5400   -84.7940     8.5250     6.5520     6.7950   -45.0000
