~VERSION INFORMATION
 VERS.                2.0:   CWLS LOG ASCII STANDARD - VERSION 2.0
 WRAP.                 NO:   ONE LINE PER DEPTH STEP
~WELL INFORMATION
#MNEM.UNIT      DATA TYPE    INFORMATION
#----------   ------------   ------------------------------
 STRT.F          216.0000:   START DEPTH
 STOP.F         3241.0000:   STOP DEPTH
 STEP.F            0.5000:   STEP LENGTH
 NULL.          -999.2500:   NO VALUE
 COMP.    FENIX & SCISSON:   COMPANY
 WELL.    FENIX "A" #72-4:   WELL
 FLD .             NPR #3:   FIELD
 LOC .       S4 T38N R78W:   LOCATION
 CNTY.            NATRONA:   COUNTY
 STAT.            WYOMING:   STATE
 CTRY. UNITED STATES OF AMERICA:   COUNTRY
 SRVC.              WELEX:   SERVICE COMPANY
 DATE.        09-JUL-1977:   LOGDATE
 API .     49025103900000:   API NUMBER
~CURVE INFORMATION
#MNEM.UNIT       API CODE    CURVE DESCRIPTION
#----------   ------------   ------------------------------
 DEPT.F                  :   
 CORR.G/C3   45 356 01 00:   DENSITY CORRECTION
 GRD .GAPI   45 310 01 00:   GAMMA RAY FROM DENSITY LOG
 RHOB.G/C3   45 350 01 00:   BULK DENSITY
 CALD.IN     45 280 60 00:   CALIPER FROM DENSITY LOG
 SPR .MV     07 010 01 00:   SPONTANEOUS POTENTIAL
 ILD .OHMM   07 120 46 00:   DEEP INDUCTION RESISTIVITY
 ILM .OHMM   07 120 44 00:   INDUCTION LOG MEDIUM RESISTIVITY
 SGRD.OHMM   07 220 05 00:   SHALLOW SHORT GUARD RESISTIVITY
~PARAMETER INFORMATION
#MNEM.UNIT          VALUE    DESCRIPTION
#----------   ------------   ------------------------------
 EKB .F         5192.0000:   Kelly bushing
 EGL .F         5182.0000:   Ground level
 TD  .F         3243.0000:   Total depth
 CLNT.            A2DTECH:   Client Code
 SL  . 990' FNL & 990' FEL:   Surface Location
 PD  .                 GL:   Permanent Datum
 EPD .F              5182:   Elevation Permanent Datum
 LMF .                 KB:   Log Measured From
 DMF .                 KB:   Drilling Measured From
 DAPD.F                10:   Feet Above Permanent Datum
 DATE.        09-JUL-1977:   Date Logged [DD-MMM-YYYY]
 DD  .F              3230:   Depth driller
 DL  .F              3243:   Depth logger
 BLI .F              3241:   Bottom log interval
 TLI .F               224:   Top log interval
 CS1 .IN            8.625:   Casing size
 CBD1.      8.625" @ 221':   Casing driller 1
 CBL1.F               224:   Casing logger 1
 BS1 .IN            7.875:   Bit size
 BSD1.F              3230:   Depth drilled with bit1
 DFT .                KCL:   Type fluid in hole
 DFD .                8.9:   Density
 DFV .                 44:   Viscosity
 DFPH.                7.5:   pH
 DFL .                5.8:   Fluid loss
 MSS .            MUD PIT:   Source of sample
 RMS .OHMM           0.24:   Rm
 MST .F                68:   Rm Meas. temp.
 RMF .OHMM           0.20:   Rmf
 MFST.F                68:   Rmf Meas. temp.
 MFSS.               MEAS:   Source Rmf.
 RMC .OHMM           0.31:   Rmc
 MCST.F                68:   Rmc Meas. temp.
 MCSS.               MEAS:   Source Rmc.
 RMB .OHMM           0.13:   Rm. at BHT
 BHT .F               117:   BHT.
 TCS .HRS               3:   Time Circ. stopped
 MRT .F               117:   Maximum recorded temp.
 LUN .               8766:   Logging unit number
 LUL .             CASPER:   Logging unit location
 ENGI.          T. JOYNER:   Recorded By
 WITN.         HARRINGTON:   Witnessed by
 ORIG.           5" PRINT:   Origin of data
 UWI .     49025103900000:   Unique Well ID
 DICO. A2D TECHNOLOGIES, INC.:   Digitizing Company
~OTHER INFORMATION
~A   DEPT     CORR         GRD        RHOB     CALD        SPR        ILD        ILM       SGRD   
# ...
 1633.5000     0.0157   114.3665     2.5118     9.5226   -74.0930     6.3152     7.1559     8.3329
 1634.0000     0.0168   113.1563     2.5133     9.5085   -74.1039     6.2878     7.1598     8.5733
 1634.5000     0.0181   111.7020     2.5073     9.4945   -74.1148     6.3366     7.1143     8.7585
 1635.0000     0.0181   110.8778     2.5028     9.4956   -74.1256     6.3855     7.1685     8.7633
 1635.5000     0.0182   110.9145     2.5021     9.4965   -74.1365     6.3898     7.1230     8.5874
 1636.0000     0.0182   110.9439     2.5059     9.4973   -74.1473     6.3942     7.1269     8.4725
 1636.5000     0.0182   110.0791     2.5104     9.4982   -74.1582     6.4431     7.1307     8.4783
 1637.0000     0.0183   109.2069     2.5134     9.4991   -74.1691     6.4925     7.1342     8.7825
 1637.5000     0.0168   109.2436     2.5105     9.5000   -74.1799     6.4970     7.1381     8.9721
 1638.0000     0.0161   110.1672     2.5075     9.5009   -74.1908     6.5015     7.1919     9.1025
 1638.5000     0.0162   110.4946     2.5046     9.4870   -74.2016     6.5522     7.1959     9.0433
 1639.0000     0.0162   109.3317     2.5008     9.4728   -74.2125     6.5752     7.1492     8.9867
 1639.5000     0.0163   108.1688     2.5001     9.4737   -74.2234     6.6068     7.1540     8.9295
 1640.0000     0.0163   108.1982     2.5001     9.4746   -74.2342     6.6574     7.1579     8.9967
 1640.5000     0.0171   108.8237     2.5018     9.4756   -74.2451     6.7077     7.1618     9.0017
 1641.0000     0.0187   107.9589     2.5040     9.4765   -74.2560     6.7124     7.1658     8.9442
 1641.5000     0.0172   108.8824     2.5032     9.4774   -74.2668     6.7175     7.1769     8.7647
 1642.0000     0.0165   107.1116     2.5033     9.4783   -74.2777     6.7689     7.2243     8.5899
 1642.5000     0.0143   105.9605     2.4966     9.4792   -74.2885     6.8207     7.2784     8.5340
 1643.0000     0.0143   106.0386     2.4839     9.4950   -74.2994     6.8254     7.3328     8.6592
 1643.5000     0.0144   106.9208     2.4906     9.5108   -74.3103     6.8301     7.4390     9.0324
 1644.0000     0.0144   106.0560     2.4966     9.5116   -74.3211     6.8346     7.5467     9.2275
 1644.5000     0.0160   103.7008     2.5019     9.5424   -74.3320     6.8394     7.6559     9.1674
 1645.0000     0.0160   103.7302     2.5057     9.5587   -74.3428     6.8926     7.7133     9.1736
 1645.5000     0.0168   103.7596     2.5095     9.5740   -74.3537     6.9446     7.7710     9.1787
 1646.0000     0.0176   102.2986     2.5209     9.5749   -74.3646     7.0466     7.8292     9.1837
 1646.5000     0.0192   103.2222     2.5267     9.6058   -74.3755     7.1015     7.8878     9.1887
 1647.0000     0.0177   103.8476     2.5200     9.6067   -74.3863     7.1550     7.8921     9.0670
 1647.5000     0.0155   104.4731     2.5133     9.6375   -74.3971     7.1100     7.8964     9.0719
 1648.0000     0.0133   103.9064     2.5059     9.6383   -74.3969     7.1161     7.8462     9.0770
 1648.5000     0.0118   101.8493     2.5022     9.6392   -74.3866     7.1210     7.8505     9.0820
 1649.0000     0.0119    99.4942     2.5014     9.6250   -74.3762     7.1258     7.7469     9.2151
 1649.5000     0.0134    98.6289     2.5045     9.6261   -74.3658     7.0802     7.7521     9.2843
 1650.0000     0.0135    98.9568     2.5041     9.6269   -74.3554     7.0862     7.8114     9.0980
 1650.5000     0.0135   101.0730     2.5015     9.6427   -74.3450     7.0911     7.8391     9.1029
 1651.0000     0.0121   101.6990     2.4956     9.6436   -74.3346     7.0959     7.8720     9.2995
 1651.5000     0.0092   102.9240     2.4851     9.6455   -74.3242     7.0759     7.9304     9.4442
 1652.0000     0.0048   104.1381     2.4784     9.6467   -74.3138     6.9636     7.9341     9.6432
 1652.5000     0.0017   102.9750     2.4732     9.6177   -74.3034     6.8650     7.8288     9.2468
 1653.0000     0.0057   103.6076     2.4778     9.6191   -74.2930     6.6821     7.6717     8.8861
 1653.5000     0.0096   104.8291     2.4883     9.6054   -74.2826     6.5930     7.5168     8.5294
 1654.0000     0.0141   105.4545     2.5003     9.5767   -74.2722     6.4174     7.3669     8.4161
 1654.5000     0.0172   105.1855     2.5048     9.5629   -74.2618     6.3328     7.2691     8.3057
 1655.0000     0.0202   106.1161     2.5086     9.5492   -74.2514     6.3366     7.1726     8.1982
 1655.5000     0.0218   106.4434     2.5140     9.5506   -74.2410     6.3406     7.1266     8.2037
 1656.0000     0.0234   106.4725     2.5184     9.5518   -74.2306     6.3895     7.1308     8.2093
 1656.5000     0.0249   106.1963     2.5215     9.5378   -74.2202     6.3934     7.1836     8.1016
 1657.0000     0.0265   107.4251     2.5267     9.5392   -74.2098     6.3973     7.1870     8.1647
 1657.5000     0.0266   108.6465     2.5335     9.5404   -74.1994     6.3560     7.2403     8.2262
 1658.0000     0.0259   108.9737     2.5298     9.5116   -74.1890     6.3608     7.3446     8.2903
 1658.5000     0.0245   107.2145     2.5238     9.5278   -74.1786     6.3647     7.3990     8.3537
 1659.0000     0.0223   106.3487     2.5156     9.5439   -74.1682     6.3684     7.5577     8.4762
 1659.5000     0.0194   107.5709     2.5067     9.5451   -74.1578     6.3724     7.7198     8.6005
 1660.0000     0.0180   108.1967     2.4993     9.5614   -74.1474     6.3763     7.6173     8.7267
 1660.5000     0.0180   108.8227     2.4955     9.5775   -74.1370     6.4544     7.5162     8.7934
 1661.0000     0.0181   109.4541     2.4918     9.5787   -74.1266     6.4758     7.4165     8.7994
 1661.5000     0.0182   105.9065     2.4904     9.5797   -74.1162     6.5227     7.3688     8.6239
 1662.0000     0.0160   102.9551     2.4964     9.5810   -74.1058     6.5723     7.3215     8.3354
 1662.5000     0.0131   103.5804     2.4972     9.6053   -74.0954     6.5769     7.3258     8.1691
 1663.0000     0.0094   105.0999     2.4853     9.6132   -74.0850     6.5805     7.2787     8.1749
 1663.5000     0.0087   105.4271     2.4823     9.6144   -74.0746     6.5393     7.2822     8.3538
 1664.0000     0.0081   105.4563     2.4921     9.6155   -74.0642     6.4971     7.2857     8.5353
 1664.5000     0.0082   106.6777     2.4899     9.6316   -74.0538     6.5019     7.2388     8.5411
 1665.0000     0.0082   103.7263     2.4839     9.6328   -74.0434     6.5060     7.2431     8.3129
 1665.5000     0.0091   101.9671     2.4809     9.6343   -74.0330     6.5101     7.2465     8.3185
 1666.0000     0.0099   102.6568     2.4855     9.6364   -74.0226     6.4251     7.2499     8.5585
 1666.5000     0.0092   104.4172     2.4870     9.6515   -74.0122     6.4290     7.2533     8.6840
 1667.0000     0.0100   105.0425     2.4945     9.6525   -74.0018     6.4329     7.3071     8.6899
 1667.5000     0.0116   104.4756     2.5006     9.6538   -73.9914     6.4369     7.4124     8.6958
 1668.0000     0.0132   101.8222     2.5073     9.6550   -73.9810     6.4411     7.7300     8.7715
 1668.5000     0.0162   100.9499     2.5134     9.6561   -73.9706     6.4444     7.2636     8.7090
 1669.0000     0.0178   100.9863     2.5171     9.6573   -73.9602     6.4486     7.1220     8.4763
 1669.5000     0.0201   101.6116     2.5194     9.6585   -73.9498     6.4526     7.1254     8.2498
 1670.0000     0.0210   101.9389     2.5127     9.6597   -73.9394     6.4462     7.1782     8.2554
 1670.5000     0.0210   102.8622     2.5068     9.6609   -73.9290     6.4151     7.2314     8.3185
 1671.0000     0.0226   103.4875     2.5113     9.6623   -73.9186     6.4206     7.2850     8.3822
 1671.5000     0.0227   104.7094     2.5106     9.6635   -73.9082     6.4693     7.3899     8.5051
 1672.0000     0.0220   102.2672     2.5046     9.6646   -73.8978     6.4733     7.4964     8.6298
 1672.5000     0.0213   101.1905     2.5077     9.6846   -73.8874     6.5677     7.4999     8.6367
 1673.0000     0.0199   103.0154     2.5130     9.6968   -73.8770     6.6636     7.5587     8.7694
 1673.5000     0.0185   103.6407     2.5167     9.7129   -73.8666     6.7141     7.6117     8.9543
