~VERSION INFORMATION
 VERS.                2.0:   CWLS LOG ASCII STANDARD - VERSION 2.0
 WRAP.                 NO:   ONE LINE PER DEPTH STEP
~WELL INFORMATION
#MNEM.UNIT      DATA TYPE    INFORMATION
#----------   ------------   ------------------------------
 STRT.F           41.0000:   START DEPTH
 STOP.F          925.0000:   STOP DEPTH
 STEP.F            0.5000:   STEP LENGTH
 NULL.          -999.2500:   NO VALUE
 COMP. LAWRENCE ALLISON & ASSOCIATION:   COMPANY
 WELL. LAWRENCE ALLISON #48-2:   WELL
 FLD .       N.P.R. NO. 3:   FIELD
 LOC .       S2 T38N R78W:   LOCATION
 CNTY.            NATRONA:   COUNTY
 STAT.            WYOMING:   STATE
 CTRY. UNITED STATES OF AMERICA:   COUNTRY
 SRVC.       SCHLUMBERGER:   SERVICE COMPANY
 DATE.        06-SEP-1982:   LOGDATE
 API .     49025109110000:   API NUMBER
~CURVE INFORMATION
#MNEM.UNIT       API CODE    CURVE DESCRIPTION
#----------   ------------   ------------------------------
 DEPT.F                  :   
 ILM .OHMM   07 120 44 00:   INDUCTION LOG MEDIUM RESISTIVITY
 ILD .OHMM   07 120 46 00:   DEEP INDUCTION RESISTIVITY
 CALD.IN     45 280 60 00:   CALIPER FROM DENSITY LOG
 GRD .GAPI   45 310 01 00:   GAMMA RAY FROM DENSITY LOG
 TEND.LBS    45 635 01 00:   TENSION FROM DENSITY LOG
 CORR.G/C3   45 356 01 00:   DENSITY CORRECTION
 RHOB.G/C3   45 350 01 00:   BULK DENSITY
 NPHI.DEC    42 890 03 00:   NEUTRON POROSITY SANDSTONE
~PARAMETER INFORMATION
#MNEM.UNIT          VALUE    DESCRIPTION
#----------   ------------   ------------------------------
 EKB .F         5192.0000:   Kelly bushing
 EGL .F         5182.0000:   Ground level
 TD  .F          920.0000:   Total depth
 CLNT.            A2DTECH:   Client Code
 DATE.         6-SEP-1982:   Date Logged [DD-MMM-YYYY]
 DD  .F               920:   Depth driller
 DL  .F               918:   Depth logger
 BLI .F               908:   Bottom log interval
 TLI .F                49:   Top log interval
 CBL1.IN               49:   Casing logger 1
 BSD1.F               920:   Depth drilled with bit1
 DFT .                AIR:   Type fluid in hole
 TCS .HRS            0730:   Time Circ. stopped
 TLAB.HRS            0900:   Time logger at bottom
 LUN .               8035:   Logging unit number
 LUL .               CSPR:   Logging unit location
 ENGI.              PENNY:   Recorded By
 WITN.           JENNINGS:   Witnessed by
 ORIG.           5" PRINT:   Origin of data
 UWI .     49025109110000:   Unique Well ID
 DICO. A2D TECHNOLOGIES, INC.:   Digitizing Company
 PD  .                 GL:   Permanent Datum
 EPD .               5180:   Elevation Permanent Datum
 LMF .                 KB:   Log Measured From
 DMF .                 KB:   Drilling Measured From
 DAPD.                 10:   Feet Above Permanent Datum
~OTHER INFORMATION
~A   DEPT      ILM        ILD       CALD         GRD      TEND       CORR       RHOB       NPHI   
# ...
  203.0000     6.6314     6.5885    12.9621   154.2054   459.0330     0.0333     2.4033  -999.2500
  203.5000     6.4516     6.4020    12.9627   150.0979   473.7356     0.0554     2.4212  -999.2500
  204.0000     6.2767     6.2659    12.9634   146.2194   472.9521     0.0712     2.4368  -999.2500
  204.5000     6.1066     6.0451    12.9640   139.5917   472.0406     0.0727     2.4335  -999.2500
  205.0000     5.8999     5.8742    12.9646   139.8342   471.2872     0.0579     2.4163  -999.2500
  205.5000     5.7002     5.6265    12.9652   143.5118   470.5339     0.0508     2.4009  -999.2500
  206.0000     5.4311     5.3884    12.9658   147.4185   485.4248     0.0540     2.4017  -999.2500
  206.5000     5.2473     5.1201    12.9663   150.1812   484.4832     0.0634     2.4056  -999.2500
  207.0000     5.0345     4.7571    12.9669   149.9623   483.7298     0.0689     2.4064  -999.2500
  207.5000     4.5058     4.3961    12.9823   151.3967   482.9765     0.0673     2.3986  -999.2500
  208.0000     4.0325     4.0728    13.0273   153.4259   497.6791     0.0650     2.3861  -999.2500
  208.5000     3.8690     3.9292    13.0278   152.2974   496.9088     0.0722     2.3526  -999.2500
  209.0000     3.7638     3.9295    13.0284   146.8136   511.6284     0.0745     2.3229  -999.2500
  209.5000     3.8717     3.9298    13.0290   139.7279   495.2307     0.0682     2.3011  -999.2500
  210.0000     4.0567     4.0157    12.9694   137.6769   494.4774     0.0447     2.2949  -999.2500
  210.5000     4.2461     4.1332    12.8970   140.2129   509.3683     0.0282     2.3141  -999.2500
  211.0000     4.5907     4.2541    12.9125   144.5775   508.4267     0.0266     2.3475  -999.2500
  211.5000     4.8238     4.5388    12.9279   146.6521   507.6734     0.0290     2.3658  -999.2500
  212.0000     5.0382     4.7734    12.9285   146.8946   506.9200     0.0314     2.3768  -999.2500
  212.5000     5.2246     4.9485    12.9291   146.2024   506.1667     0.0322     2.3838  -999.2500
  213.0000     5.3024     5.0933    12.9297   146.0056   505.4097     0.0322     2.3814  -999.2500
  213.5000     5.3047     5.1674    12.9302   145.5611   506.5403     0.0330     2.3791  -999.2500
  214.0000     5.3069     5.2050    12.9456   144.6619   534.8186     0.0354     2.3853  -999.2500
  214.5000     5.3092     5.2430    12.9610   143.3014   533.8770     0.0385     2.3924  -999.2500
  215.0000     5.3114     5.2434    12.9764   141.4828   533.1236     0.0425     2.3986  -999.2500
  215.5000     5.3137     5.2437    12.9769   139.2063   532.3702     0.0472     2.4002  -999.2500
  216.0000     5.3159     5.2441    12.9627   138.7584   547.2612     0.0488     2.4002  -999.2500
  216.5000     5.3182     5.2446    12.9485   143.3554   530.8636     0.0528     2.4009  -999.2500
  217.0000     5.3205     5.1700    12.9343   147.2620   530.1102     0.0616     2.3985  -999.2500
  217.5000     5.2468     5.0601    12.9201   148.8752   529.3569     0.0645     2.3931  -999.2500
  218.0000     5.0278     4.9170    12.9208   146.6020   544.0595     0.0559     2.3885  -999.2500
  218.5000     4.7152     4.6760    12.9214   142.4934   543.2767     0.0512     2.3830  -999.2500
  219.0000     4.2937     4.2590    12.9220   139.0718   542.3645     0.0528     2.3713  -999.2500
  219.5000     3.7071     3.8239    12.9226   137.7112   526.1552     0.0567     2.3378  -999.2500
  220.0000     3.0167     2.9099    12.9232   141.1452   525.4019     0.0607     2.2793  -999.2500
  220.5000     2.6874     2.6314    12.9237   151.4810   540.2928     0.0615     2.2137  -999.2500
  221.0000     2.3385     2.5754    12.9243   155.1552   539.3511     0.0427     2.1630  -999.2500
  221.5000     2.3225     2.5756    12.9249   149.9060   523.1419     0.0207     2.1495  -999.2500
  222.0000     2.5328     2.6320    12.9255   146.0253   537.8671     0.0136     2.2122  -999.2500
  222.5000     2.7817     2.6896    12.9261   134.3594   536.8406     0.0192     2.2798  -999.2500
  223.0000     3.1668     2.8083    12.9266   127.0447   520.8655     0.0380     2.3549  -999.2500
  223.5000     3.6311     3.0837    12.9272   124.9772   519.9402     0.0419     2.3682  -999.2500
  224.0000     4.0167     3.6195    12.9278   131.7747   519.1869     0.0332     2.3643  -999.2500
  224.5000     4.2560     4.0596    12.9284   150.6741   518.4335     0.0278     2.3603  -999.2500
  225.0000     4.4772     4.4029    12.9315   156.4128   517.6802     0.0382     2.3607  -999.2500
  225.5000     4.6762     4.6807    12.9445   158.4874   516.9269     0.0695     2.3729  -999.2500
  226.0000     4.7119     4.7148    12.9451   155.5238   531.8178     0.0930     2.3931  -999.2500
  226.5000     4.7139     4.7151    12.9307   146.3278   530.8761     0.1221     2.4111  -999.2500
  227.0000     4.7159     4.7155    12.9314   144.1004   530.1228     0.1237     2.4095  -999.2500
  227.5000     4.7179     4.7158    12.9320   145.3015   529.3663     0.0947     2.3830  -999.2500
  228.0000     4.7200     4.7161    12.9177   147.3369   528.5935     0.0546     2.3557  -999.2500
  228.5000     4.7220     4.6826    12.9184   149.6405   527.6744     0.0311     2.3393  -999.2500
  229.0000     4.7240     4.6830    12.9190   149.1959   526.9211     0.0256     2.3377  -999.2500
  229.5000     4.6922     4.6498    12.9343   147.6064   541.8121     0.0249     2.3401  -999.2500
  230.0000     4.5946     4.5509    12.9349   146.4749   540.8704     0.0296     2.3432  -999.2500
  230.5000     4.4345     4.4541    12.9207   145.3433   555.7613     0.0335     2.3457  -999.2500
  231.0000     4.2190     4.3594    12.9064   143.7538   554.8196     0.0359     2.3463  -999.2500
  231.5000     3.8447     4.1457    12.8923   140.7902   554.0663     0.0391     2.3456  -999.2500
  232.0000     3.4537     3.7221    12.8951   140.1133   553.3130     0.0406     2.3424  -999.2500
  232.5000     3.1473     3.1527    12.9083   143.5653   552.5502     0.0382     2.3206  -999.2500
  233.0000     2.8681     2.7088    12.8940   144.4948   549.4055     0.0352     2.3003  -999.2500
  233.5000     2.6136     2.5385    12.8948   142.8892   535.4087     0.0423     2.2691  -999.2500
  234.0000     2.3989     2.4858    12.8954   140.3571   534.6553     0.0478     2.2239  -999.2500
  234.5000     2.2019     2.4715    12.8959   139.6893   533.9020     0.0572     2.1794  -999.2500
  235.0000     2.3163     2.4895    12.8965   138.3690   533.1487     0.0298     2.1505  -999.2500
  235.5000     2.6370     2.5258    12.8971   134.7184   532.3953     0.0054     2.1708  -999.2500
  236.0000     3.0673     2.6948    12.8977   129.2357   531.6420     0.0000     2.2410  -999.2500
  236.5000     3.3931     2.9168    12.8983   128.3298   530.8887     0.0172     2.3399  -999.2500
  237.0000     3.7534     3.7248    12.8988   132.9268   530.1353     0.0330     2.3871  -999.2500
  237.5000     4.0928     4.3635    12.8994   137.7495   529.3664     0.0479     2.4017  -999.2500
  238.0000     4.6703     4.7570    12.9000   141.6561   528.4403     0.0565     2.3963  -999.2500
  238.5000     5.1253     5.1120    12.9006   144.1887   527.6870     0.0511     2.3900  -999.2500
  239.0000     5.3449     5.3377    12.9012   145.8053   511.4777     0.0401     2.3861  -999.2500
  239.5000     5.4249     5.4545    12.8871   142.1546   510.7244     0.0424     2.3853  -999.2500
  240.0000     5.4272     5.4549    12.8729   137.5880   509.9710     0.0520     2.3869  -999.2500
  240.5000     5.4295     5.4162    12.8585   136.9145   524.8619     0.0543     2.3838  -999.2500
  241.0000     5.3161     5.3010    12.8593   139.5145   523.9203     0.0441     2.3783  -999.2500
  241.5000     5.1678     5.1498    12.8746   142.2747   523.1670     0.0362     2.3713  -999.2500
  242.0000     4.8119     4.8888    12.8900   144.0576   522.4111     0.0347     2.3635  -999.2500
  242.5000     4.2916     4.4796    12.8906   149.5662   521.6383     0.0425     2.3547  -999.2500
  243.0000     3.8002     3.8368    12.8912   156.2220   520.7186     0.0488     2.3440  -999.2500
