~VERSION INFORMATION
 VERS.                2.0:   CWLS LOG ASCII STANDARD - VERSION 2.0
 WRAP.                 NO:   ONE LINE PER DEPTH STEP
~WELL INFORMATION
#MNEM.UNIT      DATA TYPE    INFORMATION
#----------   ------------   ------------------------------
 STRT.F         2496.0000:   START DEPTH
 STOP.F         4120.0000:   STOP DEPTH
 STEP.F            0.5000:   STEP LENGTH
 NULL.          -999.2500:   NO VALUE
 COMP. LAWRENCE ALLISON AND ASSOCIATES:   COMPANY
 WELL. LAWRENCE "X" #85-10:   WELL
 FLD .              N P R:   FIELD
 LOC .      S10 T38N R78W:   LOCATION
 CNTY.            NATRONA:   COUNTY
 STAT.            WYOMING:   STATE
 CTRY. UNITED STATES OF AMERICA:   COUNTRY
 SRVC.      DRESSER ATLAS:   SERVICE COMPANY
 DATE.        20-JAN-1984:   LOGDATE
 API .     49025109580000:   API NUMBER
~CURVE INFORMATION
#MNEM.UNIT       API CODE    CURVE DESCRIPTION
#----------   ------------   ------------------------------
 DEPT.F                  :   
 SPR .MV     07 010 01 00:   SPONTANEOUS POTENTIAL
 TENR.LBS    07 635 01 00:   TENSION FROM RESISTIVITY
 ILD .OHMM   07 120 46 00:   DEEP INDUCTION RESISTIVITY
 ILM .OHMM   07 120 44 00:   INDUCTION LOG MEDIUM RESISTIVITY
 RFOC.OHMM   07 220 04 00:   RESISTIVITY FOCUSED LOG RES.
 GRD .GAPI   45 310 01 00:   GAMMA RAY FROM DENSITY LOG
 CALD.IN     45 280 60 00:   CALIPER FROM DENSITY LOG
 TEND.LBS    45 635 01 00:   TENSION FROM DENSITY LOG
 RHOB.G/C3   45 350 01 00:   BULK DENSITY
 CORR.G/C3   45 356 01 00:   DENSITY CORRECTION
 CN  .DEC    42 890 03 00:   NEUTRON POROSITY SANDSTONE
~PARAMETER INFORMATION
#MNEM.UNIT          VALUE    DESCRIPTION
#----------   ------------   ------------------------------
 EKB .F         5231.0000:   Kelly bushing
 EGL .F         5221.0000:   Ground level
 EDF .F            0.0000:   Drilling floor
 TD  .F         4115.0000:   Total depth
 DATE.        20-JAN-1984:   Date logged
 CLNT.            A2DTECH:   Client Code
 SL  . 2159' FSL & 292' FEL:   Surface Location
 PD  .                 GL:   Permanent Datum
 EPD .F              5221:   Elevation Permanent Datum
 LMF .                 KB:   Log Measured From
 DMF .                 KB:   Drilling Measured From
 DD  .F              4115:   Depth driller
 DL  .F              4111:   Depth logger
 BLI .F              4109:   Bottom log interval
 TLI .F              2496:   Top log interval
 CS1 .IN            8.625:   Casing size
 CBD1.       8.625 @ 537':   Casing driller 1
 BS1 .IN            7.875:   Bit size
 DFT .            GEL KCL:   Type fluid in hole
 DFD .                8.8:   Density
 DFV .                 40:   Viscosity
 DFPH.                  9:   pH
 DFL .                9.8:   Fluid loss
 MSS .           FLOWLINE:   Source of sample
 RMS .OHMM           0.61:   Rm
 MST .F                77:   Rm Meas. temp.
 RMF .OHMM           0.51:   Rmf
 MFST.F                69:   Rmf Meas. temp.
 RMC .OHMM           0.76:   Rmc
 MCST.F                77:   Rmc Meas. temp.
 MFSS.               MEAS:   Source Rmf.
 RMB .OHMM           0.38:   Rm. at BHT
 BHT .F               122:   BHT.
 TCS .HRS               4:   Time Circ. stopped
 MRT .F               122:   Maximum recorded temp.
 LUN .               6307:   Logging unit number
 LUL .               GLTE:   Logging unit location
 ENGI.            DEYOUNG:   Recorded By
 WITN.           R. SCOTT:   Witnessed by
 ORIG.           5" PRINT:   Origin of data
 UWI .     49025109580000:   Unique Well ID
 DICO. A2D TECHNOLOGIES, INC.:   Digitizing Company
 DAPD.                 10:   Feet Above Permanent Datum
 MCSS.               CALC:   Source Rmc.
~OTHER INFORMATION
~A  DEPT       SPR       TENR        ILD        ILM       RFOC        GRD       CALD       TEND       RHOB       CORR         CN   
# ...
 4082.0000   -76.5990   -19.4160     8.0810     9.2230     9.6220  -999.2500     7.3150   -21.5700  -999.2500  -999.2500     0.1150
 4082.5000   -76.9550   -19.2750     8.8840     9.2410    10.4110  -999.2500     7.3150   -21.3130  -999.2500  -999.2500     0.1150
 4083.0000   -77.1980   -19.1350     9.5270     9.2600    11.2000  -999.2500     7.3150   -21.0560  -999.2500  -999.2500     0.1150
 4083.5000   -77.4120   -18.9950    10.1890     9.2880    11.9890  -999.2500     7.3150   -20.8000  -999.2500  -999.2500     0.1140
 4084.0000   -77.6230   -18.8540    10.3790     9.0560    12.6020  -999.2500     7.3150   -20.5430  -999.2500  -999.2500     0.1140
 4084.5000   -77.8340   -18.7140     9.1300     8.4250    11.3730  -999.2500     7.3150   -20.2860  -999.2500  -999.2500     0.1140
 4085.0000   -78.0460   -18.5730     7.8450     7.7940    10.6640  -999.2500     7.3150   -20.0290  -999.2500  -999.2500  -999.2500
 4085.5000   -78.2570   -18.4330     6.5600     7.1630     9.9540  -999.2500     7.3150   -19.7720  -999.2500  -999.2500  -999.2500
 4086.0000   -78.4680   -18.2920     5.2740     6.5310     9.0450  -999.2500     7.3150   -19.5160  -999.2500  -999.2500  -999.2500
 4086.5000   -78.6800   -18.1520     4.8210     5.9000     7.2740  -999.2500     7.3150   -19.2590  -999.2500  -999.2500  -999.2500
 4087.0000   -78.8910   -18.0110     4.5610     5.2690     5.1440  -999.2500     7.3150   -19.0020  -999.2500  -999.2500  -999.2500
 4087.5000   -79.1030   -17.8710     4.3160     4.6370     5.2120  -999.2500     7.3150   -18.7450  -999.2500  -999.2500  -999.2500
 4088.0000   -79.3140   -17.5740     4.1590     3.7720     5.2990  -999.2500     7.3150   -18.4880  -999.2500  -999.2500  -999.2500
 4088.5000   -79.5240   -17.2270     4.1590     3.8410     5.4370  -999.2500     7.3150   -18.2310  -999.2500  -999.2500  -999.2500
 4089.0000   -79.6880   -16.8790     4.4160     3.9790     5.3090  -999.2500     7.3150   -17.9750  -999.2500  -999.2500  -999.2500
 4089.5000   -79.7650   -16.5320     4.6330     4.1170     5.0030  -999.2500     7.3150   -17.7180  -999.2500  -999.2500  -999.2500
 4090.0000   -79.8600   -16.1840     4.8500     4.9170     4.9110  -999.2500     7.3150   -18.1480  -999.2500  -999.2500  -999.2500
 4090.5000   -79.2950   -15.8370     5.0670     6.6370     7.0770  -999.2500     7.3150   -18.7320  -999.2500  -999.2500  -999.2500
 4091.0000   -78.5840   -15.4890     6.0400     8.3570     9.7150  -999.2500     7.3150   -19.3170  -999.2500  -999.2500  -999.2500
 4091.5000   -77.8660   -15.1410     8.0320    10.0760    12.3530  -999.2500     7.3150   -19.9010  -999.2500  -999.2500  -999.2500
 4092.0000   -77.1490   -14.7940    10.0230    11.7960    21.1970  -999.2500     7.3150   -20.4850  -999.2500  -999.2500  -999.2500
 4092.5000   -76.4320   -14.4460    12.0150    13.5160    39.3370  -999.2500     7.3150   -21.0700  -999.2500  -999.2500  -999.2500
 4093.0000   -75.7160   -14.0990    14.0070    15.2360    49.9140  -999.2500     7.3150   -21.6540  -999.2500  -999.2500  -999.2500
 4093.5000   -74.9990   -13.7510    15.9980    17.9010    44.7290  -999.2500     7.3150   -22.2390  -999.2500  -999.2500  -999.2500
 4094.0000   -74.2810   -13.4030    17.0930    17.5390    29.2610  -999.2500     7.3150   -22.8230  -999.2500  -999.2500  -999.2500
 4094.5000   -73.5640   -13.0560    17.0930    16.7800    17.7370  -999.2500     7.3150   -23.4070  -999.2500  -999.2500  -999.2500
 4095.0000   -73.5460   -12.7080    17.0930    15.1680    18.3610  -999.2500     7.3150   -23.9920  -999.2500  -999.2500  -999.2500
 4095.5000   -73.7690   -12.3610    16.4730    13.6400    18.8580  -999.2500     7.3150   -24.5760  -999.2500  -999.2500  -999.2500
 4096.0000   -73.9930   -12.0130    13.4530    12.1130    19.3550  -999.2500     7.3150   -25.1600  -999.2500  -999.2500  -999.2500
 4096.5000   -74.2170   -11.6650    10.6130    10.5850    19.8160  -999.2500     7.3150   -25.7030  -999.2500  -999.2500  -999.2500
 4097.0000   -74.4410   -11.3180     8.8010     9.0580    12.4010  -999.2500     7.3150   -23.0020  -999.2500  -999.2500  -999.2500
 4097.5000   -74.6650   -10.9700     8.1290     7.6520     8.7090  -999.2500     7.3150   -20.4820  -999.2500  -999.2500  -999.2500
 4098.0000   -74.8890   -10.6230     7.4560     7.2450     9.6760  -999.2500     7.3150   -17.9620  -999.2500  -999.2500  -999.2500
 4098.5000   -75.1120   -10.2750  -999.2500  -999.2500    10.6710  -999.2500     7.3150   -15.4420  -999.2500  -999.2500  -999.2500
 4099.0000   -75.3350    -9.9270  -999.2500  -999.2500     9.4320  -999.2500     7.3150   -13.6550  -999.2500  -999.2500  -999.2500
 4099.5000   -75.4020    -9.8200  -999.2500  -999.2500     8.1630  -999.2500     7.3150    16.1350  -999.2500  -999.2500  -999.2500
 4100.0000   -75.3070    28.3660  -999.2500  -999.2500     9.6360  -999.2500     7.3150    43.4250  -999.2500  -999.2500  -999.2500
 4100.5000   -75.2130    63.2890  -999.2500  -999.2500    10.5730  -999.2500     7.3150    70.7140  -999.2500  -999.2500  -999.2500
 4101.0000   -75.1080    94.6000  -999.2500  -999.2500     8.7890  -999.2500     7.3150    91.1040  -999.2500  -999.2500  -999.2500
 4101.5000   -74.8690    96.5310  -999.2500  -999.2500     9.8980  -999.2500     7.3150    92.3870  -999.2500  -999.2500  -999.2500
 4102.0000   -74.5230    98.4630  -999.2500  -999.2500    11.0730  -999.2500     7.3150    93.6700  -999.2500  -999.2500  -999.2500
 4102.5000   -74.4390   100.3940  -999.2500  -999.2500     8.3930  -999.2500     7.3150    94.9540  -999.2500  -999.2500  -999.2500
 4103.0000  -999.2500   102.3250  -999.2500  -999.2500     9.6320  -999.2500     7.3150    96.2370  -999.2500  -999.2500  -999.2500
 4103.5000  -999.2500   104.2560  -999.2500  -999.2500    10.7700  -999.2500     7.3150    97.5210  -999.2500  -999.2500  -999.2500
 4104.0000  -999.2500   106.1880  -999.2500  -999.2500     9.7820  -999.2500     7.3150    98.8040  -999.2500  -999.2500  -999.2500
 4104.5000  -999.2500   108.1190  -999.2500  -999.2500     8.7890  -999.2500     7.3150   100.0870  -999.2500  -999.2500  -999.2500
 4105.0000  -999.2500   110.0500  -999.2500  -999.2500     9.6460  -999.2500     7.3150   101.3710  -999.2500  -999.2500  -999.2500
 4105.5000  -999.2500   111.9810  -999.2500  -999.2500    11.2100  -999.2500     7.3150   102.6540  -999.2500  -999.2500  -999.2500
 4106.0000  -999.2500   113.9130  -999.2500  -999.2500    12.8370  -999.2500     7.3150   106.8750  -999.2500  -999.2500  -999.2500
 4106.5000  -999.2500   115.8440  -999.2500  -999.2500    11.9800  -999.2500     7.3150   111.5050  -999.2500  -999.2500  -999.2500
 4107.0000  -999.2500   117.7750  -999.2500  -999.2500    10.6670  -999.2500     7.3150   116.1350  -999.2500  -999.2500  -999.2500
 4107.5000  -999.2500   119.7070  -999.2500  -999.2500     9.3530  -999.2500     7.3150   120.7650  -999.2500  -999.2500  -999.2500
 4108.0000  -999.2500   121.6380  -999.2500  -999.2500     8.0140  -999.2500     7.3150   125.3960  -999.2500  -999.2500  -999.2500
 4108.5000  -999.2500   126.1620  -999.2500  -999.2500  -999.2500  -999.2500     7.3150   130.0260  -999.2500  -999.2500  -999.2500
 4109.0000  -999.2500   132.5480  -999.2500  -999.2500  -999.2500  -999.2500     7.3150   134.6560  -999.2500  -999.2500  -999.2500
 4109.5000  -999.2500   138.9340  -999.2500  -999.2500  -999.2500  -999.2500     7.3150   139.2870  -999.2500  -999.2500  -999.2500
 4110.0000  -999.2500   145.3200  -999.2500  -999.2500  -999.2500  -999.2500     7.3150   143.9170  -999.2500  -999.2500  -999.2500
 4110.5000  -999.2500   151.7060  -999.2500  -999.2500  -999.2500  -999.2500     7.3150   148.5470  -999.2500  -999.2500  -999.2500
 4111.0000  -999.2500   158.0920  -999.2500  -999.2500  -999.2500  -999.2500     7.3150   153.1770  -999.2500  -999.2500  -999.2500
 4111.5000  -999.2500   164.4780  -999.2500  -999.2500  -999.2500  -999.2500     7.3150   157.8080  -999.2500  -999.2500  -999.2500
 4112.0000  -999.2500   170.8640  -999.2500  -999.2500  -999.2500  -999.2500     7.3150   162.4380  -999.2500  -999.2500  -999.2500
