~VERSION INFORMATION
 VERS.                2.0:   CWLS LOG ASCII STANDARD - VERSION 2.0
 WRAP.                 NO:   ONE LINE PER DEPTH STEP
~WELL INFORMATION
#MNEM.UNIT      DATA TYPE    INFORMATION
#----------   ------------   ------------------------------
 STRT.F          634.0000:   START DEPTH
 STOP.F         3464.0000:   STOP DEPTH
 STEP.F            0.5000:   STEP LENGTH
 NULL.          -999.2500:   NO VALUE
 COMP. LAWRENCE-ALLISON & ASSOCIATES W:   COMPANY
 WELL. LAWRENCE "TX" #44-27:   WELL
 FLD .   NAVAL RESERVE #3:   FIELD
 LOC .      S27 T39N R78W:   LOCATION
 CNTY.            NATRONA:   COUNTY
 STAT.            WYOMING:   STATE
 CTRY. UNITED STATES OF AMERICA:   COUNTRY
 SRVC.       SCHLUMBERGER:   SERVICE COMPANY
 DATE.        13-MAR-1982:   LOGDATE
 API .     49025108870000:   API NUMBER
~CURVE INFORMATION
#MNEM.UNIT       API CODE    CURVE DESCRIPTION
#----------   ------------   ------------------------------
 DEPT.F                  :   
 TENR.LBS    07 635 01 00:   TENSION FROM RESISTIVITY
 ILD .OHMM   07 120 46 00:   DEEP INDUCTION RESISTIVITY
 ILM .OHMM   07 120 44 00:   INDUCTION LOG MEDIUM RESISTIVITY
 SFLU.OHMM   07 220 01 00:   SPHERICALLY FOCUSED LOG UNAVERAGED RESISTIVITY
 SPR .MV     07 010 01 00:   SPONTANEOUS POTENTIAL
 TENN.LBS    42 635 01 00:   TENSION FROM COMPENSATE NEUTRON
 CALD.IN     45 280 60 00:   CALIPER FROM DENSITY LOG
 GRD .GAPI   45 310 01 00:   GAMMA RAY FROM DENSITY LOG
 RHOB.G/C3   45 350 01 00:   BULK DENSITY
 DRHO.G/C3   45 356 01 00:   DENSITY CORRECTION
 NPHI.DEC    42 890 03 00:   NEUTRON POROSITY SANDSTONE
~PARAMETER INFORMATION
#MNEM.UNIT          VALUE    DESCRIPTION
#----------   ------------   ------------------------------
 EKB .F         5049.0000:   Kelly bushing
 EGL .F         5039.0000:   Ground level
 EDF .F            0.0000:   Drilling floor
 EPD .F            0.0000:   Permanent datum
 TD  .F         3440.0000:   Total depth
 DATE.        13-MAR-1982:   Date logged
 CLNT.            A2DTECH:   Client Code
 PD  .                 GL:   Permanent Datum
 DD  .F              3440:   Depth driller
 DL  .F              3439:   Depth logger
 BLI .F              3433:   Bottom log interval
 CS1 .IN            9.625:   Casing size
 CBD1.      9.625" @ 650':   Casing driller 1
 CBL1.F               647:   Casing logger 1
 BS1 .IN            7.875:   Bit size
 DFT .                GEL:   Type fluid in hole
 DFD .                9.3:   Density
 DFV .                 48:   Viscosity
 DFPH.                 10:   pH
 DFL .                  8:   Fluid loss
 MSS .                PIT:   Source of sample
 RMS .OHMM           1.82:   Rm
 MST .F                67:   Rm Meas. temp.
 RMF .OHMM           1.32:   Rmf
 MFST.F                67:   Rmf Meas. temp.
 MFSS.               MEAS:   Source Rmf.
 RMB .OHMM           1.09:   Rm. at BHT
 BHT .F               112:   BHT.
 TCS .HRS            1300:   Time Circ. stopped
 MRT .F               112:   Maximum recorded temp.
 LUN .               8039:   Logging unit number
 LUL .               CSPR:   Logging unit location
 ENGI.   WAGNER/CONOSENTI:   Recorded By
 WITN.           JENNINGS:   Witnessed by
 ORIG.           5" PRINT:   Origin of data
 UWI .     49025108870000:   Unique Well ID
 DICO. A2D TECHNOLOGIES, INC.:   Digitizing Company
 DAPD.                 10:   Feet Above Permanent Datum
 BSD1.F              3440:   Depth drilled with bit1
 TLI .F               647:   Top log interval
 TLAB.HRS            1800:   Time logger at bottom
~OTHER INFORMATION
~A   DEPT     TENR        ILD        ILM       SFLU        SPR       TENN       CALD         GRD      RHOB       DRHO       NPHI   
# ...
 1366.0000   908.1840     8.0850     6.7920     8.3570   -25.7980  1359.1270    10.3010    88.1000     2.5290     0.0340     0.2860
 1366.5000   908.1840     8.0860     6.7920     8.3430   -25.4660  1359.1270    10.3070    86.4000     2.5240     0.0300     0.2810
 1367.0000   908.1840     8.0870     6.7920     8.3300   -25.1350  1359.1270    10.3130    88.4820     2.5260     0.0410     0.2790
 1367.5000   908.1840     8.0870     6.7920     8.3160   -24.8030  1359.1270    10.3180    90.6000     2.5440     0.0500     0.2790
 1368.0000   908.2480     8.0780     6.7920     8.3080   -24.4720  1359.1270    10.3240    90.6820     2.5740     0.0600     0.2830
 1368.5000   908.4960     8.0700     6.7920     8.2870   -24.1400  1359.1270    10.3330    89.9170     2.5690     0.0590     0.2890
 1369.0000   908.7450     8.0610     6.7920     8.2660   -24.1750  1359.1270    10.3290    92.1090     2.5610     0.0540     0.2910
 1369.5000   908.9940     8.0520     6.7920     8.2440   -24.5980  1359.1270    10.3470    95.1730     2.5440     0.0490     0.2900
 1370.0000   909.2420     8.0440     6.7920     8.2170   -25.0190  1359.1270    10.3640    96.9270     2.5270     0.0430     0.2900
 1370.5000   909.4910     8.0350     6.7920     8.1860   -25.4410  1359.1270    10.3640    98.2870     2.5240     0.0410     0.2900
 1371.0000   909.7400     8.0260     6.7910     8.1560   -25.8630  1359.1270    10.3590    97.9410     2.5240     0.0380     0.2890
 1371.5000   909.9880     8.0130     6.8030     8.1260   -26.2850  1359.1270    10.3540    97.1000     2.5120     0.0320     0.2900
 1372.0000   910.2370     8.0190     6.8250     8.0950   -26.7070  1359.1270    10.3490    95.9760     2.4940     0.0180     0.2910
 1372.5000   910.4860     8.0360     6.8480     8.0880   -27.1260  1359.1270    10.3440    94.9300     2.4760     0.0070     0.2910
 1373.0000   910.7350     8.0530     6.8700     8.1880   -27.5410  1359.1270    10.3390    94.5470     2.4710     0.0150     0.2870
 1373.5000   910.9830     8.0700     6.8920     8.2750   -27.9560  1359.1270    10.3350    94.1340     2.4900     0.0260     0.2800
 1374.0000   911.2320     8.0880     6.9150     8.3620   -28.3740  1359.1270    10.3290    93.7210     2.4930     0.0300     0.2730
 1374.5000   911.4810     8.1050     6.9370     8.4500   -28.7760  1359.1270    10.3490    93.3410     2.4910     0.0290     0.2660
 1375.0000   911.7290     8.1220     6.9590     8.4680   -28.0900  1359.1270    10.3480    92.0100     2.4990     0.0280     0.2660
 1375.5000   911.9780     8.1390     6.9810     8.4680   -27.2620  1359.1270    10.3440    90.5040     2.5190     0.0340     0.2670
 1376.0000   912.2270     8.1620     6.9490     8.4680   -26.4340  1359.1270    10.3400    89.0150     2.5400     0.0410     0.2660
 1376.5000   912.4750     8.1280     6.9170     8.4680   -25.6040  1359.1270    10.3360    86.8870     2.5550     0.0470     0.2660
 1377.0000   912.7240     8.0480     6.8850     8.4680   -25.1980  1359.1270    10.3320    88.9610     2.5550     0.0490     0.2700
 1377.5000   912.9730     7.9690     6.8540     8.3800   -25.1340  1359.1270    10.3280    92.2370     2.5480     0.0460     0.2770
 1378.0000   913.2210     7.8890     6.7780     8.2750   -25.0730  1359.1270    10.3240    95.5760     2.5350     0.0440     0.2790
 1378.5000   913.4700     7.8090     6.6610     8.1710   -25.0130  1359.1270    10.3200    98.9830     2.5310     0.0490     0.2810
 1379.0000   913.7190     7.7290     6.5440     8.0660   -24.9540  1359.1270    10.3160   100.2380     2.5320     0.0540     0.2860
 1379.5000   913.9670     7.6490     6.4270     7.9620   -24.8970  1359.1270    10.3120   100.4140     2.5220     0.0460     0.2900
 1380.0000   914.2160     7.5690     6.2520     7.8680   -24.8370  1359.1270    10.3070   100.5800     2.5120     0.0340     0.2950
 1380.5000   914.4650     7.5140     6.2960     7.8680   -25.0920  1359.1270    10.3260   100.7280     2.5020     0.0210     0.2990
 1381.0000   914.7140     7.5170     6.3840     7.8680   -25.5590  1359.1270    10.3540    99.3360     2.4950     0.0170     0.2990
 1381.5000   914.9620     7.5190     6.4710     7.8680   -26.0330  1359.1270    10.3820    97.7220     2.4940     0.0170     0.2980
 1382.0000   915.2110     7.5220     6.5400     7.8680   -26.2140  1359.1270    10.4110    96.6780     2.5040     0.0230     0.2880
 1382.5000   915.4600     7.5240     6.4980     7.8680   -26.2160  1359.1270    10.4400    97.4000     2.5120     0.0260     0.2820
 1383.0000   915.7080     7.5260     6.4550     7.8680   -26.2170  1359.1270    10.4380    97.7320     2.5130     0.0260     0.2870
 1383.5000   915.9570     7.5290     6.4130     7.8680   -26.2170  1359.1270    10.4230    96.9070     2.5100     0.0260     0.2880
 1384.0000   916.2060     7.5310     6.3700     7.8680   -26.2170  1359.1270    10.4090    95.9960     2.5090     0.0280     0.2850
 1384.5000   916.4540     7.5330     6.3270     7.8680   -26.2170  1359.1270    10.3950    97.8790     2.5140     0.0310     0.2810
 1385.0000   916.7030     7.5350     6.3040     7.8700   -26.2160  1359.1270    10.3800   100.0420     2.5190     0.0350     0.2830
 1385.5000   916.9520     7.5380     6.2890     7.8730   -26.1490  1359.1270    10.3660   102.1980     2.5230     0.0370     0.2870
 1386.0000   917.2000     7.5400     6.2740     7.8760   -26.0720  1359.1270    10.3510   104.0600     2.5250     0.0310     0.2920
 1386.5000   917.4490     7.5420     6.2580     7.8790   -26.0160  1359.1270    10.3370   103.9480     2.5200     0.0250     0.2980
 1387.0000   917.6980     7.5440     6.2430     7.8820   -25.9200  1359.1270    10.3190   103.4540     2.5150     0.0180     0.3020
 1387.5000   917.9460     7.5470     6.2280     7.8860   -25.7830  1359.1270    10.3070   101.9550     2.5110     0.0140     0.3020
 1388.0000   918.1950     7.5490     6.2130     7.8890   -25.6450  1359.1270    10.3070   100.3540     2.5140     0.0150     0.3030
 1388.5000   918.4440     7.5510     6.1980     7.8920   -25.5070  1359.1270    10.3060    98.7460     2.5210     0.0230     0.3040
 1389.0000   918.6930     7.5540     6.1820     7.8950   -25.3690  1359.1270    10.3040    97.4890     2.5270     0.0310     0.3040
 1389.5000   918.9410     7.5560     6.1670     7.8980   -25.2310  1359.1270    10.3030    98.8910     2.5250     0.0320     0.3050
 1390.0000   919.1900     7.5580     6.1520     7.9020   -25.0920  1359.1270    10.3010   100.0400     2.5150     0.0270     0.3100
 1390.5000   919.4390     7.5600     6.1380     7.9050   -24.9510  1359.1270    10.3000   100.5400     2.5050     0.0210     0.2990
 1391.0000   919.6870     7.5630     6.1460     7.9080   -24.8230  1359.1270    10.2980   100.0590     2.5010     0.0150     0.2970
 1391.5000   919.9360     7.5650     6.1550     7.9110   -25.2060  1359.1270    10.2970    98.9710     2.5010     0.0090     0.2890
 1392.0000   920.1850     7.5670     6.1630     7.9150   -25.6250  1359.1270    10.2950    98.9410     2.5020     0.0110     0.2810
 1392.5000   920.4330     7.5690     6.1720     7.9180   -26.0450  1359.1270    10.2940    98.9680     2.5020     0.0150     0.2740
 1393.0000   920.6820     7.5720     6.1810     7.9210   -26.2940  1359.1270    10.2920    98.2280     2.5090     0.0190     0.2710
 1393.5000   920.9310     7.5740     6.1890     7.9240   -26.5090  1359.1270    10.2910    97.3630     2.5170     0.0240     0.2720
 1394.0000   921.1790     7.5760     6.1980     7.9270   -26.7200  1359.1270    10.2890    97.0830     2.5170     0.0250     0.2810
 1394.5000   921.4280     7.5790     6.2060     7.9310   -26.9300  1359.1270    10.2880    97.6190     2.5150     0.0220     0.2890
 1395.0000   921.6770     7.5810     6.2150     7.9340   -27.1430  1359.1270    10.2870    98.7930     2.5090     0.0190     0.2900
 1395.5000   921.9260     7.5840     6.2240     7.9370   -27.2200  1359.1270    10.2870   100.0330     2.5050     0.0160     0.2850
 1396.0000   922.1740     7.5840     6.2320     7.9390   -27.2200  1359.1270    10.2870    99.8950     2.5190     0.0150     0.2810
