~VERSION INFORMATION
 VERS.                2.0:   CWLS LOG ASCII STANDARD - VERSION 2.0
 WRAP.                 NO:   ONE LINE PER DEPTH STEP
~WELL INFORMATION
#MNEM.UNIT      DATA TYPE    INFORMATION
#----------   ------------   ------------------------------
 STRT.F           80.0000:   START DEPTH
 STOP.F         2730.0000:   STOP DEPTH
 STEP.F            0.5000:   STEP LENGTH
 NULL.          -999.2500:   NO VALUE
 COMP.          U.S. NAVY:   COMPANY
 WELL. US NPR 3 "AX" #57-20:   WELL
 FLD .             TEAPOT:   FIELD
 LOC .      S20 T39N R78W:   LOCATION
 CNTY.            NATRONA:   COUNTY
 STAT.            WYOMING:   STATE
 CTRY. UNITED STATES OF AMERICA:   COUNTRY
 SRVC.       SCHLUMBERGER:   SERVICE COMPANY
 DATE.        31-JUL-1964:   LOGDATE
 API .     49025066320000:   API NUMBER
~CURVE INFORMATION
#MNEM.UNIT       API CODE    CURVE DESCRIPTION
#----------   ------------   ------------------------------
 DEPT.F                  :   
 SPR .MV     01 010 01 00:   SPONTANEOUS POTENTIAL FROM RES.
 LN  .OHMM   01 060 39 00:   LONG NORMAL 39"
 ASN .OHMM   01 041 16 00:   AMPLIFIED SHORT NORMAL 16"
 LAT .OHMM   01 070 00 00:   LATERAL
 GRN .GAPI   35 310 30 00:   GAMMA RAY
 NEUT.NAPI   35 330 01 00:   NEUTRON
~PARAMETER INFORMATION
#MNEM.UNIT          VALUE    DESCRIPTION
#----------   ------------   ------------------------------
 EKB .F         5019.0000:   Kelly bushing
 EGL .F         5011.0000:   Ground level
 TD  .F         2696.0000:   Total depth
 DATE.        31-JUL-1964:   Date logged
 CLNT.            A2DTECH:   Client Code
 PD  .                 GL:   Permanent Datum
 EPD .F              5011:   Elevation Permanent Datum
 LMF .                 KB:   Log Measured From
 DMF .                 KB:   Drilling Measured From
 DAPD.F                 8:   Feet Above Permanent Datum
 DD  .F              2690:   Depth driller
 DL  .F              2696:   Depth logger
 BLI .F              2695:   Bottom log interval
 TLI .F                82:   Top log interval
 CS1 .IN            12.25:   Casing size
 CBD1.       12.25" @ 15':   Casing driller 1
 BS1 .IN               11:   Bit size
 BSD1.F              2690:   Depth drilled with bit1
 DFT .                GEL:   Type fluid in hole
 MSS .           FLOWLINE:   Source of sample
 RMS .OHMM           2.48:   Rm
 MST .F                83:   Rm Meas. temp.
 RMF .OHMM           1.87:   Rmf
 MFST.F                83:   Rmf Meas. temp.
 MFSS.                 FP:   Source Rmf.
 MCSS.                 FP:   Source Rmc.
 TCS .HRS               4:   Time Circ. stopped
 LUN .               3527:   Logging unit number
 LUL .               CSPR:   Logging unit location
 ENGI.            WINKLER:   Recorded By
 WITN.          GORGENSEN:   Witnessed by
 ORIG.         2.5" PRINT:   Origin of data
 UWI .     49025066320000:   Unique Well ID
 DICO.   A2D TECHNOLOGIES:   Digitizing Company
~OTHER INFORMATION
~A   DEPT      SPR         LN        ASN        LAT        GRN       NEUT   
# ...
  496.0000   -48.4360     7.5250     6.6530     7.2360  -999.2500  -999.2500
  496.5000   -48.4550     7.5250     6.6590     7.2370  -999.2500  -999.2500
  497.0000   -48.4740     7.5250     6.6640     7.2420  -999.2500  -999.2500
  497.5000   -48.4920     7.5250     6.6710     7.2460  -999.2500  -999.2500
  498.0000   -48.5110     7.5250     6.6690     7.2500  -999.2500  -999.2500
  498.5000   -48.5300     7.5250     6.6560     7.2540  -999.2500  -999.2500
  499.0000   -48.5480     7.5250     6.6450     7.2580  -999.2500  -999.2500
  499.5000   -48.5670     7.5250     6.6340     7.2620  -999.2500  -999.2500
  500.0000   -48.5860     7.5250     6.6220     7.2660  -999.2500  -999.2500
  500.5000   -48.6030     7.5250     6.6120     7.2710  -999.2500  -999.2500
  501.0000   -48.6260     7.5250     6.5980     7.2750  -999.2500  -999.2500
  501.5000   -48.6120     7.5250     6.6080     7.2790  -999.2500  -999.2500
  502.0000   -48.5600     7.5250     6.6450     7.2830  -999.2500  -999.2500
  502.5000   -48.5130     7.5250     6.6770     7.2870  -999.2500  -999.2500
  503.0000   -48.4640     7.5250     6.7110     7.2910  -999.2500  -999.2500
  503.5000   -48.4160     7.5250     6.7450     7.2950  -999.2500  -999.2500
  504.0000   -48.3680     7.5250     6.7780     7.2990  -999.2500  -999.2500
  504.5000   -48.3200     7.5250     6.8130     7.3030  -999.2500  -999.2500
  505.0000   -48.2710     7.5250     6.8420     7.3070  -999.2500  -999.2500
  505.5000   -48.2230     7.5250     6.8640     7.3120  -999.2500  -999.2500
  506.0000   -48.1750     7.5250     6.8880     7.3160  -999.2500  -999.2500
  506.5000   -48.1260     7.5250     6.9120     7.3200  -999.2500  -999.2500
  507.0000   -48.0780     7.5250     6.9350     7.3240  -999.2500  -999.2500
  507.5000   -48.0300     7.5250     6.9590     7.3280  -999.2500  -999.2500
  508.0000   -47.9810     7.5250     6.9820     7.3320  -999.2500  -999.2500
  508.5000   -47.9330     7.5250     7.0060     7.3360  -999.2500  -999.2500
  509.0000   -47.8850     7.5250     7.0290     7.3400  -999.2500  -999.2500
  509.5000   -47.8360     7.5250     7.0550     7.3440  -999.2500  -999.2500
  510.0000   -47.7880     7.5250     7.0710     7.3480  -999.2500  -999.2500
  510.5000   -47.7400     7.5250     7.0690     7.3520  -999.2500  -999.2500
  511.0000   -47.6920     7.5250     7.0690     7.3570  -999.2500  -999.2500
  511.5000   -47.6430     7.5250     7.0690     7.3610  -999.2500  -999.2500
  512.0000   -47.5950     7.5250     7.0690     7.3650  -999.2500  -999.2500
  512.5000   -47.5470     7.5250     7.0690     7.3690  -999.2500  -999.2500
  513.0000   -47.4970     7.5250     7.0690     7.3730  -999.2500  -999.2500
  513.5000   -47.4620     7.5250     7.0690     7.3770  -999.2500  -999.2500
  514.0000   -47.4620     7.5250     7.0690     7.3810  -999.2500  -999.2500
  514.5000   -47.4610     7.5250     7.0660     7.3850  -999.2500  -999.2500
  515.0000   -47.4610     7.5250     7.0330     7.3890  -999.2500  -999.2500
  515.5000   -47.4610     7.5250     7.0050     7.3930  -999.2500  -999.2500
  516.0000   -47.4610     7.5250     6.9740     7.3980  -999.2500  -999.2500
  516.5000   -47.4610     7.5250     6.9460     7.4020  -999.2500  -999.2500
  517.0000   -47.4610     7.5250     6.9160     7.4060  -999.2500  -999.2500
  517.5000   -47.4610     7.5250     6.8870     7.4100  -999.2500  -999.2500
  518.0000   -47.4610     7.5250     6.8570     7.4140  -999.2500  -999.2500
  518.5000   -47.4610     7.5250     6.8280     7.4180  -999.2500  -999.2500
  519.0000   -47.4610     7.5250     6.7980     7.4220  -999.2500  -999.2500
  519.5000   -47.4610     7.5250     6.7690     7.4260  -999.2500  -999.2500
  520.0000   -47.4610     7.5250     6.7400     7.4340  -999.2500  -999.2500
  520.5000   -47.4610     7.5250     6.7100     7.4400  -999.2500  -999.2500
  521.0000   -47.4610     7.5250     6.6810     7.4480  -999.2500  -999.2500
  521.5000   -47.4610     7.5250     6.6510     7.4550  -999.2500  -999.2500
  522.0000   -47.4610     7.5250     6.6220     7.4620  -999.2500  -999.2500
  522.5000   -47.4610     7.5250     6.5960     7.4690  -999.2500  -999.2500
  523.0000   -47.4610     7.5250     6.6010     7.4760  -999.2500  -999.2500
  523.5000   -47.4610     7.5250     6.6070     7.4830  -999.2500  -999.2500
  524.0000   -47.4610     7.5250     6.6140     7.4900  -999.2500  -999.2500
  524.5000   -47.4610     7.5260     6.6210     7.4970  -999.2500  -999.2500
  525.0000   -47.4610     7.5250     6.6270     7.5040  -999.2500  -999.2500
  525.5000   -47.4610     7.5250     6.6330     7.5110  -999.2500  -999.2500
  526.0000   -47.4610     7.5310     6.6200     7.5180  -999.2500  -999.2500
  526.5000   -47.4610     7.6110     6.6080     7.5250  -999.2500  -999.2500
  527.0000   -47.4610     7.6970     6.5990     7.5320  -999.2500  -999.2500
  527.5000   -47.4610     7.7850     6.6530     7.5390  -999.2500  -999.2500
  528.0000   -47.4610     7.8720     6.7140     7.5460  -999.2500  -999.2500
  528.5000   -47.4640     7.9590     6.7750     7.5530  -999.2500  -999.2500
  529.0000   -47.5100     8.0470     6.8360     7.5600  -999.2500  -999.2500
  529.5000   -47.5630     8.1330     6.8970     7.5670  -999.2500  -999.2500
  530.0000   -47.6160     8.2210     6.9590     7.5740  -999.2500  -999.2500
  530.5000   -47.6680     8.3200     7.0190     7.5810  -999.2500  -999.2500
  531.0000   -47.7210     8.5270     7.0820     7.5880  -999.2500  -999.2500
  531.5000   -47.7740     8.7670     7.1530     7.5950  -999.2500  -999.2500
  532.0000   -47.8260     9.0050     7.3650     7.6010  -999.2500  -999.2500
  532.5000   -47.8790     9.2430     7.6120     7.6090  -999.2500  -999.2500
  533.0000   -47.9320     9.4810     7.8920     7.6160  -999.2500  -999.2500
  533.5000   -47.9850     9.7190     8.2450     7.6230  -999.2500  -999.2500
  534.0000   -48.0370     9.9570     8.6660     7.6240  -999.2500  -999.2500
  534.5000   -48.0900    10.1950     9.0890     7.6250  -999.2500  -999.2500
  535.0000   -48.1430    10.4320     9.4650     7.6230  -999.2500  -999.2500
  535.5000   -48.1950    10.6710    10.0810     7.6250  -999.2500  -999.2500
  536.0000   -48.2480    10.9070    10.5020     7.6260  -999.2500  -999.2500
  536.5000   -48.3010    11.1480    10.5170     7.7070  -999.2500  -999.2500
  537.0000   -48.3530    11.3810    10.8250     7.8180  -999.2500  -999.2500
  537.5000   -48.4060    11.6190    11.1010     7.9270  -999.2500  -999.2500
  538.0000   -48.4580    11.6870    11.1010     8.0350  -999.2500  -999.2500
  538.5000   -48.5130    11.6810    10.9470     8.1440  -999.2500  -999.2500
  539.0000   -48.5610    11.6820    10.8510     8.2530  -999.2500  -999.2500
  539.5000   -48.6220    11.6830    10.5350     8.3620  -999.2500  -999.2500
  540.0000   -48.5780    11.6820    10.0760     8.4710  -999.2500  -999.2500
  540.5000   -48.4770    11.6830     9.9340     8.5800  -999.2500  -999.2500
  541.0000   -48.3910    11.6830     9.8760     8.6890  -999.2500  -999.2500
  541.5000   -48.3020    11.6830     9.8180     8.7980  -999.2500  -999.2500
  542.0000   -48.2120    11.6830     9.7590     8.9070  -999.2500  -999.2500
  542.5000   -48.1230    11.6830     9.6960     9.0150  -999.2500  -999.2500
  543.0000   -48.0350    11.6830     9.6920     9.1240  -999.2500  -999.2500
  543.5000   -47.9460    11.6830     9.7110     9.2340  -999.2500  -999.2500
  544.0000   -47.8560    11.6830     9.7250     9.3420  -999.2500  -999.2500
  544.5000   -47.7690    11.6830     9.7410     9.4530  -999.2500  -999.2500
  545.0000   -47.6760    11.6830     9.7560     9.5550  -999.2500  -999.2500
  545.5000   -47.5950    11.6830     9.7670     9.6890  -999.2500  -999.2500
  546.0000   -47.4860    11.6830     9.7750     9.8490  -999.2500  -999.2500
  546.5000   -47.5780    11.6830     9.7820     9.9990  -999.2500  -999.2500
  547.0000   -47.8320    11.6840     9.7910    10.1520  -999.2500  -999.2500
  547.5000   -48.0590    11.6770     9.7960    10.3050  -999.2500  -999.2500
