~VERSION INFORMATION
 VERS.                2.0:   CWLS LOG ASCII STANDARD - VERSION 2.0
 WRAP.                 NO:   ONE LINE PER DEPTH STEP
~WELL INFORMATION
#MNEM.UNIT      DATA TYPE    INFORMATION
#----------   ------------   ------------------------------
 STRT.F          243.5000:   START DEPTH
 STOP.F         2836.0000:   STOP DEPTH
 STEP.F            0.5000:   STEP LENGTH
 NULL.          -999.2500:   NO VALUE
 COMP. FENIX & SCISSON U. S. NAVY:   COMPANY
 WELL.   FENIX "A" #86-20:   WELL
 FLD .             NPR #3:   FIELD
 LOC .      S20 T39N R78W:   LOCATION
 CNTY.            NATRONA:   COUNTY
 STAT.            WYOMING:   STATE
 CTRY. UNITED STATES OF AMERICA:   COUNTRY
 SRVC.       SCHLUMBERGER:   SERVICE COMPANY
 DATE.        22-MAR-1977:   LOGDATE
 API .     49025103130000:   API NUMBER
~CURVE INFORMATION
#MNEM.UNIT       API CODE    CURVE DESCRIPTION
#----------   ------------   ------------------------------
 DEPT.F                  :   
 SPR .MV     07 010 01 00:   SPONTANEOUS POTENTIAL
 ILD .OHMM   07 120 46 00:   DEEP INDUCTION RESISTIVITY
 ILM .OHMM   07 120 44 00:   INDUCTION LOG MEDIUM RESISTIVITY
 LL8 .OHMM   07 220 08 00:   LATEROLOG-8 RES.
 CALD.IN     45 280 60 00:   CALIPER FROM DENSITY LOG
 GRD .GAPI   45 310 01 00:   GAMMA RAY FROM DENSITY LOG
 RHOB.G/C3   45 350 01 00:   BULK DENSITY
 CORR.G/C3   45 356 01 00:   DENSITY CORRECTION
~PARAMETER INFORMATION
#MNEM.UNIT          VALUE    DESCRIPTION
#----------   ------------   ------------------------------
 EKB .F         5005.0000:   Kelly bushing
 EGL .F         4994.0000:   Ground level
 EDF .F            0.0000:   Drilling floor
 TD  .F         2836.0000:   Total depth
 DATE.        22-MAR-1977:   Date logged
 CLNT.            A2DTECH:   Client Code
 SL  . 330' FEL & 1650' FSL:   Surface Location
 PD  .                 GL:   Permanent Datum
 EPD .F              5005:   Elevation Permanent Datum
 LMF .                 KB:   Log Measured From
 DMF .                 KB:   Drilling Measured From
 DD  .F              2835:   Depth driller
 DL  .F              2836:   Depth logger
 BLI .F              2826:   Bottom log interval
 TLI .F               259:   Top log interval
 CBD1.      8.625" @ 258':   Casing driller 1
 CBL1.F               259:   Casing logger 1
 BS1 .IN            7.875:   Bit size
 DFT .                KCL:   Type fluid in hole
 DFD .                9.1:   Density
 DFV .                 35:   Viscosity
 DFPH.                  9:   pH
 DFL .                8.6:   Fluid loss
 MSS .              CIRC.:   Source of sample
 RMS .OHMM           0.22:   Rm
 MST .F                60:   Rm Meas. temp.
 RMF .OHMM           0.18:   Rmf
 MFST.F                60:   Rmf Meas. temp.
 RMC .OHMM           0.33:   Rmc
 MCST.F                60:   Rmc Meas. temp.
 MFSS.               MEAS:   Source Rmf.
 RMB .OHMM           0.12:   Rm. at BHT
 BHT .F               110:   BHT.
 TCS .HRS            0900:   Time Circ. stopped
 MRT .F               110:   Maximum recorded temp.
 LUN .               7980:   Logging unit number
 LUL .               CSPR:   Logging unit location
 ENGI.                FIX:   Recorded By
 WITN.               JAPP:   Witnessed by
 ORIG.           5" PRINT:   Origin of data
 UWI .     49025103130000:   Unique Well ID
 DICO. A2D TECHNOLOGIES, INC.:   Digitizing Company
 DAPD.                 11:   Feet Above Permanent Datum
 CS1 .              8.625:   Casing size
 BSD1.               2835:   Depth drilled with bit1
 MCSS.               CACL:   Source Rmc.
 TLAB.               1630:   Time logger at bottom
~OTHER INFORMATION
~A   DEPT      SPR        ILD        ILM        LL8       CALD         GRD      RHOB       CORR   
# ...
 1256.0000   -55.3140     9.1860     9.4240    12.6380     8.2460    95.8410     2.5890     0.0550
 1256.5000   -55.3350     9.1480     9.3560    12.6380     8.2510    96.3100     2.5690     0.0420
 1257.0000   -55.3540     9.1030     9.2880    12.6380     8.2550    96.5820     2.5530     0.0250
 1257.5000   -55.1890     9.0620     9.2200    12.6380     8.2600    95.2230     2.5600     0.0300
 1258.0000   -54.9740     8.9700     9.1520    12.6380     8.2640    94.4570     2.5670     0.0420
 1258.5000   -54.7630     8.8790     9.0830    12.4190     8.2690    94.6370     2.5830     0.0510
 1259.0000   -54.5460     8.7880     9.0150    11.9490     8.2730    96.7700     2.5790     0.0460
 1259.5000   -54.3330     8.6970     8.9470    11.4800     8.2780    99.0450     2.5710     0.0490
 1260.0000   -54.2380     8.6060     8.8790    11.2730     8.2820    99.9410     2.5730     0.0570
 1260.5000   -54.5580     8.5150     8.8110    12.0720     8.2860   100.0610     2.5810     0.0580
 1261.0000   -54.6920     8.4240     8.7420    11.9650     8.2910    99.5960     2.5830     0.0490
 1261.5000   -54.8360     8.3330     8.6740    11.6450     8.2950    99.1360     2.5610     0.0330
 1262.0000   -54.9680     8.2420     8.6060    10.9230     8.3000    99.5080     2.5270     0.0190
 1262.5000   -55.1040     8.1600     8.5380    10.7260     8.3040    99.4620     2.5370     0.0330
 1263.0000   -55.2410     8.1600     8.4630    10.8000     8.3090    97.4240     2.5530     0.0480
 1263.5000   -55.3750     8.1600     8.3100    11.0440     8.3130    96.1080     2.5710     0.0600
 1264.0000   -55.5120     8.2420     8.4050    11.2880     8.3170    98.0710     2.5800     0.0610
 1264.5000   -55.6490     8.3570     8.5390    11.5320     8.3230   100.1190     2.5880     0.0740
 1265.0000   -55.7360     8.4720     8.6730    11.7770     8.3550   100.0720     2.5930     0.0820
 1265.5000   -55.6570     8.5870     8.8070    12.0210     8.3880    99.8260     2.5760     0.0620
 1266.0000   -55.5810     8.7020     8.9410    12.1850     8.4220    98.6930     2.5580     0.0540
 1266.5000   -55.5000     8.8170     9.0750    12.9280     8.4550    97.2030     2.5740     0.0710
 1267.0000   -55.4210     8.9390     9.2090    14.0980     8.4240    96.2160     2.6000     0.0840
 1267.5000   -55.3420     8.9390     9.2710    13.4290     8.3410    96.8790     2.5850     0.0570
 1268.0000   -55.2620     8.8680     9.2130    12.1850     8.2640    99.0240     2.5670     0.0380
 1268.5000   -55.1830     8.8070     9.1360    11.1240     8.2620   101.7180     2.5700     0.0400
 1269.0000   -55.1020     8.7450     9.0590    11.1240     8.2630   102.2220     2.5670     0.0420
 1269.5000   -55.0220     8.6830     8.9810    11.2580     8.2630   100.4180     2.5520     0.0230
 1270.0000   -54.9690     8.6190     8.9040    11.5000     8.2630    99.5450     2.5560     0.0340
 1270.5000   -55.0050     8.6190     8.8260    11.7420     8.2630    98.8150     2.5580     0.0390
 1271.0000   -55.0400     8.6420     8.7770    11.9850     8.2630    98.4820     2.5480     0.0270
 1271.5000   -55.0780     8.7050     8.8210    12.1850     8.2630    99.8460     2.5550     0.0350
 1272.0000   -55.1140     8.7680     8.8960    11.8530     8.2630   101.3530     2.5710     0.0410
 1272.5000   -55.1500     8.8310     8.9720    11.4230     8.2630   102.3860     2.5630     0.0310
 1273.0000   -55.1910     8.8940     9.0480    12.8700     8.2630   102.4850     2.5610     0.0250
 1273.5000   -55.2220     8.9570     9.1230    12.6180     8.2630   101.2370     2.5400     0.0150
 1274.0000   -55.2600     9.0190     9.1990    12.1850     8.2630    99.4430     2.5380     0.0210
 1274.5000   -55.3140     9.0820     9.2750    11.9650     8.2630    98.4850     2.5540     0.0310
 1275.0000   -55.2950     9.1450     9.3510    13.3740     8.2630    98.0830     2.5690     0.0370
 1275.5000   -55.6870     9.2080     9.4410    14.3570     8.2630    98.2320     2.5800     0.0410
 1276.0000   -55.7060     9.2710     9.3750    14.0980     8.2630    98.9970     2.5480     0.0310
 1276.5000   -55.6280     9.2280     9.2110    13.4280     8.2630    99.7420     2.5480     0.0260
 1277.0000   -55.5260     9.0270     9.0470    12.3280     8.2630   100.5390     2.5530     0.0220
 1277.5000   -55.4510     8.8270     8.8840    11.2280     8.2630   102.4110     2.5670     0.0350
 1278.0000   -55.3630     8.6260     8.7200    10.1550     8.2630   103.6770     2.5770     0.0480
 1278.5000   -55.2780     8.4250     8.5560    10.6620     8.2630   103.8560     2.5430     0.0380
 1279.0000   -55.1930     8.3100     8.4630    11.1580     8.2630   103.7580     2.5440     0.0310
 1279.5000   -55.1070     8.4870     8.5450    11.5370     8.2630   103.2960     2.5390     0.0290
 1280.0000   -55.0220     8.5880     8.6740    11.5370     8.2630   101.1160     2.5350     0.0270
 1280.5000   -54.9380     8.6900     8.8030    12.1990     8.2630    98.6080     2.5400     0.0260
 1281.0000   -54.8510     8.7910     8.9330    13.2310     8.2630    97.5070     2.5500     0.0270
 1281.5000   -54.7670     8.8920     9.0620    13.5930     8.2630    97.3930     2.5540     0.0280
 1282.0000   -54.6840     8.9940     9.1910    12.5890     8.2630    97.5540     2.5520     0.0320
 1282.5000   -54.5870     9.0950     9.3200    11.5370     8.2630    98.2880     2.5640     0.0480
 1283.0000   -54.6370     9.1960     9.4410    11.5370     8.2630    98.9400     2.6010     0.0790
 1283.5000   -54.7910     9.2710     9.6150    11.8490     8.2630    99.0010     2.5900     0.0650
 1284.0000   -54.9320     9.2710     9.6150    12.3180     8.2630    98.1200     2.5750     0.0450
 1284.5000   -55.0720     9.1540     9.6150    12.7870     8.2630    97.3980     2.5840     0.0490
 1285.0000   -55.2160     9.0450     9.5270    13.2570     8.2630    97.7700     2.5590     0.0330
 1285.5000   -55.3570     8.9360     9.4270    13.5930     8.2630    99.7190     2.5580     0.0480
 1286.0000   -55.5000     8.8270     9.3280    12.8320     8.2630   101.7290     2.5610     0.0310
 1286.5000   -55.6420     8.7180     9.2280    11.9720     8.2630   103.0580     2.5540     0.0290
 1287.0000   -55.7520     8.6190     9.1280    11.3290     8.2630   103.4370     2.5630     0.0390
 1287.5000   -55.6990     8.6190     9.0280    11.1240     8.2630   102.9000     2.5740     0.0510
 1288.0000   -55.6330     8.4630     8.9390    11.1900     8.2630   102.3510     2.5800     0.0360
 1288.5000   -55.5630     8.4740     8.9390    11.2630     8.2630   102.1590     2.5510     0.0260
 1289.0000   -55.4950     8.4890     8.7770    11.3290     8.2630   101.8250     2.5840     0.0540
 1289.5000   -55.4260     8.5040     8.7860    12.4090     8.2630   100.3990     2.5950     0.0480
 1290.0000   -55.3570     8.5190     8.7940    12.1850     8.2630    98.9830     2.5610     0.0460
 1290.5000   -55.2890     8.5340     8.8030    11.8790     8.2630    99.9750     2.5660     0.0530
 1291.0000   -55.2200     8.5490     8.8110    11.5370     8.2630   100.4540     2.5710     0.0420
 1291.5000   -55.1520     8.5640     8.8200    12.0310     8.2630   100.2210     2.5580     0.0310
 1292.0000   -55.0830     8.5790     8.8270    12.4090     8.2630    99.9610     2.5500     0.0320
 1292.5000   -55.0140     8.5940     8.8350    11.3290     8.2630    99.6940     2.5610     0.0340
 1293.0000   -54.9680     8.6100     8.8430    11.5190     8.2630    98.2570     2.5550     0.0310
 1293.5000   -55.0010     8.6200     8.8510    11.7490     8.2630    96.5860     2.5590     0.0270
 1294.0000   -55.0320     8.6190     8.8590    11.7300     8.2650    96.7100     2.5610     0.0380
 1294.5000   -55.0660     8.6190     8.8670    11.6940     8.2680    97.1650     2.5730     0.0500
 1295.0000   -55.0990     8.6190     8.8760    11.6590     8.2710    97.6390     2.5760     0.0390
 1295.5000   -55.1320     8.6190     8.8840    11.6230     8.2750    97.5530     2.5610     0.0310
 1296.0000   -55.1650     8.6190     8.8920    11.5880     8.2780    97.2260     2.5580     0.0390
