~VERSION INFORMATION
 VERS.                2.0:   CWLS LOG ASCII STANDARD - VERSION 2.0
 WRAP.                 NO:   ONE LINE PER DEPTH STEP
~WELL INFORMATION
#MNEM.UNIT      DATA TYPE    INFORMATION
#----------   ------------   ------------------------------
 STRT.F          508.0000:   START DEPTH
 STOP.F         3170.0000:   STOP DEPTH
 STEP.F            0.5000:   STEP LENGTH
 NULL.          -999.2500:   NO VALUE
 COMP. FENIX & SCISSON - U.S. NAVY:   COMPANY
 WELL. FENIX NPR-3 "A" #58-34:   WELL
 FLD .                NPR:   FIELD
 LOC .      S34 T39N R78W:   LOCATION
 CNTY.            NATRONA:   COUNTY
 STAT.            WYOMING:   STATE
 CTRY. UNITED STATES OF AMERICA:   COUNTRY
 SRVC.       SCHLUMBERGER:   SERVICE COMPANY
 DATE.        15-MAR-1977:   LOGDATE
 API .     49025103180000:   API NUMBER
~CURVE INFORMATION
#MNEM.UNIT       API CODE    CURVE DESCRIPTION
#----------   ------------   ------------------------------
 DEPT.F                  :   
 CALD.IN     45 280 60 00:   CALIPER FROM DENSITY LOG
 GRD .GAPI   45 310 01 00:   GAMMA RAY FROM DENSITY LOG
 RHOB.G/C3   45 350 01 00:   BULK DENSITY
 CORR.G/C3   45 356 01 00:   DENSITY CORRECTION
 SPR .MV     07 010 01 00:   SPONTANEOUS POTENTIAL
 LL8 .OHMM   07 220 08 00:   LATEROLOG-8 RES.
 ILD .OHMM   07 120 46 00:   DEEP INDUCTION RESISTIVITY
 ILM .OHMM   07 120 44 00:   INDUCTION LOG MEDIUM RESISTIVITY
~PARAMETER INFORMATION
#MNEM.UNIT          VALUE    DESCRIPTION
#----------   ------------   ------------------------------
 EKB .F         5129.0000:   Kelly bushing
 EGL .F         5117.0000:   Ground level
 EDF .F            0.0000:   Drilling floor
 EPD .F            0.0000:   Permanent datum
 TD  .F         3170.0000:   Total depth
 DATE.        15-MAR-1977:   Date logged
 CLNT.            A2DTECH:   Client Code
 SL  . 2310' FEL & 330' FSL:   Surface Location
 PD  .                 GL:   Permanent Datum
 DAPD.F                12:   Feet Above Permanent Datum
 DD  .F              3170:   Depth driller
 DL  .F              3170:   Depth logger
 BLI .F              3169:   Bottom log interval
 TLI .F               508:   Top log interval
 CS1 .IN            8.625:   Casing size
 CBD1.      8.625" @ 524':   Casing driller 1
 CBL1.F               522:   Casing logger 1
 BS1 .IN            7.875:   Bit size
 BSD1.F              3170:   Depth drilled with bit1
 DFT .                KCL:   Type fluid in hole
 DFD .                9.2:   Density
 DFV .                 36:   Viscosity
 DFPH.                  9:   pH
 DFL .                  9:   Fluid loss
 MSS .                PIT:   Source of sample
 RMS .OHMM             .3:   Rm
 MST .F                58:   Rm Meas. temp.
 RMF .OHMM            .29:   Rmf
 MFST.F                58:   Rmf Meas. temp.
 MFSS.               MEAS:   Source Rmf.
 RMB .OHMM            .15:   Rm. at BHT
 BHT .F               120:   BHT.
 TCS .HRS               6:   Time Circ. stopped
 MRT .F               120:   Maximum recorded temp.
 LUN .               7711:   Logging unit number
 LUL .               CSPR:   Logging unit location
 ENGI.             SAYLER:   Recorded By
 WITN.               JAPP:   Witnessed by
 ORIG.           5" PRINT:   Origin of data
 UWI .     49025103180000:   Unique Well ID
 DICO. A2D TECHNOLOGIES, INC.:   Digitizing Company
~OTHER INFORMATION
~A   DEPT       CALD       GRD      RHOB        CORR       SPR        LL8        ILD        ILM   
# ...
 2614.0000     9.7037   157.4562     2.5619     0.0035   -51.7546     9.3574     7.6821     7.7530
 2614.5000     9.7042   158.6516     2.5619     0.0045   -52.2057     9.5264     7.6787     7.6084
 2615.0000     9.7045   159.4499     2.5699     0.0136   -52.4364     9.3492     7.6051     7.4665
 2615.5000     9.7250   160.2483     2.5830     0.0176   -52.2267     9.1753     7.6017     7.1938
 2616.0000     9.7056   163.6270     2.5750     0.0187   -52.2372     9.0047     7.4600     6.9945
 2616.5000     9.7060   166.8081     2.5760     0.0197   -51.8071     8.8372     7.3209     6.8640
 2617.0000     9.7264   169.1951     2.5801     0.0187   -51.3770     8.5153     7.1844     6.6744
 2617.5000     9.7269   169.0009     2.5731     0.0188   -51.1672     8.1303     7.0498     6.5500
 2618.0000     9.7274   167.0197     2.5661     0.0148   -51.1777     8.0526     6.9183     6.4278
 2618.5000     9.7275   166.6269     2.5642     0.0118   -50.7476     8.3496     6.8520     6.3080
 2619.0000     9.7085   166.8298     2.5642     0.0129   -50.5378     8.4228     6.7863     6.2476
 2619.5000     9.7090   166.6356     2.5672     0.0169   -50.1077     8.3423     6.5989     6.1877
 2620.0000     9.6896   164.6541     2.5622     0.0139   -49.8979     8.1872     6.4758     6.1850
 2620.5000     9.6900   164.0626     2.5433     0.0100   -49.6880     8.1089     6.4730     6.1823
 2621.0000     9.6904   163.0740     2.5523     0.0100   -49.9188     7.9581     6.4702     6.1986
 2621.5000     9.6710   161.4895     2.5653     0.0120   -49.7090     7.8821     6.4690     6.1975
 2622.0000     9.6517   155.9355     2.5734     0.0141   -49.2788     7.9511     6.4645     6.1931
 2622.5000     9.6521   153.7526     2.5644     0.0131   -49.0690     8.0208     6.4634     6.1920
 2623.0000     9.6131   154.3516     2.5594     0.0172   -48.8591     8.1656     6.4600     6.1887
 2623.5000     9.6325   156.7398     2.5615     0.0232   -48.8696     8.2371     6.4560     6.1849
 2624.0000     9.6138   159.1273     2.5635     0.0202   -49.1004     8.1584     6.4537     6.1827
 2624.5000     9.5944   160.9182     2.5605     0.0183   -49.3312     7.9337     6.3329     6.0660
 2625.0000     9.5946   165.0943     2.5586     0.0163   -49.1214     7.6448     6.2722     6.0073
 2625.5000     9.5358   169.4675     2.5576     0.0143   -49.1319     7.5027     6.1553     5.8944
 2626.0000     9.5164   168.2801     2.5486     0.0093   -49.1423     7.2289     6.0963     5.8375
 2626.5000     9.5167   164.7091     2.5346     0.0034   -49.5935     7.1598     6.0384     5.7816
 2627.0000     9.4975   158.7552     2.5276     0.0014   -50.0446     7.2225     5.9801     5.7252
 2627.5000     9.4980   159.5548     2.5287     0.0014   -50.0551     7.5585     5.9775     5.7227
 2628.0000     9.4786   157.1744     2.5377     0.0065   -49.8453     7.7657     5.9202     5.6674
 2628.5000     9.4790   158.3696     2.5448     0.0105   -49.1947     7.9059     5.8635     5.6127
 2629.0000     9.4994   161.7508     2.5458     0.0035   -48.7624     7.6881     5.8073     5.5584
 2629.5000     9.4998   162.3494     2.5398     0.0026   -47.8914     7.3400     5.6991     5.4540
 2630.0000     9.4804   163.7459     2.5499     0.0056   -47.2408     7.2036     5.6445     5.4013
 2630.5000     9.4809   159.7786     2.5649     0.0207   -45.7088     6.7531     5.6405     5.3975
 2631.0000     9.4814   157.3980     2.5519     0.0127   -44.6174     6.5671     5.6396     5.3965
 2631.5000     9.4818   156.2093     2.5449     0.0017   -42.6446     6.5643     5.8481     5.5978
 2632.0000     9.5022   151.8434     2.5400     0.0048   -40.8900     7.2571     6.2914     6.0259
 2632.5000     9.5027   149.4624     2.5230     0.0058   -37.8153     7.7351     7.2180     6.9214
 2633.0000     9.5031   140.4593     2.5080     0.0159   -35.1812     9.5206     7.4855     7.1802
 2633.5000     9.5035   118.4161     2.4710     0.0179   -32.5450    11.7183     8.7526     8.4068
 2634.0000     9.4841   105.9016     2.4470     0.0169   -30.1312    14.4234    10.2341     9.8429
 2634.5000     9.4846    99.5514     2.4210     0.0170   -25.0728    16.5199    11.9664    11.5243
 2635.0000     9.4850   101.7391     2.4150     0.0160   -23.0975    16.5124    13.8302    14.6140
 2635.5000     9.5054   105.1221     2.4190     0.0180   -21.7854    17.4376    16.1571    14.7423
 2636.0000     9.5059   108.9027     2.4280     0.0301   -21.1345    17.1134    18.8754    15.1474
 2636.5000     9.5062   111.0927     2.4451     0.0402   -20.2631    16.7951    20.3169    15.5637
 2637.0000     9.5068   114.4762     2.4361     0.0392   -19.3917    16.7876    20.4951    15.4144
 2637.5000     9.5271   114.8789     2.4321     0.0342   -18.9611    17.2476    20.2985    15.2666
 2638.0000     9.5276   113.6929     2.4292     0.0303   -18.0897    18.2139    19.5573    15.1202
 2638.5000     9.5281   110.1200     2.4272     0.0183   -17.8794    18.5423    19.5484    14.9752
 2639.0000     9.5087   105.7541     2.4232     0.0153   -17.4467    17.3828    19.5396    14.8316
 2639.5000     9.5290   101.7845     2.4152     0.0163   -16.7957    15.7082    19.5307    14.6894
 2640.0000     9.5494    98.6117     2.4072     0.0194   -15.7038    14.8616    19.5219    14.5485
 2640.5000     9.5498   101.1983     2.4143     0.0224   -15.2731    16.1314    19.3346    14.4091
 2641.0000     9.5901   104.5821     2.4213     0.0214   -14.8424    16.7274    18.9741    14.2709
 2641.5000     9.5904   105.5800     2.4184     0.0215   -14.6321    17.0290    18.4500    14.2645
 2642.0000     9.6109   104.5913     2.4044     0.0115   -14.8626    16.8661    18.4417    14.2581
 2642.5000     9.6114   104.3976     2.4124     0.0175   -15.0931    15.8102    18.4333    14.2517
 2643.0000     9.6118   104.6015     2.4094     0.0196   -15.5441    15.2346    18.5950    14.2453
 2643.5000     9.6119   113.3525     2.4024     0.0156   -15.9950    14.5462    18.5900    14.6368
 2644.0000     9.5929   117.1334     2.3995     0.0146   -16.6664    14.5397    18.5782    14.9014
 2644.5000     9.6330   122.5079     2.4045     0.0137   -17.1174    16.0736    18.5698    15.1709
 2645.0000     9.6533   119.9271     2.4206     0.0177   -17.1275    18.0994    18.5614    15.4452
 2645.5000     9.6340   116.1555     2.4226     0.0198   -16.6968    17.6010    18.5531    15.5807
 2646.0000     9.6543   112.5837     2.4196     0.0178   -15.8252    17.5978    18.8885    15.8624
 2646.5000     9.6349   111.1974     2.4236     0.0178   -14.9536    16.3414    19.4074    16.0016
 2647.0000     9.6355   110.6063     2.4177     0.0179   -14.5229    16.1852    19.5776    16.1420
 2647.5000     9.6359   111.6045     2.4107     0.0119   -14.3125    16.1779    19.7493    16.2850
 2648.0000     9.6364   114.5918     2.4127     0.0129   -15.8677    16.4710    19.9225    16.5795
 2648.5000     9.6564   115.3923     2.4187     0.0160   -16.0963    17.0319    19.9135    16.8792
 2649.0000     9.6572   113.2107     2.4178     0.0160   -16.5453    17.1844    20.2734    17.0273
 2649.5000     9.6378   110.2337     2.4068     0.0160   -17.0696    17.1766    20.4512    17.1766
 2650.0000     9.6184   108.8462     2.4078     0.0161   -17.5938    17.1689    20.4419    17.1689
 2650.5000     9.6586   109.0138     2.4098     0.0216   -18.3474    17.9675    20.2459    17.0043
 2651.0000     9.6592   110.4483     2.4169     0.0211   -19.0128    19.1518    19.8684    16.9966
 2651.5000     9.6597   120.3926     2.4239     0.0191   -19.6844    18.4950    19.3198    16.6798
 2652.0000     9.6602   124.5711     2.4330     0.0172   -21.0193    16.5615    19.1345    16.3674
 2652.5000     9.6806   126.1660     2.4490     0.0112   -21.4704    15.8132    18.9510    16.2105
 2653.0000     9.6613   125.9717     2.4551     0.0102   -21.4806    15.6621    18.9425    16.2032
 2653.5000     9.6419   125.5785     2.4531     0.0052   -21.0499    16.6913    19.1086    16.0478
 2654.0000     9.6424   123.3963     2.4471     0.0022   -19.9557    18.9673    19.2761    15.8940
