~VERSION INFORMATION
 VERS.                2.0:   CWLS LOG ASCII STANDARD - VERSION 2.0
 WRAP.                 NO:   ONE LINE PER DEPTH STEP
~WELL INFORMATION
#MNEM.UNIT      DATA TYPE    INFORMATION
#----------   ------------   ------------------------------
 STRT.F          200.0000:   START DEPTH
 STOP.F         2968.0000:   STOP DEPTH
 STEP.F            0.5000:   STEP LENGTH
 NULL.          -999.2500:   NO VALUE
 COMP. FENIX & SCISSON U.S. NAVY:   COMPANY
 WELL.   FENIX "A" #23-28:   WELL
 FLD .              NPR 3:   FIELD
 LOC .      S28 T39N R78W:   LOCATION
 CNTY.            NATRONA:   COUNTY
 STAT.            WYOMING:   STATE
 CTRY. UNITED STATES OF AMERICA:   COUNTRY
 SRVC.       SCHLUMBERGER:   SERVICE COMPANY
 DATE.        10-JUN-1977:   LOGDATE
 API .     49025103860000:   API NUMBER
~CURVE INFORMATION
#MNEM.UNIT       API CODE    CURVE DESCRIPTION
#----------   ------------   ------------------------------
 DEPT.F                  :   
 SPR .MV     07 010 01 00:   SPONTANEOUS POTENTIAL
 RILM.OHMM   07 120 44 00:   INDUCTION LOG MEDIUM RESISTIVITY
 RILD.OHMM   07 120 46 00:   DEEP INDUCTION RESISTIVITY
 LL8 .None   99 022 08 00:   LATEROLOG
 GRD .GAPI   45 310 01 00:   GAMMA RAY FROM DENSITY LOG
 CALD.IN     45 280 60 00:   CALIPER FROM DENSITY LOG
 RHOB.G/C3   45 350 01 00:   BULK DENSITY
 DRHO.G/C3   45 356 01 00:   DENSITY CORRECTION
~PARAMETER INFORMATION
#MNEM.UNIT          VALUE    DESCRIPTION
#----------   ------------   ------------------------------
 EKB .F         5019.0000:   Kelly bushing
 EGL .F         5009.0000:   Ground level
 EDF .F            0.0000:   Drilling floor
 EPD .F         5009.0000:   Permanent datum
 TD  .F         2971.0000:   Total depth
 DATE.        10-JUN-1977:   Date logged
 CLNT.            A2DTECH:   Client Code
 SL  . 1650' FNL & 990' FWL:   Surface Location
 DAPD.F                10:   Feet Above Permanent Datum
 DD  .F              2970:   Depth driller
 DL  .F              2971:   Depth logger
 BLI .F              2905:   Bottom log interval
 TLI .F               216:   Top log interval
 CS1 .IN            8.625:   Casing size
 CBD1.      9.625" @ 216':   Casing driller 1
 CBL1.F               216:   Casing logger 1
 BS1 .IN            7.875:   Bit size
 BSD1.F              2970:   Depth drilled with bit1
 DFT .            KCL MUD:   Type fluid in hole
 DFD .                8.8:   Density
 DFV .                 32:   Viscosity
 DFPH.                8.5:   pH
 DFL .                7.4:   Fluid loss
 MSS .               CIRC:   Source of sample
 RMS .OHMM           1.87:   Rm
 MST .F                85:   Rm Meas. temp.
 RMF .OHMM           1.69:   Rmf
 MFST.F                85:   Rmf Meas. temp.
 RMC .OHMM           2.80:   Rmc
 MCST.F                85:   Rmc Meas. temp.
 MFSS.               MEAS:   Source Rmf.
 MCSS.               CALC:   Source Rmc.
 RMB .OHMM           1.43:   Rm. at BHT
 BHT .F               111:   BHT.
 TCS .HRS            1600:   Time Circ. stopped
 TLAB.HRS            0945:   Time logger at bottom
 MRT .F               111:   Maximum recorded temp.
 LUN .               7711:   Logging unit number
 LUL .               CSPR:   Logging unit location
 ENGI.             SAYLER:   Recorded By
 WITN.         HARRINGTON:   Witnessed by
 ORIG.           5" PRINT:   Origin of data
 UWI .     49025103860000:   Unique Well ID
 DICO. A2D TECHNOLOGIES, INC.:   Digitizing Company
~OTHER INFORMATION
~A  DEPTH      SPR       RILM       RILD        LL8        GRD       CALD       RHOB       DRHO
# ...
 1658.0000   -70.8760     8.1480     8.2990    10.0860   121.2900     8.8690     2.5670     0.0140
 1658.5000   -70.8270     8.1480     8.2990    10.5450   122.2580     8.8700     2.5530     0.0050
 1659.0000   -70.7790     8.1480     8.2990    10.2900   122.5060     8.8720     2.5530     0.0020
 1659.5000   -70.7300     8.0700     8.2990     9.4860   121.2260     8.8740     2.5540    -0.0010
 1660.0000   -70.6820     7.8990     8.2990     8.6900   120.3990     8.8750     2.5470     0.0020
 1660.5000   -70.6330     7.7280     8.0570     9.1080   122.4330     8.8770     2.5450     0.0060
 1661.0000   -70.5850     7.5570     7.8540     9.5290   124.2960     8.8780     2.5520     0.0120
 1661.5000   -70.5360     7.3860     7.6500     9.2800   124.6700     8.8820     2.5570     0.0120
 1662.0000   -70.4880     7.2150     7.4310     8.8520   125.0740     8.8860     2.5550     0.0070
 1662.5000   -70.4390     7.0960     7.3880     8.9030   124.4470     8.8900     2.5560     0.0030
 1663.0000   -70.3900     7.0960     7.3410     9.0040   123.0950     8.8950     2.5510    -0.0010
 1663.5000   -70.3420     7.0960     7.2940     8.5830   121.7530     8.8750     2.5410    -0.0030
 1664.0000   -70.2930     7.0310     7.2480     7.9990   120.4260     8.8730     2.5310     0.0040
 1664.5000   -70.2450     6.9970     7.2010     8.3650   119.3690     8.8700     2.5310     0.0090
 1665.0000   -70.1960     6.9140     7.1550     8.8100   119.9300     8.8660     2.5330     0.0050
 1665.5000   -70.1480     6.8310     7.0960     9.1840   121.7360     8.8620     2.5310     0.0030
 1666.0000   -70.1220     6.7770     7.1460     8.1530   123.8660     8.8580     2.5280     0.0020
 1666.5000   -70.1010     6.9650     7.2400     7.4530   126.0520     8.8590     2.5230     0.0020
 1667.0000   -70.0810     7.0960     7.3500     8.2700   127.5520     8.8610     2.5230     0.0080
 1667.5000   -70.0600     7.2090     7.4990     9.0860   128.8800     8.8630     2.5260     0.0150
 1668.0000   -70.0400     7.3080     7.6400     9.7060   127.8340     8.8640     2.5290     0.0220
 1668.5000   -70.0190     7.5690     7.8530     9.4400   126.0760     8.8660     2.5240     0.0190
 1669.0000   -69.9980     7.5690     7.9170     9.3550   124.6690     8.8680     2.5180     0.0120
 1669.5000   -69.9770     7.6680     7.9990     9.3190   125.5210     8.8700     2.5240     0.0050
 1670.0000   -69.9570     7.8440     8.3760     9.2230   127.3670     8.8710     2.5240     0.0100
 1670.5000   -69.9430     7.9860     8.3350     9.1000   130.0220     8.8730     2.5180     0.0100
 1671.0000   -69.8370     7.8760     8.2570     9.3020   128.9810     8.8750     2.5170     0.0020
 1671.5000   -69.7090     7.7660     8.1790     9.5880   127.1090     8.8770     2.5180     0.0070
 1672.0000   -69.5790     7.6390     8.0780     9.9780   124.6510     8.8540     2.5320     0.0120
 1672.5000   -69.4500     7.7760     8.0970     9.6310   120.4280     8.8770     2.5260     0.0050
 1673.0000   -69.3210     7.9390     8.1360     8.8270   119.7480     8.8770     2.5180    -0.0040
 1673.5000   -69.1850     8.0730     8.1740     7.9990   117.8440     8.8770     2.5100    -0.0020
 1674.0000   -69.2400     7.9990     8.2130     9.6190   117.2010     8.8740     2.5030     0.0030
 1674.5000   -69.3770     8.0640     8.2990    11.6360   119.7470     8.8700     2.5050     0.0090
 1675.0000   -69.5150     8.1480     8.2720    13.0330   121.4970     8.8650     2.5060     0.0080
 1675.5000   -69.6540     7.9610     8.2230    10.8100   122.6820     8.8600     2.5080     0.0030
 1676.0000   -69.7930     7.8590     8.2990     8.8520   122.6110     8.8410     2.5120     0.0040
 1676.5000   -69.9310     7.7810     8.2450     9.0290   117.7320     8.8470     2.5150     0.0150
 1677.0000   -70.0700     7.7200     8.1610     9.3040   115.6060     8.8600     2.5140     0.0140
 1677.5000   -70.2080     7.6450     8.0780     9.5290   111.3200     8.8740     2.5160     0.0190
 1678.0000   -70.3460     7.5710     7.9940     9.3070   108.3840     8.8740     2.5350     0.0120
 1678.5000   -70.4860     7.4970     7.9100     9.3550   105.4280     8.8670     2.5410     0.0050
 1679.0000   -70.4560     7.4310     7.8530     9.1000   107.7310     8.8600     2.5570     0.0060
 1679.5000   -70.2740     7.5470     7.9830     9.3430   110.9580     8.8730     2.5480     0.0070
 1680.0000   -70.0940     7.6760     8.0470     9.6120   118.1430     8.9470     2.5250     0.0020
 1680.5000   -69.9330     7.8530     8.1110     9.8810   120.2580     8.9780     2.5040    -0.0020
 1681.0000   -70.0030     7.8450     8.1480    10.2570   121.2870     8.9340     2.4990     0.0020
 1681.5000   -70.0860     7.8280     8.1180    10.1950   122.2710     8.8960     2.5040     0.0050
 1682.0000   -70.1690     7.8100     8.0940    10.0370   124.9200     8.9080     2.5270     0.0130
 1682.5000   -70.2530     7.7930     8.0730     9.8800   128.8920     8.9450     2.5500     0.0210
 1683.0000   -70.3360     7.7810     8.0970     9.7230   130.0900     8.9760     2.5440     0.0190
 1683.5000   -70.4190     7.8590     8.1310     9.5660   130.5190     8.9370     2.5380     0.0170
 1684.0000   -70.5020     7.9180     8.1640     9.3550   130.2720     8.9010     2.5260     0.0150
 1684.5000   -70.5230     7.9920     8.1970     9.4290   131.2010     8.9390     2.5190     0.0090
 1685.0000   -70.5030     7.9490     8.2230     9.5430   131.1360     8.9710     2.5120     0.0070
 1685.5000   -70.4830     7.8710     8.2020     9.6560   131.5420     8.9600     2.5060     0.0100
 1686.0000   -70.4630     7.7920     8.1840     9.7960   133.7970     8.8790     2.5050     0.0190
 1686.5000   -70.4430     7.7100     8.1660     9.7150   132.4720     8.8990     2.5090     0.0210
 1687.0000   -70.4230     7.5710     8.1480     9.4870   128.9640     8.9260     2.5060     0.0120
 1687.5000   -70.4020     7.2990     7.8070     9.2600   125.4590     8.9540     2.5030     0.0050
 1688.0000   -70.3820     6.8690     7.4370     9.0320   123.5740     8.9750     2.5000     0.0110
 1688.5000   -70.3620     6.4390     7.0570     8.7710   123.5990     8.8990     2.4990     0.0150
 1689.0000   -70.3410     6.0090     6.6510     8.7990   123.9820     8.8950     2.5060     0.0110
 1689.5000   -70.3370     5.5790     6.2980     8.8480   125.3760     8.9170     2.5160     0.0070
 1690.0000   -70.3370     5.1410     6.0230     8.2870   128.0230     8.9000     2.5200     0.0060
 1690.5000   -70.3370     4.9610     5.7470     6.8360   130.1490     8.8840     2.5060     0.0100
 1691.0000   -70.3380     4.7770     5.4720     4.6880   131.2870     8.8930     2.5040     0.0090
 1691.5000   -70.3390     4.6450     5.1960     5.5940   131.9840     8.9120     2.5010     0.0070
 1692.0000   -70.3250     4.8200     5.0010     7.3340   130.8850     8.9290     2.5070     0.0120
 1692.5000   -70.0130     4.7530     5.0940     8.6110   129.7930     8.9460     2.5050     0.0140
 1693.0000   -69.7000     4.6450     4.8910     8.3360   128.6190     8.9540     2.4990     0.0100
 1693.5000   -69.3890     4.7560     4.8640     7.1180   125.5790     8.9440     2.4950     0.0060
 1694.0000   -69.0750     4.8640     5.0250     5.6990   122.3460     8.9410     2.4990     0.0160
 1694.5000   -68.7680     5.2950     5.2920     4.5190   118.3810     8.9690     2.4990     0.0280
 1695.0000   -69.0510     5.7310     5.5590     6.8650   119.4010     8.9980     2.4870     0.0420
 1695.5000   -69.3770     6.1660     5.7950     8.4760   121.0140     9.0270     2.4750     0.0250
 1696.0000   -69.7010     6.4720     5.7950     9.1840   123.8470     9.0290     2.4710    -0.0020
 1696.5000   -70.0230     6.2950     5.6370     8.2350   126.0790     8.9970     2.4780     0.0030
 1697.0000   -70.3430     6.4320     6.1810     7.3670   125.8810     9.0140     2.4870     0.0130
 1697.5000   -70.5220     6.7310     6.2380     7.2280   125.4280     9.0370     2.4770     0.0230
 1698.0000   -70.4620     7.0310     6.3790     7.5260   124.9140     9.0070     2.4590     0.0330
