~VERSION INFORMATION
 VERS.                2.0:   CWLS LOG ASCII STANDARD - VERSION 2.0
 WRAP.                 NO:   ONE LINE PER DEPTH STEP
~WELL INFORMATION
#MNEM.UNIT      DATA TYPE    INFORMATION
#----------   ------------   ------------------------------
 STRT.F           60.0000:   START DEPTH
 STOP.F         3178.0000:   STOP DEPTH
 STEP.F            0.5000:   STEP LENGTH
 NULL.          -999.2500:   NO VALUE
 COMP. LAWRENCE-ALLISON & ASSOSCIATES:   COMPANY
 WELL. LAWRENCE "AX" #46-21:   WELL
 FLD .             NPR #3:   FIELD
 LOC .      S21 T39N R78W:   LOCATION
 CNTY.            NATRONA:   COUNTY
 STAT.            WYOMING:   STATE
 CTRY. UNITED STATES OF AMERICA:   COUNTRY
 SRVC.       SCHLUMBERGER:   SERVICE COMPANY
 DATE.        03-JUN-1982:   LOGDATE
 API .     49025108890000:   API NUMBER
~CURVE INFORMATION
#MNEM.UNIT       API CODE    CURVE DESCRIPTION
#----------   ------------   ------------------------------
 DEPT.F                  :   
 TEND.LBS    45 635 01 00:   TENSION FORM DENSITY LOG
 CALD.IN     45 280 60 00:   CALIPER FROM DENSITY LOG
 CORR.G/C3   45 356 01 00:   DENSITY CORRECTION
 RHOB.G/C3   45 350 01 00:   BULK DENSITY
 NPHI.DEC    42 890 03 00:   NEUTRON POROSITY SANDSTONE
 GRR .GAPI   07 310 01 00:   GAMMA RAY FROM RESISTIVITY
 SPR .MV     07 010 01 00:   SPONTANEOUS POTENTIAL
 SFL .OHMM   07 220 01 00:   SHALLOW FOCUSED LOG RESISTIVITY
 ILD .OHMM   07 120 46 00:   DEEP INDUCTION RESISTIVITY
 ILM .OHMM   07 120 44 00:   INDUCTION LOG MEDIUM RESISTIVITY
 TENR.LBS    07 635 01 00:   TENSION FROM RESISTIVITY
~PARAMETER INFORMATION
#MNEM.UNIT          VALUE    DESCRIPTION
#----------   ------------   ------------------------------
 EKB .F         5008.0000:   Kelly bushing
 EGL .F         4998.0000:   Ground level
 EDF .F         5007.0000:   Drilling floor
 TD  .F         3230.0000:   Total depth
 CLNT.            A2DTECH:   Client Code
 SL  . 1864' FSL & 2484' FWL:   Surface Location
 PD  .                 GL:   Permanent Datum
 EPD .F              4998:   Elevation Permanent Datum
 LMF .                 KB:   Log Measured From
 DMF .                 KB:   Drilling Measured From
 DAPD.F                10:   Feet Above Permanent Datum
 DATE.        03-JUN-1982:   Date Logged [DD-MMM-YYYY]
 DD  .F              3230:   Depth driller
 DL  .F              3200:   Depth logger
 BLI .F              3190:   Bottom log interval
 TLI .F               475:   Top log interval
 CS1 .IN            9.625:   Casing size
 CBD1.      9.625" @ 465':   Casing driller 1
 CBL1.F               475:   Casing logger 1
 BS1 .IN             8.75:   Bit size
 BSD1.F              3230:   Depth drilled with bit1
 DFT .   FORM WATER / AIR:   Type fluid in hole
 TCS .HRS            1530:   Time Circ. stopped
 TLAB.HRS            1900:   Time logger at bottom
 MRT .F               135:   Maximum recorded temp.
 LUN .               8035:   Logging unit number
 LUL .               CSPR:   Logging unit location
 ENGI.              PENNY:   Recorded By
 WITN.           JENNINGS:   Witnessed by
 ORIG.      2.5" 5" PRINT:   Origin of data
 UWI .     49025108890000:   Unique Well ID
 DICO. A2D TECHNOLOGIES, INC.:   Digitizing Company
~OTHER INFORMATION
~A   DEPT     TEND       CALD       CORR       RHOB       NPHI        GRR        SPR        SFL        ILD        ILM       TENR   
# ...
 1554.5000  1630.7922     9.6935     0.0328     2.5021  -999.2500   174.0248  -999.2500  -999.2500     7.8197     7.9136  1650.1515
 1555.0000  1629.2371     9.6946     0.0358     2.5037  -999.2500   179.9316  -999.2500  -999.2500     7.8186     7.9125  1650.0000
 1555.5000  1627.8026     9.6807     0.0381     2.5067  -999.2500   183.8447  -999.2500  -999.2500     7.8175     7.9114  1649.8209
 1556.0000  1611.3602     9.6818     0.0397     2.5143  -999.2500   185.0788  -999.2500  -999.2500     7.7075     7.8004  1649.6768
 1556.5000  1609.8655     9.6826     0.0450     2.5221  -999.2500   183.9536  -999.2500  -999.2500     7.7065     7.7994  1649.5326
 1557.0000  1593.1687     9.6982     0.0465     2.5369  -999.2500   179.4147  -999.2500  -999.2500     7.7055     7.7983  1649.3939
 1557.5000  1591.7162     9.7137     0.0451     2.5318  -999.2500   174.8757  -999.2500  -999.2500     7.7045     7.7973  1649.2424
 1558.0000  1590.4335     9.7145     0.0391     2.5311  -999.2500   173.0640  -999.2500  -999.2500     7.7034     7.7962  1649.0909
 1558.5000  1588.8114     9.7301     0.0572     2.5356  -999.2500   173.5251  -999.2500  -999.2500     7.7023     7.7951  1648.9393
 1559.0000  1587.4438     9.7899     0.0888     2.5357  -999.2500   177.3013  -999.2500  -999.2500     7.7013     7.7940  1648.7878
 1559.5000  1585.9491     9.8935     0.1046     2.4967  -999.2500   180.5114  -999.2500  -999.2500     7.7002     7.7930  1648.6364
 1560.0000  1584.4545     9.9825     0.1076     2.4451  -999.2500   181.7273  -999.2500  -999.2500     7.6991     7.7919  1648.4849
 1560.5000  1583.0021    10.0420     0.0844     2.4437  -999.2500   182.3538  -999.2500  -999.2500     7.6980     7.7908  1618.0040
 1561.0000  1596.4126     9.9695     0.0663     2.4850  -999.2500   183.9773  -999.2500  -999.2500     7.6967     7.7895  1617.8599
 1561.5000  1594.9177     9.7781     0.0530     2.5165  -999.2500   185.8901  -999.2500  -999.2500     7.8044     7.8982  1617.7273
 1562.0000  1593.4231     9.7215     0.0486     2.5339  -999.2500   186.4576  -999.2500  -999.2500     7.8031     7.8969  1617.5758
 1562.5000  1598.9347     9.7226     0.0486     2.5393  -999.2500   185.3985  -999.2500  -999.2500     7.9121     8.0070  1617.4243
 1563.0000  1605.6354     9.7234     0.0509     2.5497  -999.2500   184.9505  -999.2500  -999.2500     7.8011     7.8948  1617.2727
 1563.5000  1603.8862     9.7537     0.0675     2.5588  -999.2500   184.5023  -999.2500  -999.2500     7.6916     7.7843  1617.1212
 1564.0000  1602.3916     9.7839     0.0758     2.5574  -999.2500   183.1091  -999.2500  -999.2500     7.6734     7.7659  1616.9697
 1564.5000  1600.8969     9.8141     0.0766     2.5379  -999.2500   181.0856  -999.2500  -999.2500     7.4771     7.5677  1616.8181
 1565.0000  1599.3416     9.8005     0.0812     2.5350  -999.2500   177.9469  -999.2500  -999.2500     7.4761     7.5666  1616.6667
 1565.5000  1597.6470     9.7864     0.0880     2.5388  -999.2500   176.3466  -999.2500  -999.2500     7.4750     7.5656  1616.4901
 1566.0000  1596.4125     9.7434     0.0925     2.5277  -999.2500   176.5486  -999.2500  -999.2500     7.4740     7.5645  1616.3458
 1566.5000  1610.0532     9.7294     0.0731     2.5165  -999.2500   177.9629  -999.2500  -999.2500     7.4728     7.5633  1616.2017
 1567.0000  1608.2374     9.7304     0.0470     2.5090  -999.2500   180.0058  -999.2500  -999.2500     7.6839     7.7765  1616.0575
 1567.5000  1606.8759     9.7313     0.0326     2.5068  -999.2500   180.9214  -999.2500  -999.2500     7.6829     7.7755  1615.9092
 1568.0000  1605.3812     9.7470     0.0222     2.5002  -999.2500   181.8370  -999.2500  -999.2500     7.7902     7.8838  1615.7576
 1568.5000  1603.8802     9.7625     0.0260     2.4934  -999.2500   182.3387  -999.2500  -999.2500     7.7891     7.8827  1615.6061
 1569.0000  1602.3069     9.7781     0.0320     2.4876  -999.2500   181.8500  -999.2500  -999.2500     7.8978     7.9925  1615.4546
 1569.5000  1600.8969     9.7789     0.0358     2.4929  -999.2500   182.3114  -999.2500  -999.2500     7.7869     7.8805  1615.3031
 1570.0000  1599.4021     9.7651     0.0494     2.5110  -999.2500   181.5908  -999.2500  -999.2500     7.6776     7.7701  1615.1515
 1570.5000  1597.7075     9.7512     0.0645     2.5178  -999.2500   178.1490  -999.2500  -999.2500     7.6765     7.7691  1614.9761
 1571.0000  1611.2028     9.7374     0.0729     2.5208  -999.2500   176.2440  -999.2500  -999.2500     7.6754     7.7680  1614.8485
 1571.5000  1625.0614     9.7385     0.0803     2.5224  -999.2500   176.6523  -999.2500  -999.2500     7.6741     7.7667  1614.6877
 1572.0000  1623.3184     9.7099     0.0826     2.5184  -999.2500   179.1650  -999.2500  -999.2500     7.6731     7.7656  1614.5436
 1572.5000  1621.6722     9.6959     0.0759     2.5045  -999.2500   179.1715  -999.2500  -999.2500     7.6721     7.7646  1614.3939
 1573.0000  1620.3289     9.6969     0.0647     2.4859  -999.2500   179.1780  -999.2500  -999.2500     7.6711     7.7636  1614.2424
 1573.5000  1634.0782     9.6831     0.0550     2.4792  -999.2500   179.1845  -999.2500  -999.2500     7.7782     7.8717  1614.0909
 1574.0000  1632.2870     9.6989     0.0528     2.4868  -999.2500   180.1001  -999.2500  -999.2500     7.8867     7.9814  1613.9393
 1574.5000  1630.7922     9.6848     0.0521     2.4988  -999.2500   183.3842  -999.2500  -999.2500     7.9969     8.0925  1613.7878
 1575.0000  1629.1158     9.6859     0.0529     2.5049  -999.2500   186.7048  -999.2500  -999.2500     7.8845     7.9791  1613.6063
 1575.5000  1642.9744     9.7014     0.0560     2.5012  -999.2500   188.9961  -999.2500  -999.2500     7.7365     7.8297  1613.4622
 1576.0000  1641.2555     9.7169     0.0643     2.5005  -999.2500   190.7454  -999.2500  -999.2500     7.6178     7.7098  1643.6364
 1576.5000  1645.6549     9.7912     0.0831     2.5103  -999.2500   190.4204  -999.2500  -999.2500     7.5009     7.5917  1643.4767
 1577.0000  1653.2139     9.8531     0.1012     2.5206  -999.2500   184.9954  -999.2500  -999.2500     7.3473     7.4365  1643.3325
 1577.5000  1651.7190     9.8665     0.1073     2.5352  -999.2500   179.7157  -999.2500  -999.2500     7.2442     7.3324  1673.4915
 1578.0000  1650.0549     9.8380     0.1103     2.5428  -999.2500   177.8805  -999.2500  -999.2500     7.2432     7.3314  1673.3334
 1578.5000  1648.7295     9.8093     0.1111     2.5421  -999.2500   183.3976  -999.2500  -999.2500     7.2422     7.3305  1673.1819
 1579.0000  1647.1501     9.7807     0.1119     2.5414  -999.2500   191.0786  -999.2500  -999.2500     7.2413     7.3295  1673.0304
 1579.5000  1645.7399     9.7965     0.1135     2.5415  -999.2500   193.3578  -999.2500  -999.2500     7.2402     7.3285  1657.7816
 1580.0000  1644.0032     9.8708     0.1135     2.5384  -999.2500   191.5461  -999.2500  -999.2500     7.2392     7.3274  1642.3954
 1580.5000  1642.7504     9.9746     0.1143     2.5326  -999.2500   187.0072  -999.2500  -999.2500     7.2382     7.3264  1642.2512
 1581.0000  1641.2192    10.0342     0.1159     2.5282  -999.2500   185.1955  -999.2500  -999.2500     7.2372     7.3254  1642.1069
 1581.5000  1639.7609     9.9322     0.1212     2.5372  -999.2500   185.8206  -999.2500  -999.2500     7.2362     7.3244  1641.9628
 1582.0000  1638.1935     9.8009     0.1445     2.5643  -999.2500   188.9304  -999.2500  -999.2500     7.2352     7.3233  1641.8181
 1582.5000  1636.7714     9.8165     0.1836     2.5853  -999.2500   189.8902  -999.2500  -999.2500     7.1335     7.2206  1641.6666
 1583.0000  1635.2766     9.9545     0.2109     2.5835  -999.2500   189.3593  -999.2500  -999.2500     7.1325     7.2196  1641.5151
 1583.5000  1633.7819    10.0827     0.2010     2.5375  -999.2500   185.2719  -999.2500  -999.2500     7.0324     7.1185  1641.3636
 1584.0000  1632.2629    10.0835     0.1748     2.5128  -999.2500   183.1577  -999.2500  -999.2500     7.0315     7.1176  1641.2120
 1584.5000  1630.5684    10.0548     0.1440     2.5016  -999.2500   184.7897  -999.2500  -999.2500     6.9328     7.0179  1641.0605
