~VERSION INFORMATION
 VERS.                2.0:   CWLS LOG ASCII STANDARD - VERSION 2.0
 WRAP.                 NO:   ONE LINE PER DEPTH STEP
~WELL INFORMATION
#MNEM.UNIT      DATA TYPE    INFORMATION
#----------   ------------   ------------------------------
 STRT.F          200.0000:   START DEPTH
 STOP.F         3098.0000:   STOP DEPTH
 STEP.F            0.5000:   STEP LENGTH
 NULL.          -999.2500:   NO VALUE
 COMP.    FENIX & SCISSON:   COMPANY
 WELL.   FENIX "AX" #74-3:   WELL
 FLD .              N P R:   FIELD
 LOC .       S3 T38N R78W:   LOCATION
 CNTY.            NATRONA:   COUNTY
 STAT.            WYOMING:   STATE
 CTRY. UNITED STATES OF AMERICA:   COUNTRY
 SRVC.              WELEX:   SERVICE COMPANY
 DATE.        17-AUG-1977:   LOGDATE
 API .     49025104120000:   API NUMBER
~CURVE INFORMATION
#MNEM.UNIT       API CODE    CURVE DESCRIPTION
#----------   ------------   ------------------------------
 DEPT.F                  :   
 CALD.IN     45 280 60 00:   CALIPER FROM DENSITY LOG
 SPR .MV     07 010 01 00:   SPONTANEOUS POTENTIAL
 NPHI.DEC    42 890 00 00:   NEUTRON POROSITY
 GRD .GAPI   45 310 01 00:   GAMMA RAY FROM DENSITY LOG
 CORR.G/C3   45 356 01 00:   DENSITY CORRECTION
 RHOB.G/C3   45 350 01 00:   BULK DENSITY
 SGRD.OHMM   07 220 05 00:   SHALLOW SHORT GUARD RESISTIVITY
 ILD .OHMM   07 120 46 00:   DEEP INDUCTION RESISTIVITY
 ILM .OHMM   07 120 44 00:   INDUCTION LOG MEDIUM RESISTIVITY
~PARAMETER INFORMATION
#MNEM.UNIT          VALUE    DESCRIPTION
#----------   ------------   ------------------------------
 EKB .F         5141.0000:   Kelly bushing
 EGL .F         5131.0000:   Ground level
 EDF .F            0.0000:   Drilling floor
 TD  .F         3100.0000:   Total depth
 DATE.        17-AUG-1977:   Date logged
 CLNT.            A2DTECH:   Client Code
 SL  . 2272' FNL & 1060' FEL:   Surface Location
 PD  .                 GL:   Permanent Datum
 EPD .F              5131:   Elevation Permanent Datum
 LMF .                 KB:   Log Measured From
 DMF .                 KB:   Drilling Measured From
 DD  .F              3100:   Depth driller
 DL  .F              3100:   Depth logger
 BLI .F              3098:   Bottom log interval
 TLI .F               200:   Top log interval
 CS1 .IN            8.625:   Casing size
 CBD1.      8.625" @ 215':   Casing driller 1
 CBL1.F               218:   Casing logger 1
 BS1 .IN            7.875:   Bit size
 DFT .            KCL MUD:   Type fluid in hole
 DFD .                8.8:   Density
 DFV .                 33:   Viscosity
 DFPH.                9.5:   pH
 DFL .               10.6:   Fluid loss
 MSS .           FLOWLINE:   Source of sample
 RMS .OHMM            .67:   Rm
 MST .F                98:   Rm Meas. temp.
 RMF .OHMM            .64:   Rmf
 MFST.F                98:   Rmf Meas. temp.
 RMC .OHMM            .31:   Rmc
 MCST.F                98:   Rmc Meas. temp.
 MFSS.           MEASURED:   Source Rmf.
 RMB .OHMM            .57:   Rm. at BHT
 BHT .F               115:   BHT.
 TCS .HRS               3:   Time Circ. stopped
 MRT .F               115:   Maximum recorded temp.
 LUN .               8611:   Logging unit number
 LUL .             CASPER:   Logging unit location
 ENGI.            C. DOAK:   Recorded By
 WITN.     MR. PETTINGILL:   Witnessed by
 ORIG.           5" PRINT:   Origin of data
 UWI .     49025104120000:   Unique Well ID
 DICO. A2D TECHNOLOGIES, INC.:   Digitizing Company
 BSD1.               3100:   Depth drilled with bit1
~OTHER INFORMATION
~A   DEPT       CALD      SPR       NPHI          GRD      CORR        RHOB     SGRD        ILD        ILM   
# ...
 2864.5000     8.4680   -70.4460     0.2940   148.5880     0.0220     2.5180     7.5430     4.8170     5.5260
 2865.0000     8.4750   -70.4460     0.2900   147.5340     0.0190     2.5270     7.5430     4.8480     5.6280
 2865.5000     8.4820   -70.4460     0.2850   146.4830     0.0170     2.5140     7.4400     4.8770     5.7080
 2866.0000     8.4890   -70.4460     0.2790   145.4300     0.0120     2.4970     7.2400     4.9070     5.7970
 2866.5000     8.4960   -70.4460     0.2730   144.3950     0.0070     2.4800     7.0390     4.9360     5.8860
 2867.0000     8.5030   -70.4460     0.2700   143.7920     0.0010     2.4720     6.8390     4.9660     5.9750
 2867.5000     8.5050   -70.4460     0.2680   144.2650     0.0030     2.4730     6.6970     4.9950     6.0550
 2868.0000     8.5050   -70.4460     0.2650   144.4590     0.0070     2.4810     7.1990     5.0250     6.0550
 2868.5000     8.5050   -70.4460     0.2630   143.1810     0.0110     2.4920     7.5890     5.0540     6.0550
 2869.0000     8.5050   -70.4460     0.2610   141.2630     0.0150     2.4850     7.8970     5.0840     6.1110
 2869.5000     8.5050   -70.4460     0.2580   139.3170     0.0200     2.4830     7.4770     5.1130     6.0940
 2870.0000     8.5050   -70.4460     0.2570   137.4630     0.0240     2.4930     7.0660     5.1420     6.0680
 2870.5000     8.5050   -70.4460     0.2570   137.1550     0.0280     2.5030     6.9470     5.1720     6.0420
 2871.0000     8.5020   -70.4460     0.2570   136.9000     0.0300     2.5120     7.0720     5.2010     6.0160
 2871.5000     8.4980   -70.4460     0.2530   136.6520     0.0250     2.5110     7.2970     5.2300     6.0000
 2872.0000     8.4940   -70.4460     0.2490   137.1730     0.0210     2.4990     7.5210     5.2300     6.0550
 2872.5000     8.4900   -70.4460     0.2450   140.1490     0.0170     2.4870     7.7460     5.2300     6.0550
 2873.0000     8.4860   -70.4460     0.2450   143.0730     0.0120     2.4760     7.8970     5.2300     6.0000
 2873.5000     8.4820   -70.4460     0.2460   145.9940     0.0080     2.4670     7.6040     5.1290     6.0000
 2874.0000     8.4780   -70.4460     0.2520   148.9110     0.0030     2.4590     6.8020     4.8210     5.6600
 2874.5000     8.4750   -70.4460     0.2580   151.7610    -0.0010     2.4500     5.9990     4.5120     5.3130
 2875.0000     8.4710   -70.4460     0.2650   155.2370    -0.0060     2.4410     5.8650     4.2040     4.9660
 2875.5000     8.4670   -70.4460     0.2710   158.7300    -0.0100     2.4340     5.7320     3.8960     4.6190
 2876.0000     8.4600   -70.4460     0.2770   162.2260    -0.0080     2.4320     5.2640     3.5870     4.2720
 2876.5000     8.4530   -70.4460     0.2830   165.7270    -0.0060     2.4310     4.6390     3.2790     3.8120
 2877.0000     8.4450   -70.4460     0.2870   169.2620    -0.0030     2.4290     4.0150     2.9920     3.3210
 2877.5000     8.4380   -70.4460     0.2920   172.5670    -0.0010     2.4270     3.3910     3.0940     3.1610
 2878.0000     8.4300   -70.4460     0.2960   166.4600     0.0020     2.4310     2.7300     3.2130     3.6320
 2878.5000     8.4230   -70.4460     0.3000   158.3100     0.0060     2.4400     3.5200     3.3310     3.9510
 2879.0000     8.4150   -70.4460     0.2880   150.2220     0.0100     2.4490     4.3580     3.4490     4.2690
 2879.5000     8.4080   -70.4460     0.2760   142.1260     0.0130     2.4700     5.1960     3.5610     4.5870
 2880.0000     8.4160   -70.4460     0.2640   134.0220     0.0170     2.4910     6.0340     3.9180     4.9050
 2880.5000     8.4250   -70.4460     0.2520   127.4100     0.0210     2.5090     6.8210     4.2560     5.2230
 2881.0000     8.4270   -70.4460     0.2430   128.3650     0.0250     2.5170     7.0680     4.5940     5.4750
 2881.5000     8.4270   -70.4460     0.2390   130.0020     0.0280     2.5250     7.2850     4.9060     5.6280
 2882.0000     8.4270   -70.4460     0.2460   131.6630     0.0320     2.5330     7.4070     5.0580     5.7230
 2882.5000     8.4270   -70.4460     0.2490   133.3180     0.0340     2.5410     7.2680     5.0830     5.7840
 2883.0000     8.4270   -70.4460     0.2520   134.9720     0.0320     2.5350     7.0190     5.1090     5.7840
 2883.5000     8.4270   -70.4460     0.2550   136.6260     0.0310     2.5280     6.7710     5.1340     5.7840
 2884.0000     8.4270   -70.4460     0.2580   138.2800     0.0290     2.5200     6.5750     5.1590     5.7850
 2884.5000     8.4270   -70.4460     0.2600   139.9340     0.0270     2.5120     6.4840     5.1830     5.7750
 2885.0000     8.4270   -70.4460     0.2610   141.5870     0.0260     2.5100     6.3940     5.1830     5.7640
 2885.5000     8.4290   -70.4460     0.2580   143.2410     0.0240     2.5140     6.2810     5.1830     5.7530
 2886.0000     8.4300   -70.4460     0.2560   144.8960     0.0220     2.5200     6.4340     5.1460     5.7420
 2886.5000     8.4310   -70.4460     0.2540   146.5500     0.0220     2.5260     6.6370     5.0980     5.7320
 2887.0000     8.4330   -70.4460     0.2520   148.1060     0.0210     2.5320     6.8400     5.0490     5.7320
 2887.5000     8.4340   -70.4230     0.2500   149.5980     0.0200     2.5310     7.0430     4.9960     5.5760
 2888.0000     8.4350   -70.3930     0.2500   151.0630     0.0190     2.5300     7.1400     4.7150     5.4750
 2888.5000     8.4370   -70.3630     0.2500   155.0360     0.0180     2.5310     6.9340     4.4500     5.2190
 2889.0000     8.4380   -70.3330     0.2500   159.7330     0.0170     2.5360     6.3690     4.2640     4.9470
 2889.5000     8.4390   -70.3030     0.2540   164.4440     0.0160     2.5410     5.8080     4.0790     4.6750
 2890.0000     8.4400   -70.2730     0.2590   169.1530     0.0150     2.5390     5.2590     3.8930     4.4040
 2890.5000     8.4420   -70.2430     0.2630   173.8620     0.0080     2.5300     4.7100     3.7070     4.1320
 2891.0000     8.4430   -70.2130     0.2680   178.5770     0.0000     2.5210     4.1600     3.5220     3.8600
 2891.5000     8.4440   -70.1830     0.2720   181.5410    -0.0080     2.5130     3.6930     3.3400     3.5930
 2892.0000     8.4460   -70.1530     0.2770   180.8140    -0.0130     2.5040     4.1830     3.2790     3.5930
 2892.5000     8.4480   -70.1230     0.2810   174.0260    -0.0090     2.5000     4.7760     3.3550     3.7620
 2893.0000     8.4530   -70.0930     0.2840   166.5020    -0.0040     2.5130     5.3680     3.5250     4.1490
 2893.5000     8.4580   -70.0630     0.2800   158.4060     0.0000     2.5300     5.9610     3.7620     4.5950
 2894.0000     8.4640   -70.0330     0.2730   150.3580     0.0050     2.5470     6.5530     3.9990     5.0410
 2894.5000     8.4690   -70.0030     0.2660   142.2730     0.0100     2.5630     6.9470     4.2360     5.3760
 2895.0000     8.4740   -69.9730     0.2590   137.2620     0.0150     2.5800     6.9470     4.4740     5.6800
 2895.5000     8.4790   -69.9430     0.2520   136.6160     0.0190     2.5960     6.8840     4.7110     5.8740
 2896.0000     8.4840   -69.9130     0.2520   135.5940     0.0240     2.6050     7.2170     4.9480     6.0520
 2896.5000     8.4850   -69.8830     0.2520   134.6060     0.0280     2.6150     7.6060     5.1830     6.2300
 2897.0000     8.4850   -69.8530     0.2510   133.6170     0.0340     2.6240     7.8970     5.3270     6.3970
 2897.5000     8.4850   -69.8230     0.2500   132.6250     0.0360     2.6330     7.8130     5.4660     6.4560
 2898.0000     8.4850   -69.7930     0.2460   131.6350     0.0360     2.6420     7.7160     5.6000     6.4620
 2898.5000     8.4850   -69.7630     0.2430   130.7820     0.0360     2.6450     7.6200     5.7340     6.5060
 2899.0000     8.4850   -69.7330     0.2420   131.3110     0.0330     2.6430     7.5430     5.8680     6.5510
 2899.5000     8.4840   -69.7030     0.2410   132.6820     0.0290     2.6360     7.4750     5.8910     6.6360
 2900.0000     8.4790   -69.6730     0.2390   134.0440     0.0260     2.6300     7.5540     5.8910     6.6970
 2900.5000     8.4750   -69.6430     0.2350   134.8590     0.0220     2.6230     7.6450     5.8670     6.8520
