~VERSION INFORMATION
 VERS.                2.0:   CWLS LOG ASCII STANDARD - VERSION 2.0
 WRAP.                 NO:   ONE LINE PER DEPTH STEP
~WELL INFORMATION
#MNEM.UNIT      DATA TYPE    INFORMATION
#----------   ------------   ------------------------------
 STRT.F            6.0000:   START DEPTH
 STOP.F         3190.0000:   STOP DEPTH
 STEP.F            0.5000:   STEP LENGTH
 NULL.          -999.2500:   NO VALUE
 COMP. LAWRENCE ALLISON & ASSOCIATES:   COMPANY
 WELL. LAWRENCE N. P. R. 73AX #3-3:   WELL
 FLD .              N P R:   FIELD
 LOC .       S3 T38N R78W:   LOCATION
 CNTY.            NATRONA:   COUNTY
 STAT.            WYOMING:   STATE
 CTRY. UNITED STATES OF AMERICA:   COUNTRY
 SRVC.      DRESSER ATLAS:   SERVICE COMPANY
 DATE.        04-JUN-1986:   LOGDATE
 API .     49025110910000:   API NUMBER
~CURVE INFORMATION
#MNEM.UNIT       API CODE    CURVE DESCRIPTION
#----------   ------------   ------------------------------
 DEPT.F                  :   
 CALD.IN     45 280 60 00:   CALIPER FROM DENSITY LOG
 DEN .LBS    45 635 01 00:   BUCK DENSITY
 CORR.G/C3   45 356 01 00:   DENSITY CORRECTION
 TEND.LBS    45 635 01 00:   TENSION FROM DENSITY LOG
 SPR .MV     07 010 01 00:   SPONTANEOUS POTENTIAL
 GRR .GAPI   07 310 01 00:   GAMMA RAY FROM RESISTIVITY
 SFLU.OHMM   07 220 01 00:   SPHERICALLY FOCUSED LOG UNAVERAGED RESISTIVITY
 ILD .OHMM   07 120 46 00:   DEEP INDUCTION RESISTIVITY
 ILM .OHMM   07 120 44 00:   INDUCTION LOG MEDIUM RESISTIVITY
 TENR.LBS    07 635 01 00:   TENSION FROM RESISTIVITY
 CNC .DEC    42 890 01 00:   NEUTRON PORISITY LIMESTONE
~PARAMETER INFORMATION
#MNEM.UNIT          VALUE    DESCRIPTION
#----------   ------------   ------------------------------
 EKB .F         5173.0000:   Kelly bushing
 EGL .F         5161.0000:   Ground level
 TD  .F         3170.0000:   Total depth
 DATE.        04-JUN-1986:   Date logged
 CLNT.            A2DTECH:   Client Code
 PD  .                 GL:   Permanent Datum
 EPD .F              5161:   Elevation Permanent Datum
 LMF .                 KB:   Log Measured From
 DMF .                 KB:   Drilling Measured From
 DAPD.F                12:   Feet Above Permanent Datum
 DD  .F              3170:   Depth driller
 DL  .F              3168:   Depth logger
 BLI .F               8.9:   Bottom log interval
 TLI .F                38:   Top log interval
 CS1 .IN            8.625:   Casing size
 CBD1.      8.625" @ 603':   Casing driller 1
 CBL1.F               602:   Casing logger 1
 BS1 .IN            7.875:   Bit size
 BSD1.F              3170:   Depth drilled with bit1
 DFT .        KCL/POLYMER:   Type fluid in hole
 DFD .                8.9:   Density
 DFV .                 38:   Viscosity
 DFPH.                9.0:   pH
 DFL .               13.2:   Fluid loss
 MSS .           FLOWLINE:   Source of sample
 RMS .OHMM           .446:   Rm
 MST .F                64:   Rm Meas. temp.
 RMF .OHMM           .361:   Rmf
 MFST.F                64:   Rmf Meas. temp.
 RMC .OHMM            .56:   Rmc
 MCST.F                64:   Rmc Meas. temp.
 MFSS.               MEAS:   Source Rmf.
 MCSS.               CALC:   Source Rmc.
 RMB .OHMM           .242:   Rm. at BHT
 BHT .F               118:   BHT.
 TCS .HRS               3:   Time Circ. stopped
 MRT .F               118:   Maximum recorded temp.
 LUN .               6274:   Logging unit number
 LUL .           GILLETTE:   Logging unit location
 WITN.             STRONG:   Witnessed by
 ORIG.           5" PRINT:   Origin of data
 UWI .     49025110910000:   Unique Well ID
 DICO. A2D TECHNOLOGIES, INC.:   Digitizing Company
~OTHER INFORMATION
~A    DEPT    CALD        DEN       CORR       TEND        SPR         GRR      SFLU        ILD        ILM       TENR        CNC   
# ...
 1470.0000  -999.2500  -999.2500  -999.2500  -999.2500   -58.4955    85.4316     7.3137     7.1794     6.3593   -74.5713  -999.2500
 1470.5000  -999.2500  -999.2500  -999.2500  -999.2500   -58.2958    83.8121     7.4498     7.2455     6.3550   -84.5455  -999.2500
 1471.0000  -999.2500  -999.2500  -999.2500  -999.2500   -58.4986    82.5965     7.5184     7.1779     6.3508   -84.4456  -999.2500
 1471.5000  -999.2500  -999.2500  -999.2500  -999.2500   -58.9063    80.9762     7.3795     7.1771     6.3465   -94.4200  -999.2500
 1472.0000  -999.2500  -999.2500  -999.2500  -999.2500   -59.5141    78.9530     7.3106     7.1759     6.3423   -74.1717  -999.2500
 1472.5000  -999.2500  -999.2500  -999.2500  -999.2500   -59.9200    81.3712     7.3099     7.1756     6.3380   -84.1460  -999.2500
 1473.0000  -999.2500  -999.2500  -999.2500  -999.2500   -60.1241    91.0568     7.3091     7.1749     6.3338   -84.0462  -999.2500
 1473.5000  -999.2500  -999.2500  -999.2500  -999.2500   -60.1263    94.6861     7.3764     7.2409     6.3295   -83.9463  -999.2500
 1474.0000  -999.2500  -999.2500  -999.2500  -999.2500   -59.7247    93.0667     7.3755     7.3755     6.3253   -83.8465  -999.2500
 1474.5000  -999.2500  -999.2500  -999.2500  -999.2500   -59.7269    85.7948     7.5826     7.4434     6.3210   -73.6723  -999.2500
 1475.0000  -999.2500  -999.2500  -999.2500  -999.2500   -59.9310    81.7530     7.5820     7.3739     6.3168   -83.6268  -999.2500
 1475.5000  -999.2500  -999.2500  -999.2500  -999.2500   -59.9314    82.9599     7.5111     7.3736     6.3126   -83.5469  -999.2500
 1476.0000  -999.2500  -999.2500  -999.2500  -999.2500   -59.8489    86.5891     7.5103     7.3229     6.3083   -63.2782  -999.2500
 1476.5000  -999.2500  -999.2500  -999.2500  -999.2500   -59.7664    88.1996     7.4402     7.2725     6.3041   -83.3272  -999.2500
 1477.0000  -999.2500  -999.2500  -999.2500  -999.2500   -59.6838    88.1944     7.5087     7.2224     6.2999   -73.1529  -999.2500
 1477.5000  -999.2500  -999.2500  -999.2500  -999.2500   -59.6013    91.0161     7.4387     7.1678     6.2957   -93.2019  -999.2500
 1478.0000  -999.2500  -999.2500  -999.2500  -999.2500   -59.5188    93.8377     7.3013     7.1675     6.2353   -83.0276  -999.2500
 1478.5000  -999.2500  -999.2500  -999.2500  -999.2500   -59.4362    94.6407     7.1664     7.1669     6.2399   -93.0023  -999.2500
 1479.0000  -999.2500  -999.2500  -999.2500  -999.2500   -59.3537    92.2140     7.2324     7.1705     6.2445   -82.8279  -999.2500
 1479.5000  -999.2500  -999.2500  -999.2500  -999.2500   -59.2712    86.5565     7.2316     7.1741     6.2491   -82.7280  -999.2500
 1480.0000  -999.2500  -999.2500  -999.2500  -999.2500   -59.1887    84.9381     7.2309     7.1777     6.2537   -82.6281  -999.2500
 1480.5000  -999.2500  -999.2500  -999.2500  -999.2500   -59.1061    82.5114     7.1634     7.1813     6.2584   -82.5283  -999.2500
 1481.0000  -999.2500  -999.2500  -999.2500  -999.2500   -59.0236    84.5256     7.0965     7.1849     6.2630   -82.4284  -999.2500
 1481.5000  -999.2500  -999.2500  -999.2500  -999.2500   -58.9505    86.5398     7.0956     7.1885     6.2676   -82.3285  -999.2500
 1482.0000  -999.2500  -999.2500  -999.2500  -999.2500   -58.9527    88.1502     7.0949     7.1922     6.2722   -82.2087  -999.2500
 1482.5000  -999.2500  -999.2500  -999.2500  -999.2500   -58.7531    88.9532     7.1602     7.1958     6.2768   -92.1835  -999.2500
 1483.0000  -999.2500  -999.2500  -999.2500  -999.2500   -58.7553    89.7562     7.1595     7.1994     6.2815   -82.0089  -999.2500
 1483.5000  -999.2500  -999.2500  -999.2500  -999.2500   -58.7575    89.3472     7.2927     7.2030     6.2858   -81.9091  -999.2500
 1484.0000  -999.2500  -999.2500  -999.2500  -999.2500   -58.9615    85.7095     7.2919     7.2067     6.2856   -91.8840  -999.2500
 1484.5000  -999.2500  -999.2500  -999.2500  -999.2500   -59.1660    85.7051     7.2911     7.2103     6.3154   -91.7842  -999.2500
 1485.0000  -999.2500  -999.2500  -999.2500  -999.2500   -59.3700    85.7007     7.2903     7.2139     6.3423   -91.6843  -999.2500
 1485.5000  -999.2500  -999.2500  -999.2500  -999.2500   -59.5741    86.5028     7.2223     7.2176     6.3421   -81.5096  -999.2500
 1486.0000  -999.2500  -999.2500  -999.2500  -999.2500   -59.5762    86.9030     7.2888     7.2214     6.5154   -91.4646  -999.2500
 1486.5000  -999.2500  -999.2500  -999.2500  -999.2500   -59.5784    90.1281     7.2880     7.2213     6.5191   -91.4047  -999.2500
 1487.0000  -999.2500  -999.2500  -999.2500  -999.2500   -59.1769    91.7384     7.3551     7.2509     6.5796   -91.2849  -999.2500
 1487.5000  -999.2500  -999.2500  -999.2500  -999.2500   -58.5736    90.9266     7.3544     7.2808     6.4987  -101.2601  -999.2500
 1488.0000  -999.2500  -999.2500  -999.2500  -999.2500   -58.3739    88.9038     7.6309     7.3107     6.4189   -91.0852  -999.2500
 1488.5000  -999.2500  -999.2500  -999.2500  -999.2500   -58.3761    87.6883     7.7015     7.3524     6.3401   -90.9854  -999.2500
 1489.0000  -999.2500  -999.2500  -999.2500  -999.2500   -58.3783    91.3170     7.4204     7.2786     6.2784   -90.8855  -999.2500
 1489.5000  -999.2500  -999.2500  -999.2500  -999.2500   -58.5824    94.9449     7.3511     7.2056     6.2198   -90.7657  -999.2500
 1490.0000  -999.2500  -999.2500  -999.2500  -999.2500   -58.9882    96.9588     7.2153     7.1334     6.1773   -90.6658  -999.2500
 1490.5000  -999.2500  -999.2500  -999.2500  -999.2500   -59.3941    98.1654     7.2146     7.0618     6.1351   -80.4908  -999.2500
 1491.0000  -999.2500  -999.2500  -999.2500  -999.2500   -59.8004    94.9315     7.0813     6.9910     6.0932   -80.3909  -999.2500
 1491.5000  -999.2500  -999.2500  -999.2500  -999.2500   -59.7530    89.2757     7.0152     6.9209     6.0516   -80.2911  -999.2500
 1492.0000  -999.2500  -999.2500  -999.2500  -999.2500   -59.7056    86.8483     7.0798     6.8856     5.9898   -90.2664  -999.2500
 1492.5000  -999.2500  -999.2500  -999.2500  -999.2500   -59.6582    88.8632     7.0791     6.9487     5.9896   -90.1666  -999.2500
 1493.0000  -999.2500  -999.2500  -999.2500  -999.2500   -59.6108    92.0881     7.0130     6.9486     5.9895   -90.0667  -999.2500
 1493.5000  -999.2500  -999.2500  -999.2500  -999.2500   -59.5635    92.0837     6.8835     6.9478     5.9975   -90.0068  -999.2500
 1494.0000  -999.2500  -999.2500  -999.2500  -999.2500   -59.5161    92.8865     6.8827     6.9470     6.0056   -89.8670  -999.2500
 1494.5000  -999.2500  -999.2500  -999.2500  -999.2500   -59.4687    90.0565     7.0108     6.9461     6.0137   -89.7671  -999.2500
 1495.0000  -999.2500  -999.2500  -999.2500  -999.2500   -59.4213    88.8393     7.0100     6.9453     6.0218   -89.6673  -999.2500
 1495.5000  -999.2500  -999.2500  -999.2500  -999.2500   -59.3739    90.4513     7.2068     6.9445     6.0299   -89.5674  -999.2500
 1496.0000  -999.2500  -999.2500  -999.2500  -999.2500   -59.3265    94.0789     7.0737     6.9440     6.0380   -79.3921  -999.2500
 1496.5000  -999.2500  -999.2500  -999.2500  -999.2500   -59.2791    89.6343     7.0729     6.9430     6.0461   -89.3677  -999.2500
 1497.0000  -999.2500  -999.2500  -999.2500  -999.2500   -59.2220    86.4006     7.0722     6.9424     6.0543   -89.2479  -999.2500
 1497.5000  -999.2500  -999.2500  -999.2500  -999.2500   -59.2229    88.4145     7.1373     6.9326     6.0624   -89.1081  -999.2500
 1498.0000  -999.2500  -999.2500  -999.2500  -999.2500   -59.2914    94.4648     7.1366     6.9227     6.0706   -89.0481  -999.2500
 1498.5000  -999.2500  -999.2500  -999.2500  -999.2500   -59.3599    96.4785     7.0700     6.9128     6.0787   -88.9483  -999.2500
 1499.0000  -999.2500  -999.2500  -999.2500  -999.2500   -59.4285    95.6668     7.1351     6.9030     6.0869   -88.8484  -999.2500
 1499.5000  -999.2500  -999.2500  -999.2500  -999.2500   -59.4970    95.6624     7.1343     6.8932     6.0925   -88.7486  -999.2500
 1500.0000  -999.2500  -999.2500  -999.2500  -999.2500   -59.5655    95.6570     7.2000     6.8833     6.0924   -88.6487  -999.2500
