~VERSION INFORMATION
 VERS.                2.0:   CWLS LOG ASCII STANDARD - VERSION 2.0
 WRAP.                 NO:   ONE LINE PER DEPTH STEP
~WELL INFORMATION
#MNEM.UNIT      DATA TYPE    INFORMATION
#----------   ------------   ------------------------------
 STRT.F          648.0000:   START DEPTH
 STOP.F         3196.0000:   STOP DEPTH
 STEP.F            0.5000:   STEP LENGTH
 NULL.          -999.2500:   NO VALUE
 COMP.    FENIX & SCISSON:   COMPANY
 WELL.   FENIX "AX" #18-2:   WELL
 FLD .             NPR #3:   FIELD
 LOC .       S2 T38N R78W:   LOCATION
 CNTY.            NATRONA:   COUNTY
 STAT.            WYOMING:   STATE
 CTRY. UNITED STATES OF AMERICA:   COUNTRY
 SRVC.              WELEX:   SERVICE COMPANY
 DATE.        05-OCT-1980:   LOGDATE
 API .     49025108500000:   API NUMBER
~CURVE INFORMATION
#MNEM.UNIT       API CODE    CURVE DESCRIPTION
#----------   ------------   ------------------------------
 DEPT.F                  :   
 GRD .GAPI   45 310 01 00:   GAMMA RAY FROM DENSITY LOG
 CALD.IN     45 280 60 00:   CALIPER FROM DENSITY LOG
 CORR.G/C3   45 356 01 00:   DENSITY CORRECTION
 RHOB.G/C3   45 350 01 00:   BULK DENSITY
 SPR .MV     07 010 01 00:   SPONTANEOUS POTENTIAL FROM RES.
 ILD .OHMM   07 120 46 00:   INDUCTION LOG DEEP RESISTIVITY
 ILM .OHMM   07 120 44 00:   INDUCTION LOG MEDIUM RESISTIVITY
 SGRD.OHMM   07 220 05 00:   SHORT GUARD RESISTIVITY
~PARAMETER INFORMATION
#MNEM.UNIT          VALUE    DESCRIPTION
#----------   ------------   ------------------------------
 EKB .F         5162.0000:   Kelly bushing
 EGL .F         5152.0000:   Ground level
 EDF .F            0.0000:   Drilling floor
 TD  .F         3200.0000:   Total depth
 CLNT.            A2DTECH:   Client Code
 PD  .                 GL:   Permanent Datum
 EPD .F              5152:   Elevation Permanent Datum
 LMF .                 KB:   Log Measured From
 DMF .                 KB:   Drilling Measured From
 DAPD.F                10:   Feet Above Permanent Datum
 DATE.        05-OCT-1980:   Date Logged [DD-MMM-YYYY]
 DD  .F              3200:   Depth driller
 DL  .F              3198:   Depth logger
 BLI .F              3196:   Bottom log interval
 TLI .F               646:   Top log interval
 CS1 .IN            8.625:   Casing size
 CBD1.      8.625" @ 647':   Casing driller 1
 CBL1.F               650:   Casing logger 1
 BS1 .IN            7.875:   Bit size
 BSD1.F              3200:   Depth drilled with bit1
 DFT .           CHEM GEL:   Type fluid in hole
 DFD .                8.6:   Density
 DFV .                 38:   Viscosity
 DFPH.                9.5:   pH
 MSS .           FLOWLINE:   Source of sample
 MFSS.               MEAS:   Source Rmf.
 MCSS.               MEAS:   Source Rmc.
 RMB .OHMM           1.24:   Rm. at BHT
 BHT .F               118:   BHT.
 TCS .HRS               5:   Time Circ. stopped
 MRT .F               118:   Maximum recorded temp.
 LUN .               1892:   Logging unit number
 LUL .             CASPER:   Logging unit location
 ORIG.           5" PRINT:   Origin of data
 UWI .     49025108500000:   Unique Well ID
 DICO. A2D TECHNOLOGIES, INC.:   Digitizing Company
 SL  . 313' FSL & 565' FWL:   Surface Location
 RMS .               2.34:   Rm
~OTHER INFORMATION
~A   DEPT       GRD      CALD       CORR       RHOB        SPR        ILD        ILM       SGRD   
# ...
 2997.0000    94.5880     9.3854     0.0584     2.5491   -37.4790     4.8000     6.1615     7.2854
 2997.5000    93.0718     9.3582     0.0524     2.5394   -37.5466     4.9363     6.2943     7.7036
 2998.0000    92.2184     9.3532     0.0452     2.5334   -37.6777     5.0416     6.2981     7.9222
 2998.5000    91.5858     9.3325     0.0424     2.5387   -37.5170     5.1137     6.3019     7.3476
 2999.0000    91.3652     9.3178     0.0441     2.5485   -37.3570     5.1512     6.3058     7.7160
 2999.5000    91.8747     9.2926     0.0458     2.5547   -37.1958     5.1178     6.2661     7.8890
 3000.0000    93.2304     9.2793     0.0475     2.5479   -36.8879     5.1203     6.2708     8.0063
 3000.5000    93.2606     9.2517     0.0492     2.5375   -36.6714     5.0879     6.2305     7.5758
 3001.0000    93.5117     9.2099     0.0509     2.5234   -36.3769     5.0575     6.1488     7.6973
 3001.5000    93.9837     9.1530     0.0526     2.5145   -36.2607     5.0613     6.0273     7.8117
 3002.0000    95.3394     9.0960     0.0559     2.5340   -36.1449     5.0301     5.9885     7.5015
 3002.5000    97.3578     9.0243     0.0591     2.5356   -36.0866     5.0347     5.9930     7.3038
 3003.0000   100.7017     8.9674     0.0608     2.5297   -36.2261     5.0384     5.9967     7.1111
 3003.5000   103.8314     8.9251     0.0640     2.5245   -36.3627     5.0770     6.0483     6.9720
 3004.0000   100.2742     8.9100     0.0657     2.5224   -36.6446     5.2229     6.1732     6.9787
 3004.5000   101.0207     8.8847     0.0644     2.5427   -36.8641     5.3730     6.2705     7.1330
 3005.0000   101.4852     8.8719     0.0615     2.5365   -37.0689     5.5275     6.3623     7.7569
 3005.5000    98.4302     8.8727     0.0557     2.5309   -37.2030     5.5697     6.2365     8.2054
 3006.0000    96.0303     8.8731     0.0484     2.5392   -37.3393     5.4984     6.0710     8.3274
 3006.5000    95.1769     8.8735     0.0455     2.5363   -37.3274     5.3898     5.8693     8.1079
 3007.0000    95.8698     8.8740     0.0490     2.5296   -37.3133     5.1394     5.6297     7.7323
 3007.5000    97.2255     8.8899     0.0565     2.5200   -37.3064     4.9688     5.1562     7.2081
 3008.0000    98.8943     8.9061     0.0733     2.5320   -37.3013     4.7054     4.7170     6.7021
 3008.5000   100.7076     8.9222     0.0841     2.5493   -37.2961     4.2899     4.3451     6.5239
 3009.0000   102.5208     8.9384     0.0873     2.5501   -37.2910     3.7277     4.0303     6.5768
 3009.5000   104.3341     8.9692     0.0920     2.5442   -37.2858     3.3870     3.6870     6.6286
 3010.0000   107.7476     8.9854     0.0967     2.5338   -37.2807     3.0774     3.2978     6.4540
 3010.5000   114.5391     9.0162     0.0877     2.4859   -37.2756     2.8743     2.8803     5.9460
 3011.0000   121.8697     9.0618     0.0770     2.4545   -37.2701     2.7220     2.7655     4.9281
 3011.5000   128.7440     9.1224     0.0661     2.4261   -37.2548     2.6135     2.7290     3.5734
 3012.0000   138.4902     9.2306     0.0504     2.3987   -37.0904     2.5424     2.7695     2.6758
 3012.5000   144.9228     9.3946     0.0340     2.3651   -36.9568     2.5112     2.9088     2.3326
 3013.0000   146.7162     9.6562     0.0265     2.3532   -36.9096     2.5135     3.1406     2.4505
 3013.5000   142.5449     9.8194     0.0206     2.3585   -36.7430     2.5328     3.6012     4.3826
 3014.0000   115.3986     9.8646     0.0011     2.4462   -36.7273     2.6418     4.1751     6.4592
 3014.5000   100.8444     9.4399     0.0329     2.4927   -36.7115     2.8719     4.6662     7.2741
 3015.0000    86.7320     9.1031     0.0376     2.5115   -36.6958     3.2094     5.0380     7.8003
 3015.5000    85.6524     9.0457     0.0377     2.5160   -36.6800     3.5456     5.3280     8.1380
 3016.0000    86.1214     9.0421     0.0378     2.5206   -36.6637     4.0927     5.4469     8.0320
 3016.5000    86.3683     9.0192     0.0379     2.5252   -36.6474     4.7342     5.3358     8.3817
 3017.0000    87.2884     9.0207     0.0380     2.5268   -36.7809     5.1113     5.3777     7.9916
 3017.5000    88.2140     9.0074     0.0382     2.5276   -36.7613     5.2581     5.7267     8.1685
 3018.0000    89.6641     9.0017     0.0398     2.5254   -36.8976     5.3351     5.9311     7.5695
 3018.5000    93.9901     8.9956     0.0429     2.5218   -36.9412     5.2658     5.5404     7.3290
 3019.0000    96.6671     8.9823     0.0446     2.5174   -37.0104     5.1578     5.2105     6.9397
 3019.5000    98.4605     8.9690     0.0462     2.5144   -36.9941     4.9570     4.9001     6.9000
 3020.0000   100.2538     8.9558     0.0508     2.5115   -37.1259     4.7267     4.5999     6.4454
 3020.5000   101.8263     8.9425     0.0540     2.5101   -36.9615     4.3845     4.2752     6.6766
 3021.0000   103.1778     8.9293     0.0576     2.5080   -36.9452     4.0113     3.9654     6.4414
 3021.5000   105.1921     8.9160     0.0623     2.5028   -36.7795     3.7209     3.6781     6.0688
 3022.0000   107.8691     8.9178     0.0664     2.4961   -36.7638     3.4754     3.4590     5.5189
 3022.5000   111.6507     8.9193     0.0710     2.4937   -36.6000     3.2609     3.1863     5.7592
 3023.0000   116.5368     8.9207     0.0787     2.4971   -36.5837     3.0116     2.9944     5.5305
 3023.5000   124.2948     8.9221     0.0942     2.4847   -36.4193     2.8324     2.7799     4.3767
 3024.0000   137.6387     8.9383     0.0869     2.4549   -36.4543     2.7195     2.6507     4.0883
 3024.5000   144.8194     8.9397     0.0745     2.4165   -36.5348     2.6111     2.5978     2.8178
 3025.0000   152.9461     8.9412     0.0731     2.3836   -36.5185     2.5071     2.7478     2.7247
 3025.5000   155.9896     8.9269     0.0507     2.3553   -36.5015     2.4406     3.1353     2.7899
 3026.0000   148.2881     8.8999     0.0267     2.3478   -36.4857     2.4445     3.7287     3.2904
 3026.5000   138.8149     8.8429     0.0087     2.3599   -36.4696     2.6193     4.1535     4.9510
 3027.0000   112.9941     8.7120     0.0027     2.4071   -36.4503     2.9271     4.6905     6.9525
 3027.5000   104.4045     8.6252     0.0240     2.4888   -36.5866     3.2711     5.0643     7.2519
 3028.0000   102.2214     8.5822     0.0452     2.5263   -36.2726     3.6055     5.3190     7.1111
 3028.5000   100.7011     8.5689     0.0529     2.5369   -36.2563     3.8659     5.4720     7.2671
 3029.0000   100.0516     8.5557     0.0545     2.5332   -36.2392     4.2610     5.5521     7.6939
 3029.5000    99.6486     8.5574     0.0530     2.5190   -36.2234     4.7825     5.6743     7.3837
 3030.0000    99.4538     8.5588     0.0502     2.5169   -36.2074     5.3963     5.8771     7.2373
 3030.5000    99.4863     8.5751     0.0594     2.5305   -36.1919     5.7860     5.9631     7.4987
 3031.0000    99.5124     8.5765     0.0656     2.5515   -36.3243     5.9935     6.1771     7.3012
 3031.5000    99.5385     8.5780     0.0672     2.5411   -36.3067     6.0812     6.5779     7.6173
 3032.0000    99.7854     8.5794     0.0643     2.5232   -36.2889     5.7193     6.8612     7.0194
 3032.5000   100.2533     8.5809     0.0629     2.5211   -36.2732     5.3789     6.8189     7.1882
 3033.0000   102.2676     8.5676     0.0630     2.5294   -36.1093     5.2370     6.4914     7.9109
 3033.5000   106.2701     8.5694     0.0616     2.5429   -35.8787     5.1690     5.9492     7.9732
 3034.0000   109.8307     8.5414     0.0512     2.5348   -35.6294     5.1363     5.6717     7.7613
 3034.5000   111.8450     8.5278     0.0438     2.5229   -35.4655     5.1766     6.1248     8.2670
 3035.0000   113.1965     8.5145     0.0379     2.5185   -35.6018     5.2174     6.5222     7.7223
 3035.5000   114.5481     8.5013     0.0365     2.5223   -35.7303     5.4043     6.8502     8.1707
 3036.0000   112.1268     8.4880     0.0399     2.5285   -35.7708     5.8750     7.0491     7.6853
 3036.5000   111.0417     8.4898     0.0536     2.5467   -35.9956     6.4310     6.9090     8.5916
 3037.0000   110.6110     8.4913     0.0459     2.5622   -36.1295     6.0483     6.6335     8.7214
