~VERSION INFORMATION
 VERS.                2.0:   CWLS LOG ASCII STANDARD - VERSION 2.0
 WRAP.                 NO:   ONE LINE PER DEPTH STEP
~WELL INFORMATION
#MNEM.UNIT      DATA TYPE    INFORMATION
#----------   ------------   ------------------------------
 STRT.F          180.0000:   START DEPTH
 STOP.F         3044.0000:   STOP DEPTH
 STEP.F            0.5000:   STEP LENGTH
 NULL.          -999.2500:   NO VALUE
 COMP.    FENIX & SCISSON:   COMPANY
 WELL.   FENIX "A" #55-29:   WELL
 FLD .           N P R #3:   FIELD
 LOC .      S29 T39N R78W:   LOCATION
 CNTY.            NATRONA:   COUNTY
 STAT.            WYOMING:   STATE
 CTRY. UNITED STATES OF AMERICA:   COUNTRY
 SRVC.              WELEX:   SERVICE COMPANY
 DATE.        21-JUL-1977:   LOGDATE
 API .     49025104020000:   API NUMBER
~CURVE INFORMATION
#MNEM.UNIT       API CODE    CURVE DESCRIPTION
#----------   ------------   ------------------------------
 DEPT.F                  :   
 CALD.IN     45 280 60 00:   CALIPER FROM DENSITY LOG
 RHOB.G/C3   45 350 01 00:   BULK DENSITY
 CORR.G/C3   45 356 01 00:   DENSITY CORRECTION
 GRD .GAPI   45 310 01 00:   GAMMA RAY FROM DENSITY LOG
 SPR .MV     07 010 01 00:   SPONTANEOUS POTENTIAL
 ILD .OHMM   07 120 46 00:   DEEP INDUCTION RESISTIVITY
 ILM .OHMM   07 120 44 00:   INDUCTION LOG MEDIUM RESISTIVITY
 SGRD.OHMM   07 220 05 00:   SHALLOW SHORT GUARD RESISTIVITY
~PARAMETER INFORMATION
#MNEM.UNIT          VALUE    DESCRIPTION
#----------   ------------   ------------------------------
 EKB .F         4995.0000:   Kelly bushing
 EGL .F         4985.0000:   Ground level
 EDF .F            0.0000:   Drilling floor
 EPD .F         4985.0000:   Permanent datum
 TD  .F         3045.0000:   Total depth
 DATE.        21-JUL-1977:   Date logged
 CLNT.            A2DTECH:   Client Code
 SL  . 2310' FSL & 2310' FEL:   Surface Location
 PD  .                 GL:   Permanent Datum
 DD  .F              3045:   Depth driller
 DL  .F              3045:   Depth logger
 BLI .F              3043:   Bottom log interval
 CS1 .IN            8.625:   Casing size
 CBD1.      8.625" @ 230':   Casing driller 1
 CBL1.F               216:   Casing logger 1
 BS1 .IN            7.875:   Bit size
 DFT .            KCL-MUD:   Type fluid in hole
 DFD .                8.8:   Density
 DFV .                 45:   Viscosity
 DFPH.                7.5:   pH
 DFL .                8.4:   Fluid loss
 MSS .           FLOWLINE:   Source of sample
 RMS .OHMM            .45:   Rm
 MST .F                86:   Rm Meas. temp.
 RMF .OHMM            .33:   Rmf
 MFST.F                86:   Rmf Meas. temp.
 RMC .OHMM            .72:   Rmc
 MCST.F                86:   Rmc Meas. temp.
 MFSS.               MEAS:   Source Rmf.
 RMB .OHMM            .30:   Rm. at BHT
 BHT .F               127:   BHT.
 TCS .HRS             2.5:   Time Circ. stopped
 MRT .F               127:   Maximum recorded temp.
 LUN .               8611:   Logging unit number
 LUL .             CASPER:   Logging unit location
 ENGI.            C. DOAK:   Recorded By
 WITN.      W. PETTINGILL:   Witnessed by
 ORIG.           5" PRINT:   Origin of data
 UWI .     49025104020000:   Unique Well ID
 DICO. A2D TECHNOLOGIES, INC.:   Digitizing Company
 DAPD.                 10:   Feet Above Permanent Datum
 BSD1.               3045:   Depth drilled with bit1
 MCSS.               MEAS:   Source Rmc.
 LMF .                 KB:   Log Measured From
 DMF .                 KB:   Drilling Measured From
 TLI .                200:   Top log interval
~OTHER INFORMATION
~A   DEPT       CALD     RHOB       CORR         GRD       SPR        ILD        ILM       SGRD   
# ...
 1152.0000     7.9680     2.4500     0.0670    92.9090   -66.5860     8.0480     9.9320    14.3800
 1152.5000     7.9580     2.4490     0.0700    92.2560   -66.6220     8.0210     9.8950    14.0220
 1153.0000     7.9480     2.4470     0.0740    92.5600   -66.6590     7.9940     9.8760    13.4860
 1153.5000     7.9370     2.4490     0.0770    93.0630   -66.6950     7.9660     9.6660    13.4860
 1154.0000     7.9270     2.4540     0.0790    92.1170   -66.7320     7.9390     9.4710    13.2270
 1154.5000     7.9320     2.4630     0.0810    92.1170   -66.7680     7.9120     9.2770    13.0010
 1155.0000     7.9370     2.4720     0.0830    92.3140   -66.8050     7.8850     9.0940    13.0010
 1155.5000     7.9430     2.4810     0.0840    91.5290   -66.8410     7.8570     9.0940    13.1200
 1156.0000     7.9480     2.4830     0.0820    90.5480   -66.8780     7.7850     9.0940    12.6010
 1156.5000     7.9530     2.4830     0.0800    89.9030   -66.9140     7.7040     9.0940    11.9710
 1157.0000     7.9590     2.4760     0.0770    89.3090   -66.9510     7.6240     9.1820    12.4080
 1157.5000     7.9640     2.4650     0.0740    90.1970   -66.9870     7.5430     9.2620    12.5330
 1158.0000     7.9800     2.4540     0.0710    86.9300   -67.0240     7.4630     9.2620    13.0680
 1158.5000     8.0140     2.4470     0.0680    84.8290   -67.0050     7.4330     9.1020    13.6100
 1159.0000     8.0490     2.4450     0.0650    84.8470   -66.9490     7.4600     9.0110    12.8400
 1159.5000     8.0830     2.4530     0.0610    87.2220   -66.8930     7.5030     8.9290    12.0820
 1160.0000     8.1170     2.4620     0.0610    89.6610   -66.8360     7.5460     8.9290    11.8280
 1160.5000     8.1450     2.4670     0.0630    91.1040   -66.7800     7.5890     8.9290    11.6470
 1161.0000     8.1420     2.4660     0.0650    90.4670   -66.7240     7.6320     8.9840    11.6470
 1161.5000     8.1670     2.4630     0.0660    89.4870   -66.6680     7.6760     9.0730    13.5080
 1162.0000     8.1810     2.4600     0.0670    88.3290   -66.6430     7.7190     9.1630    13.8620
 1162.5000     8.2030     2.4570     0.0670    86.4710   -66.6660     7.7620     9.2530    12.8220
 1163.0000     8.1860     2.4530     0.0680    84.8120   -66.6880     7.8050     9.3430    12.6480
 1163.5000     8.1700     2.4530     0.0690    85.2390   -66.7110     7.8480     9.4330    13.2220
 1164.0000     8.1540     2.4550     0.0680    85.8090   -66.7340     7.8910     9.5100    13.7360
 1164.5000     8.1380     2.4620     0.0670    85.9500   -66.7570     7.9260     9.4150    13.5240
 1165.0000     8.1220     2.4700     0.0670    85.6510   -66.7790     7.9350     9.3390    13.1630
 1165.5000     8.1060     2.4790     0.0660    85.3490   -66.8020     7.9450     9.2620    12.8020
 1166.0000     8.0900     2.4820     0.0660    86.2580   -66.8250     7.9550     9.1770    12.6480
 1166.5000     8.0720     2.4760     0.0650    88.4240   -66.8480     7.9650     9.7850    13.1630
 1167.0000     8.0530     2.4630     0.0640    89.9390   -66.8700     7.9750     9.6380    13.7360
 1167.5000     8.0340     2.4490     0.0620    89.0450   -66.8930     7.9840     9.3770    13.3630
 1168.0000     8.0150     2.4460     0.0610    87.6580   -66.9160     7.9980     9.2620    13.6100
 1168.5000     8.0060     2.4540     0.0590    88.5230   -66.9390     7.9620     9.2450    13.5380
 1169.0000     8.0130     2.4630     0.0610    89.2070   -66.9610     7.8970     9.2230    13.3630
 1169.5000     8.0200     2.4680     0.0650    89.6890   -66.9840     7.8320     9.2010    12.8010
 1170.0000     8.0270     2.4600     0.0680    90.1900   -67.0070     7.7670     9.1770    12.6480
 1170.5000     8.0340     2.4530     0.0720    90.6940   -67.0300     7.7090     9.1770    13.0010
 1171.0000     8.0410     2.4450     0.0760    90.8610   -67.0530     7.6930     9.1770    12.5160
 1171.5000     8.0460     2.4370     0.0790    91.0220   -67.0750     7.6780     9.0910    12.3810
 1172.0000     8.0450     2.4310     0.0790    91.6680   -67.0980     7.6630     8.9980    12.3050
 1172.5000     8.0450     2.4270     0.0790    93.1740   -67.1210     7.6480     8.9050    12.1360
 1173.0000     8.0450     2.4270     0.0790    92.2110   -67.1440     7.6400     8.7660    11.9020
 1173.5000     8.0450     2.4280     0.0790    89.3360   -67.1660     7.6860     8.8220    11.6470
 1174.0000     8.0450     2.4290     0.0790    89.4880   -67.1890     7.7270     8.9300    11.6470
 1174.5000     8.0450     2.4300     0.0770    91.1570   -67.2110     7.7680     9.0370    12.4870
 1175.0000     8.0460     2.4340     0.0750    91.1030   -67.2210     7.8080     9.1770    13.6760
 1175.5000     8.0470     2.4390     0.0730    90.8110   -67.1930     7.8490     9.1470    14.5120
 1176.0000     8.0500     2.4430     0.0710    90.1030   -67.1660     7.8530     9.1020    13.6870
 1176.5000     8.0520     2.4450     0.0690    89.8850   -67.1400     7.8130     9.0580    13.1200
 1177.0000     8.0540     2.4490     0.0690    91.7840   -67.1130     7.7300     9.0140    12.6480
 1177.5000     8.0560     2.4570     0.0680    93.6380   -67.0860     7.6470     8.9690    12.0110
 1178.0000     8.0580     2.4700     0.0680    95.1270   -67.0600     7.5710     8.9290    11.4200
 1178.5000     8.0600     2.4620     0.0670    94.3210   -67.0330     7.5020     8.8470    11.2280
 1179.0000     8.0620     2.4540     0.0670    93.5800   -67.0060     7.5180     8.8870    12.2310
 1179.5000     8.0640     2.4460     0.0690    92.9010   -66.9800     7.5530     8.9180    12.3710
 1180.0000     8.0670     2.4420     0.0690    93.0110   -66.9530     7.5880     8.9500    12.6220
 1180.5000     8.0730     2.4420     0.0670    93.7060   -66.9270     7.6230     8.9810    12.7650
 1181.0000     8.0790     2.4420     0.0630    92.9350   -66.9000     7.6580     9.0110    12.1440
 1181.5000     8.0850     2.4420     0.0610    91.4930   -66.8740     7.6930     9.1270    11.9710
 1182.0000     8.0920     2.4420     0.0630    91.6880   -66.8480     7.7280     9.2370    12.5440
 1182.5000     8.0980     2.4430     0.0670    92.5080   -66.8250     7.7630     9.3470    13.2200
 1183.0000     8.1040     2.4440     0.0710    93.4090   -66.6280     7.7980     9.4580    13.7360
 1183.5000     8.1100     2.4460     0.0740    93.2320   -66.4290     7.8330     9.5200    13.7360
 1184.0000     8.1170     2.4480     0.0770    90.7300   -66.2320     7.8530     9.4460    13.6100
 1184.5000     8.1230     2.4540     0.0790    87.3180   -66.0350     7.8080     9.3280    13.6100
 1185.0000     8.1190     2.4620     0.0810    83.7620   -65.8380     7.7630     9.2100    12.6340
 1185.5000     8.1110     2.4710     0.0840    83.5880   -65.6400     7.7190     9.0920    11.8620
 1186.0000     8.1030     2.4770     0.0860    85.3470   -65.4430     7.6210     8.9740    13.0010
 1186.5000     8.0950     2.4800     0.0880    87.6220   -65.2440     7.4040     8.7910    12.3930
 1187.0000     8.0870     2.4810     0.0890    88.5610   -65.0430     7.2270     8.5670    11.6470
 1187.5000     8.0620     2.4790     0.0900    89.5860   -64.8950     7.2070     8.3420    10.9970
 1188.0000     8.0320     2.4810     0.0910    92.9120   -65.0440     7.1870     8.2330    10.3490
 1188.5000     8.0050     2.4850     0.0920    96.0090   -65.2130     7.1660     8.1530     9.6960
 1189.0000     8.0060     2.4880     0.0930    97.4900   -65.3780     7.1460     8.0720     9.8200
 1189.5000     8.0060     2.4860     0.0950    97.0360   -65.5420     7.1250     7.9990    10.1380
 1190.0000     8.0060     2.4830     0.0950    94.8790   -65.7070     7.1050     7.9990    10.4550
 1190.5000     8.0070     2.4810     0.0950    92.7320   -65.8720     7.0950     8.1680    10.7730
 1191.0000     8.0590     2.4810     0.0960    90.5960   -66.0310     7.0880     8.3420    11.2280
 1191.5000     8.1130     2.4820     0.0960    88.4710   -66.1490     7.0810     8.4510    11.1370
 1192.0000     8.1670     2.4870     0.0960    86.7520   -66.2860     7.0740     8.4510    11.2830
