~VERSION INFORMATION
 VERS.                2.0:   CWLS LOG ASCII STANDARD - VERSION 2.0
 WRAP.                 NO:   ONE LINE PER DEPTH STEP
~WELL INFORMATION
#MNEM.UNIT      DATA TYPE    INFORMATION
#----------   ------------   ------------------------------
 STRT.F           41.0000:   START DEPTH
 STOP.F          925.0000:   STOP DEPTH
 STEP.F            0.5000:   STEP LENGTH
 NULL.          -999.2500:   NO VALUE
 COMP. LAWRENCE ALLISON & ASSOCIATION:   COMPANY
 WELL. LAWRENCE ALLISON #48-2:   WELL
 FLD .       N.P.R. NO. 3:   FIELD
 LOC .       S2 T38N R78W:   LOCATION
 CNTY.            NATRONA:   COUNTY
 STAT.            WYOMING:   STATE
 CTRY. UNITED STATES OF AMERICA:   COUNTRY
 SRVC.       SCHLUMBERGER:   SERVICE COMPANY
 DATE.        06-SEP-1982:   LOGDATE
 API .     49025109110000:   API NUMBER
~CURVE INFORMATION
#MNEM.UNIT       API CODE    CURVE DESCRIPTION
#----------   ------------   ------------------------------
 DEPT.F                  :   
 ILM .OHMM   07 120 44 00:   INDUCTION LOG MEDIUM RESISTIVITY
 ILD .OHMM   07 120 46 00:   DEEP INDUCTION RESISTIVITY
 CALD.IN     45 280 60 00:   CALIPER FROM DENSITY LOG
 GRD .GAPI   45 310 01 00:   GAMMA RAY FROM DENSITY LOG
 TEND.LBS    45 635 01 00:   TENSION FROM DENSITY LOG
 CORR.G/C3   45 356 01 00:   DENSITY CORRECTION
 RHOB.G/C3   45 350 01 00:   BULK DENSITY
 NPHI.DEC    42 890 03 00:   NEUTRON POROSITY SANDSTONE
~PARAMETER INFORMATION
#MNEM.UNIT          VALUE    DESCRIPTION
#----------   ------------   ------------------------------
 EKB .F         5192.0000:   Kelly bushing
 EGL .F         5182.0000:   Ground level
 TD  .F          920.0000:   Total depth
 CLNT.            A2DTECH:   Client Code
 DATE.         6-SEP-1982:   Date Logged [DD-MMM-YYYY]
 DD  .F               920:   Depth driller
 DL  .F               918:   Depth logger
 BLI .F               908:   Bottom log interval
 TLI .F                49:   Top log interval
 CBL1.IN               49:   Casing logger 1
 BSD1.F               920:   Depth drilled with bit1
 DFT .                AIR:   Type fluid in hole
 TCS .HRS            0730:   Time Circ. stopped
 TLAB.HRS            0900:   Time logger at bottom
 LUN .               8035:   Logging unit number
 LUL .               CSPR:   Logging unit location
 ENGI.              PENNY:   Recorded By
 WITN.           JENNINGS:   Witnessed by
 ORIG.           5" PRINT:   Origin of data
 UWI .     49025109110000:   Unique Well ID
 DICO. A2D TECHNOLOGIES, INC.:   Digitizing Company
 PD  .                 GL:   Permanent Datum
 EPD .               5180:   Elevation Permanent Datum
 LMF .                 KB:   Log Measured From
 DMF .                 KB:   Drilling Measured From
 DAPD.                 10:   Feet Above Permanent Datum
~OTHER INFORMATION
~A   DEPT      ILM        ILD       CALD         GRD      TEND       CORR       RHOB       NPHI   
# ...
  446.0000     7.0598     7.1156    12.7434   131.4141   639.7354     0.0516     2.4243  -999.2500
  446.5000     7.0633     7.1171    12.7444   138.3559   638.9802     0.0538     2.4251  -999.2500
  447.0000     7.0667     7.1699    12.7602   143.9185   638.2250     0.0444     2.4157  -999.2500
  447.5000     7.1211     7.2232    12.7612   144.3737   605.8003     0.0420     2.4095  -999.2500
  448.0000     7.1247     7.2768    12.7622   137.7360   605.1967     0.0459     2.4071  -999.2500
  448.5000     7.2320     7.3838    12.7482   134.6410   604.5930     0.0467     2.4126  -999.2500
  449.0000     7.3402     7.5464    12.7495   139.7636   603.9894     0.0444     2.4189  -999.2500
  449.5000     7.6670     7.7682    12.7505   143.9949   603.3857     0.0475     2.4212  -999.2500
  450.0000     7.8942     7.8824    12.7515   146.8948   602.7820     0.0506     2.4337  -999.2500
  450.5000     7.8958     7.9449    12.7524   147.5719   602.1638     0.0514     2.4368  -999.2500
  451.0000     8.0117     8.0001    12.7384   144.4845   601.4238     0.0451     2.4271  -999.2500
  451.5000     8.0134     8.0021    12.7245   138.7305   600.8202     0.0388     2.4197  -999.2500
  452.0000     8.0150     7.9460    12.7404   138.9677   600.2166     0.0380     2.4205  -999.2500
  452.5000     8.0167     7.8908    12.7561   138.9830   584.1569     0.0435     2.4267  -999.2500
  453.0000     7.9037     7.8359    12.7569   138.7764   583.5533     0.0453     2.4253  -999.2500
  453.5000     7.8492     7.8945    12.7578   138.3188   582.9496     0.0446     2.4190  -999.2500
  454.0000     7.9075     7.9532    12.7587   136.1480   582.3460     0.0430     2.4191  -999.2500
  454.5000     7.9661     8.0123    12.7446   133.9406   581.7423     0.0521     2.4386  -999.2500
  455.0000     8.0253     8.0140    12.7456   136.6224   596.5998     0.0776     2.4600  -999.2500
  455.5000     8.0852     8.0735    12.7465   141.5193   595.9814     0.0926     2.4708  -999.2500
  456.0000     8.2629     8.2513    12.7474   144.1973   595.3632     0.0973     2.4753  -999.2500
  456.5000     8.4446     8.4330    12.7483   142.6593   594.6328     0.0997     2.4707  -999.2500
  457.0000     8.6924     8.6187    12.7491   132.6894   594.0291     0.0958     2.4566  -999.2500
  457.5000     8.8200     8.8085    12.7352   133.3704   593.4255     0.0864     2.4403  -999.2500
  458.0000     8.9494     9.0025    12.7213   135.1608   592.8218     0.0786     2.4356  -999.2500
  458.5000     8.9513     9.0695    12.7074   136.2855   592.2182     0.0747     2.4474  -999.2500
  459.0000     9.0177     9.1372    12.7526   135.6351   591.6145     0.0810     2.4606  -999.2500
  459.5000     9.0846     9.2051    12.7685   134.7628   606.4915     0.0763     2.4583  -999.2500
  460.0000     9.0865     9.2735    12.7694   135.4438   605.8632     0.0646     2.4420  -999.2500
  460.5000     9.2208     9.3424    12.7703   136.7932   605.2550     0.0450     2.4326  -999.2500
  461.0000     9.3615     9.5481    12.7711   136.5865   604.6368     0.0419     2.4350  -999.2500
  461.5000     9.6539     9.8288    12.7720   135.2704   603.9014     0.0372     2.4358  -999.2500
  462.0000     9.9843    10.0452    12.7729   129.5164   603.2977     0.0380     2.4350  -999.2500
  462.5000     9.8435     9.9754    12.7738   128.8621   618.3009     0.0445     2.4391  -999.2500
  463.0000     9.6358     9.9055    12.7746   130.8782   648.4583     0.0492     2.4437  -999.2500
  463.5000     9.5689     9.8366    12.7755   132.2248   663.4615     0.0499     2.4398  -999.2500
  464.0000     9.5030     9.6988    12.7764   131.3521   662.7069     0.0484     2.4344  -999.2500
  464.5000     9.4370     9.6313    12.7773   133.8085   662.1033     0.0460     2.4320  -999.2500
  465.0000     9.3710     9.5643    12.7781   137.0196   661.4996     0.0414     2.4313  -999.2500
  465.5000     9.3734     9.5619    12.7642   142.3366   645.4400     0.0304     2.4251  -999.2500
  466.0000     9.3754     9.4999    12.7503   140.7367   644.8223     0.0234     2.4220  -999.2500
  466.5000     9.3774     9.4338    12.7512   136.9797   644.0818     0.0305     2.4259  -999.2500
  467.0000     9.3794     9.5039    12.7520   136.1035   643.4781     0.0399     2.4290  -999.2500
  467.5000     9.3725     9.4378    12.7531   136.7883   642.8745     0.0447     2.4291  -999.2500
  468.0000     9.3162     9.4403    12.7540   139.0224   642.2709     0.0368     2.4306  -999.2500
  468.5000     9.3187     9.4423    12.7549   142.8099   641.6672     0.0369     2.4370  -999.2500
  469.0000     9.3207     9.3767    12.7558   145.4878   641.0635     0.0400     2.4450  -999.2500
  469.5000     9.2555     9.3786    12.7566   147.2744   625.0039     0.0432     2.4541  -999.2500
  470.0000     9.1912     9.3806    12.7575   144.1869   624.4003     0.0440     2.4573  -999.2500
  470.5000     9.1274     9.3149    12.7584   139.3205   639.2582     0.0425     2.4534  -999.2500
  471.0000     9.0640     9.1839    12.7592   138.2144   638.6400     0.0299     2.4425  -999.2500
  471.5000     9.0664     9.0551    12.7601   136.6412   638.0217     0.0212     2.4253  -999.2500
  472.0000     9.0033     9.0571    12.7758   133.3750   637.2907     0.0142     2.4222  -999.2500
  472.5000     8.9409     8.9941    12.7767   135.3911   636.6871     0.0206     2.4324  -999.2500
  473.0000     8.9428     8.9316    12.7775   140.0661   636.0834     0.0285     2.4402  -999.2500
  473.5000     9.0091     8.8694    12.7636   141.6346   635.4798     0.0325     2.4410  -999.2500
  474.0000     9.0111     8.8718    12.7645   144.0906   634.8762     0.0294     2.4348  -999.2500
  474.5000     9.0134     8.8737    12.7654   149.8751   634.2725     0.0216     2.4247  -999.2500
  475.0000     9.0153     8.8115    12.7663   151.6655   633.6688     0.0184     2.4263  -999.2500
  475.5000     8.9523     8.8138    12.7673   158.5594   633.0652     0.0208     2.4334  -999.2500
  476.0000     8.8901     8.8157    12.7682   162.7906   632.4574     0.0287     2.4357  -999.2500
  476.5000     8.8924     8.8176    12.7691   161.9183   631.8394     0.0303     2.4303  -999.2500
  477.0000     8.8302     8.8195    12.7699   149.2856   631.1033     0.0217     2.4170  -999.2500
  477.5000     8.8326     8.8213    12.7708   141.7564   630.4997     0.0170     2.4061  -999.2500
  478.0000     8.8344     8.8232    12.7717   145.4264   629.8961     0.0131     2.4085  -999.2500
  478.5000     8.8363     8.8251    12.7726   150.2201   629.2924     0.0116     2.4109  -999.2500
  479.0000     8.7749     8.7637    12.7734   157.3359   628.6887     0.0108     2.4117  -999.2500
  479.5000     8.6517     8.7028    12.7593   152.4462   628.0851     0.0117     2.4078  -999.2500
  480.0000     8.6453     8.5803    12.7604   149.3807   627.4814     0.0134     2.4086  -999.2500
  480.5000     8.4714     8.4556    12.7613   138.7451   626.8778     0.0248     2.4226  -999.2500
  481.0000     8.2926     8.3327    12.7474   140.7573   641.7301     0.0420     2.4390  -999.2500
  481.5000     8.1757     8.0482    12.7630   147.4294   641.1129     0.0471     2.4508  -999.2500
  482.0000     7.8895     7.7101    12.7639   152.9932   640.3718     0.0314     2.4468  -999.2500
  482.5000     7.5045     7.5471    12.7648   156.5587   639.7682     0.0260     2.4357  -999.2500
  483.0000     7.2414     7.3877    12.7657   155.2426   639.1646     0.0315     2.4205  -999.2500
  483.5000     7.0886     7.2837    12.7517   151.9294   623.1050     0.0355     2.4025  -999.2500
  484.0000     7.0901     7.2327    12.7528   149.2819   622.5013     0.0308     2.3947  -999.2500
  484.5000     7.1427     7.1824    12.7537   146.6344   621.8976     0.0190     2.3909  -999.2500
  485.0000     7.1957     7.1325    12.7546   144.4307   605.8380     0.0152     2.4002  -999.2500
  485.5000     7.3013     7.1858    12.7554   142.8899   605.2344     0.0199     2.4159  -999.2500
  486.0000     7.3604     7.3971    12.7563   141.1125   604.6307     0.0380     2.4385  -999.2500
