~VERSION INFORMATION
 VERS.                2.0:   CWLS LOG ASCII STANDARD - VERSION 2.0
 WRAP.                 NO:   ONE LINE PER DEPTH STEP
~WELL INFORMATION
#MNEM.UNIT      DATA TYPE    INFORMATION
#----------   ------------   ------------------------------
 STRT.F           15.0000:   START DEPTH
 STOP.F         2952.5000:   STOP DEPTH
 STEP.F            0.5000:   STEP LENGTH
 NULL.          -999.2500:   NO VALUE
 COMP.    FENIX & SCISSON:   COMPANY
 WELL.  FENIX "AX" #64-29:   WELL
 FLD .  TEAPOT DOME NPR-3:   FIELD
 LOC .      S29 T39N R78W:   LOCATION
 CNTY.            NATRONA:   COUNTY
 STAT.            WYOMING:   STATE
 CTRY. UNITED STATES OF AMERICA:   COUNTRY
 SRVC.           BIRDWELL:   SERVICE COMPANY
 DATE.        02-MAY-1978:   LOGDATE
 API .     49025106460000:   API NUMBER
~CURVE INFORMATION
#MNEM.UNIT       API CODE    CURVE DESCRIPTION
#----------   ------------   ------------------------------
 DEPT.F                  :   
 SPR .MV     05 010 01 00:   SPONTANEOUS POTENTIAL
 IL  .OHMM   05 120 00 00:   INDUCTION RESISTIVITY
 SN  .OHMM   05 040 16 00:   SHORT NORMAL 16"
 CALD.IN     45 280 60 00:   CALIPER FROM DENSITY LOG
 GRD .GAPI   45 310 01 00:   GAMMA RAY FROM DENSITY LOG
 CORR.G/C3   45 356 01 00:   DENSITY CORRECTION
 RHOB.G/C3   45 350 01 00:   BULK DENSITY
~PARAMETER INFORMATION
#MNEM.UNIT          VALUE    DESCRIPTION
#----------   ------------   ------------------------------
 EKB .F         4993.0000:   Kelly bushing
 EGL .F         4983.0000:   Ground level
 EDF .F            0.0000:   Drilling floor
 TD  .F         2952.0000:   Total depth
 DATE.        02-MAY-1978:   Date logged
 CLNT.            A2DTECH:   Client Code
 SL  . 2150' FNL & 1560' FEL:   Surface Location
 PD  .                 GL:   Permanent Datum
 DD  .F              2950:   Depth driller
 DL  .F              2952:   Depth logger
 BLI .F              2947:   Bottom log interval
 CBL1.F               150:   Casing logger 1
 BS1 .IN            7.875:   Bit size
 DFT .                GEL:   Type fluid in hole
 DFD .                8.7:   Density
 DFV .                 30:   Viscosity
 DFPH.                 10:   pH
 DFL .                7.6:   Fluid loss
 MSS .            MUD PIT:   Source of sample
 RMS .OHMM            1.3:   Rm
 MST .F                62:   Rm Meas. temp.
 RMF .OHMM            .95:   Rmf
 MFST.F                64:   Rmf Meas. temp.
 RMC .OHMM              1:   Rmc
 MCST.F                64:   Rmc Meas. temp.
 MFSS.               MEAS:   Source Rmf.
 RMB .OHMM            .73:   Rm. at BHT
 BHT .F               110:   BHT.
 TCS .HRS               3:   Time Circ. stopped
 MRT .F               110:   Maximum recorded temp.
 LUN .               2958:   Logging unit number
 LUL .               CASP:   Logging unit location
 ENGI.             MILLER:   Recorded By
 WITN.           MCGINLEY:   Witnessed by
 ORIG.         2.5" PRINT:   Origin of data
 UWI .     49025106460000:   Unique Well ID
 DICO. A2D TECHNOLOGIES, INC.:   Digitizing Company
 DAPD.                 10:   Feet Above Permanent Datum
 BSD1.F              2950:   Depth drilled with bit1
 EPD .F              4983:   Elevation Permanent Datum
 LMF .                 KB:   Log Measured From
 DMF .                 KB:   Drilling Measured From
 TLI .F               150:   Top log interval
~OTHER INFORMATION
~A   DEPT      SPR         IL         SN       CALD        GRD       CORR       RHOB   
# ...
 2199.0000   -54.7810     4.3130     5.2670     8.8210    98.7960     0.0880     2.5890
 2199.5000   -54.7810     4.3490     5.2750     8.8460    96.6760     0.0900     2.5870
 2200.0000   -54.7810     4.3620     5.2820     8.8720    93.8070     0.0930     2.5860
 2200.5000   -54.7810     4.3750     5.2900     8.8820    91.0250     0.0960     2.6120
 2201.0000   -54.7810     4.3890     5.2980     8.8700    88.8620     0.0980     2.6280
 2201.5000   -54.7810     4.4030     5.3060     8.8610    86.9030     0.0870     2.6250
 2202.0000   -54.7810     4.4160     5.3130     8.8510    86.8110     0.0800     2.6200
 2202.5000   -54.7810     4.4300     5.3210     8.8410    87.4740     0.0740     2.6110
 2203.0000   -54.7810     4.4430     5.3410     8.8310    88.1060     0.0690     2.6030
 2203.5000   -54.7810     4.4570     5.3870     8.8210    88.7680     0.0650     2.5940
 2204.0000   -54.7810     4.4710     5.4340     8.8110    89.8460     0.0620     2.5890
 2204.5000   -54.7810     4.4840     5.4800     8.8040    91.1180     0.0590     2.5830
 2205.0000   -54.7810     4.4980     5.5250     8.8080    91.5330     0.0620     2.5770
 2205.5000   -54.7810     4.5120     5.5710     8.8120    91.3910     0.0640     2.5710
 2206.0000   -54.7810     4.5340     5.6170     8.8150    91.2980     0.0670     2.5650
 2206.5000   -54.7810     4.5560     5.6630     8.8190    94.5060     0.0690     2.5590
 2207.0000   -54.7810     4.5780     5.7090     8.8220    97.8730     0.0700     2.5580
 2207.5000   -54.7810     4.6000     5.7550     8.8260   101.9820     0.0690     2.5590
 2208.0000   -54.7810     4.6220     5.8010     8.8300   100.7320     0.0670     2.5640
 2208.5000   -54.7810     4.6440     5.8470     8.8330    98.8940     0.0660     2.5680
 2209.0000   -54.7810     4.6660     5.8930     8.8370    96.8360     0.0650     2.5730
 2209.5000   -54.7810     4.6880     5.9440     8.8400    93.8910     0.0630     2.5750
 2210.0000   -54.7810     4.7090     5.9440     8.8440    89.5950     0.0620     2.5730
 2210.5000   -54.7810     4.7300     5.9440     8.8540    85.5920     0.0600     2.5710
 2211.0000   -54.7810     4.7690     5.9440     8.8670    88.4120     0.0590     2.5690
 2211.5000   -54.7810     4.7670     5.9440     8.8790    91.1920     0.0610     2.5680
 2212.0000   -54.7810     4.5880     5.9440     8.8910    94.4130     0.0640     2.5610
 2212.5000   -54.7810     4.4130     5.8240     8.9030    95.6110     0.0670     2.5530
 2213.0000   -54.7810     4.2390     5.5770     8.9150    95.4030     0.0800     2.5470
 2213.5000   -54.7810     4.0640     5.3290     8.9240    95.3260     0.0940     2.5570
 2214.0000   -54.7810     3.8900     5.0810     8.9240    95.2020     0.0990     2.5650
 2214.5000   -54.7810     3.6830     4.8330     8.9290    95.7530     0.1040     2.5600
 2215.0000   -54.7810     3.4560     4.5860     8.9170    97.5520     0.1080     2.5540
 2215.5000   -54.7810     3.1240     4.3380     8.9270    99.2840     0.1120     2.5490
 2216.0000   -54.7810     3.1280     4.0900     8.9620   101.0210     0.1200     2.5380
 2216.5000   -54.7810     3.1360     3.8420     9.3620   102.8010     0.1360     2.5050
 2217.0000   -54.7810     3.1440     3.5520     9.9160   104.5460     0.1460     2.5150
 2217.5000   -54.7810     3.1510     3.5630     8.7280   105.8910     0.1530     2.5510
 2218.0000   -54.7810     3.1590     3.5770     8.8300   105.5810     0.1270     2.5690
 2218.5000   -54.7810     3.1670     3.5900     8.7660   105.3550     0.0980     2.5760
 2219.0000   -54.7810     3.1750     3.6030     8.7890   105.0230     0.0840     2.5810
 2219.5000   -54.7810     3.2040     3.6180     8.7780   104.5990     0.0810     2.5770
 2220.0000   -54.7810     3.3170     3.8940     8.7580    99.6310     0.0810     2.5700
 2220.5000   -54.7820     3.4300     3.9000     8.7980    98.1710     0.0890     2.5650
 2221.0000   -54.7650     3.4920     3.9060     8.8920   101.7210     0.0970     2.5590
 2221.5000   -54.7290     3.5010     3.9110     8.8540   104.5790     0.1030     2.5680
 2222.0000   -54.6950     3.5100     3.9170     8.7660   103.2900     0.1070     2.5580
 2222.5000   -54.6610     3.5190     3.9220     8.8130    98.7840     0.1100     2.5660
 2223.0000   -54.6260     3.5270     3.9280     8.8490    94.1430     0.1130     2.5550
 2223.5000   -54.5920     3.5360     3.9330     8.8800    93.6960     0.1230     2.5430
 2224.0000   -54.5570     3.5450     3.9390     8.9900    95.7530     0.1450     2.5490
 2224.5000   -54.5230     3.5520     3.9440     9.1120    96.5060     0.1700     2.5430
 2225.0000   -54.4890     3.4480     3.9500     9.2180    95.2140     0.1940     2.5350
 2225.5000   -54.4540     3.3590     3.9550     9.4070    94.1060     0.2070     2.5480
 2226.0000   -54.4200     3.2400     3.9610     9.0530    97.1330     0.1940     2.5620
 2226.5000   -54.3850     3.2460     3.9670     8.9980   103.9530     0.1630     2.5550
 2227.0000   -54.3830     3.2660     3.8270     9.0020   106.4090     0.1200     2.5410
 2227.5000   -54.3820     3.2950     3.6740     9.0460   106.7970     0.1080     2.5530
 2228.0000   -54.3830     3.2690     3.5540     9.0590   102.8880     0.1070     2.5650
 2228.5000   -54.3820     3.0670     3.5610     9.0820    99.6830     0.1040     2.5630
 2229.0000   -54.3820     3.0970     3.5680     9.1050    96.0950     0.1060     2.5600
 2229.5000   -54.3820     3.1440     3.5740     9.1270    95.0610     0.1180     2.5560
 2230.0000   -54.3820     3.1900     3.5810     9.1500    95.0750     0.1220     2.5600
 2230.5000   -54.3820     3.2360     3.5880     9.1770    94.9990     0.1270     2.5650
 2231.0000   -54.3820     3.2830     3.5950     9.2170    94.8650     0.1310     2.5690
 2231.5000   -54.3820     3.3290     3.6020     9.2410    94.9630     0.1310     2.5640
 2232.0000   -54.3820     3.3750     3.6090     9.2830    94.8130     0.1310     2.5620
 2232.5000   -54.3820     3.4240     3.6150     9.3670    98.1360     0.1310     2.5710
 2233.0000   -54.3820     3.5530     3.7480     9.5460    98.8140     0.1310     2.5800
 2233.5000   -54.3820     3.6900     3.9800     9.4050    97.8580     0.1310     2.5900
 2234.0000   -54.3820     3.8270     4.2120     9.3120    92.4010     0.1280     2.6020
 2234.5000   -54.3820     3.9640     4.4450     9.2100    87.6080     0.1210     2.6150
 2235.0000   -54.3820     4.1000     4.6770     9.1660    81.5930     0.1140     2.6280
 2235.5000   -54.3820     4.2370     4.9100     9.1280    83.0640     0.1070     2.6300
 2236.0000   -54.3820     4.2690     5.1420     9.0930    85.3830     0.1000     2.6200
 2236.5000   -54.3820     4.2690     5.3200     9.0540    86.8270     0.0990     2.6090
 2237.0000   -54.3820     4.2690     5.3060     9.1000    87.7400     0.1000     2.5980
 2237.5000   -54.3820     4.2690     5.2920     9.1830    88.4190     0.1010     2.5870
 2238.0000   -54.3820     4.2690     5.2780     9.2660    89.0080     0.1020     2.5770
 2238.5000   -54.3820     4.2690     5.2640     9.3080    90.7710     0.1030     2.5700
 2239.0000   -54.3820     4.2690     5.2500     9.2550    95.5050     0.0970     2.5930
 2239.5000   -54.3820     4.2690     5.2300     9.2060    97.6770     0.0910     2.6090
 2240.0000   -54.3820     4.3130     5.2820     9.1540    95.7260     0.0800     2.6160
 2240.5000   -54.3820     4.4740     5.4890     9.1000    91.4360     0.0750     2.6160
 2241.0000   -54.3820     4.6350     5.6250     9.0990    81.0810     0.0850     2.6130
 2241.5000   -54.3820     4.7670     5.6250     9.1610    81.9520     0.0950     2.6100
 2242.0000   -54.3820     4.6980     5.6250     9.2210    82.4150     0.1030     2.6140
 2242.5000   -54.3820     4.6400     5.6250     9.2810    83.2610     0.1030     2.6200
 2243.0000   -54.3820     4.5820     5.6250     9.3440    83.9110     0.1030     2.6270
 2243.5000   -54.3820     4.5230     5.6250     9.3510    84.2520     0.1030     2.6280
 2244.0000   -54.3820     4.4290     5.6250     9.3010    83.4610     0.1030     2.6190
