~VERSION INFORMATION
 VERS.                2.0:   CWLS LOG ASCII STANDARD - VERSION 2.0
 WRAP.                 NO:   ONE LINE PER DEPTH STEP
~WELL INFORMATION
#MNEM.UNIT      DATA TYPE    INFORMATION
#----------   ------------   ------------------------------
 STRT.F          648.0000:   START DEPTH
 STOP.F         3196.0000:   STOP DEPTH
 STEP.F            0.5000:   STEP LENGTH
 NULL.          -999.2500:   NO VALUE
 COMP.    FENIX & SCISSON:   COMPANY
 WELL.   FENIX "AX" #18-2:   WELL
 FLD .             NPR #3:   FIELD
 LOC .       S2 T38N R78W:   LOCATION
 CNTY.            NATRONA:   COUNTY
 STAT.            WYOMING:   STATE
 CTRY. UNITED STATES OF AMERICA:   COUNTRY
 SRVC.              WELEX:   SERVICE COMPANY
 DATE.        05-OCT-1980:   LOGDATE
 API .     49025108500000:   API NUMBER
~CURVE INFORMATION
#MNEM.UNIT       API CODE    CURVE DESCRIPTION
#----------   ------------   ------------------------------
 DEPT.F                  :   
 GRD .GAPI   45 310 01 00:   GAMMA RAY FROM DENSITY LOG
 CALD.IN     45 280 60 00:   CALIPER FROM DENSITY LOG
 CORR.G/C3   45 356 01 00:   DENSITY CORRECTION
 RHOB.G/C3   45 350 01 00:   BULK DENSITY
 SPR .MV     07 010 01 00:   SPONTANEOUS POTENTIAL FROM RES.
 ILD .OHMM   07 120 46 00:   INDUCTION LOG DEEP RESISTIVITY
 ILM .OHMM   07 120 44 00:   INDUCTION LOG MEDIUM RESISTIVITY
 SGRD.OHMM   07 220 05 00:   SHORT GUARD RESISTIVITY
~PARAMETER INFORMATION
#MNEM.UNIT          VALUE    DESCRIPTION
#----------   ------------   ------------------------------
 EKB .F         5162.0000:   Kelly bushing
 EGL .F         5152.0000:   Ground level
 EDF .F            0.0000:   Drilling floor
 TD  .F         3200.0000:   Total depth
 CLNT.            A2DTECH:   Client Code
 PD  .                 GL:   Permanent Datum
 EPD .F              5152:   Elevation Permanent Datum
 LMF .                 KB:   Log Measured From
 DMF .                 KB:   Drilling Measured From
 DAPD.F                10:   Feet Above Permanent Datum
 DATE.        05-OCT-1980:   Date Logged [DD-MMM-YYYY]
 DD  .F              3200:   Depth driller
 DL  .F              3198:   Depth logger
 BLI .F              3196:   Bottom log interval
 TLI .F               646:   Top log interval
 CS1 .IN            8.625:   Casing size
 CBD1.      8.625" @ 647':   Casing driller 1
 CBL1.F               650:   Casing logger 1
 BS1 .IN            7.875:   Bit size
 BSD1.F              3200:   Depth drilled with bit1
 DFT .           CHEM GEL:   Type fluid in hole
 DFD .                8.6:   Density
 DFV .                 38:   Viscosity
 DFPH.                9.5:   pH
 MSS .           FLOWLINE:   Source of sample
 MFSS.               MEAS:   Source Rmf.
 MCSS.               MEAS:   Source Rmc.
 RMB .OHMM           1.24:   Rm. at BHT
 BHT .F               118:   BHT.
 TCS .HRS               5:   Time Circ. stopped
 MRT .F               118:   Maximum recorded temp.
 LUN .               1892:   Logging unit number
 LUL .             CASPER:   Logging unit location
 ORIG.           5" PRINT:   Origin of data
 UWI .     49025108500000:   Unique Well ID
 DICO. A2D TECHNOLOGIES, INC.:   Digitizing Company
 SL  . 313' FSL & 565' FWL:   Surface Location
 RMS .               2.34:   Rm
~OTHER INFORMATION
~A   DEPT       GRD      CALD       CORR       RHOB        SPR        ILD        ILM       SGRD   
# ...
 1134.0000    79.2777    12.3700     0.0572     2.5424   -37.4497     8.5027     8.4836     8.8988
 1134.5000    77.3155    12.3862     0.0529     2.5395   -37.2033     8.4494     8.4309     8.8429
 1135.0000    76.6687    12.4038     0.0471     2.5313   -36.9569     8.3963     8.3785     8.9109
 1135.5000    76.2461    12.4332     0.0367     2.5217   -36.7109     8.3436     8.3856     8.9780
 1136.0000    76.2677    12.4496     0.0323     2.5068   -36.4648     8.2912     8.3330     8.9834
 1136.5000    76.9449    12.4213     0.0355     2.4965   -36.2181     8.2975     8.3400     8.9257
 1137.0000    78.7217    12.3791     0.0417     2.5080   -35.9621     8.3025     8.3456     8.8697
 1137.5000    81.1584    12.3508     0.0509     2.5187   -36.0062     8.3075     8.3512     8.8764
 1138.0000    82.7153    12.3376     0.0586     2.5169   -36.1331     8.3127     8.3568     8.9433
 1138.5000    80.1967    12.3394     0.0558     2.5043   -36.2623     8.3188     8.3625     9.0106
 1139.0000    75.9360    12.3702     0.0424     2.4909   -36.3909     8.3239     8.3681     9.0824
 1139.5000    75.0692    12.4157     0.0320     2.4798   -36.5193     8.3289     8.3737     9.1471
 1140.0000    76.4105    12.4465     0.0201     2.4724   -36.6477     8.3339     8.3795     8.9663
 1140.5000    74.0085    12.4626     0.0142     2.4673   -36.7761     8.3390     8.4445     8.7880
 1141.0000    73.8015    12.4347     0.0129     2.4636   -36.9044     8.3440     8.4501     8.7315
 1141.5000    76.4624    12.4214     0.0100     2.4600   -37.0328     8.3491     8.4558     8.6780
 1142.0000    79.9988    12.4082     0.0132     2.4630   -37.1612     8.2967     8.4615     8.4457
 1142.5000    80.2317    12.4097     0.0180     2.4721   -37.2896     8.2409     8.4075     8.2220
 1143.0000    81.1331    12.4112     0.0276     2.4804   -37.4186     8.1269     8.1291     8.0583
 1143.5000    83.7897    12.4273     0.0394     2.5000   -37.5488     7.9208     7.9676     7.8981
 1144.0000    85.1267    12.4437     0.0455     2.5172   -37.6597     7.8699     7.9183     7.9081
 1144.5000    85.1730    12.4892     0.0442     2.5151   -37.4276     8.0964     8.0339     8.2432
 1145.0000    82.0821    12.4907     0.0398     2.5098   -37.1861     8.1574     8.2088     8.7162
 1145.5000    80.7798    12.4771     0.0369     2.5055   -36.9463     8.2176     8.2143     9.0276
 1146.0000    81.5745    12.4638     0.0372     2.5034   -36.7068     7.9448     7.8863     8.9709
 1146.5000    84.5577    12.4506     0.0403     2.5043   -36.4672     7.7331     7.6766     8.5532
 1147.0000    85.0106    12.4524     0.0480     2.5111   -36.2279     7.5256     7.6818     7.9878
 1147.5000    83.2684    12.4539     0.0527     2.5209   -35.9866     7.4797     7.7402     7.8819
 1148.0000    84.6096    12.4847     0.0499     2.5284   -35.9627     7.4854     7.7991     7.8879
 1148.5000    84.1871    12.5155     0.0455     2.5203   -36.0740     7.4899     7.8584     7.9473
 1149.0000    82.4448    12.5610     0.0427     2.5249   -36.0928     7.5464     7.9183     8.0143
 1149.5000    81.7980    12.5918     0.0383     2.5287   -36.3106     7.5509     7.8689     8.0687
 1150.0000    83.5792    12.6226     0.0354     2.5273   -36.5369     7.6072     7.8201     8.1290
 1150.5000    79.8575    12.6250     0.0341     2.5140   -36.8941     7.5587     7.8802     8.1334
 1151.0000    78.9950    12.6568     0.0358     2.5028   -36.9403     7.5631     7.8307     8.1377
 1151.5000    79.0123    12.6860     0.0404     2.5074   -37.0783     7.5146     7.6737     8.1421
 1152.0000    79.9094    12.7022     0.0496     2.5292   -37.0843     7.4150     7.5730     8.0905
 1152.5000    79.7067    12.7469     0.0558     2.5465   -37.0794     7.2655     7.5787     7.9300
 1153.0000    79.0642    12.7775     0.0590     2.5510   -37.1435     7.1692     7.5833     7.8787
 1153.5000    80.1093    12.7935     0.0515     2.5474   -37.3106     7.1734     7.5881     7.8840
 1154.0000    84.1618    12.7948     0.0425     2.5228   -37.2582     7.1768     7.6462     7.9428
 1154.5000    85.7187    12.7961     0.0413     2.5034   -37.2928     7.1810     7.6508     7.8914
 1155.0000    88.3753    12.7974     0.0430     2.5096   -37.2481     7.1843     7.6016     7.8966
 1155.5000    90.3721    12.7987     0.0371     2.5163   -37.0963     7.1877     7.6073     7.8465
 1156.0000    88.1900    12.8003     0.0312     2.5045   -36.9973     7.1911     7.5596     7.7968
 1156.5000    85.1281    12.8015     0.0254     2.4948   -36.8784     7.1441     7.5119     7.8020
 1157.0000    82.7261    12.8175     0.0194     2.4852   -36.6735     7.1483     7.4642     7.8055
 1157.5000    81.4237    12.8335     0.0135     2.4763   -36.4814     7.1516     7.3670     7.8644
 1158.0000    80.3413    12.8495     0.0092     2.4682   -36.5070     7.1551     7.3207     7.9231
 1158.5000    79.4789    12.8654     0.0063     2.4645   -36.3505     7.1090     7.3262     8.0015
 1159.0000    80.1560    12.8667     0.0065     2.4698   -36.3027     7.1132     7.2791     8.0418
 1159.5000    80.6124    12.8827     0.0066     2.4813   -36.2981     7.1165     7.2846     8.1018
 1160.0000    79.3143    12.8987     0.0068     2.4880   -36.4139     7.1692     7.2890     8.0504
 1160.5000    78.8873    12.9000     0.0039     2.4761   -36.6411     7.1725     7.3439     8.0005
 1161.0000    78.6846    12.9016     0.0041     2.4665   -36.6964     7.1759     7.3992     8.0047
 1161.5000    79.5858    12.9029     0.0133     2.4680   -36.7543     7.1793     7.5068     7.8993
 1162.0000    80.4828    12.8895     0.0240     2.4846   -36.8031     7.1834     7.5123     7.9582
 1162.5000    81.3797    12.8908     0.0317     2.5071   -36.8958     7.1365     7.4640     8.0176
 1163.0000    82.4966    12.8774     0.0333     2.5102   -37.0973     7.1407     7.4696     8.0775
 1163.5000    83.1736    12.8787     0.0320     2.5073   -37.0873     7.1440     7.4216     8.0262
 1164.0000    84.0706    12.8649     0.0290     2.4969   -37.1524     7.0974     7.4272     7.7035
 1164.5000    84.9765    12.8666     0.0262     2.4857   -37.2749     7.0526     7.4317     7.5436
 1165.0000    84.4571    12.8825     0.0264     2.4851   -37.3959     7.0074     7.4362     7.4516
 1165.5000    81.0473    12.8691     0.0311     2.4920   -37.4595     7.0108     7.4923     7.7183
 1166.0000    79.0807    12.8414     0.0448     2.5048   -37.4086     7.0148     7.5579     7.9935
 1166.5000    80.1976    12.7986     0.0450     2.5078   -37.3599     7.0667     7.7125     8.1089
 1167.0000    77.3599    12.7558     0.0436     2.5019   -37.3108     7.2180     7.8244     8.2260
 1167.5000    76.7130    12.7278     0.0468     2.5110   -37.2617     7.3725     7.8291     8.1176
 1168.0000    77.8342    12.6850     0.0590     2.5223   -37.2126     7.4785     7.4129     7.8465
 1168.5000    79.3909    12.6569     0.0667     2.5351   -37.1635     7.6386     7.3146     7.7912
 1169.0000    80.9477    12.6285     0.0683     2.5495   -37.1156     7.7485     7.5250     7.8020
 1169.5000    82.5045    12.6007     0.0700     2.5469   -37.1199     7.6457     7.7948     8.0246
 1170.0000    83.8442    12.5727     0.0702     2.5361   -37.2193     7.4925     7.9621     8.1405
 1170.5000    82.7617    12.5593     0.0703     2.5317   -37.3172     7.3932     7.8046     8.0888
 1171.0000    82.1191    12.5459     0.0689     2.5348   -37.4153     7.3458     7.3897     7.8729
 1171.5000    82.3562    12.5622     0.0616     2.5304   -37.5133     7.3501     7.1917     7.8228
 1172.0000    84.1329    12.5635     0.0542     2.5178   -37.6114     7.4557     7.4499     7.8813
 1172.5000    86.7894    12.5648     0.0468     2.5141   -37.7095     7.6153     7.7697     8.0542
 1173.0000    89.0060    12.5661     0.0424     2.5165   -37.8066     7.7250     8.1032     8.3386
 1173.5000    89.9030    12.5674     0.0425     2.5293   -37.8528     7.8368     7.9969     8.3431
 1174.0000    84.2930    12.5536     0.0548     2.5438   -37.8132     7.8948     7.4632     8.2890
