~VERSION INFORMATION
 VERS.                2.0:   CWLS LOG ASCII STANDARD - VERSION 2.0
 WRAP.                 NO:   ONE LINE PER DEPTH STEP
~WELL INFORMATION
#MNEM.UNIT      DATA TYPE    INFORMATION
#----------   ------------   ------------------------------
 STRT.F           70.0000:   START DEPTH
 STOP.F         2751.5000:   STOP DEPTH
 STEP.F            0.5000:   STEP LENGTH
 NULL.          -999.2500:   NO VALUE
 COMP.          INTEX OIL:   COMPANY
 WELL. INTEX N.P.R. "AX" #75-20:   WELL
 FLD .             TEAPOT:   FIELD
 LOC .      S20 T39N R78W:   LOCATION
 CNTY.            NATRONA:   COUNTY
 STAT.            WYOMING:   STATE
 CTRY. UNITED STATES OF AMERICA:   COUNTRY
 SRVC.       SCHLUMBERGER:   SERVICE COMPANY
 DATE.        06-MAY-1966:   LOGDATE
 API .     49025095120000:   API NUMBER
~CURVE INFORMATION
#MNEM.UNIT       API CODE    CURVE DESCRIPTION
#----------   ------------   ------------------------------
 DEPT.F                  :   
 CALD.IN     45 280 60 00:   CALIPER FROM DENSITY LOG
 GRD .GAPI   45 310 01 00:   GAMMA RAY FROM DENSITY LOG
 RHOB.G/C3   45 350 01 00:   BULK DENSITY
 CORR.G/C3   45 356 01 00:   DENSITY CORRECTION
 SPR .MV     05 010 01 00:   SPONTANEOUS POTENTIAL
 ILD .OHMM   05 120 46 00:   DEEP INDUCTION RESISTIVITY
 ASN .OHMM   05 041 16 00:   AMPLIFIED SHORT NORMAL 16"
~PARAMETER INFORMATION
#MNEM.UNIT          VALUE    DESCRIPTION
#----------   ------------   ------------------------------
 EKB .F         5016.3000:   Kelly bushing
 EGL .F         5006.0000:   Ground level
 EDF .F            0.0000:   Drilling floor
 TD  .F         2750.0000:   Total depth
 DATE.        06-MAY-1966:   Date logged
 CLNT.            A2DTECH:   Client Code
 PD  .                 GL:   Permanent Datum
 DD  .F              2750:   Depth driller
 DL  .F              2746:   Depth logger
 BLI .F              2745:   Bottom log interval
 CS1 .IN            10.75:   Casing size
 CBD1.       10.75" @ 30':   Casing driller 1
 BS1 .IN            7.875:   Bit size
 DFT .           OIL/EMUL:   Type fluid in hole
 DFD .                9.8:   Density
 DFV .                 43:   Viscosity
 DFPH.                  8:   pH
 DFL .               11.8:   Fluid loss
 MSS .         CIRCULATED:   Source of sample
 RMS .OHMM           1.84:   Rm
 MST .F                73:   Rm Meas. temp.
 RMF .OHMM           1.21:   Rmf
 MFST.F                74:   Rmf Meas. temp.
 MFSS.                 FP:   Source Rmf.
 RMB .OHMM           1.27:   Rm. at BHT
 BHT .F               106:   BHT.
 TCS .HRS             1.5:   Time Circ. stopped
 MRT .F               106:   Maximum recorded temp.
 LUN .               3527:   Logging unit number
 LUL .               CSPR:   Logging unit location
 ENGI.               HAUG:   Recorded By
 WITN.      TUTTLE/HUDSON:   Witnessed by
 ORIG.           5" PRINT:   Origin of data
 UWI .     49025095120000:   Unique Well ID
 DICO. A2D TECHNOLOGIES, INC.:   Digitizing Company
 DAPD.F              10.3:   Feet Above Permanent Datum
 BSD1.F              2750:   Depth drilled with bit1
 MCSS.                 FP:   Source Rmc.
 EPD .F              5006:   Elevation Permanent Datum
 LMF .                 KB:   Log Measured From
 DMF .                 KB:   Drilling Measured From
 TLI .F                88:   Top log interval
~OTHER INFORMATION
~A   DEPT     CALD        GRD       RHOB       CORR        SPR        ILD          ASN 
# ...
 2254.0000     9.0820   116.2810     2.5270     0.0080   -45.2370     6.9380    11.4090
 2254.5000     9.0860   117.8810     2.5140     0.0030   -45.0930     6.8560    11.3500
 2255.0000     9.0900   119.7390     2.4980    -0.0010   -44.9500     6.7770    11.1650
 2255.5000     9.0930   122.1550     2.4940    -0.0050   -44.9790     6.6990    10.9620
 2256.0000     9.0970   126.0200     2.4970    -0.0070   -45.3820     6.6210    10.6090
 2256.5000     9.1010   129.6850     2.4940     0.0010   -45.6490     6.5430    10.1060
 2257.0000     9.1050   133.5740     2.4930     0.0050   -45.3010     6.4650     9.9450
 2257.5000     9.1080   133.7560     2.4920     0.0030   -44.9690     6.3940     9.8350
 2258.0000     9.1120   132.4310     2.4980     0.0040   -44.7230     6.3920     9.7260
 2258.5000     9.1160   129.0590     2.5050     0.0130   -45.5350     6.3800     9.6250
 2259.0000     9.1160   126.8340     2.5110     0.0200   -46.2210     6.3690     9.5770
 2259.5000     9.1010   126.0630     2.5190     0.0160   -45.8420     6.3570     9.5230
 2260.0000     9.0870   124.9100     2.5140     0.0110   -45.4580     6.3460     9.4700
 2260.5000     9.0730   122.8430     2.5010     0.0050   -45.3130     6.3340     9.4170
 2261.0000     9.0590   121.0240     2.4880     0.0000   -45.4030     6.3220     9.3690
 2261.5000     9.0450   119.1750     2.4810    -0.0020   -45.4910     6.3110     9.3510
 2262.0000     9.0300   120.5940     2.4890     0.0030   -45.5800     6.3030     9.3770
 2262.5000     9.0160   122.4260     2.4950     0.0100   -45.6700     6.1660     9.4020
 2263.0000     9.0020   122.0210     2.5020     0.0110   -45.7600     6.0270     9.4330
 2263.5000     8.9880   120.3470     2.5000     0.0080   -45.8490     5.9440     9.3200
 2264.0000     8.9730   118.9400     2.4930     0.0130   -45.5910     5.8600     9.1780
 2264.5000     8.9590   117.6320     2.4970     0.0200   -45.2960     5.7780     9.0330
 2265.0000     8.9450   116.5520     2.5020     0.0160   -44.9980     5.6950     8.8890
 2265.5000     8.9310   117.6990     2.4970     0.0140   -44.6950     5.6130     8.7460
 2266.0000     8.9170   118.7830     2.4930     0.0100   -44.9280     5.5310     8.6480
 2266.5000     8.9020   120.1060     2.4990     0.0110   -45.2090     5.4490     8.6080
 2267.0000     8.8880   120.0740     2.5050     0.0160   -45.4620     5.4010     8.5770
 2267.5000     8.8740   120.8410     2.5100     0.0190   -45.5130     5.3820     8.5460
 2268.0000     8.8600   121.4740     2.5040     0.0170   -45.5570     5.3360     8.5150
 2268.5000     8.8450   121.3730     2.5100     0.0190   -45.6020     5.2890     8.4860
 2269.0000     8.8430   121.4560     2.5150     0.0280   -45.6470     5.2440     8.3910
 2269.5000     8.8430   121.3020     2.5130     0.0240   -45.6920     5.1980     8.2590
 2270.0000     8.8430   122.6260     2.5100     0.0170   -45.7370     5.1510     8.1270
 2270.5000     8.8430   126.1740     2.5080     0.0240   -45.7810     5.1060     8.0030
 2271.0000     8.8430   127.1260     2.5050     0.0220   -45.8250     5.0620     8.0000
 2271.5000     8.8430   124.7600     2.5130     0.0210   -45.8320     5.0220     8.0390
 2272.0000     8.8430   123.5050     2.5220     0.0330   -45.7330     4.9140     8.2450
 2272.5000     8.8430   121.9340     2.5320     0.0450   -45.6360     5.1550     8.4470
 2273.0000     8.8420   120.5460     2.5350     0.0450   -45.5400     5.3920     8.6470
 2273.5000     8.8430   119.2560     2.5240     0.0400   -45.4440     5.7370     8.8260
 2274.0000     8.8410   117.8910     2.5220     0.0350   -45.3490     6.4070     9.2880
 2274.5000     8.8440   112.7830     2.5170     0.0320   -45.2510     7.0470     9.7440
 2275.0000     8.8420   104.9000     2.5060     0.0280   -45.1540     7.9410    10.6510
 2275.5000     8.8300    90.1540     2.4650     0.0230   -45.1350     9.6220    11.9370
 2276.0000     8.6860    77.0590     2.4320     0.0190   -46.3260    11.2940    14.4470
 2276.5000     8.5660    68.6440     2.3940     0.0140   -47.4800    12.9810    16.9540
 2277.0000     8.4320    64.8620     2.3640     0.0100   -48.6310    14.8400    19.4620
 2277.5000     8.3090    65.2790     2.3510     0.0070   -49.4450    18.0250    21.9670
 2278.0000     8.1850    63.9060     2.3490     0.0070   -49.7200    21.1730    24.4730
 2278.5000     8.1780    62.9080     2.3480     0.0110   -49.3930    24.3570    26.6610
 2279.0000     8.1760    61.9570     2.3540     0.0140   -49.0790    27.1510    27.4610
 2279.5000     8.1780    61.8350     2.3580     0.0180   -48.7640    27.1020    28.2570
 2280.0000     8.1760    62.2820     2.3590     0.0210   -48.4430    26.7860    29.0590
 2280.5000     8.1770    61.2660     2.3590     0.0220   -48.6350    26.4660    29.8730
 2281.0000     8.1770    60.1230     2.3600     0.0200   -48.8720    26.1470    30.2470
 2281.5000     8.1770    60.9630     2.3600     0.0180   -49.1100    25.8260    30.6280
 2282.0000     8.1770    60.6770     2.3610     0.0160   -49.3470    25.6710    31.0030
 2282.5000     8.1770    61.4340     2.3660     0.0150   -49.5870    25.5510    31.3730
 2283.0000     8.1770    64.4340     2.3660     0.0160   -49.9040    26.3600    32.3550
 2283.5000     8.1770    67.3290     2.3820     0.0240   -50.3200    27.2260    33.5120
 2284.0000     8.1760    67.7960     2.4110     0.0320   -50.7370    28.0910    34.6460
 2284.5000     8.1770    67.0810     2.4390     0.0400   -51.1560    28.9470    37.1540
 2285.0000     8.1750    65.6160     2.4700     0.0470   -51.5750    29.7920    40.0850
 2285.5000     8.1960    63.6620     2.4910     0.0450   -51.9930    30.1080    43.0060
 2286.0000     8.2400    62.6270     2.5010     0.0370   -52.4130    30.1710    47.2250
 2286.5000     8.2820    64.5030     2.5210     0.0290   -52.8450    30.1730    47.0270
 2287.0000     8.2850    66.7020     2.5170     0.0210   -52.9490    29.9540    47.3240
 2287.5000     8.2510    68.5040     2.4670     0.0150   -52.6930    29.4150    43.0760
 2288.0000     8.2200    67.5800     2.4240     0.0130   -52.4030    27.8790    39.6470
 2288.5000     8.1860    64.5350     2.3790     0.0130   -52.1120    26.3950    36.4140
 2289.0000     8.1760    63.6740     2.3610     0.0130   -51.8210    24.9200    34.3260
 2289.5000     8.1770    69.2100     2.3630     0.0150   -51.5240    23.8710    32.7540
 2290.0000     8.1770    75.7620     2.3710     0.0200   -51.3640    23.5490    32.1720
 2290.5000     8.1770    80.3460     2.3770     0.0240   -51.6250    23.2070    31.5900
 2291.0000     8.1770    81.9380     2.3790     0.0290   -51.7000    22.8630    30.9370
 2291.5000     8.1770    82.3350     2.3910     0.0340   -51.7820    22.8720    30.5250
 2292.0000     8.1770    80.8760     2.4010     0.0380   -51.8650    23.0780    30.2440
 2292.5000     8.1760    78.3230     2.3960     0.0290   -51.9500    23.5380    29.9670
 2293.0000     8.1760    72.1130     2.3850     0.0140   -51.9300    23.9780    29.7010
 2293.5000     8.1760    66.7650     2.3900     0.0200   -51.8490    24.4150    29.7400
 2294.0000     8.1760    66.9700     2.3840     0.0370   -51.7780    24.8510    29.8470
 2294.5000     8.1770    67.3500     2.3680     0.0350   -51.9320    25.2870    29.9550
 2295.0000     8.1770    67.5280     2.3540     0.0250   -52.1050    25.7260    30.0630
 2295.5000     8.1770    67.6690     2.3390     0.0160   -52.2800    26.1980    30.1730
 2296.0000     8.1770    69.4220     2.3290     0.0110   -52.3450    25.0820    30.1540
 2296.5000     8.1770    71.5680     2.3370     0.0110   -51.9600    23.3160    29.7180
 2297.0000     8.1760    74.2950     2.3430     0.0110   -51.5880    21.5500    28.7800
 2297.5000     8.1780    77.5650     2.3520     0.0130   -51.1940    19.8940    27.8490
 2298.0000     8.1790    80.9590     2.3760     0.0150   -50.5460    18.7950    26.9140
 2298.5000     8.2460    85.3770     2.4010     0.0170   -49.8440    17.6240    25.7930
 2299.0000     8.3320    88.7120     2.4270     0.0180   -49.1410    16.4450    24.6540
