~VERSION INFORMATION
 VERS.                2.0:   CWLS LOG ASCII STANDARD - VERSION 2.0
 WRAP.                 NO:   ONE LINE PER DEPTH STEP
~WELL INFORMATION
#MNEM.UNIT      DATA TYPE    INFORMATION
#----------   ------------   ------------------------------
 STRT.F          200.0000:   START DEPTH
 STOP.F         3014.0000:   STOP DEPTH
 STEP.F            0.5000:   STEP LENGTH
 NULL.          -999.2500:   NO VALUE
 COMP.    FENIX & SCISSON:   COMPANY
 WELL. FENIX NPR 3 "AX" #45-28:   WELL
 FLD .                NPR:   FIELD
 LOC .      S28 T39N R78W:   LOCATION
 CNTY.            NATRONA:   COUNTY
 STAT.            WYOMING:   STATE
 CTRY. UNITED STATES OF AMERICA:   COUNTRY
 SRVC.              WELEX:   SERVICE COMPANY
 DATE.        30-SEP-1977:   LOGDATE
 API .     49025104230000:   API NUMBER
~CURVE INFORMATION
#MNEM.UNIT       API CODE    CURVE DESCRIPTION
#----------   ------------   ------------------------------
 DEPT.F                  :   
 SPR .MV     07 010 01 00:   SPONTANEOUS POTENTIAL
 TENR.LBS    07 635 01 00:   TENSION
 SFL .OHMM   07 220 01 00:   SHALLOW FOCUSED LOG RESISTIVITY
 ILD .OHMM   07 120 46 00:   INDUCTION LOG DEEP RESISTIVITY
 ILM .OHMM   07 120 44 00:   INDUCTION LOG MEDIUM RESISTIVITY
 TEND.LBS    45 635 01 00:   TENSION FROM DENSITY LOG
 CALD.IN     45 280 60 00:   CALIPER FROM DENSITY LOG
 RHOB.G/C3   45 350 01 00:   BULK DENSITY
 CORR.G/C3   45 356 01 00:   DENSITY CORRECTION
 GRD .GAPI   45 310 01 00:   GAMMA RAY FROM DENSITY LOG
~PARAMETER INFORMATION
#MNEM.UNIT          VALUE    DESCRIPTION
#----------   ------------   ------------------------------
 EKB .F         5075.0000:   Kelly bushing
 EGL .F         5065.0000:   Ground level
 EDF .F            0.0000:   Drilling floor
 E TD.F         3008.0000:   Total depth
 DATE.        30-SEP-1977:   Date logged
 CLNT.            A2DTECH:   Client Code
 SL  . 2210' FSL & 2310' FWL:   Surface Location
 PD  .                 GL:   Permanent Datum
 EPD .F              5065:   Elevation Permanent Datum
 LMF .                 KB:   Log Measured From
 DMF .                 KB:   Drilling Measured From
 DAPD.F                10:   Feet Above Permanent Datum
 DD  .F              3005:   Depth driller
 DL  .F              3008:   Depth logger
 BLI .F              3006:   Bottom log interval
 TLI .F               200:   Top log interval
 CS1 .IN            8.625:   Casing size
 CBD1.      8.625" @ 205':   Casing driller 1
 CBL1.F               220:   Casing logger 1
 BS1 .IN            7.875:   Bit size
 BSD1.F              3005:   Depth drilled with bit1
 DFT .            KCL/MUD:   Type fluid in hole
 DFD .                9.1:   Density
 DFV .                 38:   Viscosity
 DFPH.                 11:   pH
 DFL .                6.8:   Fluid loss
 MSS .           FLOWLINE:   Source of sample
 RMS .OHMM            .31:   Rm
 MST .F                78:   Rm Meas. temp.
 RMF .OHMM            .15:   Rmf
 MFST.F                78:   Rmf Meas. temp.
 RMC .OHMM           1.02:   Rmc
 MCST.F                78:   Rmc Meas. temp.
 MFSS.               FANN:   Source Rmf.
 MCSS.                KIT:   Source Rmc.
 RMB .OHMM            .20:   Rm. at BHT
 BHT .F               117:   BHT.
 TCS .HRS               3:   Time Circ. stopped
 MRT .F               117:   Maximum recorded temp.
 LUN .               8611:   Logging unit number
 LUL .             CASPER:   Logging unit location
 ENGI.         G. BENTSEN:   Recorded By
 WITN.         HARRINGTON:   Witnessed by
 ORIG.           5" PRINT:   Origin of data
 UWI .     49025104230000:   Unique Well ID
 DICO. A2D TECHNOLOGIES, INC.:   Digitizing Company
~OTHER INFORMATION
~A   DEPT      SPR        TENR       SFL        ILD        ILM       TEND       CALD       RHOB       CORR        GRD   
# ...
  937.0000   -62.9930   507.0280    11.7850     9.7210    10.6720   682.3040    10.0340     2.4920     0.0040    79.4960
  937.5000   -63.1170   507.0280    11.6550     9.5280    10.5310   682.3780    10.0350     2.5000     0.0050    82.1690
  938.0000   -63.1640   507.0280    11.5490     9.6080    10.6530   682.4520    10.0350     2.5090     0.0060    84.8080
  938.5000   -63.2080   507.0280    11.7610     9.8480    10.8070   682.5260    10.0360     2.5150     0.0090    88.7050
  939.0000   -63.2530   507.0280    11.9390    10.0870    10.9600   682.6010    10.0370     2.5200     0.0110    87.3420
  939.5000   -63.3010   507.0280    12.1170    10.3260    11.1130   682.6750    10.0380     2.5290     0.0110    84.2200
  940.0000   -63.4090   507.0280    12.2950    10.6290    11.2670   682.7490    10.0390     2.5380     0.0070    81.3630
  940.5000   -63.7470   507.0280    12.4730    10.4960    11.3380   682.8230    10.0400     2.5380     0.0040    80.7340
  941.0000   -64.0750   507.0280    12.6660    10.3160    11.1680   682.8970    10.0410     2.5320     0.0030    80.0860
  941.5000   -64.4180   507.0280    12.5040    10.1360    11.0410   683.0380    10.0420     2.5130     0.0030    79.4510
  942.0000   -64.3930   507.0280    12.3260     9.9570    10.9130   683.3580    10.0430     2.4950     0.0020    79.4510
  942.5000   -64.2240   507.0280    12.1490     9.7770    10.7850   683.6780    10.0430     2.5000     0.0010    82.0220
  943.0000   -64.0510   507.0280    11.9720     9.5970    10.6580   683.9980    10.0440     2.5030     0.0000    84.5330
  943.5000   -63.9210   507.0280    11.7940     9.4270    10.5300   684.3180    10.0450     2.5000    -0.0010    87.9470
  944.0000   -63.9660   507.0280    11.6170     9.5710    10.4340   684.6380    10.0460     2.4900    -0.0010    86.7470
  944.5000   -64.0060   507.0280    11.3380     9.7080    10.6330   684.9570    10.0460     2.4830    -0.0010    84.6410
  945.0000   -64.0460   507.0280    11.4530     9.8440    10.7930   685.2770    10.0460     2.4910    -0.0010    82.5940
  945.5000   -64.0870   507.0280    11.7220     9.9810    10.9520   685.5970    10.0460     2.4870     0.0000    83.2270
  946.0000   -64.1270   507.0280    11.9920    10.1170    11.1110   685.9170    10.0460     2.4830     0.0000    83.9870
  946.5000   -64.1670   507.0280    12.3200    10.3220    11.3380   686.2370    10.0460     2.4880     0.0000    84.7440
  947.0000   -64.2070   507.0280    12.2030    10.2840    11.2510   686.5570    10.0460     2.4890     0.0010    85.5310
  947.5000   -64.2470   507.0280    12.0540    10.1400    11.1010   686.8760    10.0460     2.4900     0.0010    84.9040
  948.0000   -64.2870   507.0280    11.9050     9.9950    10.9510   687.1960    10.0460     2.4950     0.0010    83.8850
  948.5000   -64.3080   507.0280    11.7550     9.8510    10.8000   687.5160    10.0460     2.4940     0.0020    82.8600
  949.0000   -64.2830   507.0280    11.6060     9.7060    10.6500   687.8360    10.0460     2.4950     0.0020    81.8300
  949.5000   -64.2590   507.0280    11.4430     9.5620    10.5000   688.1560    10.0460     2.5010     0.0020    82.3450
  950.0000   -64.2360   507.0280    11.4990     9.4170    10.3500   688.4760    10.0460     2.5000     0.0020    84.3160
  950.5000   -64.2120   507.0280    11.5780     9.2730    10.2440   688.7950    10.0460     2.4990     0.0020    86.2450
  951.0000   -64.1890   507.0280    11.6570     9.1700    10.3100   689.1150    10.0460     2.4990     0.0020    87.5390
  951.5000   -64.1650   507.0280    11.7350     9.2730    10.3620   689.4350    10.0460     2.4950     0.0010    84.0430
  952.0000   -64.1420   507.0280    11.8140     9.3530    10.4140   689.7550    10.0460     2.5010     0.0010    85.0610
  952.5000   -64.1190   507.0280    11.8930     9.4340    10.4650   690.0750    10.0460     2.5040     0.0010    87.0390
  953.0000   -64.0210   507.0280    11.9720     9.5140    10.5170   690.3950    10.0460     2.4990     0.0030    89.0340
  953.5000   -63.9120   507.0280    12.0950     9.5950    10.5690   690.7140    10.0460     2.4980     0.0060    90.3630
  954.0000   -63.8020   507.0280    12.0450     9.6750    10.6200   691.0340    10.0460     2.5010     0.0050    88.9420
  954.5000   -63.6930   507.0280    11.9330     9.7550    10.6720   691.3540    10.0460     2.5020     0.0020    87.4330
  955.0000   -63.5850   507.0280    11.8200     9.8360    10.7240   691.6740    10.0460     2.4980     0.0000    90.5080
  955.5000   -63.5680   507.0280    11.7080     9.9640    10.7750   691.9940    10.0460     2.4920    -0.0020    93.6140
  956.0000   -63.6860   507.0760    11.5950     9.8970    10.8270   692.3140    10.0460     2.4810    -0.0040    96.7040
  956.5000   -63.8030   507.1530    11.4830     9.7330    10.7020   692.6330    10.0460     2.4750    -0.0050    99.1490
  957.0000   -63.9200   507.2310    11.3710     9.5690    10.5770   692.9210    10.0460     2.4830    -0.0020    97.6770
  957.5000   -64.0370   507.3090    11.2580     9.4060    10.4530   692.9210    10.0460     2.4930     0.0010    95.7900
  958.0000   -64.1550   507.3870    11.1460     9.2420    10.3280   692.9210    10.0460     2.5080     0.0040    93.8990
  958.5000   -64.2720   507.4650    11.0330     9.0780    10.2040   692.9210    10.0460     2.5180     0.0070    93.2490
  959.0000   -64.3910   507.5430    10.9210     8.9140    10.0790   692.9210    10.0460     2.5270     0.0100    92.7630
  959.5000   -64.5060   507.6210    10.8080     8.7500     9.9540   692.9210    10.0460     2.5220     0.0120    92.6480
  960.0000   -64.3970   507.6990    10.6960     8.6500     9.8300   692.9210    10.0460     2.5180     0.0100    96.4640
  960.5000   -64.2730   507.7760    10.5840     8.6020     9.7050   692.9210    10.0460     2.5240     0.0080   100.4540
  961.0000   -64.1490   507.8540    10.4710     8.5540     9.5810   692.9210    10.0460     2.5280     0.0060   104.8390
  961.5000   -64.0260   507.9320    10.3590     8.5070     9.4560   692.9210    10.0460     2.5230     0.0040   103.1590
  962.0000   -63.9220   508.0100    10.2460     8.4590     9.3320   692.9210    10.0460     2.5150     0.0020    99.9260
  962.5000   -63.9570   508.0880    10.1340     8.4120     9.2070   692.9210    10.0460     2.5050     0.0000    96.1720
  963.0000   -63.9940   508.1660     9.9640     8.3640     9.1700   692.9210    10.0460     2.4950    -0.0010    97.8580
  963.5000   -64.0300   508.2440     9.9940     8.3160     9.1700   692.9210    10.0460     2.4910    -0.0010   100.1000
  964.0000   -64.0670   508.3220    10.0560     8.2690     9.1700   692.9210    10.0460     2.4880     0.0000   102.3710
  964.5000   -64.1030   508.4000    10.1180     8.2210     9.1700   692.9210    10.0460     2.4940     0.0000   100.8470
  965.0000   -64.1400   508.4770    10.1800     8.1730     9.1700   692.9210    10.0460     2.4970     0.0000   100.2070
  965.5000   -64.1760   508.5550    10.2430     8.1260     9.1700   692.9210    10.0460     2.4950     0.0010   101.8540
  966.0000   -64.2130   508.6330    10.3050     8.0780     9.1700   692.9210    10.0460     2.4930     0.0010   103.1610
  966.5000   -64.2490   508.7110    10.3670     8.0310     9.1570   692.9210    10.0460     2.4900     0.0020    99.3500
  967.0000   -64.2860   508.7890    10.4290     7.9840     9.1370   692.9210    10.0460     2.4940     0.0020    95.4000
  967.5000   -64.3220   508.8670    10.4910     8.0410     9.1170   692.9210    10.0460     2.5010     0.0030    93.2090
  968.0000   -64.3530   508.9450    10.5530     8.0960     9.0980   692.9210    10.0460     2.5040     0.0030    93.8350
  968.5000   -64.3850   509.0230    10.6150     8.1510     9.0780   692.9210    10.0460     2.5020     0.0040    89.3880
  969.0000   -64.4170   509.1010    10.6770     8.2060     9.0580   692.9210    10.0460     2.5020     0.0040    92.2580
  969.5000   -64.4480   509.1780    10.7400     8.2610     9.0380   692.9210    10.0460     2.5020     0.0040    94.4080
  970.0000   -64.4800   509.2560    10.8020     8.3160     9.0180   692.9210    10.0440     2.4940     0.0040    96.5360
