~VERSION INFORMATION
 VERS.                2.0:   CWLS LOG ASCII STANDARD - VERSION 2.0
 WRAP.                 NO:   ONE LINE PER DEPTH STEP
~WELL INFORMATION
#MNEM.UNIT      DATA TYPE    INFORMATION
#----------   ------------   ------------------------------
 STRT.F          192.0000:   START DEPTH
 STOP.F         3016.0000:   STOP DEPTH
 STEP.F            0.5000:   STEP LENGTH
 NULL.          -999.2500:   NO VALUE
 COMP. FENIX & SCISSON U.S. NAVY:   COMPANY
 WELL.  FENIX "AX" #81-33:   WELL
 FLD .              NPR-3:   FIELD
 LOC .      S33 T39N R78W:   LOCATION
 CNTY.            NATRONA:   COUNTY
 STAT.            WYOMING:   STATE
 CTRY. UNITED STATES OF AMERICA:   COUNTRY
 SRVC.              WELEX:   SERVICE COMPANY
 DATE.        12-MAY-1977:   LOGDATE
 API .     49025109850000:   API NUMBER
~CURVE INFORMATION
#MNEM.UNIT       API CODE    CURVE DESCRIPTION
#----------   ------------   ------------------------------
 DEPT.F                  :   
 SPR .MV     07 010 01 00:   SPONTANEOUS POTENTIAL
 RILM.OHMM   07 120 44 00:   INDUCTION LOG MEDIUM RESISTIVITY
 RILD.OHMM   07 120 46 00:   DEEP INDUCTION RESISTIVITY
 SGRD.OHMM   07 220 05 00:   SHALLOW GUARD LOG RESISTIVITY
 NPHI.DEC    42 890 03 00:   NEUTRON POROSITY SANDSTONE
 GRD .GAPI   45 310 01 00:   GAMMA RAY FROM DENSITY LOG
 CALD.IN     45 280 60 00:   CALIPER FROM DENSITY LOG
 RHOB.G/C3   45 350 01 00:   BULK DENSITY
 DCOR.G/C3   45 356 01 00:   DENSITY CORRECTION
~PARAMETER INFORMATION
#MNEM.UNIT          VALUE    DESCRIPTION
#----------   ------------   ------------------------------
 EKB .F         5114.0000:   Kelly bushing
 EGL .F         5100.0000:   Ground level
 EDF .F         5112.0000:   Drilling floor
 TD  .F         3014.0000:   Total depth
 DATE.        12-MAY-1977:   Date logged
 CLNT.            A2DTECH:   Client Code
 SL  . 660' FEL & 660' FNL:   Surface Location
 PD  .                 GL:   Permanent Datum
 EPD .F              5100:   Elevation Permanent Datum
 LMF .                 KB:   Log Measured From
 DMF .                 KB:   Drilling Measured From
 DD  .F              3000:   Depth driller
 DL  .F              3014:   Depth logger
 BLI .F              3012:   Bottom log interval
 TLI .F              1500:   Top log interval
 CS1 .IN            8.625:   Casing size
 CBD1.      8.625" @ 217':   Casing driller 1
 CBL1.F               209:   Casing logger 1
 BS1 .IN            7.875:   Bit size
 BSD1.F              3000:   Depth drilled with bit1
 DFT .            KCL MUD:   Type fluid in hole
 DFD .                  9:   Density
 DFV .                 33:   Viscosity
 DFPH.                7.5:   pH
 DFL .                7.8:   Fluid loss
 MSS .           FLOWLINE:   Source of sample
 RMS .OHMM           0.69:   Rm
 MST .F                68:   Rm Meas. temp.
 RMF .OHMM           0.66:   Rmf
 MFST.F                68:   Rmf Meas. temp.
 RMC .OHMM           1.27:   Rmc
 MCST.F                68:   Rmc Meas. temp.
 MFSS.                 BK:   Source Rmf.
 MCSS.                 BK:   Source Rmc.
 RMB .OHMM           0.39:   Rm. at BHT
 BHT .F               118:   BHT.
 TCS .HRS               6:   Time Circ. stopped
 MRT .F               118:   Maximum recorded temp.
 LUN .               9685:   Logging unit number
 LUL .           BRIGHTON:   Logging unit location
 ENGI.          T. JOYNER:   Recorded By
 WITN.            K. JAPP:   Witnessed by
 ORIG.           5" PRINT:   Origin of data
 UWI .     49025109850000:   Unique Well ID
 DICO. A2D TECHNOLOGIES, INC.:   Digitizing Company
~OTHER INFORMATION
~A   DEPT      SPR       RILM       RILD       SGRD       NPHI         GRD        CALD       RHOB     DCOR   
# ...
 1287.0000   -25.5500     5.9170     5.1880     8.2270  -999.2500   122.1500     8.4970     2.5530     0.0730
 1287.5000   -25.4240     5.7400     5.1930     8.1910  -999.2500   121.8380     8.5040     2.5510     0.0750
 1288.0000   -25.2980     5.6510     5.1990     8.1620  -999.2500   122.0040     8.5110     2.5490     0.0630
 1288.5000   -25.1720     5.6800     5.2020     8.1620  -999.2500   122.4710     8.5180     2.5490     0.0650
 1289.0000   -25.0450     5.9170     5.2020     8.1620  -999.2500   122.9400     8.5240     2.5480     0.0680
 1289.5000   -25.0150     5.8090     5.2020     8.1620  -999.2500   123.4130     8.5310     2.5480     0.0610
 1290.0000   -25.0360     5.9030     5.2020     8.1840  -999.2500   123.8850     8.5390     2.5480     0.0550
 1290.5000   -25.0580     6.0270     5.2020     8.3030  -999.2500   124.3580     8.5330     2.5490     0.0500
 1291.0000   -25.0800     6.0650     5.2020     8.4230  -999.2500   124.8330     8.5250     2.5490     0.0440
 1291.5000   -25.1030     6.1050     5.2020     8.5460  -999.2500   125.2990     8.5160     2.5500     0.0440
 1292.0000   -25.1250     6.1380     5.2900     8.3970  -999.2500   125.6020     8.5080     2.5500     0.0480
 1292.5000   -25.1470     5.8090     5.3580     8.2380  -999.2500   124.9070     8.4990     2.5520     0.0520
 1293.0000   -25.1690     6.0270     5.3870     8.2380  -999.2500   124.2240     8.4900     2.5530     0.0560
 1293.5000   -25.1930     5.8200     5.4170     8.2380  -999.2500   123.5440     8.4820     2.5550     0.0590
 1294.0000   -25.1470     5.9560     5.4460     8.2540  -999.2500   122.8640     8.4730     2.5570     0.0630
 1294.5000   -25.0860     6.0270     5.4750     8.3610  -999.2500   122.1820     8.4650     2.5590     0.0620
 1295.0000   -25.0230     5.8630     5.5040     8.4680  -999.2500   121.5040     8.4560     2.5610     0.0640
 1295.5000   -24.9610     6.0300     5.5330     8.6250  -999.2500   120.9920     8.4480     2.5640     0.0620
 1296.0000   -24.8990     6.0540     5.5620     8.6080  -999.2500   121.5280     8.4420     2.5660     0.0560
 1296.5000   -24.8370     6.0780     5.5910     8.5750  -999.2500   122.0730     8.4510     2.5680     0.0650
 1297.0000   -24.7750     6.1020     5.6090     8.5500  -999.2500   122.6140     8.4600     2.5720     0.0610
 1297.5000   -24.7120     6.1260     5.6220     8.7930  -999.2500   123.1550     8.4700     2.5760     0.0590
 1298.0000   -24.6500     6.1500     5.6340     9.0310  -999.2500   123.6970     8.4790     2.5810     0.0690
 1298.5000   -24.6070     6.1740     5.6470     8.9990  -999.2500   124.2380     8.4890     2.5830     0.0770
 1299.0000   -24.6080     6.2010     5.6950     8.9480  -999.2500   124.7790     8.4980     2.5760     0.0720
 1299.5000   -24.6080     6.2590     5.7570     9.0080  -999.2500   125.3200     8.5080     2.5700     0.0650
 1300.0000   -24.6080     6.3160     5.8190     9.1270  -999.2500   125.8640     8.5180     2.5630     0.0590
 1300.5000   -24.6080     6.3680     5.8680     9.2830  -999.2500   126.4090     8.5130     2.5560     0.0550
 1301.0000   -24.6080     6.3680     5.8870     9.1690  -999.2500   126.8570     8.5020     2.5490     0.0530
 1301.5000   -24.6080     6.3680     5.9070     8.9480  -999.2500   126.1740     8.4920     2.5460     0.0510
 1302.0000   -24.6080     6.4290     5.9210     9.0470  -999.2500   125.5040     8.4820     2.5500     0.0510
 1302.5000   -24.6080     6.4850     5.9310     9.1940  -999.2500   124.8400     8.4710     2.5530     0.0530
 1303.0000   -24.6080     6.5410     5.9420     9.3420  -999.2500   124.1780     8.4610     2.5560     0.0560
 1303.5000   -24.6080     6.6070     5.9520     9.4550  -999.2500   123.5150     8.4510     2.5580     0.0580
 1304.0000   -24.6080     6.5490     5.9620     9.3330  -999.2500   122.8540     8.4400     2.5550     0.0520
 1304.5000   -24.6080     6.4800     5.9710     9.2340  -999.2500   122.1920     8.4300     2.5550     0.0470
 1305.0000   -24.6080     6.4100     6.0270     9.1340  -999.2500   121.5070     8.4210     2.5560     0.0450
 1305.5000   -24.6080     6.3630     5.9240     9.0070  -999.2500   121.6110     8.4370     2.5550     0.0460
 1306.0000   -24.6080     6.3490     5.8200     8.8720  -999.2500   122.2060     8.4520     2.5530     0.0410
 1306.5000   -24.6080     6.3350     5.7510     8.7380  -999.2500   122.8080     8.4680     2.5500     0.0340
 1307.0000   -24.6080     6.3220     5.7380     8.6250  -999.2500   123.4100     8.4830     2.5480     0.0340
 1307.5000   -24.6080     6.3100     5.7250     8.7400  -999.2500   124.0130     8.4990     2.5500     0.0360
 1308.0000   -24.6080     6.3290     5.7120     8.7850  -999.2500   124.6190     8.5140     2.5540     0.0380
 1308.5000   -24.6080     6.3450     5.6970     8.7050  -999.2500   125.2150     8.5300     2.5570     0.0460
 1309.0000   -24.6080     6.3610     5.6800     8.7640  -999.2500   124.5990     8.5450     2.5600     0.0540
 1309.5000   -24.6080     6.3770     5.6630     8.8290  -999.2500   123.7940     8.5590     2.5640     0.0620
 1310.0000   -24.6080     6.3930     5.6510     8.8930  -999.2500   122.9840     8.5450     2.5650     0.0650
 1310.5000   -24.6080     6.4090     5.7220     8.9570  -999.2500   122.1760     8.5300     2.5630     0.0650
 1311.0000   -24.6080     6.4250     5.7770     9.0220  -999.2500   121.3730     8.5160     2.5620     0.0630
 1311.5000   -24.6080     6.4370     5.8320     9.0860  -999.2500   120.5730     8.5020     2.5620     0.0610
 1312.0000   -24.6080     6.4490     5.8860     9.1500  -999.2500   120.4240     8.4880     2.5630     0.0590
 1312.5000   -24.6080     6.4600     5.9410     9.1980  -999.2500   121.0870     8.4740     2.5640     0.0600
 1313.0000   -24.6080     6.4720     5.9710     9.1850  -999.2500   121.7450     8.4590     2.5650     0.0640
 1313.5000   -24.6080     6.4840     5.9710     9.1740  -999.2500   122.4070     8.4450     2.5630     0.0680
 1314.0000   -24.6080     6.4950     5.9710     9.1630  -999.2500   123.0740     8.4310     2.5620     0.0720
 1314.5000   -24.6080     6.5070     5.9720     9.1520  -999.2500   123.7130     8.4220     2.5600     0.0720
 1315.0000   -24.6080     6.5180     5.9710     9.1410  -999.2500   123.1070     8.4340     2.5590     0.0720
 1315.5000   -24.6080     6.5300     5.9710     9.1300  -999.2500   122.4000     8.4440     2.5560     0.0700
 1316.0000   -24.6080     6.5460     5.9610     9.1140  -999.2500   121.6870     8.4550     2.5540     0.0630
 1316.5000   -24.6080     6.5280     5.9500     9.1580  -999.2500   120.9750     8.4660     2.5510     0.0570
 1317.0000   -24.6080     6.4970     5.9390     9.2340  -999.2500   120.2750     8.4760     2.5490     0.0510
 1317.5000   -24.6080     6.4650     5.9280     9.2740  -999.2500   119.8540     8.4870     2.5540     0.0470
 1318.0000   -24.6080     6.4340     5.9170     9.1650  -999.2500   120.5800     8.4970     2.5590     0.0470
 1318.5000   -24.6080     6.4020     5.8880     9.0780  -999.2500   121.2810     8.5080     2.5640     0.0530
 1319.0000   -24.6080     6.3680     5.8580     8.9900  -999.2500   121.9780     8.5190     2.5710     0.0620
 1319.5000   -24.6080     6.3100     5.8280     8.8970  -999.2500   122.6760     8.5300     2.5790     0.0710
 1320.0000   -24.6080     6.2470     5.7980     8.7970  -999.2500   123.3740     8.5390     2.5870     0.0810
 1320.5000   -24.6080     6.1840     5.7680     8.6980  -999.2500   124.0740     8.5280     2.5950     0.0900
 1321.0000   -24.6080     6.1340     5.7370     8.5460  -999.2500   124.7740     8.5160     2.6010     0.0920
 1321.5000   -24.6080     6.1200     5.7070     8.5770  -999.2500   125.0010     8.5040     2.6040     0.1010
 1322.0000   -24.6080     6.1050     5.7030     8.6580  -999.2500   125.1270     8.4920     2.6060     0.1040
 1322.5000   -24.6080     6.0910     5.7030     8.7830  -999.2500   125.2500     8.4800     2.6010     0.0960
 1323.0000   -24.6080     6.0760     5.7030     8.9090  -999.2500   125.3750     8.4680     2.5930     0.0860
