~VERSION INFORMATION
 VERS.                2.0:   CWLS LOG ASCII STANDARD - VERSION 2.0
 WRAP.                 NO:   ONE LINE PER DEPTH STEP
~WELL INFORMATION
#MNEM.UNIT      DATA TYPE    INFORMATION
#----------   ------------   ------------------------------
 STRT.F           13.0000:   START DEPTH
 STOP.F         2858.0000:   STOP DEPTH
 STEP.F            0.5000:   STEP LENGTH
 NULL.          -999.2500:   NO VALUE
 COMP.    FENIX & SCISSON:   COMPANY
 WELL. FENIX & SCISSON "AX" #16-21:   WELL
 FLD .  TEAPOT DOME NRP-3:   FIELD
 LOC .      S21 T39N R78W:   LOCATION
 CNTY.            NATRONA:   COUNTY
 STAT.            WYOMING:   STATE
 CTRY. UNITED STATES OF AMERICA:   COUNTRY
 SRVC.           BIRDWELL:   SERVICE COMPANY
 DATE.        17-JUL-1978:   LOGDATE
 API .     49025106590000:   API NUMBER
~CURVE INFORMATION
#MNEM.UNIT       API CODE    CURVE DESCRIPTION
#----------   ------------   ------------------------------
 DEPT.F                  :   
 GRD .GAPI   45 310 01 00:   GAMMA RAY FROM DENSITY LOG
 CALD.IN     45 280 60 00:   CALIPER FROM DENSITY LOG
 CORR.G/C3   45 356 01 00:   DENSITY CORRECTION
 RHOB.G/C3   45 350 01 00:   BULK DENSITY
 SPR .MV     05 010 01 00:   SPONTANEOUS POTENTIAL FROM RES.
 ILD .OHMM   05 120 46 00:   INDUCTION LOG DEEP
 SN  .OHMM   05 041 16 00:   SHORT NORMAL 16"
~PARAMETER INFORMATION
#MNEM.UNIT          VALUE    DESCRIPTION
#----------   ------------   ------------------------------
 EKB .F         5003.0000:   Kelly bushing
 EGL .F         4993.0000:   Ground level
 EDF .F            0.0000:   Drilling floor
 EPD .F         4993.0000:   Permanent datum
 TD  .F         2858.0000:   Total depth
 CLNT.            A2DTECH:   Client Code
 SL  . 1420' FSL & 200' FWL:   Surface Location
 DATE.        17-JUL-1978:   Date Logged [DD-MMM-YYYY]
 DD  .F              2855:   Depth driller
 DL  .F              2858:   Depth logger
 BLI .F              2858:   Bottom log interval
 TLI .F                20:   Top log interval
 CS1 .              8.625:   Casing size
 CBD1.      8.625" @ 200':   Casing driller 1
 CBL1.IN              228:   Casing logger 1
 BS1 .IN            7.875:   Bit size
 BSD1.F              2855:   Depth drilled with bit1
 DFT .            MUD GEL:   Type fluid in hole
 DFD .                9.9:   Density
 DFV .                 32:   Viscosity
 DFPH.               10.5:   pH
 DFL .                7.2:   Fluid loss
 MSS .           FLOWLINE:   Source of sample
 RMS .OHMM            1.3:   Rm
 MST .F                80:   Rm Meas. temp.
 RMF .OHMM           0.77:   Rmf
 MFST.F                74:   Rmf Meas. temp.
 MFSS.               MEAS:   Source Rmf.
 RMC .OHMM            1.5:   Rmc
 MCST.F                73:   Rmc Meas. temp.
 MCSS.               MEAS:   Source Rmc.
 TCS .HRS               1:   Time Circ. stopped
 MRT .F               118:   Maximum recorded temp.
 LUN .               2958:   Logging unit number
 LUL .               CASP:   Logging unit location
 ENGI.              HONEA:   Recorded By
 WITN.           MCGINLEY:   Witnessed by
 ORIG.        2" 5" PRINT:   Origin of data
 UWI .     49025106590000:   Unique Well ID
 DICO. A2D TECHNOLOGIES, INC.:   Digitizing Company
 PD  .                 GL:   Permanent Datum
 DAPD.                 10:   Feet Above Permanent Datum
~OTHER INFORMATION
~A   DEPT       GRD      CALD       CORR       RHOB        SPR        ILD         SN   
# ...
 1605.5000   106.6195     8.6702     0.0044     2.4829   -30.4844     5.4388     6.2103
 1606.0000   111.9883     8.6715     0.0015     2.4912   -30.4629     5.2958     6.0428
 1606.5000   111.2560     8.6728     0.0000     2.4882   -30.4382     5.0855     5.9204
 1607.0000   110.1829     8.6444     0.0016     2.4719   -30.4176     4.7843     5.8004
 1607.5000   107.2615     8.6754    -0.0016     2.4652   -30.3971     4.5630     5.5657
 1608.0000   110.1034     8.6618    -0.0015     2.4630   -30.5300     4.3519     5.3343
 1608.5000   111.4544     8.6780     0.0000     2.4921   -30.5044     4.2079     5.0493
 1609.0000   111.6120     8.6645     0.0030     2.4904   -30.4838     4.2104     4.8213
 1609.5000   109.3944     8.6658     0.0149     2.4696   -30.3149     4.2130     4.7561
 1610.0000   103.7514     8.6674     0.0209     2.4602   -30.2943     4.2155     4.8227
 1610.5000   102.4238     8.6539     0.0224     2.4513   -30.2738     4.1892     4.9238
 1611.0000   101.9861     8.6552     0.0521     2.4454   -30.2532     4.1918     4.9584
 1611.5000   103.0424     8.6413     0.1173     2.4388   -30.2327     4.1944     4.9933
 1612.0000   104.6909     8.6429     0.1100     2.4299   -30.3656     4.1391     4.9596
 1612.5000   103.3633     8.6442     0.0759     2.5020   -30.3400     4.0859     4.9604
 1613.0000   100.8422     8.6304     0.0523     2.5274   -30.4729     4.2062     4.9611
 1613.5000   101.7498     8.6469     0.0316     2.5237   -30.4472     4.2926     4.9618
 1614.0000    99.8892     8.6482     0.0361     2.4918   -30.4267     4.2952     4.9624
 1614.5000    95.6720     8.6346     0.0629     2.4732   -30.4061     4.2978     4.9631
 1615.0000    98.0675     8.6211     0.0643     2.4480   -30.3856     4.3004     4.9638
 1615.5000    99.1209     8.6375     0.0426     2.4837   -30.3649     4.3326     4.9987
 1616.0000    98.9837     8.8763     0.0036     2.5010   -30.3442     4.6111     5.7750
 1616.5000    96.7633     8.4916     0.0437     2.4570   -30.3234     4.8739     6.1865
 1617.0000    92.0131     9.2058     0.1030     2.4190   -30.3027     5.1165     6.2333
 1617.5000    93.5128     8.6127     0.0779     2.4515   -30.4312     5.3712     6.1881
 1618.0000    93.8192     8.6441     0.0335     2.5208   -30.4055     5.5618     6.1466
 1618.5000    89.5183     8.6157     0.0009     2.5360   -30.5385     5.6035     6.1501
 1619.0000    90.1253     8.9736    -0.0005     2.5077   -30.5128     5.6454     6.5403
 1619.5000    96.5357     9.9704    -0.0005     2.4758   -30.6406     5.7268     6.7449
 1620.0000    96.6964     8.6493     0.0084     2.4617   -30.6201     5.8094     7.1044
 1620.5000    98.0476     8.6358     0.0396     2.4499   -30.5995     5.9745     7.3033
 1621.0000    96.8713     8.6523     0.0233     2.4424   -30.5790     6.1462     7.4563
 1621.5000    93.3116     8.6681     0.0309     2.4856   -30.5584     6.3624     7.5087
 1622.0000    92.1328     8.4468     0.0843     2.4871   -30.5379     6.4099     7.5097
 1622.5000    92.2933     9.2651     0.0619     2.4678   -30.5173     6.3265     7.5108
 1623.0000    92.9002     8.7463     0.0146     2.5378   -30.4968     6.1601     7.4093
 1623.5000    92.7631     8.7034     0.0073     2.5549   -30.4762     5.9563     7.3090
 1624.0000    88.6081     9.9231     0.0088     2.5222   -30.4557     5.8787     7.1119
 1624.5000    89.2150     8.7951     0.0103     2.5177   -30.4351     5.8823     6.9201
 1625.0000    92.6493     8.7964     0.0104     2.5268   -30.4146     5.8859     6.8736
 1625.5000    95.3395     8.7977     0.0075     2.5320   -30.3940     5.8895     6.8275
 1626.0000    93.7143     8.7994     0.0031     2.5282   -30.3735     5.8931     6.9231
 1626.5000    92.5355     8.8007     0.0016     2.5243   -30.5015     5.8966     7.0682
 1627.0000    93.5028     8.8020     0.0031     2.5121   -30.4807     5.9002     7.1179
 1627.5000    99.1094     8.8182     0.0061     2.4950   -30.4599     5.9038     7.0701
 1628.0000   103.2878     8.8046     0.0195     2.4363   -30.4391     5.8671     6.9269
 1628.5000   103.2995     8.8059     0.0640     2.4222   -30.5675     5.5957     6.7865
 1629.0000   103.0135     8.8072     0.0952     2.4118   -30.5460     5.4105     6.5548
 1629.5000   101.8347     8.8085     0.0785     2.4713   -30.5212     5.3032     6.3378
 1630.0000   105.1202     8.7950     0.0745     2.4855   -30.6542     5.1988     6.3823
 1630.5000   108.2569     8.8465     0.0968     2.4536   -30.6285     5.2784     6.2453
 1631.0000   110.2031    10.0160     0.2139     2.4135   -30.7563     5.3499     5.9605
 1631.5000   110.2396     8.8289     0.3487     2.3570   -30.8893     5.4651     6.4292
 1632.0000   107.8455     9.6475     0.2866     2.3786   -31.1603     5.5820     6.6547
 1632.5000   102.5000     9.2327     0.1918     2.5407   -31.1398     5.7014     6.7477
 1633.0000    96.3816     9.1148     0.1311     2.6471   -31.2727     5.8234     7.3788
 1633.5000    95.9758     9.5474     0.1341     2.5798   -31.4006     5.9889     8.1807
 1634.0000   104.4725    10.0688     0.1252     2.5148   -31.3749     6.6413     8.5848
 1634.5000   104.4842     9.1785     0.1031     2.5275   -31.5078     6.9243     8.6451
 1635.0000   104.1983     9.0461     0.0726     2.5468   -31.4821     6.9761     8.8263
 1635.5000   102.2754     9.0243     0.1135     2.4911   -31.6151     6.9327     8.7671
 1636.0000   100.9449     8.6420     0.1195     2.4376   -31.7378     6.2593     8.5307
 1636.5000   101.5547     8.9801     0.0452     2.5618   -31.7172     5.6901     8.3006
 1637.0000   101.5664     8.8585     0.0233     2.5819   -31.6967     5.5018     7.8579
 1637.5000   101.8757    10.7469     0.0248     2.5121   -31.8249     5.3931     6.9450
 1638.0000   106.2029     8.5639     0.0204     2.4995   -31.8040     5.3595     6.4849
 1638.5000   107.8515     8.5501     0.0116     2.5122   -31.9318     5.3997     6.7587
 1639.0000   110.5417     8.5517     0.0057     2.5152   -31.9110     5.4808     6.9003
 1639.5000   111.5951     8.5378     0.0161     2.5078   -32.0390     5.7223     7.0459
 1640.0000   108.0353     8.5394     0.0176     2.4736   -32.3343     6.1206     7.3559
 1640.5000   119.3595     8.5407     0.0221     2.4469   -32.7651     6.5588     8.1725
 1641.0000   129.1926     8.5421     0.0414     2.4402   -33.0108     7.0283     9.4464
 1641.5000   141.3094     8.5434     0.0667     2.4328   -32.9903     7.4800    10.2845
 1642.0000   143.3509     8.4976     0.0667     2.4195   -32.9697     8.0705    11.0931
 1642.5000   136.9224     8.4423     0.0623     2.4516   -32.9492     8.9497    11.8021
 1643.0000   131.6212     8.6665     0.0519     2.4546   -32.9286     9.3310    12.3850
 1643.5000   125.3829     9.7967     0.0308     2.4776   -32.9081     9.6622    12.9078
 1644.0000   134.9184     8.4908     0.0116     2.4955   -32.7392     9.8689    13.2691
 1644.5000   145.0491     9.7254     0.0077     2.4814   -32.5703    10.0800    13.4545
 1645.0000   160.5370     8.5826     0.0240     2.4539   -32.4013    10.1555    13.4563
 1645.5000   164.2660     8.3610     0.0374     2.4435   -32.3808    10.2315    13.6443
 1646.0000   159.8163     8.3177     0.0448     2.4391   -32.3602    10.3082    13.9302
 1646.5000   157.1494     8.3042     0.0493     2.4377   -32.3397    10.3853    14.2222
 1647.0000   152.6968     8.2891     0.0508     2.4615   -32.3191    10.3917    14.1263
 1647.5000   148.0954     8.2622     0.0524     2.4645   -32.1502    10.3981    13.8401
 1648.0000   151.4619     8.2638     0.0509     2.4616   -31.9813    10.4045    13.6536
 1648.5000   165.6120     8.2651     0.0451     2.4646   -31.9608    10.4109    13.4690
 1649.0000   178.1414     8.2664     0.0362     2.4758   -31.9402    10.3458    13.1059
 1649.5000   201.5676     8.2526     0.0274     2.4773   -31.9197    10.0737    12.7525
 1650.0000   205.2966     8.2096     0.0274     2.4643   -31.8991     9.6077    12.4906
 1650.5000   192.8112     8.1069     0.0250     2.4406   -31.7300     9.2263    12.2153
