~VERSION INFORMATION
 VERS.                2.0:   CWLS LOG ASCII STANDARD - VERSION 2.0
 WRAP.                 NO:   ONE LINE PER DEPTH STEP
~WELL INFORMATION
#MNEM.UNIT      DATA TYPE    INFORMATION
#----------   ------------   ------------------------------
 STRT.F          330.0000:   START DEPTH
 STOP.F         2880.0000:   STOP DEPTH
 STEP.F            0.5000:   STEP LENGTH
 NULL.          -999.2500:   NO VALUE
 COMP.   TESORO PETROLEUM:   COMPANY
 WELL. TESORO NPR "AX" #3-21:   WELL
 FLD .        TEAPOT DOME:   FIELD
 LOC .      S21 T39N R78W:   LOCATION
 CNTY.            NATRONA:   COUNTY
 STAT.            WYOMING:   STATE
 CTRY. UNITED STATES OF AMERICA:   COUNTRY
 SRVC.       SCHLUMBERGER:   SERVICE COMPANY
 DATE.        17-AUG-1972:   LOGDATE
 API .     49025102150000:   API NUMBER
~CURVE INFORMATION
#MNEM.UNIT       API CODE    CURVE DESCRIPTION
#----------   ------------   ------------------------------
 DEPT.F                  :   
 GRD .GAPI   45 310 01 00:   GAMMA RAY FROM DENSITY LOG
 CALD.IN     45 280 60 00:   CALIPER FROM DENSITY LOG
 CORR.G/C3   45 356 01 00:   DENSITY CORRECTION
 RHOB.G/C3   45 350 01 00:   BULK DENSITY
 SPR .MV     05 010 01 00:   SPONTANEOUS POTENTIAL FROM RES.
 ILD .OHMM   05 120 46 00:   INDUCTION LOG DEEP
 ASN .OHMM   05 041 16 00:   AMPLIFIED SHORT NORMAL 16"
~PARAMETER INFORMATION
#MNEM.UNIT          VALUE    DESCRIPTION
#----------   ------------   ------------------------------
 EKB .F         4985.0000:   Kelly bushing
 EGL .F         4975.0000:   Ground level
 EDF .F            0.0000:   Drilling floor
 EPD .F         4975.0000:   Permanent datum
 TD  .F         2880.0000:   Total depth
 CLNT.            A2DTECH:   Client Code
 DATE.        17-AUG-1972:   Date Logged [DD-MMM-YYYY]
 DD  .F              2875:   Depth driller
 DL  .F              2880:   Depth logger
 BLI .F              2879:   Bottom log interval
 TLI .F               330:   Top log interval
 CS1 .              10.75:   Casing size
 CBD1.       10.75" @ 327:   Casing driller 1
 CBL1.IN              330:   Casing logger 1
 BS1 .IN                9:   Bit size
 BSD1.F              2875:   Depth drilled with bit1
 DFT .           CHEM-GEL:   Type fluid in hole
 DFD .                9.3:   Density
 DFV .                 61:   Viscosity
 DFPH.                9.0:   pH
 DFL .                 66:   Fluid loss
 MSS .           FLOWLINE:   Source of sample
 RMS .OHMM           1.86:   Rm
 MST .F                76:   Rm Meas. temp.
 RMF .OHMM           1.58:   Rmf
 MFST.F                76:   Rmf Meas. temp.
 MFSS.               MEAS:   Source Rmf.
 RMB .OHMM           1.25:   Rm. at BHT
 BHT .F               113:   BHT.
 TCS .HRS               3:   Time Circ. stopped
 MRT .F               113:   Maximum recorded temp.
 LUN .               7037:   Logging unit number
 LUL .               CSPR:   Logging unit location
 ENGI.              GOLAS:   Recorded By
 WITN.                MAY:   Witnessed by
 ORIG.      1" 2.5" PRINT:   Origin of data
 UWI .     49025102150000:   Unique Well ID
 DICO. A2D TECHNOLOGIES, INC.:   Digitizing Company
~OTHER INFORMATION
~A   DEPT      GRD       CALD       CORR       RHOB        SPR          ILD        ASN 
# ...
 1467.5000  -999.2500  -999.2500  -999.2500  -999.2500   -22.0898     5.4051     6.8657
 1468.0000  -999.2500  -999.2500  -999.2500  -999.2500   -21.9237     5.4077     6.8657
 1468.5000  -999.2500  -999.2500  -999.2500  -999.2500   -21.7864     5.4100     6.8657
 1469.0000  -999.2500  -999.2500  -999.2500  -999.2500   -21.4798     5.5666     6.8955
 1469.5000  -999.2500  -999.2500  -999.2500  -999.2500   -21.4835     5.5688     7.0448
 1470.0000  -999.2500  -999.2500  -999.2500  -999.2500   -21.1765     5.5711     7.1642
 1470.5000  -999.2500  -999.2500  -999.2500  -999.2500   -21.1800     5.5734     7.1940
 1471.0000  -999.2500  -999.2500  -999.2500  -999.2500   -21.1830     5.7300     7.1642
 1471.5000  -999.2500  -999.2500  -999.2500  -999.2500   -21.1860     5.7322     7.1940
 1472.0000  -999.2500  -999.2500  -999.2500  -999.2500   -21.4987     5.7345     7.1940
 1472.5000  -999.2500  -999.2500  -999.2500  -999.2500   -21.8113     5.7369     7.2239
 1473.0000  -999.2500  -999.2500  -999.2500  -999.2500   -22.1239     5.7392     7.2537
 1473.5000  -999.2500  -999.2500  -999.2500  -999.2500   -22.1270     5.7415     7.2667
 1474.0000  -999.2500  -999.2500  -999.2500  -999.2500   -22.1300     5.7438     7.2955
 1474.5000  -999.2500  -999.2500  -999.2500  -999.2500   -22.1332     5.7130     7.3433
 1475.0000  -999.2500  -999.2500  -999.2500  -999.2500   -22.1362     5.5939     7.3731
 1475.5000  -999.2500  -999.2500  -999.2500  -999.2500   -22.1393     5.5964     7.3731
 1476.0000  -999.2500  -999.2500  -999.2500  -999.2500   -22.1424     5.4441     7.3651
 1476.5000  -999.2500  -999.2500  -999.2500  -999.2500   -22.1455     5.4468     7.3363
 1477.0000  -999.2500  -999.2500  -999.2500  -999.2500   -22.4582     5.4491     7.2776
 1477.5000  -999.2500  -999.2500  -999.2500  -999.2500   -22.1513     5.2971     7.2537
 1478.0000  -999.2500  -999.2500  -999.2500  -999.2500   -22.1548     5.2994     7.2239
 1478.5000  -999.2500  -999.2500  -999.2500  -999.2500   -22.1579     5.3017     7.2239
 1479.0000  -999.2500  -999.2500  -999.2500  -999.2500   -22.1610     5.3040     7.2239
 1479.5000  -999.2500  -999.2500  -999.2500  -999.2500   -22.0315     5.3063     7.2239
 1480.0000  -999.2500  -999.2500  -999.2500  -999.2500   -21.8576     5.4634     7.2239
 1480.5000  -999.2500  -999.2500  -999.2500  -999.2500   -21.7044     5.4657     7.2239
 1481.0000  -999.2500  -999.2500  -999.2500  -999.2500   -21.5542     5.6223     7.2537
 1481.5000  -999.2500  -999.2500  -999.2500  -999.2500   -21.3771     5.6246     7.2537
 1482.0000  -999.2500  -999.2500  -999.2500  -999.2500   -21.2508     5.7812     7.3134
 1482.5000  -999.2500  -999.2500  -999.2500  -999.2500   -20.9448     5.7834     7.3731
 1483.0000  -999.2500  -999.2500  -999.2500  -999.2500   -20.9478     5.7857     7.4627
 1483.5000  -999.2500  -999.2500  -999.2500  -999.2500   -20.9509     5.9423     7.5522
 1484.0000  -999.2500  -999.2500  -999.2500  -999.2500   -21.2635     5.9446     7.6119
 1484.5000  -999.2500  -999.2500  -999.2500  -999.2500   -21.5761     5.9469     7.6716
 1485.0000  -999.2500  -999.2500  -999.2500  -999.2500   -21.8888     5.9491     7.7313
 1485.5000  -999.2500  -999.2500  -999.2500  -999.2500   -22.2014     5.9514     7.7612
 1486.0000  -999.2500  -999.2500  -999.2500  -999.2500   -22.2044     5.9537     7.7791
 1486.5000  -999.2500  -999.2500  -999.2500  -999.2500   -22.2075     5.9646     7.7910
 1487.0000  -999.2500  -999.2500  -999.2500  -999.2500   -22.2105     6.1127     7.8070
 1487.5000  -999.2500  -999.2500  -999.2500  -999.2500   -22.2137     6.1150     7.8507
 1488.0000  -999.2500  -999.2500  -999.2500  -999.2500   -22.2167     6.1173     7.8368
 1488.5000  -999.2500  -999.2500  -999.2500  -999.2500   -22.2198     6.1196     7.8209
 1489.0000  -999.2500  -999.2500  -999.2500  -999.2500   -22.2229     6.1220     7.8328
 1489.5000  -999.2500  -999.2500  -999.2500  -999.2500   -22.2260     6.1651     7.8507
 1490.0000  -999.2500  -999.2500  -999.2500  -999.2500   -22.2291     6.2809     7.8607
 1490.5000  -999.2500  -999.2500  -999.2500  -999.2500   -22.2322     6.2832     7.9194
 1491.0000  -999.2500  -999.2500  -999.2500  -999.2500   -22.1393     6.3426     7.9781
 1491.5000  -999.2500  -999.2500  -999.2500  -999.2500   -21.9283     6.4421     8.0667
 1492.0000   120.8494     9.4518     0.0413     2.5343   -21.6217     6.4444     8.1613
 1492.5000   123.6232     9.4830     0.0475     2.5362   -21.3158     6.4468     8.2438
 1493.0000   122.7047     9.4833     0.0491     2.5374   -21.0093     6.4491     8.2985
 1493.5000   119.0014     9.5145     0.0167     2.5230   -21.0124     6.4514     8.2985
 1494.0000   116.7138     9.5148     0.0059     2.5174   -21.0155     6.4537     8.2985
 1494.5000   117.1800     9.5151    -0.0003     2.5193   -21.1975     6.3021     8.2985
 1495.0000   117.1846     9.5463    -0.0033     2.5179   -21.3319     6.3044     8.2985
 1495.5000   116.6277     9.5616     0.0013     2.5049   -21.6445     6.3067     8.2687
 1496.0000   115.2861     9.5778     0.0044     2.5037   -21.6475     6.3090     8.2090
 1496.5000   116.4214     9.5781     0.0060     2.5068   -21.9602     6.1569     8.1791
 1497.0000   117.6646     9.5784     0.0107     2.5213   -21.9632     6.1592     8.1194
 1497.5000   117.7654     9.5787     0.0184     2.5461   -22.2758     6.0071     8.0896
 1498.0000   120.1969     9.5790     0.0231     2.5500   -22.2789     6.0094     8.0000
 1498.5000   117.6470     9.6102     0.0169     2.5355   -22.2819     6.0117     7.9701
 1499.0000   113.0061     9.6106     0.0077     2.5245   -22.2849     6.0140     7.9403
 1499.5000   111.6870     9.6109     0.0015     2.5113   -22.2880     6.0162     7.8507
 1500.0000   117.5392     9.6112     0.0154     2.5141   -22.2910     6.0185     7.8209
 1500.5000   121.4242     9.6115     0.0092     2.5270   -21.9845     6.1751     7.8507
 1501.0000   124.5167     9.6118     0.0000     2.5142   -21.9876     6.1775     7.8507
 1501.5000   125.4485     9.5812    -0.0015     2.5216   -21.6809     6.1798     7.8642
 1502.0000   120.4033     9.5815    -0.0030     2.5255   -21.3744     6.1821     7.8334
 1502.5000   118.6385     9.5818    -0.0012     2.5280   -21.0678     6.1844     7.8174
 1503.0000   117.9584     9.6130     0.0019     2.5309   -21.0712     6.1867     7.8028
 1503.5000   117.0284     9.6133     0.0050     2.5092   -21.0743     6.1891     7.8339
 1504.0000   117.2985     9.6136     0.0067     2.5106   -20.9825     6.1913     7.9270
 1504.5000   120.1497     9.6139     0.0079     2.5218   -20.7704     6.1937     8.0200
 1505.0000   123.5463     9.6142     0.0011     2.5120   -20.7740     6.1960     8.0511
 1505.5000   120.0517     9.6145    -0.0063     2.4918   -20.6465     6.1983     8.1132
 1506.0000   117.2870     9.6148    -0.0109     2.4841   -20.4706     6.2006     8.1443
 1506.5000   114.5223     9.6151    -0.0120     2.4873   -20.4736     6.2029     8.1754
 1507.0000   113.6038     9.5846    -0.0101     2.4942   -20.4768     6.3595     8.1756
 1507.5000   115.4545     9.5849    -0.0002     2.4991   -20.4799     6.3619     8.2067
 1508.0000   120.5360     9.5852     0.0056     2.5075   -20.7932     6.3642     8.2068
 1508.5000   124.6944     9.5855     0.0066     2.5171   -20.7962     6.3670     8.2379
 1509.0000   124.7984     9.5858     0.0050     2.5305   -21.1088     6.5236     8.2381
 1509.5000   122.8574     9.5861     0.0085     2.5311   -21.1119     6.5258     8.2363
 1510.0000   120.0927     9.5864     0.0150     2.5299   -21.1149     6.5281     8.1765
 1510.5000   117.3280     9.5867     0.0166     2.5444   -21.4275     6.3761     8.1457
 1511.0000   117.7941     9.5870     0.0220     2.5583   -21.4306     6.3783     8.1094
 1511.5000   120.1064     9.5873     0.0175     2.5414   -21.4336     6.3806     8.0774
 1512.0000   120.6031     9.5876    -0.0004     2.5383   -21.4367     6.3829     8.0223
 1512.5000   119.1924     9.5879     0.0046     2.5306   -21.4397     6.2309     8.0134
