~VERSION INFORMATION
 VERS.                2.0:   CWLS LOG ASCII STANDARD - VERSION 2.0
 WRAP.                 NO:   ONE LINE PER DEPTH STEP
~WELL INFORMATION
#MNEM.UNIT      DATA TYPE    INFORMATION
#----------   ------------   ------------------------------
 STRT.F          198.5000:   START DEPTH
 STOP.F         3172.0000:   STOP DEPTH
 STEP.F            0.5000:   STEP LENGTH
 NULL.          -999.2500:   NO VALUE
 COMP.    FENIX & SCISSON:   COMPANY
 WELL. FENIX & SCISSON AX #26-11:   WELL
 FLD .              NPR-3:   FIELD
 LOC .      S11 T38N R78W:   LOCATION
 CNTY.            NATRONA:   COUNTY
 STAT.            WYOMING:   STATE
 CTRY. UNITED STATES OF AMERICA:   COUNTRY
 SRVC.              WELEX:   SERVICE COMPANY
 DATE.        11-NOV-1977:   LOGDATE
 API .     49025104420000:   API NUMBER
~CURVE INFORMATION
#MNEM.UNIT       API CODE    CURVE DESCRIPTION
#----------   ------------   ------------------------------
 DEPT.F                  :   
 GRD .GAPI   45 310 01 00:   GAMMA RAY FROM DENSITY LOG
 CALD.IN     45 280 60 00:   CALIPER FROM DENSITY LOG
 CORR.G/C3   45 356 01 00:   DENSITY CORRECTION
 TEND.LBS    45 635 01 00:   TENSION FROM DENSITY LOG
 RHOB.G/C3   45 350 01 00:   BULK DENSITY
 SPR .MV     07 010 01 00:   SPONTANEOUS POTENTIAL
 ILD .OHMM   07 120 46 00:   DEEP INDUCTION RESISTIVITY
 ILM .OHMM   07 120 44 00:   INDUCTION LOG MEDIUM RESISTIVITY
 SGRD.OHMM   07 220 05 00:   SHALLOW SHORT GUARD RESISTIVITY
~PARAMETER INFORMATION
#MNEM.UNIT          VALUE    DESCRIPTION
#----------   ------------   ------------------------------
 EKB .F         5187.0000:   Kelly bushing
 EGL .F         5177.0000:   Ground level
 EDF .F            0.0000:   Drilling floor
 EPD .F         5177.0000:   Permanent datum
 TD  .F         3174.0000:   Total depth
 CLNT.            A2DTECH:   Client Code
 SL  . 1650' FSL & 840' FWL:   Surface Location
 PD  .                 GL:   Permanent Datum
 LMF .                 KB:   Log Measured From
 DMF .                 KB:   Drilling Measured From
 DAPD.F                10:   Feet Above Permanent Datum
 DATE.        11-NOV-1977:   Date Logged [DD-MMM-YYYY]
 DD  .F              3170:   Depth driller
 DL  .F              3174:   Depth logger
 BLI .F              3172:   Bottom log interval
 TLI .F               200:   Top log interval
 CS1 .              8.625:   Casing size
 CBD1.      8.625" @ 220':   Casing driller 1
 CBL1.IN              220:   Casing logger 1
 BS1 .IN            7.875:   Bit size
 BSD1.F              3170:   Depth drilled with bit1
 DFT .            KCL MUD:   Type fluid in hole
 DFD .                8.9:   Density
 DFV .                 37:   Viscosity
 DFPH.               11.0:   pH
 DFL .                6.4:   Fluid loss
 MSS .           FLOWLINE:   Source of sample
 RMS .OHMM           2.79:   Rm
 MST .F                50:   Rm Meas. temp.
 RMF .OHMM           2.16:   Rmf
 MFST.F                50:   Rmf Meas. temp.
 MFSS.               FANN:   Source Rmf.
 MCSS.               TEST:   Source Rmc.
 RMB .OHMM           1.22:   Rm. at BHT
 BHT .F               114:   BHT.
 TCS .HRS               3:   Time Circ. stopped
 MRT .F               114:   Maximum recorded temp.
 LUN .               8611:   Logging unit number
 LUL .             CASPER:   Logging unit location
 ENGI.            C. DOAK:   Recorded By
 WITN.         HARRINGTON:   Witnessed by
 ORIG.      2.5" 5" PRINT:   Origin of data
 UWI .     49025104420000:   Unique Well ID
 DICO. A2D TECHNOLOGIES, INC.:   Digitizing Company
~OTHER INFORMATION
~A   DEPT       GRD      CALD       CORR       TEND       RHOB        SPR        ILD        ILM       SGRD   
# ...
  417.5000   105.4755     9.9720     0.0075   919.2783     2.4919   -70.7023     5.9229     5.8645     6.9250
  418.0000   105.5976     9.9714     0.0013   920.0380     2.4856   -70.7127     6.0035     5.9435     7.0195
  418.5000   102.8913     9.9708     0.0012   920.7977     2.4719   -70.8737     5.9585     5.9397     7.0652
  419.0000   100.7862    10.0012     0.0011   921.5574     2.4670   -71.0347     5.9145     5.9367     7.0610
  419.5000   100.4734    10.0005     0.0010   922.3172     2.4639   -71.3463     5.9117     5.9336     7.0576
  420.0000   101.9820     9.9999    -0.0001   923.0769     2.4600   -71.5072     5.9914     5.9719     7.0053
  420.5000   104.0861    10.0303    -0.0022   923.8461     2.4561   -71.6682     6.0302     5.9689     7.0517
  421.0000   104.9890    10.0606     0.0093   924.6154     2.4553   -71.6786     6.0693     6.0082     7.0968
  421.5000   103.9698    10.0600     0.0160   925.3846     2.4638   -71.8396     6.2370     6.0891     7.0933
  422.0000   101.0491    10.0903     0.0203   926.1538     2.4722   -72.0006     6.2339     6.1284     7.0407
  422.5000   100.7658    10.0897     0.0265   926.9230     2.4784   -71.8603     6.3181     6.0821     6.9344
  423.0000   100.4625    10.0891     0.0266   927.6923     2.4831   -71.8707     6.2273     6.0790     6.8402
  423.5000   100.7599    10.0885     0.0218   928.4615     2.4797   -71.7305     6.1814     6.0758     6.6957
  424.0000   100.7568    10.0879     0.0156   929.2308     2.4735   -71.7410     6.0512     6.0307     6.5543
  424.5000    99.8657    10.0873     0.0155   930.0000     2.4658   -71.5853     5.9650     6.0275     6.5969
  425.0000    98.6484    10.0557     0.0136   930.7692     2.4581   -71.4604     5.8800     5.9827     6.7328
  425.5000    96.5433    10.0551     0.0122   931.5385     2.4504   -71.1722     5.6769     5.9376     6.9194
  426.0000    93.5373    10.0235     0.0152   932.3077     2.4443   -71.0320     5.4053     5.8935     7.0628
  426.5000    91.4323    10.0229     0.0212   933.0769     2.4350   -70.7411     5.1825     5.7690     7.1087
  427.0000    94.4323    10.0223     0.0242   923.0788     2.4243   -70.5983     5.0383     5.6081     7.0553
  427.5000    95.6305    10.0526     0.0303   903.7037     2.4012   -70.6113     4.8981     5.1569     7.0519
  428.0000    98.0299    10.0520     0.0364   904.6154     2.3735   -70.6217     4.6962     4.3027     7.0977
  428.5000    99.6562    10.0824     0.0486   905.3846     2.3489   -70.6320     4.5340     3.1461     7.2439
  429.0000   100.5616    10.1127     0.0546   906.1538     2.3289   -70.3412     4.3737     2.0584     6.6247
  429.5000   101.9249    10.1121     0.0422   906.9231     2.3013   -70.0504     4.2813     1.5156     3.9506
  430.0000   102.2222    10.1424     0.0237   923.0750     2.2982   -69.9076     4.2530     1.4896     2.8674
  430.5000    99.3238    10.1727    -0.0010   939.2307     2.3073   -69.4687     4.2811     8.0190     2.6924
  431.0000    96.1703    10.7913     0.0020   940.0000     2.3811   -69.3283     4.4295    15.1853     5.5088
  431.5000    94.0451    10.7288     0.0022   940.7692     2.4563   -68.8871     4.6155     7.0260     7.0732
  432.0000    91.9199    10.1090    -0.0013   941.6904     2.4747   -68.7389     4.8428     5.2413     7.6853
  432.5000    91.0962    10.0464    -0.0014   942.4501     2.4670   -68.3054     5.1167     6.5873     7.8984
  433.0000    92.9550    10.0458    -0.0015   912.3076     2.4593   -68.1385     5.4060     6.9611     8.0620
  433.5000    94.4985    10.0452     0.0015   913.2004     2.4531   -67.8744     5.9133     7.1526     8.1701
  434.0000    95.6717    10.0446     0.0047   913.9601     2.4547   -67.7341     6.2476     7.1997     8.2807
  434.5000    96.5345    10.0749     0.0138   914.7198     2.4626   -67.5965     6.5553     7.3475     8.3344
  435.0000    96.7870    10.1053     0.0197   915.4796     2.4735   -67.4537     6.7834     7.3949     8.2727
  435.5000    97.0844    10.1356     0.0230   916.2393     2.4825   -67.1655     6.8749     7.5458     8.2687
  436.0000    97.0811    10.1676     0.0291   916.9990     2.4870   -67.0252     6.8716     7.5955     8.2065
  436.5000    96.7778    10.2273     0.0353   917.7588     2.4901   -66.7344     6.8208     7.2808     8.2026
  437.0000    96.1942    10.2266     0.0414   918.5185     2.4916   -66.4436     6.9213     4.2038     8.0854
  437.5000    94.0691    10.2570     0.0469   919.2782     2.4944   -66.1502     7.2524     4.3304     8.0816
  438.0000    88.6005    10.2592     0.0400   920.0380     2.4938   -65.8619     7.5569     2.9468     8.1918
  438.5000    81.9360    10.2867     0.0336   920.7977     2.4851   -65.4205     7.8743     2.4921     8.7159
  439.0000    73.4293    10.2861     0.0313   921.5575     2.4689   -65.1295     8.2620     3.3355    10.5118
  439.5000    67.4555    10.3164     0.0312   922.3172     2.4441   -64.6877     8.6689     5.0926    13.1264
  440.0000    63.8238    10.3158     0.0311   923.0769     2.4073   -64.0863     9.0329     5.7280    11.9026
  440.5000    58.7057    10.3462     0.0310   923.8461     2.3705   -63.6356     9.3472     8.5060    10.7181
  441.0000    57.6817    10.3455     0.0169   924.6154     2.3401   -63.0653     9.5403    15.0267    10.4917
  441.5000    55.6316    10.3449     0.0037   925.3846     2.3207   -62.9225     9.5346    23.5896    10.8624
  442.0000    53.4415    10.3496    -0.0031   926.1538     2.3160   -62.6343     9.5301    34.3079    10.7614
  442.5000    50.5956    10.3747     0.0088   923.0779     2.3374   -62.6447     9.5255    48.1931    10.4632
  443.0000    50.1121    10.4050     0.0166   896.8661     2.3510   -62.5019     9.4552    57.7024    10.3978
  443.5000    53.7026    10.4043     0.0135   897.6923     2.3572   -62.5148     9.3794    65.8092    10.8358
  444.0000    57.0131    10.4347     0.0102   898.4615     2.3640   -62.3746     9.2412    36.4463    11.5304
  444.5000    61.7097    10.4341     0.0087   899.2308     2.3681   -62.2318     9.0557    17.4451    11.1309
  445.0000    64.2943    10.4645     0.0240   900.0000     2.3681   -62.0916     8.9267     9.9336    10.8203
  445.5000    65.4925    10.4638     0.0401   900.7692     2.3689   -61.9513     8.7996     8.7616    10.5918
  446.0000    64.7087    10.4632     0.0454   901.5385     2.3696   -61.8137     8.7346    13.1812    10.6606
  446.5000    63.3544    10.4625     0.0484   902.3077     2.3634   -61.6735     8.6701    14.2332    10.5817
  447.0000    61.7097    10.4619     0.0472   903.0770     2.3556   -61.6839     8.6659    12.9077    10.4305
  447.5000    60.6757    10.4923     0.0451   903.8462     2.3502   -61.5436     8.7221    18.1294    10.2815
  448.0000    59.4709    10.4916     0.0493   904.6154     2.3523   -61.5542     8.7179    24.5975    10.4224
  448.5000    58.2667    10.5221     0.0524   905.3846     2.3664   -61.5648     8.7755    32.4587    10.7170
  449.0000    57.3628    10.5311     0.0571   906.1538     2.3772   -61.5774     8.9546   101.3515    11.0064
  449.5000    58.5610    10.5518     0.0570   906.9231     2.3879   -61.5877     9.1385   403.5613    11.3102
  450.0000    59.7593    10.5821     0.0569   907.6923     2.3986   -61.5981     9.3262  1924.9534    11.3057
  450.5000    59.4560    10.5814     0.0568   908.4615     2.4001   -61.6085     9.4565  -999.2500    11.7058
  451.0000    58.8524    10.5808     0.0550   909.2308     2.3986   -61.6189     9.7132  -999.2500    12.2047
  451.5000    57.9485    10.5802     0.0505   910.0000     2.3939   -61.4786     9.8442  -999.2500    12.6367
  452.0000    58.2458    10.5796     0.0473   910.7692     2.3878   -61.4890     9.8936  -999.2500    12.9933
  452.5000    58.5432    10.5908     0.0472   911.6809     2.3816   -61.5007     9.9564  -999.2500    13.0870
  453.0000    59.4411    10.6094     0.0502   912.4407     2.3754   -61.5136    10.0192  -999.2500    12.6367
  453.5000    59.7384    10.6087     0.0532   943.9696     2.3739   -61.5266    10.0371  -999.2500    12.3663
