~VERSION INFORMATION
 VERS.                2.0:   CWLS LOG ASCII STANDARD - VERSION 2.0
 WRAP.                 NO:   ONE LINE PER DEPTH STEP
~WELL INFORMATION
#MNEM.UNIT      DATA TYPE    INFORMATION
#----------   ------------   ------------------------------
 STRT.F          640.0000:   START DEPTH
 STOP.F         2792.0000:   STOP DEPTH
 STEP.F            0.5000:   STEP LENGTH
 NULL.          -999.2500:   NO VALUE
 COMP.    FENIX & SCISSON:   COMPANY
 WELL.   FENIX SHX #41-11:   WELL
 FLD .        TEAPOT DOME:   FIELD
 LOC .      S11 T38N R78W:   LOCATION
 CNTY.            NATRONA:   COUNTY
 STAT.            WYOMING:   STATE
 CTRY. UNITED STATES OF AMERICA:   COUNTRY
 SRVC.           BIRDWELL:   SERVICE COMPANY
 DATE.        07-JUL-1979:   LOGDATE
 API .     49025107880000:   API NUMBER
~CURVE INFORMATION
#MNEM.UNIT       API CODE    CURVE DESCRIPTION
#----------   ------------   ------------------------------
 DEPT.F                  :   
 CALD.IN     45 280 60 00:   CALIPER FROM DENSITY LOG
 RHOB.G/C3   45 350 01 00:   BULK DENSITY
 CORR.G/C3   45 356 01 00:   DENSITY CORRECTION
 GRD .GAPI   45 310 01 00:   GAMMA RAY FROM DENSITY LOG
~PARAMETER INFORMATION
#MNEM.UNIT          VALUE    DESCRIPTION
#----------   ------------   ------------------------------
 EKB .F         5168.0000:   Kelly bushing
 EGL .F         5158.0000:   Ground level
 EDF .F            0.0000:   Drilling floor
 EPD .F            0.0000:   Permanent datum
 TD  .F         2801.0000:   Total depth
 DATE.        07-JUL-1979:   Date logged
 CLNT.            A2DTECH:   Client Code
 SL  . 95' FNL & 2414' FWL:   Surface Location
 PD  .                 GL:   Permanent Datum
 DAPD.F                10:   Feet Above Permanent Datum
 DD  .F              2801:   Depth driller
 DL  .F              2791:   Depth logger
 BLI .F              2790:   Bottom log interval
 TLI .F               640:   Top log interval
 CS1 .IN            9.625:   Casing size
 CBD1.      9.625" @ 909':   Casing driller 1
 CBL1.F               910:   Casing logger 1
 BS1 .IN             8.75:   Bit size
 BSD1.F              2801:   Depth drilled with bit1
 DFT .                AIR:   Type fluid in hole
 LUN .               2959:   Logging unit number
 LUL .             CASPER:   Logging unit location
 ENGI.         B. RULLINS:   Recorded By
 WITN.           GINSMORE:   Witnessed by
 ORIG.           5" PRINT:   Origin of data
 UWI .     49025107880000:   Unique Well ID
 DICO. A2D TECHNOLOGIES, INC.:   Digitizing Company
~OTHER INFORMATION
~A   DEPT     CALD       RHOB       CORR         GRD  
# ...
 1297.0000    10.2800     2.5140     0.0630   125.7410
 1297.5000    10.2130     2.5210     0.0620   123.1420
 1298.0000    10.1460     2.5220     0.0410   120.0830
 1298.5000    10.0850     2.5040     0.0190   117.5450
 1299.0000    10.0600     2.4810    -0.0030   118.2190
 1299.5000    10.0850     2.4730    -0.0070   119.7370
 1300.0000    10.1180     2.4790    -0.0080   120.1120
 1300.5000    10.1520     2.4870     0.0000   118.9410
 1301.0000    10.1860     2.4950     0.0100   119.2870
 1301.5000    10.2190     2.5030     0.0140   121.7620
 1302.0000    10.2530     2.5080     0.0140   124.2450
 1302.5000    10.2870     2.5090     0.0120   126.7210
 1303.0000    10.3200     2.5070     0.0090   128.5930
 1303.5000    10.3540     2.5040     0.0050   126.6580
 1304.0000    10.3880     2.5020     0.0040   119.8740
 1304.5000    10.4210     2.5000     0.0040   118.5270
 1305.0000    10.4560     2.5000     0.0040   121.0780
 1305.5000    10.4610     2.5000     0.0040   121.5950
 1306.0000    10.4520     2.5050     0.0100   117.0650
 1306.5000    10.4430     2.5100     0.0160   116.4500
 1307.0000    10.4330     2.5070     0.0220   117.8260
 1307.5000    10.4240     2.5050     0.0280   119.3530
 1308.0000    10.4150     2.5030     0.0340   119.7520
 1308.5000    10.4050     2.5030     0.0400   119.0440
 1309.0000    10.3960     2.5090     0.0460   118.0860
 1309.5000    10.3860     2.5120     0.0470   117.1030
 1310.0000    10.3770     2.4990     0.0320   116.9240
 1310.5000    10.3680     2.4850     0.0180   117.1740
 1311.0000    10.3580     2.4720     0.0030   119.4290
 1311.5000    10.3490     2.4690     0.0000   121.6660
 1312.0000    10.3400     2.4750     0.0020   122.7500
 1312.5000    10.3300     2.4830     0.0050   121.4190
 1313.0000    10.3230     2.4910     0.0110   119.7570
 1313.5000    10.3640     2.4990     0.0170   119.8980
 1314.0000    10.4730     2.5070     0.0240   119.9790
 1314.5000    10.5810     2.5090     0.0300   115.4090
 1315.0000    10.6910     2.5030     0.0300   115.8200
 1315.5000    10.7170     2.4930     0.0240   118.7740
 1316.0000    10.7100     2.4830     0.0170   121.8180
 1316.5000    10.7260     2.4780     0.0110   125.7310
 1317.0000    10.7040     2.4800     0.0230   125.1600
 1317.5000    10.7040     2.4860     0.0260   121.8030
 1318.0000    10.7040     2.4890     0.0210   122.1940
 1318.5000    10.7000     2.4920     0.0150   122.7420
 1319.0000    10.6310     2.4980     0.0100   122.2790
 1319.5000    10.5620     2.5040     0.0040   121.5980
 1320.0000    10.4930     2.5040    -0.0020   118.7050
 1320.5000    10.4260     2.5040    -0.0020   115.6550
 1321.0000    10.4070     2.5060     0.0010   118.5230
 1321.5000    10.3820     2.5080     0.0070   118.2830
 1322.0000    10.3560     2.5100     0.0140   119.8660
 1322.5000    10.3300     2.5120     0.0160   120.3610
 1323.0000    10.3030     2.5110     0.0120   119.3360
 1323.5000    10.2770     2.5070     0.0070   117.9080
 1324.0000    10.2510     2.5040     0.0020   116.9350
 1324.5000    10.2250     2.5000     0.0050   117.8420
 1325.0000    10.1990     2.4970     0.0180   118.7840
 1325.5000    10.1730     2.4980     0.0130   119.5970
 1326.0000    10.1470     2.5160     0.0110   116.2040
 1326.5000    10.1210     2.5360     0.0280   111.4650
 1327.0000    10.0950     2.5490     0.0340   114.0160
 1327.5000    10.0830     2.5400     0.0190   115.8800
 1328.0000    10.0850     2.5150     0.0050   114.6380
 1328.5000    10.0880     2.5140     0.0040   113.3600
 1329.0000    10.0910     2.5370     0.0050   117.6930
 1329.5000    10.0940     2.5390     0.0060   119.9040
 1330.0000    10.0960     2.5260     0.0060   119.5380
 1330.5000    10.0990     2.5140     0.0060   117.6520
 1331.0000    10.1020     2.5050     0.0050   116.7010
 1331.5000    10.1050     2.4970     0.0030   118.3140
 1332.0000    10.1080     2.4950     0.0020   120.5130
 1332.5000    10.1100     2.5010     0.0060   120.7480
 1333.0000    10.1130     2.5180     0.0120   119.9430
 1333.5000    10.1160     2.5340     0.0140   115.5860
 1334.0000    10.1190     2.5280     0.0070   111.1640
 1334.5000    10.1210     2.5140     0.0020   109.3540
 1335.0000    10.1580     2.4990     0.0000   115.4570
 1335.5000    10.2070     2.4850     0.0020   115.5250
 1336.0000    10.2580     2.4810     0.0040   120.5840
 1336.5000    10.3080     2.4810     0.0060   123.3730
 1337.0000    10.3580     2.4930     0.0060   122.9230
 1337.5000    10.4080     2.5080     0.0030   121.8950
 1338.0000    10.4580     2.5240     0.0010   120.8660
 1338.5000    10.5030     2.5390     0.0000   119.7960
 1339.0000    10.5050     2.5480     0.0070   119.4850
 1339.5000    10.5060     2.5410     0.0180   119.3650
 1340.0000    10.5080     2.5250     0.0240   120.5490
 1340.5000    10.5100     2.5090     0.0160   121.8290
 1341.0000    10.5110     2.4930     0.0080   123.0940
 1341.5000    10.5130     2.4820     0.0000   124.2880
 1342.0000    10.5140     2.4810    -0.0060   126.1610
 1342.5000    10.5160     2.4900    -0.0040   132.6710
 1343.0000    10.5180     2.5010     0.0040   132.7480
 1343.5000    10.5190     2.5120     0.0120   132.7670
 1344.0000    10.5210     2.5160     0.0160   132.6480
 1344.5000    10.5220     2.5120     0.0160   135.9090
 1345.0000    10.5660     2.5090     0.0160   139.2930
 1345.5000    10.6340     2.5110     0.0230   137.6180
 1346.0000    10.7030     2.5160     0.0260   134.9450
 1346.5000    10.7720     2.5020     0.0140   132.2530
 1347.0000    10.7750     2.4870     0.0020   129.5400
 1347.5000    10.7230     2.4710     0.0020   128.3610
 1348.0000    10.6700     2.4710     0.0120   129.0230
 1348.5000    10.6170     2.4940     0.0390   129.8810
 1349.0000    10.5640     2.5140     0.0410   130.5770
 1349.5000    10.5110     2.5340     0.0480   130.4890
 1350.0000    10.4580     2.5420     0.0520   128.2030
 1350.5000    10.4050     2.5350     0.0500   124.8320
 1351.0000    10.3520     2.5220     0.0280   123.1480
 1351.5000    10.2990     2.5080     0.0130   120.4690
 1352.0000    10.2460     2.4950     0.0130   117.8100
 1352.5000    10.1940     2.4870     0.0160   115.1410
 1353.0000    10.1620     2.4870     0.0180   112.4670
 1353.5000    10.1630     2.4870     0.0130   109.9700
 1354.0000    10.1670     2.4790     0.0050   109.8860
 1354.5000    10.1710     2.4780     0.0040   110.6860
 1355.0000    10.1750     2.4830     0.0080   111.3270
 1355.5000    10.1780     2.4910     0.0160   110.8430
 1356.0000    10.1820     2.4990     0.0240   109.2380
 1356.5000    10.1860     2.5070     0.0320   107.7420
 1357.0000    10.1900     2.5150     0.0360   108.5210
 1357.5000    10.1930     2.5170     0.0360   110.7810
 1358.0000    10.1970     2.5130     0.0330   112.7230
 1358.5000    10.2010     2.5050     0.0290   112.7740
 1359.0000    10.2050     2.5020     0.0280   111.2930
 1359.5000    10.2090     2.5030     0.0280   109.5740
 1360.0000    10.2120     2.5060     0.0280   107.7430
 1360.5000    10.2160     2.5070     0.0280   107.6060
 1361.0000    10.2200     2.5060     0.0220   110.5410
 1361.5000    10.2220     2.5050     0.0160   113.9330
 1362.0000    10.2200     2.5050     0.0100   117.2680
 1362.5000    10.2170     2.5150     0.0100   117.1370
 1363.0000    10.2150     2.5260     0.0110   114.7460
 1363.5000    10.2120     2.5300     0.0150   112.3910
 1364.0000    10.2100     2.5270     0.0160   110.0510
 1364.5000    10.2070     2.5110     0.0160   107.7050
 1365.0000    10.2050     2.4950     0.0130   106.4070
 1365.5000    10.2020     2.4890     0.0110   106.2280
 1366.0000    10.2000     2.5000     0.0150   110.0340
 1366.5000    10.1970     2.5090     0.0210   112.4760
 1367.0000    10.1950     2.5110     0.0220   112.9390
 1367.5000    10.1920     2.5030     0.0180   114.1890
 1368.0000    10.1900     2.4960     0.0100   114.9360
 1368.5000    10.1870     2.4880     0.0030   114.7520
 1369.0000    10.1840     2.4850     0.0020   113.8730
 1369.5000    10.1840     2.4910     0.0020   113.0290
