~VERSION INFORMATION
 VERS.                2.0:   CWLS LOG ASCII STANDARD - VERSION 2.0
 WRAP.                 NO:   ONE LINE PER DEPTH STEP
~WELL INFORMATION
#MNEM.UNIT      DATA TYPE    INFORMATION
#----------   ------------   ------------------------------
 STRT.F           31.0000:   START DEPTH
 STOP.F         2926.0000:   STOP DEPTH
 STEP.F            0.5000:   STEP LENGTH
 NULL.          -999.2500:   NO VALUE
 COMP. LAWERNCE ALLISON AND ASSOCIATES:   COMPANY
 WELL.   FENIX "X" #17-21:   WELL
 FLD .             NPR #3:   FIELD
 LOC .      S21 T39N R78W:   LOCATION
 CNTY.            NATRONA:   COUNTY
 STAT.            WYOMING:   STATE
 CTRY. UNITED STATES OF AMERICA:   COUNTRY
 SRVC.      WESTERN ATLAS:   SERVICE COMPANY
 DATE.        02-NOV-1987:   LOGDATE
 API .     49025111960000:   API NUMBER
~CURVE INFORMATION
#MNEM.UNIT       API CODE    CURVE DESCRIPTION
#----------   ------------   ------------------------------
 DEPT.F                  :   
 CALD.IN     45 280 60 00:   CALIPER FROM DENSITY LOG
 TEND.LBS    45 635 01 00:   TENSION FROM DENSITY LOG
 CORR.G/C3   45 356 01 00:   DENSITY CORRECTION
 RHOB.G/C3   45 350 01 00:   BULK DENSITY
 CNC .DEC    42 890 03 00:   NEUTRON POROSITY SANDSTONE
 SPR .MV     07 010 01 00:   SPONTANEOUS POTENTIAL
 GRR .GAPI   07 310 01 00:   GAMMA RAY FROM RESISTIVITY
 TENR.LBS    07 635 01 00:   TENSION FROM RESISTIVITY
 RFOC.OHMM   07 220 04 00:   RESISTIVITY FOCUSED LOG RES.
 RILD.OHMM   07 120 46 00:   DEEP INDUCTION RESISTIVITY
 RILM.OHMM   07 120 44 00:   INDUCTION LOG MEDIUM RESISTIVITY
~PARAMETER INFORMATION
#MNEM.UNIT          VALUE    DESCRIPTION
#----------   ------------   ------------------------------
 EKB .F         5006.0000:   Kelly bushing
 EGL .F         4995.0000:   Ground level
 EDF .F            0.0000:   Drilling floor
 TD  .F         2915.0000:   Total depth
 DATE.        02-NOV-1987:   Date logged
 CLNT.            A2DTECH:   Client Code
 SL  . 1824' FSL & 399' FWL:   Surface Location
 PD  .                 GL:   Permanent Datum
 DD  .F              2911:   Depth driller
 DL  .F              2915:   Depth logger
 BLI .F              2913:   Bottom log interval
 CS1 .IN            8.625:   Casing size
 CBD1.      8.625" @ 350':   Casing driller 1
 CBL1.F               350:   Casing logger 1
 BS1 .IN            7.875:   Bit size
 DFT .        KCL-POLYMER:   Type fluid in hole
 DFD .                8.8:   Density
 DFV .                 42:   Viscosity
 DFPH.                9.5:   pH
 DFL .                 11:   Fluid loss
 MSS .           FLOWLINE:   Source of sample
 RMS .OHMM           0.41:   Rm
 MST .F                78:   Rm Meas. temp.
 RMF .OHMM           0.29:   Rmf
 MFST.F                78:   Rmf Meas. temp.
 RMC .OHMM           0.51:   Rmc
 MCST.F                78:   Rmc Meas. temp.
 MFSS.               MEAS:   Source Rmf.
 RMB .OHMM           0.29:   Rm. at BHT
 BHT .F               108:   BHT.
 TCS .HRS               5:   Time Circ. stopped
 MRT .F               108:   Maximum recorded temp.
 LUN .            HL-6274:   Logging unit number
 LUL .           GILLETTE:   Logging unit location
 WITN.             STRONG:   Witnessed by
 ORIG.           5" PRINT:   Origin of data
 UWI .     49025111960000:   Unique Well ID
 DICO. A2D TECHNOLOGIES, INC.:   Digitizing Company
 DAPD.                 11:   Feet Above Permanent Datum
 BSD1.               2911:   Depth drilled with bit1
 MCSS.               CALC:   Source Rmc.
 EPD .               4995:   Elevation Permanent Datum
 LMF .                 KB:   Log Measured From
 DMF .                 KB:   Drilling Measured From
 TLI .                 11:   Top log interval
~OTHER INFORMATION
~A   DEPT     CALD       TEND       CORR       RHOB        CNC        SPR         GRR      TENR       RFOC       RILD       RILM   
# ...
 1891.5000  -999.2500  -999.2500  -999.2500  -999.2500  -999.2500   -28.8820   104.3160   -27.7120     8.1090     8.0750     8.2340
 1892.0000  -999.2500  -999.2500  -999.2500  -999.2500  -999.2500   -29.1310   103.1920   -27.5730     7.8350     7.8740     8.1010
 1892.5000  -999.2500  -999.2500  -999.2500  -999.2500  -999.2500   -29.8560   103.4910   -27.4350     7.5600     7.6730     8.0340
 1893.0000  -999.2500  -999.2500  -999.2500  -999.2500  -999.2500   -29.6660   104.6720   -27.2960     7.6140     7.6140     7.7510
 1893.5000  -999.2500  -999.2500  -999.2500  -999.2500  -999.2500   -29.5990   104.3950   -27.1580     8.1640     7.6140     7.7510
 1894.0000  -999.2500  -999.2500  -999.2500  -999.2500  -999.2500   -29.4770   100.6750   -27.0190     8.7850     7.6140     7.7970
 1894.5000  -999.2500  -999.2500  -999.2500  -999.2500  -999.2500   -29.3040    97.4830   -26.8810     8.7850     7.6140     7.8370
 1895.0000  -999.2500  -999.2500  -999.2500  -999.2500  -999.2500   -28.9510   100.0910   -26.7420     8.7850     7.6140     7.8770
 1895.5000  -999.2500  -999.2500  -999.2500  -999.2500  -999.2500   -29.0030   101.4730   -26.6030     8.7850     7.7020     7.9170
 1896.0000  -999.2500  -999.2500  -999.2500  -999.2500  -999.2500   -28.9760   101.5100   -26.4650     8.7850     7.7510     7.9570
 1896.5000  -999.2500  -999.2500  -999.2500  -999.2500  -999.2500   -28.9620   101.6120   -26.3260     8.7850     7.7300     7.9970
 1897.0000  -999.2500  -999.2500  -999.2500  -999.2500  -999.2500   -28.9540   101.4950   -26.1880     8.7850     7.6440     8.0340
 1897.5000  -999.2500  -999.2500  -999.2500  -999.2500  -999.2500   -28.9380   101.5860   -26.0490     8.7850     7.5590     7.9810
 1898.0000  -999.2500  -999.2500  -999.2500  -999.2500  -999.2500   -28.9260   101.7740   -25.9110     8.6290     7.4740     7.8030
 1898.5000  -999.2500  -999.2500  -999.2500  -999.2500  -999.2500   -28.9130   104.4960   -25.7720     8.1820     7.3880     7.6140
 1899.0000  -999.2500  -999.2500  -999.2500  -999.2500  -999.2500   -28.9000   107.0870   -25.6330     7.7820     7.3030     7.4790
 1899.5000  -999.2500  -999.2500  -999.2500  -999.2500  -999.2500   -28.8870   106.3160   -25.4950     7.2160     7.2160     7.5600
 1900.0000  -999.2500  -999.2500  -999.2500  -999.2500  -999.2500   -28.8740   104.7540   -25.3560     7.3460     7.2910     7.7760
 1900.5000  -999.2500  -999.2500  -999.2500  -999.2500  -999.2500   -28.8610   103.1630   -25.2180     9.0640     7.4170     7.9920
 1901.0000  -999.2500  -999.2500  -999.2500  -999.2500  -999.2500   -28.8480   104.7280   -25.0790     9.9570     7.5430     8.2090
 1901.5000  -999.2500  -999.2500  -999.2500  -999.2500  -999.2500   -28.8350   103.3460   -24.9400     9.6020     7.8270     8.4250
 1902.0000  -999.2500  -999.2500  -999.2500  -999.2500  -999.2500   -28.8220    99.9460   -24.8020     9.1770     8.3090     8.6410
 1902.5000  -999.2500  -999.2500  -999.2500  -999.2500  -999.2500   -28.8090    98.5110   -24.6630     8.7850     8.9440     8.8570
 1903.0000  -999.2500  -999.2500  -999.2500  -999.2500  -999.2500   -28.7960    99.2400   -24.5250     8.9670     8.9360     9.0740
 1903.5000  -999.2500  -999.2500  -999.2500  -999.2500  -999.2500   -28.7830    99.6030   -24.3860     9.5910     8.9090     9.2900
 1904.0000  -999.2500  -999.2500  -999.2500  -999.2500  -999.2500   -28.7690   101.1020   -24.2480    10.2160     8.8820     9.5060
 1904.5000  -999.2500  -999.2500  -999.2500  -999.2500  -999.2500   -28.7560   104.3320   -24.1090    10.5060     8.8550     9.6070
 1905.0000  -999.2500  -999.2500  -999.2500  -999.2500  -999.2500   -28.7430   107.4820   -23.9700    10.0020     8.8280     9.5400
 1905.5000  -999.2500  -999.2500  -999.2500  -999.2500  -999.2500   -28.7300   105.1650   -23.8320     9.5610     8.8020     9.3500
 1906.0000  -999.2500  -999.2500  -999.2500  -999.2500  -999.2500   -28.7170   104.1310   -23.6930     9.1210     8.7850     9.1600
 1906.5000  -999.2500  -999.2500  -999.2500  -999.2500  -999.2500   -28.7040   104.7290   -23.5550     8.9440     8.8240     8.9700
 1907.0000  -999.2500  -999.2500  -999.2500  -999.2500  -999.2500   -28.6910   105.3520   -23.4160     8.9440     8.8620     8.7850
 1907.5000  -999.2500  -999.2500  -999.2500  -999.2500  -999.2500   -28.6780   102.5040   -23.2770     8.9440     8.9010     8.7850
 1908.0000  -999.2500  -999.2500  -999.2500  -999.2500  -999.2500   -28.6650   102.4480   -23.1390     8.9440     8.9400     8.9270
 1908.5000  -999.2500  -999.2500  -999.2500  -999.2500  -999.2500   -28.6520   103.4610   -23.0000     9.2690     8.9780     9.0960
 1909.0000  -999.2500  -999.2500  -999.2500  -999.2500  -999.2500   -28.6390   103.4300   -22.8620     9.4370     9.0170     9.2640
 1909.5000  -999.2500  -999.2500  -999.2500  -999.2500  -999.2500   -28.6250   103.7900   -22.7230     9.7470     9.0560     9.4330
 1910.0000  -999.2500  -999.2500  -999.2500  -999.2500  -999.2500   -28.6140   104.6160   -22.5850    10.3190     9.0940     9.6010
 1910.5000  -999.2500  -999.2500  -999.2500  -999.2500  -999.2500   -28.6020   105.0560   -22.4460    10.2210     9.1050     9.7800
 1911.0000  -999.2500  -999.2500  -999.2500  -999.2500  -999.2500   -28.6590   104.7670   -22.3070     9.9250     8.9530     9.5120
 1911.5000  -999.2500  -999.2500  -999.2500  -999.2500  -999.2500   -28.7220   101.9520   -22.1690     9.6280     8.7910     9.3380
 1912.0000  -999.2500  -999.2500  -999.2500  -999.2500  -999.2500   -28.7870   100.4840   -22.0300     9.3320     8.6280     9.1640
 1912.5000  -999.2500  -999.2500  -999.2500  -999.2500  -999.2500   -28.8500   101.2080   -21.8920     9.0350     8.4660     8.9890
 1913.0000  -999.2500  -999.2500  -999.2500  -999.2500  -999.2500   -28.9140   102.2790   -21.7530     8.7390     8.3040     8.8150
 1913.5000  -999.2500  -999.2500  -999.2500  -999.2500  -999.2500   -28.9780   106.5720   -21.6140     8.4420     8.1420     8.6410
 1914.0000  -999.2500  -999.2500  -999.2500  -999.2500  -999.2500   -29.0420   109.9230   -21.4760     8.1460     7.9790     8.4660
 1914.5000  -999.2500  -999.2500  -999.2500  -999.2500  -999.2500   -29.1060   109.7950   -21.3370     7.7510     7.8910     8.2920
 1915.0000  -999.2500  -999.2500  -999.2500  -999.2500  -999.2500   -29.1700   109.4990   -21.1990     7.8120     7.8910     8.1180
 1915.5000  -999.2500  -999.2500  -999.2500  -999.2500  -999.2500   -29.2330   113.1000   -21.0600     8.0310     7.6140     7.9430
 1916.0000  -999.2500  -999.2500  -999.2500  -999.2500  -999.2500   -29.2980   115.6700   -20.9220     8.2490     7.6220     7.8910
 1916.5000  -999.2500  -999.2500  -999.2500  -999.2500  -999.2500   -29.3600   110.6400   -20.7830     8.4680     7.6470     7.8910
 1917.0000  -999.2500  -999.2500  -999.2500  -999.2500  -999.2500   -29.3700   107.1600   -20.6440     8.6870     7.6720     7.8980
 1917.5000  -999.2500  -999.2500  -999.2500  -999.2500  -999.2500   -29.2240   106.4810   -20.5060     8.7850     7.6960     7.9180
 1918.0000  -999.2500  -999.2500  -999.2500  -999.2500  -999.2500   -29.0620   109.3560   -20.3670     8.7850     7.7210     7.9380
 1918.5000  -999.2500  -999.2500  -999.2500  -999.2500  -999.2500   -28.8760   109.1070   -20.2290     8.7850     7.7460     7.9580
 1919.0000  -999.2500  -999.2500  -999.2500  -999.2500  -999.2500   -28.7660   108.5820   -20.0900     8.7850     7.7220     7.9780
 1919.5000  -999.2500  -999.2500  -999.2500  -999.2500  -999.2500   -28.2840    99.4470   -19.9520     8.6610     7.6850     7.9990
 1920.0000  -999.2500  -999.2500  -999.2500  -999.2500  -999.2500   -28.2140    97.1390   -19.8130     8.4590     7.6490     8.0190
 1920.5000  -999.2500  -999.2500  -999.2500  -999.2500  -999.2500   -28.1930    95.4820   -19.6740     8.2570     7.6120     8.0340
 1921.0000  -999.2500  -999.2500  -999.2500  -999.2500  -999.2500   -28.2680    97.9240   -19.5360     8.0550     7.5750     8.0360
 1921.5000  -999.2500  -999.2500  -999.2500  -999.2500  -999.2500   -28.3840   102.2590   -19.3970     7.8530     7.5380     8.0330
