~VERSION INFORMATION
 VERS.                2.0:   CWLS LOG ASCII STANDARD - VERSION 2.0
 WRAP.                 NO:   ONE LINE PER DEPTH STEP
~WELL INFORMATION
#MNEM.UNIT      DATA TYPE    INFORMATION
#----------   ------------   ------------------------------
 STRT.F          196.5000:   START DEPTH
 STOP.F         3202.0000:   STOP DEPTH
 STEP.F            0.5000:   STEP LENGTH
 NULL.          -999.2500:   NO VALUE
 COMP.    FENIX & SCISSON:   COMPANY
 WELL.   FENIX "AX" #26-3:   WELL
 FLD .              NPR-3:   FIELD
 LOC .       S3 T38N R78W:   LOCATION
 CNTY.            NATRONA:   COUNTY
 STAT.            WYOMING:   STATE
 CTRY. UNITED STATES OF AMERICA:   COUNTRY
 SRVC.              WELEX:   SERVICE COMPANY
 DATE.        19-JUN-1977:   LOGDATE
 API .     49025103800000:   API NUMBER
~CURVE INFORMATION
#MNEM.UNIT       API CODE    CURVE DESCRIPTION
#----------   ------------   ------------------------------
 DEPT.F                  :   
 CALD.IN     45 280 60 00:   CALIPER FROM DENSITY LOG
 GRD .GAPI   45 310 01 00:   GAMMA RAY FROM DENSITY LOG
 RHOB.G/C3   45 350 01 00:   BULK DENSITY
 CORR.G/C3   45 356 01 00:   DENSITY CORRECTION
 SPR .MV     07 010 01 00:   SPONTANEOUS POTENTIAL
 ILD .OHMM   07 120 46 00:   DEEP INDUCTION RESISTIVITY
 ILM .OHMM   07 120 44 00:   INDUCTION LOG MEDIUM RESISTIVITY
 SGRD.OHMM   07 220 05 00:   SHALLOW SHORT GUARD RESISTIVITY
~PARAMETER INFORMATION
#MNEM.UNIT          VALUE    DESCRIPTION
#----------   ------------   ------------------------------
 EKB .F         5231.0000:   Kelly bushing
 EGL .F         5221.0000:   Ground level
 EDF .F            0.0000:   Drilling floor
 TD  .F         3204.0000:   Total depth
 CLNT.            A2DTECH:   Client Code
 SL  . 1320' FSL & 740' FWL:   Surface Location
 PD  .                 GL:   Permanent Datum
 EPD .F              5221:   Elevation Permanent Datum
 LMF .                 KB:   Log Measured From
 DMF .                 KB:   Drilling Measured From
 DAPD.F                10:   Feet Above Permanent Datum
 DATE.        19-JUN-1977:   Date Logged [DD-MMM-YYYY]
 DD  .F              3200:   Depth driller
 DL  .F              3204:   Depth logger
 BLI .F              3202:   Bottom log interval
 TLI .F               220:   Top log interval
 CS1 .IN            8.625:   Casing size
 CBD1.      8.625" @ 220':   Casing driller 1
 CBL1.F               220:   Casing logger 1
 BS1 .IN            7.875:   Bit size
 BSD1.F              3200:   Depth drilled with bit1
 DFT .                KCL:   Type fluid in hole
 DFD .                9.1:   Density
 RMS .OHMM           1.19:   Rm
 MST .F                65:   Rm Meas. temp.
 TCS .HRS               4:   Time Circ. stopped
 MRT .F               115:   Maximum recorded temp.
 LUN .               8766:   Logging unit number
 ENGI.          T. JOYNER:   Recorded By
 WITN.         PETTINGILL:   Witnessed by
 ORIG.           5" PRINT:   Origin of data
 UWI .     49025103800000:   Unique Well ID
 DICO. A2D TECHNOLOGIES, INC.:   Digitizing Company
 DFPH.                7.5:   pH
 DFL .                4.2:   Fluid loss
 MSS .            MUD PIT:   Source of sample
 RMF .OHMM           1.19:   Rmf
 MFST.F                65:   Rmf Meas. temp.
 MFSS.               MEAS:   Source Rmf.
 RMC .OHMM           2.01:   Rmc
 MCST.F                65:   Rmc Meas. temp.
 MCSS.               MEAS:   Source Rmc.
 RMB .OHMM            .67:   Rm. at BHT
 BHT .F               115:   BHT.
~OTHER INFORMATION
~A   DEPT     CALD         GRD      RHOB       CORR        SPR        ILD        ILM       SGRD   
# ...
 1006.5000     9.4759    85.9975     2.4374     0.0066   -53.9497     9.0316     9.4050     9.9213
 1007.0000     9.4776    85.4386     2.4360     0.0067   -53.9322     8.9748     9.4114     9.9967
 1007.5000     9.4943    84.5971     2.4332     0.0061   -53.9178     8.9834     9.4178    10.1423
 1008.0000     9.5109    84.9405     2.4310     0.0063   -53.9035     8.7477     9.4243    10.2900
 1008.5000     9.5127    85.5886     2.4289     0.0056   -54.0406     8.7168     9.4319    10.2969
 1009.0000     9.4991    85.9301     2.4290     0.0058   -54.0226     8.6080     9.4383    10.4471
 1009.5000     9.5013    86.2606     2.4292     0.0059   -54.0082     8.4961     9.4446    10.3821
 1010.0000     9.4882    85.4225     2.4293     0.0061   -53.9938     8.3847     9.4509    10.3178
 1010.5000     9.4899    84.2759     2.4294     0.0070   -53.9793     8.3889     9.4573    10.2555
 1011.0000     9.5065    83.1292     2.4296     0.0078   -53.9645     8.3764     9.4637    10.1902
 1011.5000     9.5083    82.8645     2.4312     0.0085   -53.9471     8.3411     9.4700    10.0574
 1012.0000     9.5101    84.7050     2.4341     0.0096   -53.9327     8.2890     9.4765    10.0659
 1012.5000     9.5122    83.8560     2.4382     0.0112   -54.1114     8.2937     9.4174    10.0727
 1013.0000     9.5140    82.1141     2.4420     0.0113   -54.3214     8.2985     9.3589    10.0794
 1013.5000     9.5157    80.0746     2.4451     0.0115   -54.4147     8.3033     9.3007    10.0862
 1014.0000     9.5175    79.2256     2.4475     0.0124   -54.4024     8.3091     9.2605    10.0931
 1014.5000     9.5039    79.9037     2.4506     0.0133   -54.3887     8.3138     9.0164    10.1000
 1015.0000     9.5061    85.2766     2.4522     0.0149   -54.3772     8.3186     8.8993    10.1070
 1015.5000     9.4930    82.6419     2.4539     0.0150   -54.3669     8.3808     8.7837    10.1140
 1016.0000     9.4645    82.0795     2.4540     0.0144   -54.3284     8.3852     8.7902    10.1219
 1016.5000     9.4518    85.1105     2.4526     0.0138   -54.1024     8.4483     8.9193    10.1288
 1017.0000     9.4685    82.7734     2.4513     0.0124   -54.0355     8.4530     9.0517    10.1356
 1017.5000     9.5151    79.8411     2.4499     0.0110   -54.0218     8.4857     9.1844    10.1424
 1018.0000     9.5464    82.5635     2.4485     0.0104   -54.0118     8.5802     9.2550    10.1492
 1018.5000     9.5481    80.2263     2.4479     0.0098   -54.0000     8.6476     9.3261    10.2263
 1019.0000     9.4610    79.0688     2.4488     0.0100   -53.8383     8.7704     9.3323    10.3760
 1019.5000     9.4628    82.9926     2.4497     0.0101   -53.8268     8.8970     9.4260    10.1686
 1020.0000     9.4645    80.3579     2.4505     0.0102   -53.8166     8.9636     9.5017    10.4617
 1020.5000     9.4663    79.8065     2.4507     0.0104   -53.8037     9.0931     9.6159    10.6141
 1021.0000     9.4681    82.8274     2.4508     0.0105   -53.7929     9.0978     9.7570    10.7733
 1021.5000     9.4698    79.4154     2.4509     0.0106   -53.7811     9.1034     9.8320    10.9258
 1022.0000     9.4864    77.2594     2.4503     0.0108   -53.7691     9.1086     9.8395    10.9348
 1022.5000     9.5031    81.1833     2.4504     0.0102   -53.7574     9.1138     9.8484    10.9421
 1023.0000     9.5048    79.4414     2.4491     0.0095   -53.7456     9.1191     9.7860    10.9495
 1023.5000     9.4917    76.5090     2.4477     0.0089   -53.7335     9.1255     9.7951    10.8798
 1024.0000     9.4786    74.7672     2.4456     0.0098   -53.7201     9.1298     9.6670    10.8123
 1024.5000     9.4654    79.2753     2.4435     0.0107   -53.7086     9.1359     9.6743    10.6732
 1025.0000     9.4697    78.7239     2.4421     0.0116   -53.6982     9.0149     9.6822    10.6804
 1025.5000     9.4843    76.3868     2.4414     0.0117   -53.6864     8.8980     9.6894    10.6876
 1026.0000     9.4707    75.8244     2.4431     0.0126   -53.6740     8.9027     9.5339    10.6948
 1026.5000     9.4576    77.0697     2.4447     0.0142   -53.6057     8.9079     9.4071    10.8508
 1027.0000     9.4444    78.6016     2.4456     0.0151   -53.5030     8.9752     9.3167    11.0866
 1027.5000     9.4317    80.1336     2.4465     0.0152   -53.4911     9.0419     9.2594    11.2481
 1028.0000     9.4335    78.3295     2.4466     0.0154   -53.4770     9.1727     9.2872    11.3336
 1028.5000     9.4352    77.5427     2.4490     0.0155   -53.4675     9.1782     9.3392    11.3412
 1029.0000     9.4668    80.5737     2.4545     0.0157   -53.4568     9.2114     9.4853    11.3488
 1029.5000     9.4834    81.5104     2.4604     0.0158   -53.5917     9.2522     9.6152    11.2765
 1030.0000     9.4851    82.7447     2.4643     0.0159   -53.5799     9.2583     9.6890    11.2085
 1030.5000     9.4869    83.3838     2.4629     0.0153   -53.5673     9.2635     9.7634    11.2160
 1031.0000     9.5036    81.3442     2.4608     0.0147   -53.5558     9.2039     9.7707    11.0699
 1031.5000     9.5054    82.2810     2.4579     0.0148   -53.6923     9.1473     9.7105    10.9257
 1032.0000     9.5075    85.2900     2.4566     0.0150   -53.6805     9.0897     9.6492    10.8598
 1032.5000     9.4943    83.2615     2.4552     0.0151   -53.6586     9.0001     9.5255    10.7906
 1033.0000     9.4808    83.3053     2.4546     0.0152   -53.5068     8.9665     9.4687    10.7174
 1033.5000     9.4528    86.6230     2.4539     0.0154   -53.6450     8.8580     9.3457    10.6572
 1034.0000     9.4550    87.5672     2.4571     0.0162   -53.6331     8.8035     9.2744    10.5635
 1034.5000     9.4567    85.2226     2.4602     0.0164   -53.6201     8.7784     9.1676    10.5024
 1035.0000     9.4733    87.0521     2.4633     0.0165   -53.6086     8.7519     9.1236    10.4615
 1035.5000     9.4900    81.4521     2.4649     0.0167   -53.5976     8.6384     9.0535    10.4689
 1036.0000     9.4917    83.5793     2.4651     0.0160   -53.5858     8.6430     9.0620    10.5484
 1036.5000     9.4935    85.1003     2.4637     0.0154   -53.7219     8.6481     9.0687    10.5557
 1037.0000     9.4804    82.7741     2.4638     0.0155   -53.8580     8.5938     9.1383    10.5629
 1037.5000     9.4821    80.7346     2.4662     0.0149   -53.8462     8.5987     9.2086    10.5702
 1038.0000     9.4839    81.9690     2.4678     0.0151   -53.8333     8.5448     9.2156    10.5787
 1038.5000     9.4860    84.3828     2.4672     0.0152   -53.8208     8.5498     9.2227    10.5858
 1039.0000     9.5027    79.3781     2.4665     0.0136   -53.8093     8.5548     9.2937    10.5184
 1039.5000     9.5044    80.9100     2.4682     0.0125   -53.9486     8.5604     9.3007    10.4531
 1040.0000     9.5062    80.6562     2.4683     0.0126   -54.0821     8.5648     9.3080    10.4619
 1040.5000     9.5079    77.7239     2.4662     0.0120   -54.0710     8.5706     9.3155    10.4687
 1041.0000     9.5097    77.7761     2.4641     0.0122   -54.0592     8.5749     9.3871    10.4759
 1041.5000     9.4961    79.8958     2.4612     0.0111   -54.0456     8.5799     9.3940    10.4843
 1042.0000     9.4830    78.4047     2.4583     0.0102   -54.1858     8.5849     9.4010    10.5629
 1042.5000     9.4852    80.8864     2.4562     0.0103   -54.1716     8.5899     9.4080    10.5770
 1043.0000     9.4869    79.7397     2.4564     0.0105   -54.2462     8.5950     9.3796    10.6519
 1043.5000     9.4887    78.5821     2.4572     0.0098   -54.2959     8.6000     9.3575    10.6580
 1044.0000     9.4905    82.5060     2.4551     0.0092   -54.2840     8.6050     9.3658    10.5912
 1044.5000     9.4923    82.8365     2.4530     0.0086   -54.2713     8.6106     9.4377    10.5261
 1045.0000     9.4944    80.2127     2.4509     0.0080   -54.4083     8.6155     9.3797    10.5344
 1045.5000     9.4659    82.3399     2.4458     0.0081   -54.3965     8.6201     9.3521    10.5411
 1046.0000     9.4681    82.6704     2.4437     0.0083   -54.3846     8.6254     9.3273    10.5486
 1046.5000     9.4699    80.0466     2.4423     0.0077   -54.3728     8.5329     9.3359    10.5196
