~VERSION INFORMATION
 VERS.                2.0:   CWLS LOG ASCII STANDARD - VERSION 2.0
 WRAP.                 NO:   ONE LINE PER DEPTH STEP
~WELL INFORMATION
#MNEM.UNIT      DATA TYPE    INFORMATION
#----------   ------------   ------------------------------
 STRT.F            0.5000:   START DEPTH
 STOP.F          582.5000:   STOP DEPTH
 STEP.F            0.5000:   STEP LENGTH
 NULL.          -999.2500:   NO VALUE
 COMP.   LAWRENCE ALLISON:   COMPANY
 WELL. LAWRANCE SHX #31-34:   WELL
 FLD .             NPR #3:   FIELD
 LOC .      S34 T39N R78W:   LOCATION
 CNTY.            NATRONA:   COUNTY
 STAT.            WYOMING:   STATE
 CTRY. UNITED STATES OF AMERICA:   COUNTRY
 SRVC.           GEARHART:   SERVICE COMPANY
 DATE.        22-SEP-1988:   LOGDATE
 API .     49025112470000:   API NUMBER
~CURVE INFORMATION
#MNEM.UNIT       API CODE    CURVE DESCRIPTION
#----------   ------------   ------------------------------
 DEPT.F                  :   
 GRR .GAPI   07 310 01 00:   GAMMA RAY FROM RESISTIVITY
 RILD.OHMM   07 120 46 00:   RESISTIVITY INDUCTION LOG DEEP
 RILM.OHMM   07 120 44 00:   RESISTIVITY INDUCTION LOG MEDIUM
 TENR.LBS    07 635 01 00:   TENSION FROM RESISTIVITY
~PARAMETER INFORMATION
#MNEM.UNIT          VALUE    DESCRIPTION
#----------   ------------   ------------------------------
 EKB .F         5075.0000:   Kelly bushing
 EGL .F         5065.0000:   Ground level
 EDF .F            0.0000:   Drilling floor
 TD  .F          577.5000:   Total depth
 CLNT.            A2DTECH:   Client Code
 PD  .                 GL:   Permanent Datum
 EPD .F              5065:   Elevation Permanent Datum
 LMF .                 KB:   Log Measured From
 DMF .                 KB:   Drilling Measured From
 DAPD.F                10:   Feet Above Permanent Datum
 DATE.        22-SEP-1988:   Date Logged [DD-MMM-YYYY]
 DD  .F               575:   Depth driller
 DL  .F             577.5:   Depth logger
 BLI .F               569:   Bottom log interval
 TLI .F                 0:   Top log interval
 CS1 .IN            9.625:   Casing size
 CBD1.       9.625" @ 50':   Casing driller 1
 CBL1.F                50:   Casing logger 1
 BS1 .IN             8.75:   Bit size
 BSD1.F               575:   Depth drilled with bit1
 DFT .                AIR:   Type fluid in hole
 TLAB.HRS            2350:   Time logger at bottom
 MRT .F                70:   Maximum recorded temp.
 LUN .               7597:   Logging unit number
 LUL .           GILLETTE:   Logging unit location
 ENGI.          HUCKFFLOT:   Recorded By
 WITN.             STRONG:   Witnessed by
 ORIG.           5" PRINT:   Origin of data
 UWI .     49025112470000:   Unique Well ID
 DICO. A2D TECHNOLOGIES, INC.:   Digitizing Company
 SL  . 324' FNL & 1963' FEL:   Surface Location
~OTHER INFORMATION
~A    DEPT      GRR      RILD       RILM       TENR   
# ...
  438.5000    82.2946    19.4838    19.9945     0.0000
  439.0000    84.7316    19.4825    19.8531     0.0000
  439.5000    85.3559    19.4809    19.7134     0.0000
  440.0000    82.9641    19.2113    19.4395     0.0000
  440.5000    80.5672    18.9454    19.3028     0.0000
  441.0000    80.8894    18.8132    18.9025     0.0000
  441.5000    82.4200    18.5526    18.6399     0.0000
  442.0000    87.5811    18.1693    18.1279     0.0000
  442.5000    88.2003    18.0426    17.6299     0.0000
  443.0000    86.7148    17.6699    17.3713     0.0000
  443.5000    85.5264    17.4137    16.9069     0.0000
  444.0000    85.5468    16.9472    16.9047     0.0000
  444.5000    85.8737    16.9461    17.0206     0.0000
  445.0000    87.4043    16.9450    17.0177     0.0000
  445.5000    88.6328    17.0618    17.0150     0.0000
  446.0000    88.6529    16.9424    16.8953     0.0000
  446.5000    88.6737    16.7080    16.8930     0.0000
  447.0000    88.0888    16.4767    16.5433     0.0000
  447.5000    88.7181    16.2487    15.9772     0.0000
  448.0000    90.2487    15.5624    15.6464     0.0000
  448.5000    92.9980    14.9489    15.3225     0.0000
  449.0000    95.7319    14.6401    14.7987     0.0000
  449.5000    96.9605    14.3377    14.1839     0.0000
  450.0000    96.3763    14.0416    13.2415     0.0000
  450.5000    93.6773    13.4681    12.7889     0.0000
  451.0000    92.1868    13.2818    12.6112     0.0000
  451.5000    92.5140    13.1891    12.6075     0.0000
  452.0000    92.5341    13.1834    12.5204     0.0000
  452.5000    92.2520    13.0960    12.4323     0.0000
  453.0000    91.0636    13.0952    12.4441     0.0000
  453.5000    90.4794    13.0038    12.4752     0.0000
  454.0000    91.1087    12.9131    12.5062     0.0000
  454.5000    91.4309    12.9121    12.5373     0.0000
  455.0000    91.4510    12.9112    12.5684     0.0000
  455.5000    90.2626    12.9104    12.5995     0.0000
  456.0000    89.3813    12.9093    12.6306     0.0000
  456.5000    88.3116    12.9985    12.6617     0.0000
  457.0000    88.0307    12.9076    12.6779     0.0000
  457.5000    87.4471    12.8176    12.6758     0.0000
  458.0000    89.9142    12.6400    12.6741     0.0000
  458.5000    92.9636    12.6392    12.6725     0.0000
  459.0000    94.3094    12.6384    12.5833     0.0000
  459.5000    94.6157    12.5502    12.4944     0.0000
  460.0000    93.4138    12.4624    12.4065     0.0000
  460.5000    95.5313    12.4616    12.3192     0.0000
  461.0000    97.9492    12.3747    12.3176     0.0000
  461.5000    98.8589    12.4600    12.3156     0.0000
  462.0000    97.8783    12.5459    12.2289     0.0000
  462.5000    95.5512    12.4582    12.1429     0.0000
  463.0000    96.7625    12.4574    11.8909     0.0000
  463.5000    98.2755    12.3704    11.6449     0.0000
  464.0000    99.7897    12.4558    11.4831     0.0000
  464.5000   100.6994    12.6289    11.4023     0.0000
  465.0000   101.0057    12.8043    11.3221     0.0000
  465.5000   100.6737    13.0724    11.4783     0.0000
  466.0000    99.8085    13.1627    11.7179     0.0000
  466.5000   100.1160    13.2535    11.9625     0.0000
  467.0000   101.9307    13.2524    12.2122     0.0000
  467.5000   103.7465    13.2513    12.3811     0.0000
  468.0000   104.9578    13.1589    12.3790     0.0000
  468.5000   104.6609    13.1580    12.4639     0.0000
  469.0000   103.7306    13.1566    12.4618     0.0000
  469.5000   102.2581    12.9749    12.4599     0.0000
  470.0000    99.5479    12.7953    12.4582     0.0000
  470.5000    97.7426    12.7060    12.4566     0.0000
  471.0000    95.6369    12.6122    12.4549     0.0000
  471.5000    94.7354    12.3566    12.3670     0.0000
  472.0000    96.8529    12.2704    12.3653     0.0000
  472.5000    98.0644    12.2696    12.2783     0.0000
  473.0000    98.6734    12.2688    12.1801     0.0000
  473.5000    99.2815    12.1830    11.9391     0.0000
  474.0000    98.3811    12.0980    11.6920     0.0000
  474.5000    98.3870    11.9306    11.5295     0.0000
  475.0000   101.1067    11.6032    11.3690     0.0000
  475.5000   103.8263    11.5223    11.2110     0.0000
  476.0000   105.9426    11.2843    10.9789     0.0000
  476.5000   104.1385    11.2056    10.7516     0.0000
  477.0000   101.7299    10.9739    10.5287     0.0000
  477.5000   101.3827    10.6730    10.2395     0.0000
  478.0000   103.5505    10.3085     9.9582     0.0000
  478.5000   107.1751    10.0942     9.7520     0.0000
  479.0000   109.5930     9.5499     9.2246     0.0000
  479.5000   110.8196     9.0339     8.7866     0.0000
  480.0000   111.1107     8.6053     8.4276     0.0000
  480.5000   109.9100     8.1332     7.9721     0.0000
  481.0000   108.4063     7.2343     7.1342     0.0000
  481.5000   107.5061     6.8434     6.6097     0.0000
  482.0000   109.9252     6.4289     5.3682     0.0000
  482.5000   113.2482     6.1615     4.9045     0.0000
  483.0000   118.4215     6.1234     4.7374     0.0000
  483.5000   126.5317     6.2085     5.0415     0.0000
  484.0000   127.4402     6.3827     5.4401     0.0000
  484.5000   122.9212     6.8405     6.0030     0.0000
  485.0000   113.8773     7.3313     6.5435     0.0000
  485.5000   108.1505     7.9120     7.0840     0.0000
  486.0000   104.5353     8.5387     7.5538     0.0000
  486.5000   103.6350     9.2790     8.1824     0.0000
  487.0000   104.8475     9.6726     8.7079     0.0000
  487.5000   106.0588     9.9441     9.0764     0.0000
  488.0000   106.9685    10.1534     9.2659     0.0000
  488.5000   107.8793    10.3651     9.3291     0.0000
  489.0000   107.5824    10.6561     9.3928     0.0000
  489.5000   106.6821    10.8795     9.3264     0.0000
  490.0000   105.1785    11.0356     9.5207     0.0000
  490.5000   106.0893    11.3399     9.7871     0.0000
  491.0000   107.3007    11.5776    10.0609     0.0000
  491.5000   107.9087    11.7385    10.4143     0.0000
  492.0000   108.2150    11.9945    10.8547     0.0000
  492.5000   106.7126    12.2357    11.0051     0.0000
  493.0000   105.8123    12.5789    11.2348     0.0000
  493.5000   105.2137    12.7538    11.5487     0.0000
  494.0000   105.5212    12.9310    11.8714     0.0000
  494.5000   107.3359    13.1106    12.0360     0.0000
  495.0000   107.6422    13.2929    12.2872     0.0000
  495.5000   107.6119    13.3845    12.4567     0.0000
  496.0000   106.7478    13.5706    12.6289     0.0000
  496.5000   107.0542    13.6641    12.7151     0.0000
  497.0000   107.3605    13.9503    12.8018     0.0000
  497.5000   106.6491    14.0464    12.9784     0.0000
  498.0000   103.4495    13.8518    13.1578     0.0000
  498.5000   101.3426    13.8509    13.2476     0.0000
  499.0000    99.5073    13.8500    13.4303     0.0000
  499.5000    97.4316    13.7534    13.4285     0.0000
  500.0000    98.0396    13.8482    13.5202     0.0000
  500.5000    98.9493    13.7514    13.2398     0.0256
  501.0000    99.5585    13.6555    12.9657     0.0513
  501.5000   100.1665    13.2696    12.8744     0.0769
  502.0000   101.0762    13.0970    12.9619     0.1025
  502.5000   101.7094    12.9157    12.9602     0.1281
  503.0000   102.8967    12.6489    12.9585     0.1538
  503.5000   101.3931    12.5605    12.9568     0.1794
  504.0000    98.9845    12.6473    12.9547     0.2050
  504.5000   100.1970    12.7345    12.9530     0.2306
  505.0000   102.3133    12.5580    12.7778     0.2563
  505.5000   104.1280    12.2134    12.5211     0.2819
  506.0000   104.4344    12.0444    12.2645     0.3075
  506.5000   104.1373    11.6331    12.0078     0.3331
  507.0000   105.0482    11.4721    11.7512     0.3588
  507.5000   108.6728    11.0037    11.4946     0.3844
  508.0000   114.1085    10.7764    11.2379     0.4100
  508.5000   115.6215    10.6272    10.9389     0.4357
  509.0000   113.5146    10.3305    10.6350     0.4613
  509.5000   109.2509    10.2635    10.3438     0.4869
  510.0000   106.5870    10.1292    10.2701     0.5125
  510.5000   106.2889    10.0856    10.0566     0.5382
  511.0000   106.8981    10.0751     9.7795     0.5638
