~VERSION INFORMATION
 VERS.                2.0:   CWLS LOG ASCII STANDARD - VERSION 2.0
 WRAP.                 NO:   ONE LINE PER DEPTH STEP
~WELL INFORMATION
#MNEM.UNIT      DATA TYPE    INFORMATION
#----------   ------------   ------------------------------
 STRT.F          216.0000:   START DEPTH
 STOP.F         3241.0000:   STOP DEPTH
 STEP.F            0.5000:   STEP LENGTH
 NULL.          -999.2500:   NO VALUE
 COMP.    FENIX & SCISSON:   COMPANY
 WELL.    FENIX "A" #72-4:   WELL
 FLD .             NPR #3:   FIELD
 LOC .       S4 T38N R78W:   LOCATION
 CNTY.            NATRONA:   COUNTY
 STAT.            WYOMING:   STATE
 CTRY. UNITED STATES OF AMERICA:   COUNTRY
 SRVC.              WELEX:   SERVICE COMPANY
 DATE.        09-JUL-1977:   LOGDATE
 API .     49025103900000:   API NUMBER
~CURVE INFORMATION
#MNEM.UNIT       API CODE    CURVE DESCRIPTION
#----------   ------------   ------------------------------
 DEPT.F                  :   
 CORR.G/C3   45 356 01 00:   DENSITY CORRECTION
 GRD .GAPI   45 310 01 00:   GAMMA RAY FROM DENSITY LOG
 RHOB.G/C3   45 350 01 00:   BULK DENSITY
 CALD.IN     45 280 60 00:   CALIPER FROM DENSITY LOG
 SPR .MV     07 010 01 00:   SPONTANEOUS POTENTIAL
 ILD .OHMM   07 120 46 00:   DEEP INDUCTION RESISTIVITY
 ILM .OHMM   07 120 44 00:   INDUCTION LOG MEDIUM RESISTIVITY
 SGRD.OHMM   07 220 05 00:   SHALLOW SHORT GUARD RESISTIVITY
~PARAMETER INFORMATION
#MNEM.UNIT          VALUE    DESCRIPTION
#----------   ------------   ------------------------------
 EKB .F         5192.0000:   Kelly bushing
 EGL .F         5182.0000:   Ground level
 TD  .F         3243.0000:   Total depth
 CLNT.            A2DTECH:   Client Code
 SL  . 990' FNL & 990' FEL:   Surface Location
 PD  .                 GL:   Permanent Datum
 EPD .F              5182:   Elevation Permanent Datum
 LMF .                 KB:   Log Measured From
 DMF .                 KB:   Drilling Measured From
 DAPD.F                10:   Feet Above Permanent Datum
 DATE.        09-JUL-1977:   Date Logged [DD-MMM-YYYY]
 DD  .F              3230:   Depth driller
 DL  .F              3243:   Depth logger
 BLI .F              3241:   Bottom log interval
 TLI .F               224:   Top log interval
 CS1 .IN            8.625:   Casing size
 CBD1.      8.625" @ 221':   Casing driller 1
 CBL1.F               224:   Casing logger 1
 BS1 .IN            7.875:   Bit size
 BSD1.F              3230:   Depth drilled with bit1
 DFT .                KCL:   Type fluid in hole
 DFD .                8.9:   Density
 DFV .                 44:   Viscosity
 DFPH.                7.5:   pH
 DFL .                5.8:   Fluid loss
 MSS .            MUD PIT:   Source of sample
 RMS .OHMM           0.24:   Rm
 MST .F                68:   Rm Meas. temp.
 RMF .OHMM           0.20:   Rmf
 MFST.F                68:   Rmf Meas. temp.
 MFSS.               MEAS:   Source Rmf.
 RMC .OHMM           0.31:   Rmc
 MCST.F                68:   Rmc Meas. temp.
 MCSS.               MEAS:   Source Rmc.
 RMB .OHMM           0.13:   Rm. at BHT
 BHT .F               117:   BHT.
 TCS .HRS               3:   Time Circ. stopped
 MRT .F               117:   Maximum recorded temp.
 LUN .               8766:   Logging unit number
 LUL .             CASPER:   Logging unit location
 ENGI.          T. JOYNER:   Recorded By
 WITN.         HARRINGTON:   Witnessed by
 ORIG.           5" PRINT:   Origin of data
 UWI .     49025103900000:   Unique Well ID
 DICO. A2D TECHNOLOGIES, INC.:   Digitizing Company
~OTHER INFORMATION
~A   DEPT     CORR         GRD        RHOB     CALD        SPR        ILD        ILM       SGRD   
# ...
 3010.5000     0.0043   165.9296     2.4717     8.4194   -62.7004     3.7079     5.0183     5.5621
 3011.0000     0.0051   164.7607     2.4740     8.4209   -62.4861     3.8409     5.3068     7.2457
 3011.5000     0.0044   161.8033     2.4825     8.3928   -62.2714     3.9787     5.5347     7.8803
 3012.0000     0.0044   157.3557     2.4961     8.3943   -62.0566     4.2081     5.7724     7.6166
 3012.5000     0.0030   149.9274     2.5019     8.3957   -61.8417     4.5761     6.0204     7.6217
 3013.0000     0.0031   140.4127     2.5049     8.3972   -61.6266     5.0173     6.2383     7.9511
 3013.5000     0.0046   134.1767     2.5057     8.3987   -61.4132     5.4120     6.4149     8.0119
 3014.0000     0.0077   129.7291     2.5125     8.3703   -61.2509     5.7241     6.5985     7.8520
 3014.5000     0.0108   127.6543     2.5171     8.3568   -61.2557     5.9707     6.7873     7.8586
 3015.0000     0.0138   127.0931     2.5201     8.3433   -61.2527     6.0996     7.0788     8.0294
 3015.5000     0.0123   126.8184     2.5171     8.3597   -61.2461     6.1882     7.4341     8.0347
 3016.0000     0.0116   125.6552     2.5112     8.3612   -60.8734     6.2346     7.7534     8.2093
 3016.5000     0.0119   124.1882     2.5082     8.3627   -60.8497     6.2380     7.6444     8.4461
 3017.0000     0.0129   123.6096     2.5091     8.3791   -60.8563     6.2856     7.3447     8.5700
 3017.5000     0.0148   124.2348     2.5128     8.3507   -60.8568     6.2890     7.1977     8.6970
 3018.0000     0.0156   125.1523     2.5114     8.3525   -60.8566     6.2924     7.2515     8.7028
 3018.5000     0.0127   126.0698     2.5069     8.3539   -60.8566     6.2957     7.4590     8.5871
 3019.0000     0.0090   127.8815     2.5070     8.3552   -60.8566     6.3430     7.6725     8.3012
 3019.5000     0.0091   129.3951     2.5055     8.3569   -60.8567     6.4351     7.8920     8.1356
 3020.0000     0.0099   130.6307     2.5078     8.3499   -60.8565     6.5286     8.0063     8.2549
 3020.5000     0.0099   131.8748     2.5078     8.3296   -60.8567     6.5784     8.0673     8.6205
 3021.0000     0.0100   133.0476     2.5056     8.3314   -60.8617     6.6278     8.0716     9.0480
 3021.5000     0.0093   134.2631     2.4989     8.3328   -60.6816     6.7240     8.0191     9.2445
 3022.0000     0.0064   136.3729     2.4967     8.3343   -60.4518     6.7276     7.9131     9.3800
 3022.5000     0.0035   138.4826     2.5044     8.3358   -60.2201     6.7313     7.7022     9.5175
 3023.0000     0.0087   139.9962     2.5165     8.3398   -59.9887     6.7349     7.4960     9.5239
 3023.5000     0.0133   140.9137     2.5374     8.3537   -59.7574     6.7385     7.2416     9.3989
 3024.0000     0.0171   142.4273     2.5366     8.3555   -59.5262     6.5130     6.8593     9.0119
 3024.5000     0.0194   144.8351     2.5299     8.3416   -59.2949     6.1219     6.6296     7.9136
 3025.0000     0.0202   146.9449     2.5210     8.3285   -59.0634     5.6357     6.2759     7.2357
 3025.5000     0.0225   149.4091     2.5135     8.3147   -58.8331     5.1881     5.7789     6.8972
 3026.0000     0.0241   152.3624     2.5076     8.3164   -58.6043     4.6776     5.1049     6.8529
 3026.5000     0.0256   154.4722     2.4859     8.3180   -58.4668     4.2174     4.6040     6.8112
 3027.0000     0.0272   155.9858     2.4762     8.3493   -58.4658     3.7095     4.0232     6.7218
 3027.5000     0.0362   157.7974     2.4680     8.3576   -58.4670     2.7459     3.0223     6.1366
 3028.0000     0.0438   160.2052     2.4552     8.3895   -58.5500     2.4929     2.5969     4.6600
 3028.5000     0.0491   162.9111     2.4377     8.4141   -58.9468     2.3596     2.3584     3.3886
 3029.0000     0.0514   163.5247     2.3947     8.4448   -59.3370     2.2333     2.2637     2.6412
 3029.5000     0.0514   162.3616     2.3475     8.4313   -59.7264     2.2034     2.2649     2.3325
 3030.0000     0.0508   162.6830     2.3041     8.4178   -60.1163     2.3308     2.6755     3.7419
 3030.5000     0.0500   163.0045     2.2561     8.4043   -60.5060     2.5742     4.5292     5.6786
 3031.0000     0.0471   162.6945     2.1767     8.3909   -60.8943     2.9139     6.2744     8.5094
 3031.5000     0.0367   162.1567     2.1333     8.3927   -61.2618     3.1687     6.1907     9.9292
 3032.0000     0.0128   158.6091     2.1093     8.4091   -61.5731     3.5183     6.2378    10.4821
 3032.5000    -0.0156   150.2867     2.2083     8.3359   -61.8815     4.1582     6.5057    10.4891
 3033.0000    -0.0089   139.8778     2.4617     8.2478   -62.1471     5.2314     7.0728    10.0680
 3033.5000     0.0070   133.0456     2.5128     8.2194   -62.4243     6.0136     7.5313     9.5306
 3034.0000     0.0101   129.4863     2.5166     8.2060   -62.2545     6.9207     7.5878     9.0219
 3034.5000     0.0116   133.0922     2.5174     8.2224   -62.3642     7.1122     7.4874     8.4226
 3035.0000     0.0139   134.6058     2.5234     8.2239   -62.2754     6.9693     7.2878     8.0845
 3035.5000     0.0170   133.7347     2.5302     8.2256   -62.4444     6.8285     7.0927     7.8697
 3036.0000     0.0193   134.0721     2.5340     8.2271   -62.3768     6.4640     6.9027     7.8192
 3036.5000     0.0193   136.0012     2.5348     8.2433   -62.3281     6.1181     6.5345     7.7703
 3037.0000     0.0194   141.2622     2.5356     8.2450   -62.2409     5.6714     6.1432     7.7768
 3037.5000     0.0180   146.6507     2.5289     8.2464   -62.2495     5.3218     5.4899     7.5690
 3038.0000     0.0165   150.2507     2.5192     8.2627   -62.0117     4.8405     4.8949     7.2149
 3038.5000     0.0151   151.4663     2.5042     8.2643   -62.0202     4.3946     4.3540     7.0167
 3039.0000     0.0144   153.8741     2.4855     8.2508   -61.8860     3.8537     3.9268     6.6946
 3039.5000     0.0152   156.8780     2.4717     8.2523   -61.8485     3.4267     3.5171     5.9123
 3040.0000     0.0153   158.9877     2.4534     8.2537   -61.8514     3.0258     3.1285     4.9053
 3040.5000     0.0168   163.4820     2.4407     8.2552   -61.8566     2.8049     2.9007     3.6168
 3041.0000     0.0176   166.7840     2.4190     8.2567   -61.8501     2.6733     2.8426     2.9186
 3041.5000     0.0192   169.8361     2.4108     8.2432   -62.0646     2.6379     3.1996     3.1742
 3042.0000     0.0215   171.9505     2.4003     8.2448   -62.4126     2.6397     4.3108     4.6580
 3042.5000     0.0231   172.5229     2.3861     8.2465   -62.6534     2.6780     4.9877     7.5174
 3043.0000     0.0239   173.7384     2.3719     8.2479   -62.8531     2.7934     5.3479     9.1361
 3043.5000     0.0232   175.8482     2.3592     8.2494   -63.0624     3.1231     5.6164     9.3996
 3044.0000     0.0187   172.2947     2.3473     8.2359   -63.0290     3.7428     6.0638     9.2762
 3044.5000     0.0081   165.7607     2.3489     8.2019   -63.2432     4.3191     6.4206     9.2167
 3045.0000    -0.0032   159.2266     2.3753     8.1791   -63.2410     5.3761     6.7819     9.4185
 3045.5000    -0.0110   149.7119     2.4419     8.1657   -63.0047     5.8461     7.0244     9.5567
 3046.0000    -0.0035   139.0049     2.4892     8.1373   -63.2496     6.1832     7.1756     9.4327
 3046.5000     0.0011   133.9487     2.4877     8.1090   -63.2746     6.3607     7.2293     9.0540
 3047.0000     0.0004   130.6116     2.4855     8.1104   -63.2038     6.4531     7.2834     8.8106
 3047.5000     0.0012   129.8349     2.4908     8.1122   -63.0629     6.5468     7.3888     8.6949
 3048.0000     0.0005   133.1427     2.4998     8.1137   -63.0412     6.6420     7.3977     8.7022
 3048.5000     0.0058   135.5505     2.5081     8.0998   -63.0535     6.7392     7.5008     8.7081
 3049.0000     0.0119   135.8661     2.5224     8.1017   -62.9994     6.7428     7.6094     8.8358
 3049.5000     0.0142   134.3990     2.5352     8.0878   -62.8424     6.7465     7.8272     8.9667
 3050.0000     0.0135   136.2107     2.5382     8.0897   -62.8477     6.7501     7.9405     9.2253
 3050.5000     0.0135   138.0346     2.5363     8.0911   -62.7410     6.7537     8.0555     9.4914
