~VERSION INFORMATION
 VERS.                2.0:   CWLS LOG ASCII STANDARD - VERSION 2.0
 WRAP.                 NO:   ONE LINE PER DEPTH STEP
~WELL INFORMATION
#MNEM.UNIT      DATA TYPE    INFORMATION
#----------   ------------   ------------------------------
 STRT.F            0.0000:   START DEPTH
 STOP.F         3205.0000:   STOP DEPTH
 STEP.F            0.5000:   STEP LENGTH
 NULL.          -999.2500:   NO VALUE
 COMP. LAWRENCE-ALLISON AND ASSOCIATES:   COMPANY
 WELL. LAWRENCE "X" #64-28:   WELL
 FLD .          N.P.R. #3:   FIELD
 LOC .      S28 T39N R78W:   LOCATION
 CNTY.            NATRONA:   COUNTY
 STAT.            WYOMING:   STATE
 CTRY. UNITED STATES OF AMERICA:   COUNTRY
 SRVC.      DRESSER ATLAS:   SERVICE COMPANY
 DATE.        25-MAY-1986:   LOGDATE
 API .     49025110730000:   API NUMBER
~CURVE INFORMATION
#MNEM.UNIT       API CODE    CURVE DESCRIPTION
#----------   ------------   ------------------------------
 DEPT.F                  :   
 GRR .GAPI   07 310 01 00:   GAMMA RAY FROM RESISTIVITY
 SPR .MV     07 010 01 00:   SPONTANEOUS POTENTIAL
 RILD.OHMM   07 120 46 00:   DEEP INDUCTION RESISTIVITY
 RILM.OHMM   07 120 44 00:   INDUCTION LOG MEDIUM RESISTIVITY
 RSFL.OHMM   07 221 01 00:   AMPPLIFIED SHALLOW FOCUSED LOG RESISTIVITY
 TENR.LBS    07 635 01 00:   TENSION FROM RESISTIVITY
 CNC .DEC    42 890 03 00:   NEUTRON POROSITY SANDSTONE
 CALD.IN     45 280 60 00:   CALIPER FROM DENSITY LOG
 DEN .G/C3   45 350 01 00:   BULK DENSITY
 CORR.G/C3   45 356 01 00:   DENSITY CORRECTION
 TEND.LBS    45 635 01 00:   TENSION FROM DENSITY LOG
~PARAMETER INFORMATION
#MNEM.UNIT          VALUE    DESCRIPTION
#----------   ------------   ------------------------------
 EKB .F         5070.0000:   Kelly bushing
 EGL .F         5058.0000:   Ground level
 TD  .F         3205.0000:   Total depth
 DATE.        25-MAY-1986:   Date logged
 CLNT.            A2DTECH:   Client Code
 SL  . 2248' FNL & 1636' FEL:   Surface Location
 PD  .                 GL:   Permanent Datum
 EPD .F              5058:   Elevation Permanent Datum
 LMF .                 KB:   Log Measured From
 DMF .                 KB:   Drilling Measured From
 DAPD.F                12:   Feet Above Permanent Datum
 DD  .F              3205:   Depth driller
 DL  .F              3203:   Depth logger
 BLI .F              3201:   Bottom log interval
 CS1 .IN            8.625:   Casing size
 CBD1.      8.625" @ 476':   Casing driller 1
 CBL1.F               478:   Casing logger 1
 BS1 .IN            7.875:   Bit size
 BSD1.F              3205:   Depth drilled with bit1
 DFT .        POLYMER-KCL:   Type fluid in hole
 DFD .                  9:   Density
 DFV .                 37:   Viscosity
 DFPH.                8.5:   pH
 DFL .                 10:   Fluid loss
 MSS .           FLOWLINE:   Source of sample
 RMS .OHMM           0.31:   Rm
 MST .F                69:   Rm Meas. temp.
 RMF .OHMM           0.25:   Rmf
 MFST.F                69:   Rmf Meas. temp.
 RMC .OHMM           0.39:   Rmc
 MCST.F                69:   Rmc Meas. temp.
 MFSS.               MEAS:   Source Rmf.
 MCSS.               CALC:   Source Rmc.
 RMB .OHMM           0.19:   Rm. at BHT
 BHT .F               115:   BHT.
 TCS .HRS               4:   Time Circ. stopped
 MRT .F               115:   Maximum recorded temp.
 LUN .            HL-6274:   Logging unit number
 LUL .           GILLETTE:   Logging unit location
 ENGI.             RAUTIO:   Recorded By
 WITN.             STRONG:   Witnessed by
 ORIG.           5" PRINT:   Origin of data
 UWI .     49025110730000:   Unique Well ID
 DICO. A2D TECHNOLOGIES, INC.:   Digitizing Company
~OTHER INFORMATION
~A    DEPT     GRR        SPR       RILD       RILM       RSFL       TENR        CNC       CALD        DEN       CORR       TEND   
# ...
 2989.0000   106.6970   -45.3770     3.4090     3.6690     4.2330   -16.9990     0.2230     8.4090     2.4520    -0.0140   -95.3740
 2989.5000   105.3650   -45.1800     3.4500     3.8280     4.2500   -21.1830     0.2170     8.4230     2.4500     0.0030   -96.7550
 2990.0000   103.1910   -44.9220     3.5330     3.9650     4.3120   -25.4490     0.2180     8.4330     2.4490     0.0180   -98.1360
 2990.5000   100.5500   -44.6970     3.6960     4.1250     4.3660   -20.9760     0.2230     8.4190     2.4500     0.0310   -99.5180
 2991.0000    99.5950   -44.4490     3.8590     4.3030     4.4090   -16.4130     0.2280     8.4070     2.4510     0.0260  -100.8990
 2991.5000   100.1890   -44.2130     4.0220     4.4800     4.5740   -11.8490     0.2250     8.3940     2.4460     0.0180  -102.2800
 2992.0000   101.2160   -43.9760     4.1850     4.6580     5.0120    -7.2850     0.2180     8.3810     2.4410     0.0020  -103.6620
 2992.5000   100.2810   -43.7300     4.3480     4.8340     5.4470    -8.2560     0.2160     8.3680     2.4440    -0.0160  -116.6470
 2993.0000    97.4360   -43.6470     4.5100     4.9110     5.4970   -12.8200     0.2210     8.3550     2.4540    -0.0210  -122.1770
 2993.5000    95.4390   -43.7730     4.7020     4.9870     5.4550   -17.3830     0.2290     8.3670     2.4640    -0.0170  -118.5270
 2994.0000    95.2710   -43.9270     4.7020     5.0610     5.4130   -21.9470     0.2330     8.3810     2.4640    -0.0130  -114.8760
 2994.5000    95.9080   -44.0530     4.6870     4.9690     5.4350   -25.4490     0.2330     8.3940     2.4610    -0.0120  -111.2260
 2995.0000    95.3450   -44.2030     4.6510     4.8940     5.4950   -17.4650     0.2290     8.4010     2.4610    -0.0130  -107.5750
 2995.5000    94.8070   -44.3330     4.6160     4.8040     5.5540   -10.9880     0.2250     8.4080     2.4650     0.0010  -103.8310
 2996.0000    96.1040   -44.3370     4.5070     4.7140     5.5990    -4.5100     0.2230     8.4150     2.4750     0.0140   -98.4950
 2996.5000    98.3500   -44.2420     4.4020     4.6240     5.4470     1.9670     0.2310     8.4220     2.4770     0.0110   -93.0190
 2997.0000   100.4300   -44.1620     4.2970     4.5340     4.8930     8.4440     0.2380     8.4290     2.4750     0.0080   -87.5430
 2997.5000   100.7010   -44.0660     4.1920     4.4440     4.7250   -24.6510     0.2430     8.4360     2.4790     0.0100   -82.0670
 2998.0000    99.5800   -43.9930     4.0870     4.3540     4.7020   -19.8650     0.2470     8.4400     2.4840     0.0250   -76.5910
 2998.5000    99.0170   -44.0360     3.9820     4.2640     4.8270   -15.4690     0.2470     8.4440     2.4890     0.0250   -75.5960
 2999.0000   100.2980   -44.0890     3.9160     4.1740     4.7740   -10.2930     0.2460     8.4480     2.4880     0.0170   -80.0400
 2999.5000   102.5630   -44.1360     3.8690     4.0840     4.5580    -5.5070     0.2430     8.4520     2.4860     0.0080   -84.4850
 3000.0000   104.6360   -44.1850     3.8220     3.9850     4.4090    -0.7210     0.2380     8.4570     2.4800     0.0020   -88.9290
 3000.5000   108.0640   -44.0540     3.7710     3.9120     4.3970     4.4910     0.2320     8.4610     2.4730     0.0050   -93.7500
 3001.0000   111.2270   -43.7670     3.7710     3.9570     4.4530     1.5290     0.2280     8.4650     2.4710     0.0150   -97.2150
 3001.5000   110.9270   -43.6300     3.8440     4.0190     4.4910    -1.7220     0.2300     8.4690     2.4750     0.0230  -101.0010
 3002.0000   107.0220   -43.7310     3.9120     4.0960     4.4910    -4.9740     0.2390     8.4730     2.4780     0.0210  -104.7860
 3002.5000   102.6620   -43.8540     3.8870     4.0850     4.5540    -8.2250     0.2450     8.4720     2.4800     0.0210  -108.5720
 3003.0000   101.3270   -43.9560     3.8420     4.0690     4.7360   -11.4770     0.2460     8.4660     2.4820     0.0260  -112.3580
 3003.5000   100.9780   -44.0790     3.7960     4.0310     4.9230   -15.4690     0.2400     8.4600     2.4800     0.0150  -110.7930
 3004.0000   100.2940   -44.1800     3.7500     3.9560     4.8150    -7.6850     0.2360     8.4540     2.4740     0.0050  -105.5060
 3004.5000   101.7590   -44.3060     3.7040     3.8810     4.7040     2.3950     0.2330     8.4480     2.4670    -0.0050  -100.2190
 3005.0000   105.0170   -44.3800     3.6580     3.8060     4.5320    12.4750     0.2380     8.4420     2.4620    -0.0060   -94.9320
 3005.5000   108.0300   -44.3110     3.6130     3.7310     4.3170    24.4510     0.2510     8.4360     2.4540    -0.0100   -89.6450
 3006.0000   110.3430   -44.2230     3.5670     3.6890     4.1030    15.0080     0.2640     8.4390     2.4480    -0.0170   -84.3580
 3006.5000   111.8940   -44.1610     3.5210     3.6680     3.9890     3.3780     0.2680     8.4440     2.4470    -0.0080   -86.7350
 3007.0000   112.5870   -44.0860     3.4750     3.6470     3.9490    -5.4890     0.2620     8.4490     2.4510     0.0010   -90.2600
 3007.5000   112.5900   -44.0080     3.4290     3.6390     4.0340    24.4510     0.2530     8.4540     2.4530    -0.0020   -93.7850
 3008.0000   112.2210   -43.9490     3.3770     3.6490     4.1020    16.8780     0.2440     8.4590     2.4500    -0.0090   -97.3100
 3008.5000   110.9630   -43.8590     3.3710     3.6580     4.1710     7.9840     0.2400     8.4640     2.4510    -0.0130  -100.8340
 3009.0000   108.3760   -43.7970     3.3640     3.6690     4.2400    -0.9100     0.2410     8.4690     2.4590     0.0020  -102.6520
 3009.5000   106.2380   -43.8990     3.3560     3.6550     4.2890    -3.5590     0.2490     8.4740     2.4680     0.0160   -94.7890
 3010.0000   105.4980   -44.0460     3.3460     3.6350     4.1420     0.4200     0.2620     8.4790     2.4710     0.0310   -86.9260
 3010.5000   104.6120   -44.1740     3.3090     3.5980     4.0220     4.3990     0.2690     8.4840     2.4720     0.0260   -79.0630
 3011.0000   103.5090   -44.3130     3.2570     3.5240     4.0680     8.3780     0.2660     8.4880     2.4730     0.0290   -71.2000
 3011.5000   104.6070   -44.4420     3.2040     3.4510     4.0510    12.3570     0.2560     8.4930     2.4730     0.0330   -63.5080
 3012.0000   108.8410   -44.5890     3.1380     3.3770     3.9110    16.3360     0.2450     8.4980     2.4690     0.0290   -67.6850
 3012.5000   114.5030   -44.7030     3.1380     3.2850     3.7370    20.3150     0.2460     8.5030     2.4610     0.0140   -71.7740
 3013.0000   116.8920   -44.8680     3.1380     3.2910     3.7570    24.4510     0.2570     8.5080     2.4540    -0.0010   -75.8630
 3013.5000   113.0110   -44.9720     3.1380     3.3010     3.7840    22.3160     0.2640     8.5130     2.4590     0.0120   -79.9520
 3014.0000   107.7300   -44.7880     3.1380     3.3110     3.8100    19.5170     0.2690     8.5140     2.4670     0.0340   -83.6690
 3014.5000   105.4640   -44.5350     3.1380     3.3210     3.8370    16.7170     0.2710     8.5110     2.4680     0.0490   -78.8220
 3015.0000   105.5220   -44.3280     3.1380     3.3310     3.8640    13.9170     0.2670     8.5090     2.4650     0.0440   -74.3780
 3015.5000   106.8690   -44.2400     3.1380     3.3410     3.8910    11.1170     0.2600     8.5070     2.4670     0.0280   -69.9330
 3016.0000   108.4830   -44.3630     3.0720     3.3010     3.9170     8.3170     0.2600     8.5050     2.4700     0.0110   -65.4890
 3016.5000   107.9490   -44.4990     3.0070     3.1900     3.9490     5.5170     0.2650     8.5030     2.4780     0.0230   -66.0070
 3017.0000   106.0480   -44.6130     2.9430     3.0800     3.8770     6.3700     0.2630     8.5000     2.4840     0.0430   -70.5170
 3017.5000   106.8440   -44.7500     2.8780     2.9970     3.7030     9.3340     0.2600     8.4980     2.4790     0.0410   -75.0270
 3018.0000   109.4040   -44.8700     2.8130     2.9290     3.5630    12.2990     0.2590     8.4960     2.4690     0.0350   -79.5360
 3018.5000   112.5550   -44.9990     2.7480     2.8740     3.4230    14.4710     0.2630     8.4980     2.4640     0.0410   -84.0460
 3019.0000   115.4370   -45.1260     2.6830     2.8200     3.3080    10.0660     0.2680     8.5020     2.4670     0.0540   -88.5560
