~VERSION INFORMATION
 VERS.                2.0:   CWLS LOG ASCII STANDARD - VERSION 2.0
 WRAP.                 NO:   ONE LINE PER DEPTH STEP
~WELL INFORMATION
#MNEM.UNIT      DATA TYPE    INFORMATION
#----------   ------------   ------------------------------
 STRT.F           60.0000:   START DEPTH
 STOP.F         5768.0000:   STOP DEPTH
 STEP.F            0.5000:   STEP LENGTH
 NULL.          -999.2500:   NO VALUE
 COMP.              RMOTC:   COMPANY
 WELL. RMOTC NPR-3 61 "X" #2-15:   WELL
 FLD .            N P R-3:   FIELD
 LOC .      S15 T38N R78W:   LOCATION
 CNTY.            NATRONA:   COUNTY
 STAT.            WYOMING:   STATE
 CTRY. UNITED STATES OF AMERICA:   COUNTRY
 SRVC.       SCHLUMBERGER:   SERVICE COMPANY
 DATE.        07-JAN-2002:   LOGDATE
 API .     49025230310000:   API NUMBER
~CURVE INFORMATION
#MNEM.UNIT       API CODE    CURVE DESCRIPTION
#----------   ------------   ------------------------------
 DEPT.F                  :   
 CALD.IN     45 280 60 00:   CALIPER FROM DENSITY LOG
 TEND.LBS    45 635 01 00:   TENSION FROM DENSITY LOG
 PEFZ.B/E    45 358 01 00:   HILT PHOTOELECTRIC FACTOR
 RHOZ.G/C3   45 350 01 00:   HILT BULK DENSITY
 NPOR.DEC    42 890 03 00:   ALPHA PROCESSED NEUTRON POROSITY
 HDRA.G/C3   45 356 01 00:   DELTA RHO HIP TOOL
 GRS .GAPI   60 310 01 00:   GAMMA RAY FROM SONIC LOG
 DTSM.US/F   61 523 00 00:   SHEAR-WAVE INTERVAL TRANSIT TIME DELTA-T
 GRR .GAPI   07 310 01 00:   GAMMA RAY FROM RESISTIVITY
 TENR.LBS    01 635 01 00:   TENSION FROM RES.
 SPR .MV     07 010 01 00:   SPONTANEOUS POTENTIAL
 HLLD.OHMM   11 220 10 00:   LATEROLOG DEEP RES.
 HLLS.OHMM   11 220 09 00:   LATEROLOG SHALLOW RES.
 HRLD.OHMM   11 220 10 00:   HIGH RESOLUTION DEEP RESISTIVITY
~PARAMETER INFORMATION
#MNEM.UNIT          VALUE    DESCRIPTION
#----------   ------------   ------------------------------
 EKB .F         5244.0000:   Kelly bushing
 EGL .F         5227.0000:   Ground level
 EDF .F         5243.0000:   Drilling floor
 EPD .F            0.0000:   Permanent datum
 TD  .F         5756.0000:   Total depth
 DATE.        07-JAN-2002:   Date logged
 CLNT.            A2DTECH:   Client Code
 SL  . 189' FNL & 1895' FEL:   Surface Location
 PD  .                 GL:   Permanent Datum
 DD  .F              5750:   Depth driller
 DL  .F              5756:   Depth logger
 BLI .F              5748:   Bottom log interval
 CS1 .IN             3054:   Casing size
 CBD1.     9.625" @ 3052':   Casing driller 1
 CBL1.F              3054:   Casing logger 1
 BS1 .IN            8.750:   Bit size
 DFT .             3% KCL:   Type fluid in hole
 DFD .                9.3:   Density
 DFV .                 42:   Viscosity
 DFPH.                  8:   pH
 DFL .                 28:   Fluid loss
 MSS .           FLOWLINE:   Source of sample
 RMS .OHMM          0.413:   Rm
 MST .F                74:   Rm Meas. temp.
 RMF .OHMM          0.305:   Rmf
 MFST.F                74:   Rmf Meas. temp.
 RMC .OHMM          0.637:   Rmc
 MCST.F                74:   Rmc Meas. temp.
 MFSS.               CALC:   Source Rmf.
 RMB .OHMM          0.187:   Rm. at BHT
 BHT .F               172:   BHT.
 TCS .HRS            0800:   Time Circ. stopped
 MRT .F               172:   Maximum recorded temp.
 LUN .               2211:   Logging unit number
 LUL .             CASPER:   Logging unit location
 ENGI.        J.L. FLORES:   Recorded By
 WITN.      MARK MILLIKEN:   Witnessed by
 ORIG.           5" PRINT:   Origin of data
 UWI .     49025230310000:   Unique Well ID
 DICO. A2D TECHNOLOGIES, INC.:   Digitizing Company
 DAPD.                 17:   Feet Above Permanent Datum
 BSD1.               5750:   Depth drilled with bit1
 MCSS.               CALC:   Source Rmc.
 LMF .                 KB:   Log Measured From
 DMF .                 KB:   Drilling Measured From
 TLI .               3054:   Top log interval
~OTHER INFORMATION
~A   DEPT     CALD       TEND       PEFZ       RHOZ       NPOR       HDRA        GRS       DTSM         GRR      TENR        SPR       HLLD       HLLS       HRLD   
# ...
 5009.0000    10.8380  2671.5710     3.1780     2.7180     0.1270    -0.0010    82.6860   107.1780    96.4380  2675.3530     1.3940    30.4420    33.6860    28.0880
 5009.5000    10.8420  2673.9561     3.1710     2.7190     0.1260    -0.0030    80.9100   106.3990    91.3390  2672.5039   -23.2730    32.5170    35.4260    32.1800
 5010.0000    10.8570  2671.3879     3.1710     2.7150     0.1270    -0.0040    81.4580   105.6400    89.2580  2671.3010   -31.1040    33.4170    36.9120    32.7400
 5010.5000    10.8160  2667.2219     3.1890     2.7050     0.1250    -0.0060    81.7160   105.2280    87.0840  2671.3010   -29.8540    34.3170    37.4170    33.4620
 5011.0000    10.7580  2663.0549     3.2320     2.6980     0.1210    -0.0040    81.0050   105.3080    85.3670  2676.4299   -28.2530    35.2170    37.9390    34.1830
 5011.5000    10.7190  2658.8879     3.2760     2.7000     0.1210     0.0030    78.9170   105.4280    87.0710  2680.7649   -26.6520    36.2430    36.9920    34.6230
 5012.0000    10.7170  2654.7219     3.2880     2.7050     0.1230     0.0060    80.4630   105.5490    90.5130  2685.1001   -25.6830    34.5710    35.3860    32.7360
 5012.5000    10.7140  2658.0991     3.2380     2.7100     0.1350     0.0030    82.3330   105.6700    94.5710  2689.4351   -25.2810    32.4610    33.7800    31.1520
 5013.0000    10.7100  2662.8611     3.2330     2.7110     0.1420     0.0000    85.3510   105.7360    94.7480  2691.1621   -25.5840    30.3520    32.1800    29.5680
 5013.5000    10.7060  2667.6230     3.2440     2.7100     0.1430    -0.0020    87.4430   107.0630    94.9060  2691.1621   -26.0880    28.5720    31.0240    28.0540
 5014.0000    10.7030  2672.3850     3.2180     2.7180     0.1400    -0.0010    87.0300   108.2740    94.4330  2691.1621   -26.4860    28.9500    31.0240    28.5970
 5014.5000    10.6990  2673.9561     3.1480     2.7370     0.1370     0.0000    84.4850   108.2740    93.5160  2691.1621   -30.4820    29.9980    31.9910    29.4880
 5015.0000    10.6990  2673.9561     3.1110     2.7510     0.1370     0.0010    83.7840   108.2740    91.6210  2683.0190   -33.7150    31.0240    32.7740    30.1840
 5015.5000    10.6990  2673.9561     3.1160     2.7570     0.1380     0.0020    84.7500   108.2740    89.6160  2671.3010   -33.7150    28.8350    32.3330    28.7360
 5016.0000    10.6990  2673.9561     3.2220     2.7290     0.1370     0.0010    86.9440   109.2670    89.3320  2651.4399   -33.7150    29.2100    31.7960    28.6190
 5016.5000    10.6990  2680.7781     3.2490     2.7050     0.1360     0.0000    87.1230   110.8260    89.6800  2651.4399   -31.2410    29.9090    31.8490    29.6370
 5017.0000    10.6990  2687.0281     3.2260     2.6880     0.1400     0.0000    86.7910   112.3350    90.9090  2692.5920   -29.6990    29.6370    32.2500    29.0490
 5017.5000    10.6980  2693.8369     3.2260     2.6870     0.1480     0.0020    86.4730   112.8430    93.7910  2730.8840   -26.5340    28.4270    32.7740    28.1200
 5018.0000    10.6900  2693.8369     3.2830     2.6850     0.1680     0.0000    89.8530   112.8430   102.1420  2725.4270   -23.9720    27.2950    29.7040    27.0470
 5018.5000    10.6830  2677.1731     3.3550     2.6830     0.1870    -0.0030    94.8690   110.5880   109.0380  2720.1799   -21.4100    24.3070    27.2260    24.3150
 5019.0000    10.6750  2658.9919     3.3900     2.6910     0.2010    -0.0030    98.0630   108.4770   112.8680  2714.9319   -18.8480    21.1280    24.7490    19.4590
 5019.5000    10.6670  2654.0759     3.3730     2.7120     0.1950    -0.0010    95.7720   106.3660   113.3230  2711.0229   -17.2670    19.6370    21.9160    19.4590
 5020.0000    10.6590  2654.0759     3.3510     2.7180     0.1830     0.0000    89.5580   104.2550   110.9690  2711.0229   -17.4500    20.9260    24.8880    21.8240
 5020.5000    10.6350  2654.0759     3.3280     2.7170     0.1560     0.0010    83.5960   102.1830   105.7490  2711.0229   -31.3050    26.5930    30.9370    26.9860
 5021.0000    10.6100  2661.5510     3.2940     2.7140     0.1280     0.0010    81.9120   101.0500    99.5640  2691.1621   -31.1040    32.2590    36.5760    32.1490
 5021.5000    10.5970  2671.5510     3.2590     2.7200     0.1070     0.0000    80.1550   100.5070    93.4520  2691.1621   -29.3820    36.2430    39.0880    35.9130
 5022.0000    10.5830  2668.1140     3.2390     2.7290     0.1010     0.0000    78.3000    99.9640    88.3030  2691.1621   -27.7690    37.9390    40.8060    36.6420
 5022.5000    10.5700  2660.4221     3.2240     2.7360     0.1000    -0.0040    75.7750    99.6450    85.9040  2690.2729   -26.2850    39.3840    42.7290    37.5930
 5023.0000    10.5570  2654.0759     3.2090     2.7400     0.0990    -0.0110    73.3780    98.6960    82.9210  2688.9609   -26.0630    41.6770    44.1400    40.5150
 5023.5000    10.5430  2671.3501     3.1410     2.7480     0.0980    -0.0160    71.2230    97.6140    78.5560  2687.6499   -25.8110    43.9700    46.2520    43.2210
 5024.0000    10.5300  2693.8369     3.1200     2.7500     0.0970    -0.0070    71.1860    96.5920    74.1850  2686.3379   -25.5590    45.3960    48.3640    45.0540
 5024.5000    10.5160  2693.8369     3.1330     2.7400     0.0970     0.0010    68.5180    95.5840    69.8200  2685.0259   -19.8220    45.9730    49.9170    44.7280
 5025.0000    10.5030  2687.2100     3.1740     2.7280     0.0920     0.0020    65.8250    94.9840    66.6200  2683.7141   -11.6570    46.7190    50.8410    46.3670
 5025.5000    10.4900  2676.0991     3.1910     2.7320     0.0830     0.0020    61.8170    97.0560    63.9490  2682.4021   -12.4040    49.0120    55.9350    48.1950
 5026.0000    10.4790  2676.0640     3.1850     2.7400     0.0740     0.0020    57.7530    99.1290    61.2590  2681.0901   -19.6160    58.9370    65.1570    54.1010
 5026.5000    10.4790  2686.0640     3.1790     2.7470     0.0670     0.0020    56.2760   101.2010    62.1370  2679.7781   -26.8270    69.9110    74.3780    69.2230
 5027.0000    10.4790  2693.8369     3.1720     2.7450     0.0700     0.0020    63.6130   103.2740    65.5870  2678.4670   -24.3070    80.3160    80.3160    79.5850
 5027.5000    10.4780  2668.2629     3.1650     2.7420     0.0790     0.0020    72.0440   105.3460    73.8110  2677.1550   -17.6510    68.2110    66.5780    59.1510
 5028.0000    10.4940  2659.1721     3.1590     2.7400     0.1180     0.0020    83.2380   107.4190    86.2670  2675.8430    17.8920    51.3310    51.5850    43.0230
 5028.5000    10.5130  2659.5681     3.1520     2.7340     0.1620     0.0020    94.0860   108.6940    98.8230  2674.5310    36.0440    34.4500    36.5920    26.8950
 5029.0000    10.5320  2672.0681     3.1670     2.7320     0.1850     0.0020    97.8910   109.7970   108.5760  2673.2190    48.2130    21.7160    25.3690    20.7450
 5029.5000    10.5390  2673.9561     3.1920     2.7270     0.1900     0.0030    96.3630   109.7970   112.0660  2671.9070    48.0120    20.7450    25.6060    20.6290
 5030.0000    10.5390  2673.9561     3.2120     2.7260     0.1830     0.0030    95.6330   108.7820   112.9800  2671.3010    46.8670    22.1310    26.0750    21.6810
 5030.5000    10.5390  2673.9561     3.1770     2.7280     0.1720     0.0030    95.2750   107.0350   109.5650  2671.3010    38.7630    24.5200    27.8570    23.7720
 5031.0000    10.5380  2673.9561     3.1320     2.7280     0.1640     0.0030    90.7720   105.2880   101.7790  2671.3010    19.8570    26.8000    30.7030    25.8630
 5031.5000    10.5570  2673.9561     3.1310     2.7280     0.1530     0.0030    82.0670   103.5410    91.5910  2671.3010    -7.2090    28.0540    33.6860    28.0540
 5032.0000    10.5780  2673.9561     3.1320     2.7340     0.1310     0.0030    75.6460   101.7940    82.7790  2690.2881   -29.4980    34.1050    36.9790    30.1840
 5032.5000    10.5990  2673.9561     3.1430     2.7420     0.1090     0.0030    70.5210   100.0470    75.3410  2711.0229   -29.6990    40.4590    41.8030    38.2610
 5033.0000    10.6190  2673.9561     3.1880     2.7460     0.0920     0.0030    66.3050    98.6290    72.8870  2707.4080   -25.2810    46.8130    46.3950    46.7080
