~VERSION INFORMATION
 VERS.                2.0:   CWLS LOG ASCII STANDARD - VERSION 2.0
 WRAP.                 NO:   ONE LINE PER DEPTH STEP
~WELL INFORMATION
#MNEM.UNIT      DATA TYPE    INFORMATION
#----------   ------------   ------------------------------
 STRT.F          407.0000:   START DEPTH
 STOP.F         3228.0000:   STOP DEPTH
 STEP.F            0.5000:   STEP LENGTH
 NULL.          -999.2500:   NO VALUE
 COMP.    FENIX & SCISSON:   COMPANY
 WELL.   FENIX "A" #21-34:   WELL
 FLD .             N.P.R.:   FIELD
 LOC .      S34 T39N R78W:   LOCATION
 CNTY.            NATRONA:   COUNTY
 STAT.            WYOMING:   STATE
 CTRY. UNITED STATES OF AMERICA:   COUNTRY
 SRVC.       SCHLUMBERGER:   SERVICE COMPANY
 DATE.        05-MAY-1977:   LOGDATE
 API .     49025103710000:   API NUMBER
~CURVE INFORMATION
#MNEM.UNIT       API CODE    CURVE DESCRIPTION
#----------   ------------   ------------------------------
 DEPT.F                  :   
 SPR .MV     11 010 01 00:   SPONTANEOUS POTENTIAL FROM RES.
 LLS .OHMM   11 220 09 00:   LATEROLOG LOG SHALLOW
 LLD .OHMM   11 220 10 00:   LATEROLOG DEEP
 MSFL.OHMM   11 270 04 00:   MICRO SPHERICALLY FOCUSED
 CALD.IN     45 280 60 00:   CALIPER FROM DENSITY LOG
 NPHI.DEC    42 890 03 00:   NEUTRON POROSITY SANDSTONE
 GRD .GAPI   45 310 01 00:   GAMMA RAY FROM DENSITY LOG
 CORR.G/C3   45 356 01 00:   DENSITY CORRECTION
 RHOB.G/C3   45 350 01 00:   BULK DENSITY
~PARAMETER INFORMATION
#MNEM.UNIT          VALUE    DESCRIPTION
#----------   ------------   ------------------------------
 EKB .F         5086.0000:   Kelly bushing
 EGL .F         5074.0000:   Ground level
 TD  .F         3226.0000:   Total depth
 CLNT.            A2DTECH:   Client Code
 SL  . 990' FWL & 330' FNL:   Surface Location
 PD  .                 GL:   Permanent Datum
 EPD .F              5074:   Elevation Permanent Datum
 LMF .                 KB:   Log Measured From
 DMF .                 KB:   Drilling Measured From
 DAPD.F                12:   Feet Above Permanent Datum
 DATE.        05-MAY-1977:   Date Logged [DD-MMM-YYYY]
 DD  .F              3226:   Depth driller
 DL  .F              3229:   Depth logger
 BLI .F              3227:   Bottom log interval
 TLI .F               430:   Top log interval
 CS1 .IN            8.625:   Casing size
 CBD1.      8.625" @ 424':   Casing driller 1
 CBL1.F               430:   Casing logger 1
 BS1 .IN            7.875:   Bit size
 BSD1.F              3226:   Depth drilled with bit1
 DFT .                KCL:   Type fluid in hole
 DFD .                9.4:   Density
 DFV .                 31:   Viscosity
 DFPH.                  8:   pH
 DFL .                9.6:   Fluid loss
 MSS .           MUD TANK:   Source of sample
 RMS .OHMM          0.202:   Rm
 MST .F                78:   Rm Meas. temp.
 RMF .OHMM          0.191:   Rmf
 MFST.F                76:   Rmf Meas. temp.
 MFSS.               MEAS:   Source Rmf.
 RMC .OHMM           0.30:   Rmc
 MCST.F                78:   Rmc Meas. temp.
 MCSS.               CALC:   Source Rmc.
 RMB .OHMM          0.123:   Rm. at BHT
 BHT .F               128:   BHT.
 TCS .HRS            1400:   Time Circ. stopped
 TLAB.HRS            0300:   Time logger at bottom
 MRT .F               128:   Maximum recorded temp.
 LUN .               5642:   Logging unit number
 LUL .               CSPR:   Logging unit location
 ENGI.                FIX:   Recorded By
 WITN.         HARRINGTON:   Witnessed by
 ORIG.           5" PRINT:   Origin of data
 UWI .     49025103710000:   Unique Well ID
 DICO. A2D TECHNOLOGIES, INC.:   Digitizing Company
~OTHER INFORMATION
~A   DEPT      SPR        LLS        LLD       MSFL       CALD       NPHI         GRD      CORR       RHOB   
# ...
 1903.5000   -90.8391     9.1548     7.8969    10.5176     8.2520     0.3822   157.4076     0.0049     2.4307
 1904.0000   -92.1750     9.1681     8.1648    10.7508     8.2520     0.3849   145.3786     0.0041     2.4413
 1904.5000   -92.9647     9.1787     8.2300    10.2464     8.2520     0.3873   147.0103     0.0119     2.4489
 1905.0000   -92.9661     9.1894     8.2384    10.3470     8.2520     0.3881   150.4359     0.0158     2.4543
 1905.5000   -92.9393     9.3285     8.1899    10.8662     8.2520     0.3858   150.9293     0.0113     2.4476
 1906.0000   -92.4220     9.4785     8.1396    10.9543     8.2520     0.3808   151.6376     0.0077     2.4485
 1906.5000   -92.1088     9.7495     8.3790    10.9670     8.2520     0.3772   145.3745     0.0118     2.4553
 1907.0000   -91.7999     9.8969     8.6234    10.9796     8.2520     0.3726   142.4844     0.0170     2.4622
 1907.5000   -91.4938    10.1866     8.8748    10.9908     8.2520     0.3792   140.9476     0.0148     2.4653
 1908.0000   -91.1875    10.3407     8.8839    11.0050     8.2520     0.3782   140.0876     0.0142     2.4496
 1908.5000   -90.8810    10.3527     8.8929    11.0167     8.2520     0.3758   146.4456     0.0181     2.4681
 1909.0000   -90.5748    10.4367     8.9639    11.0593     8.2520     0.3830   150.7648     0.0235     2.4694
 1909.5000   -90.2701    10.5214     8.9111    11.1194     8.2520     0.3862   152.6167     0.0304     2.4552
 1910.0000   -89.9702    10.5336     8.9826    11.1327     8.2520     0.3877   147.9255     0.0184     2.4508
 1910.5000   -89.5730    10.5458     9.0563    11.3011     8.2520     0.3895   147.7401     0.0064     2.4501
 1911.0000   -89.1882    10.5580     9.1920    11.4722     8.2520     0.3913   151.1555     0.0042     2.4562
 1911.5000   -88.8189    10.5702     9.2014    11.5795     8.2520     0.3936   154.1680     0.0089     2.4639
 1912.0000   -88.5596    10.4367     9.2108    11.8248     8.2520     0.3878   158.7398     0.0090     2.4542
 1912.5000   -87.8162    10.3053     9.2202    11.7533     8.2520     0.3827   159.4147     0.0068     2.4513
 1913.0000   -87.8017    10.1753     9.2297    11.6084     8.2520     0.3899   156.9862     0.0024     2.4491
 1913.5000   -87.7960    10.1875     9.2391    11.5383     8.2520     0.3880   152.0660     0.0117     2.4386
 1914.0000   -87.7980    10.3441     9.1823    11.3960     8.2520     0.3850   149.6129     0.0233     2.4561
 1914.5000   -87.7935    10.5006     9.1282    11.2490     8.2520     0.3973   154.4025     0.0277     2.4531
 1915.0000   -87.6715    10.5858     9.0137    11.4223     8.2520     0.3897   155.3469     0.0149     2.4450
 1915.5000   -87.5411    10.6717     8.8989    11.5150     8.2520     0.3797   152.2312     0.0075     2.4300
 1916.0000   -87.3886    10.6841     8.7855    11.6084     8.2520     0.3752   146.0815     0.0129     2.4414
 1916.5000   -87.7943    10.6964     8.7947    11.7026     8.2520     0.3893   141.7106     0.0137     2.4505
 1917.0000   -88.1870    10.7088     8.8038    11.6352     8.2520     0.3989   140.8611     0.0047     2.4423
 1917.5000   -88.5937    10.7202     8.8130    11.6491     8.2520     0.4021   141.5799     0.0018     2.4424
 1918.0000   -88.5813    10.7337     8.8222    11.6655     8.2520     0.4046   141.6221     0.0042     2.4493
 1918.5000   -88.5872    10.7461     8.8942    11.6790     8.2520     0.4006   140.9876     0.0111     2.4539
 1919.0000   -88.6148    10.7585     9.0275    11.7737     8.2520     0.3906   141.7065     0.0112     2.4457
 1919.5000   -88.2146    10.7710     9.0996    11.7854     8.2520     0.3821   143.1021     0.0136     2.4516
 1920.0000   -87.8016    10.7835     9.2360    11.7993     8.2520     0.3772   146.5277     0.0198     2.4610
 1920.5000   -87.8859    10.6475     9.3097    11.8111     8.2520     0.3853   146.5848     0.0289     2.4649
 1921.0000   -88.2790    10.5132     9.3192    11.6655     8.2520     0.3847   144.5820     0.0374     2.4687
 1921.5000   -88.6756    10.3836     9.2639    11.4355     8.2520     0.3798   144.9014     0.0344     2.4726
 1922.0000   -89.0725    10.3239     9.2097    11.0623     8.2520     0.3786   147.9067     0.0179     2.4494
 1922.5000   -89.4686    10.2616     9.0294    10.6982     8.2520     0.3842   149.5026     0.0120     2.4607
 1923.0000   -89.8647    10.3478     8.6682    10.5632     8.2520     0.3890   150.7673     0.0075     2.4526
 1923.5000   -90.2098    10.4318     8.5008    10.5757     8.2520     0.3851   153.3749     0.0023     2.4421
 1924.0000   -89.9812    10.5165     8.4507    10.7358     8.2520     0.3841   155.2111    -0.0021     2.4354
 1924.5000   -89.9859    10.6018     8.5203    10.9082     8.2520     0.3976   149.3992    -0.0035     2.4468
 1925.0000   -89.9775    10.6141     8.7082    11.1424     8.2520     0.4057   144.8120     0.0049     2.4507
 1925.5000   -89.9363    10.6264     8.9003    11.3108     8.2520     0.3978   144.2886     0.0073     2.4583
 1926.0000   -90.3755    10.6387     9.0337    11.4818     8.2520     0.3942   149.7478     0.0097     2.4501
 1926.5000   -90.4198    10.6511     9.1058    11.5750     8.2520     0.3899   147.5871     0.0121     2.4532
 1927.0000   -89.4638    10.6634     9.1151    11.6689     8.2520     0.3802   143.7455     0.0152     2.4511
 1927.5000   -88.8139    10.6758     9.1244    11.7635     8.2520     0.3721   144.4643     0.0168     2.4472
 1928.0000   -88.4406    10.6144     9.0683    11.7765     8.2520     0.3672   148.9895     0.0177     2.4467
 1928.5000   -87.4781    10.6271     9.0169    11.7907     8.2520     0.3765   149.9622     0.0163     2.4386
 1929.0000   -86.5858    10.5655     8.9020    11.7228     8.2520     0.3801   152.9368     0.0141     2.4417
 1929.5000   -86.0945    10.5078     8.8497    11.6554     8.2520     0.3692   148.3254     0.0195     2.4525
 1930.0000   -85.8509    10.4444     8.7330    11.6693     8.2520     0.3634   141.7359     0.0310     2.4601
 1930.5000   -85.5828    10.3127     8.6254    11.5216     8.2520     0.3607   144.4954     0.0273     2.4623
 1931.0000   -85.4139    10.1826     8.5745    11.3010     8.2520     0.3628   148.9411     0.0160     2.4489
 1931.5000   -85.4169    10.1240     8.5246    11.0783     8.2520     0.3674   150.6771     0.0124     2.4474
 1932.0000   -85.4164    10.0658     8.4153    10.7912     8.2520     0.3834   148.2275     0.0132     2.4483
 1932.5000   -85.4091    10.0804     8.3100    10.7260     8.2520     0.3930   151.0298     0.0141     2.4552
 1933.0000   -85.6718    10.0224     8.2590    10.7415     8.2520     0.3864   152.6216     0.0164     2.4598
 1933.5000   -85.9991    10.0340     8.1557    10.7539     8.2520     0.3812   159.8719     0.0188     2.4524
 1934.0000   -86.2226    10.0457     8.1640    10.8411     8.2520     0.3797   162.3953     0.0204     2.4607
 1934.5000   -85.9305    10.0573     8.1724    11.0050     8.2520     0.3868   164.2420     0.0236     2.4819
 1935.0000   -85.5654    10.0690     8.1807    11.0943     8.2520     0.3910   160.9007     0.0275     2.4760
 1935.5000   -84.9511    10.0808     8.1891    11.1843     8.2520     0.3925   156.6572     0.0196     2.4701
 1936.0000   -83.9180    10.0927     8.2544    11.1975     8.2520     0.3936   155.3460     0.0126     2.4604
 1936.5000   -82.9575    10.1772     8.3204    11.0432     8.2520     0.3939   153.8092     0.0081     2.4499
 1937.0000   -83.4547    10.1890     8.3290    10.9164     8.2520     0.3869   150.9191     0.0037     2.4470
 1937.5000   -83.4325    10.3430     8.3377    11.0082     8.2520     0.3745   152.0891     0.0091     2.4576
 1938.0000   -83.4562    10.4778     8.3480    11.2522     8.2520     0.3540   151.6802     0.0152     2.4645
 1938.5000   -82.9942    10.5793     8.3565    11.6621     8.2520     0.3513   154.4291     0.0191     2.4706
 1939.0000   -82.2530    10.6705     8.3650    12.0869     8.2520     0.3600   155.2011     0.0268     2.4647
 1939.5000   -81.6665    10.6829     8.3136    12.3549     8.2520     0.3684   147.0699     0.0367     2.4739
