~VERSION INFORMATION
 VERS.                2.0:   CWLS LOG ASCII STANDARD - VERSION 2.0
 WRAP.                 NO:   ONE LINE PER DEPTH STEP
~WELL INFORMATION
#MNEM.UNIT      DATA TYPE    INFORMATION
#----------   ------------   ------------------------------
 STRT.F          545.0000:   START DEPTH
 STOP.F         3193.0000:   STOP DEPTH
 STEP.F            0.5000:   STEP LENGTH
 NULL.          -999.2500:   NO VALUE
 COMP. FENIX & SCISSON-U.S. NAVY:   COMPANY
 WELL.   FENIX "A" #47-34:   WELL
 FLD .          N.P.R. #3:   FIELD
 LOC .      S34 T39N R78W:   LOCATION
 CNTY.            NATRONA:   COUNTY
 STAT.            WYOMING:   STATE
 CTRY. UNITED STATES OF AMERICA:   COUNTRY
 SRVC.       SCHLUMBERGER:   SERVICE COMPANY
 DATE.        26-MAR-1977:   LOGDATE
 API .     49025103260000:   API NUMBER
~CURVE INFORMATION
#MNEM.UNIT       API CODE    CURVE DESCRIPTION
#----------   ------------   ------------------------------
 DEPT.F                  :   
 SPR .MV     07 010 01 00:   SPONTANEOUS POTENTIAL FROM RES.
 ILM .OHMM   07 120 44 00:   INDUCTION LOG MEDIUM RESISTIVITY
 ILD .OHMM   07 120 46 00:   DEEP INDUCTION RESISTIVITY
 LL8 .OHMM   07 220 08 00:   LATEROLOG-8 RES.
 CALD.IN     45 280 60 00:   CALIPER FROM DENSITY LOG
 GRD .GAPI   45 310 01 00:   GAMMA RAY FROM DENSITY LOG
 RHOB.G/C3   45 350 01 00:   BULK DENSITY
 CORR.G/C3   45 356 01 00:   DENSITY CORRECTION
~PARAMETER INFORMATION
#MNEM.UNIT          VALUE    DESCRIPTION
#----------   ------------   ------------------------------
 EKB .F         5144.0000:   Kelly bushing
 EGL .F         5132.0000:   Ground level
 TD  .F         3194.0000:   Total depth
 CLNT.            A2DTECH:   Client Code
 SL  . 2310' FWL & 990' FSL:   Surface Location
 PD  .                 GL:   Permanent Datum
 EPD .F              5132:   Elevation Permanent Datum
 LMF .                 KB:   Log Measured From
 DMF .                 KB:   Drilling Measured From
 DAPD.F                12:   Feet Above Permanent Datum
 DATE.        26-MAR-1977:   Date Logged [DD-MMM-YYYY]
 DD  .F              3188:   Depth driller
 DL  .F              3194:   Depth logger
 BLI .F              3188:   Bottom log interval
 TLI .F               564:   Top log interval
 CS1 .IN            8.625:   Casing size
 CBD1.      8.625" @ 570':   Casing driller 1
 CBL1.F               564:   Casing logger 1
 BS1 .IN            7.875:   Bit size
 BSD1.F              3188:   Depth drilled with bit1
 DFT .                KCL:   Type fluid in hole
 DFD .                9.2:   Density
 DFV .                 30:   Viscosity
 DFL .                9.2:   Fluid loss
 MSS .                PIT:   Source of sample
 RMS .OHMM          0.354:   Rm
 MST .F                70:   Rm Meas. temp.
 RMF .OHMM          0.326:   Rmf
 MFST.F                70:   Rmf Meas. temp.
 MFSS.               MEAS:   Source Rmf.
 RMC .OHMM          0.531:   Rmc
 MCST.F                70:   Rmc Meas. temp.
 MCSS.               CALC:   Source Rmc.
 RMB .OHMM          0.205:   Rm. at BHT
 BHT .F               121:   BHT.
 TLAB.HRS            1900:   Time logger at bottom
 MRT .F               121:   Maximum recorded temp.
 LUN .               5642:   Logging unit number
 LUL .               CSPR:   Logging unit location
 ENGI.             MARTIN:   Recorded By
 WITN.         PETTINGILL:   Witnessed by
 ORIG.           5" PRINT:   Origin of data
 UWI .     49025103260000:   Unique Well ID
 DICO. A2D TECHNOLOGIES, INC.:   Digitizing Company
~OTHER INFORMATION
~A   DEPT      SPR        ILM        ILD        LL8       CALD         GRD      RHOB       CORR   
# ...
 1395.5000   -62.4200     8.6503     8.1494    12.1771     8.3822   115.7089     2.5264     0.0184
 1396.0000   -62.3980     8.5947     8.1573    12.0197     8.3784   113.5987     2.5175     0.0185
 1396.5000   -62.3803     8.5407     8.1636    12.0274     8.3746   113.9199     2.5108     0.0139
 1397.0000   -62.3627     8.3719     8.1120    11.8681     8.3708   115.1352     2.5095     0.0078
 1397.5000   -62.4937     8.3193     8.0622    12.0428     8.3670   117.5428     2.5156     0.0031
 1398.0000   -62.4761     8.2102     7.9590    12.4793     8.3632   119.5033     2.5255     0.0051
 1398.5000   -62.7557     8.1586     7.9652    11.8902     8.3594   118.7812     2.5398     0.0134
 1399.0000   -63.0352     8.2204     7.9715    11.3968     8.3556   118.2082     2.5294     0.0189
 1399.5000   -63.0176     8.2265     7.9791    11.1136     8.3518   118.2371     2.5150     0.0220
 1400.0000   -63.0000     8.2315     7.9853    12.5077     8.3480   119.6015     2.5319     0.0206
 1400.5000   -62.9824     8.2936     7.9915    13.3160     8.3442   120.2207     2.5447     0.0136
 1401.0000   -62.9648     8.2980     7.9977    12.4376     8.3404   119.3496     2.5456     0.0121
 1401.5000   -62.7986     8.3032     8.0039    11.8583     8.3366   117.1372     2.5337     0.0223
 1402.0000   -62.7810     8.3088     8.0101    11.3844     8.3328   117.0104     2.5217     0.0192
 1402.5000   -62.7634     8.3139     8.0721    11.0052     8.3290   117.4815     2.5129     0.0053
 1403.0000   -62.7458     8.3189     8.1345    11.3206     8.3252   117.8033     2.5152     0.0015
 1403.5000   -62.7281     8.3817     7.8834    12.6657     8.3221   117.3844     2.5288     0.0086
 1404.0000   -62.6848     8.4450     7.9432    13.1944     8.3221   116.8114     2.5402     0.0187
 1404.5000   -62.5160     8.4502     7.9475    12.6691     8.3221   116.2383     2.5449     0.0242
 1405.0000   -62.6445     8.4554     7.9518    12.5900     8.3221   115.8143     2.5433     0.0289
 1405.5000   -62.7729     8.5194     8.0228    12.5114     8.3221   115.3903     2.5397     0.0290
 1406.0000   -62.9253     8.5847     8.0711    12.5194     8.3221   117.4647     2.5383     0.0267
 1406.5000   -63.3269     8.6495     8.1314    12.3537     8.3221   118.3790     2.5376     0.0244
 1407.0000   -63.3017     8.7148     8.0854    12.3635     8.3221   116.7281     2.5415     0.0307
 1407.5000   -63.2815     8.7202     7.9663    12.5435     8.3221   113.8043     2.5439     0.0370
 1408.0000   -63.2613     8.7255     8.0532    12.9030     8.3221   109.3535     2.5430     0.0246
 1408.5000   -63.2411     8.7308     8.1111    13.0908     8.3222   106.8401     2.5268     0.0278
 1409.0000   -63.2210     8.7361     8.1133    13.0994     8.3225   107.7544     2.5757     0.0434
 1409.5000   -63.2006     8.7415     8.1717    13.0194     8.3188   109.5629     2.5563     0.0721
 1410.0000   -63.1798     8.8074     8.2473    12.2429     8.3616   111.0734     2.5361     0.0350
 1410.5000   -63.0068     8.9354     8.2897    12.9464     8.3993   109.7407     2.5360     0.0420
 1411.0000   -62.6895     9.0029     8.3493    13.6904     8.4031   110.2245     2.5485     0.0514
 1411.5000   -62.5207     9.0771     8.4094    13.4183     8.3579   112.7781     2.5544     0.0476
 1412.0000   -62.5005     9.2667     8.5285    12.9692     8.3168   114.7356     2.5537     0.0375
 1412.5000   -62.4804     9.3032     8.5899    12.8012     8.2999   116.3951     2.5561     0.0415
 1413.0000   -62.3116     9.3914     8.6518    12.8985     8.2831   119.8430     2.5659     0.0471
 1413.5000   -62.2912     9.5272     8.7145    13.6461     8.2825   121.6515     2.5728     0.0525
 1414.0000   -62.2713     9.5985     8.7772    14.1543     8.2826   119.5762     2.5645     0.0417
 1414.5000   -62.3997     9.6702     8.7796    14.6358     8.2826   113.9471     2.5557     0.0309
 1415.0000   -62.3745     9.8101     8.8425    14.7443     8.2826   111.8808     2.5431     0.0271
 1415.5000   -62.5079     9.8154     8.8451    14.2554     8.2826   112.0500     2.5252     0.0225
 1416.0000   -62.3341     9.8207     8.8833    13.5915     8.2826   114.6036     2.5088     0.0163
 1416.5000   -62.3140     9.8260     8.9728    13.5044     8.2826   117.1573     2.5156     0.0102
 1417.0000   -62.8881     9.8313     8.9752    13.9899     8.2826   118.5187     2.5428     0.0172
 1417.5000   -63.0166     9.8368     8.9159    14.1118     8.2826   119.7716     2.5458     0.0305
 1418.0000   -62.8470     9.6413     8.8571    13.2549     8.2826   121.8427     2.5392     0.0274
 1418.5000   -62.6740     9.5787     8.7985    12.9800     8.2826   123.0550     2.5340     0.0213
 1419.0000   -62.6538     9.3886     8.6803    13.0920     8.2826   123.3732     2.5273     0.0136
 1419.5000   -62.7873     9.1376     8.6229    13.3745     8.2826   122.0521     2.5184     0.0106
 1420.0000   -62.7621     9.0170     8.6258    13.7578     8.2826   120.7309     2.5095     0.0209
 1420.5000   -62.7419     8.9598     8.5093    14.0547     8.2826   119.7059     2.5224     0.0308
 1421.0000   -62.7217     8.9646     8.4324    14.0636     8.2826   119.2578     2.5225     0.0348
 1421.5000   -62.7013     8.9694     8.3977    13.7841     8.2826   119.6041     2.5233     0.0434
 1422.0000   -62.6805     8.9743     8.4001    13.5102     8.2826   119.7682     2.5399     0.0574
 1422.5000   -62.6562     8.9793     8.4023    13.1463     8.2826   119.4903     2.5580     0.0598
 1423.0000   -62.6360     9.0475     8.3469    12.6250     8.2834   119.8135     2.5867     0.0598
 1423.5000   -62.6158     9.0523     8.2922    12.2063     8.2871   120.7278     2.5680     0.0587
 1424.0000   -62.5956     9.0572     8.2941    12.0447     8.2906   121.6484     2.5542     0.0359
 1424.5000   -63.0212     9.1249     8.2967    12.7388     8.2942   122.2634     2.5408     0.0205
 1425.0000   -63.2982     9.1932     8.2413    13.5642     8.2978   120.4952     2.5289     0.0143
 1425.5000   -63.4267     9.3261     8.2441    13.8569     8.3014   117.2366     2.5320     0.0036
 1426.0000   -63.5551     9.3311     8.2463    13.5815     8.3049   115.6123     2.5441     0.0129
 1426.5000   -63.5334     9.2081     8.2485    12.8599     8.3085   116.5317     2.5510     0.0285
 1427.0000   -63.6633     9.1496     8.1940    12.5176     8.3121   117.1479     2.5466     0.0301
 1427.5000   -63.6381     9.0915     8.1962    13.8242     8.3156   117.0094     2.5452     0.0123
 1428.0000   -63.6179     8.9110     8.1985    14.1944     8.3192   116.5921     2.5483     0.0217
 1428.5000   -63.5978     8.9158     8.2008    14.0087     8.3229   117.8095     2.5409     0.0365
 1429.0000   -63.4290     8.8580     8.2034    13.9189     8.3274   118.8728     2.5282     0.0117
 1429.5000   -63.1114     8.8639     8.2053    13.6445     8.3318   118.4459     2.5355     0.0234
 1430.0000   -63.0906     8.8065     8.2644    12.2185     8.3363   116.9757     2.5600     0.0429
 1430.5000   -63.3685     8.7506     8.2667    11.7348     8.3407   115.9526     2.5556     0.0287
 1431.0000   -63.4969     8.8172     8.2689    12.4111     8.3452   115.3632     2.5467     0.0104
 1431.5000   -63.4717     8.8830     8.2712    13.3133     8.3496   116.5940     2.5400     0.0058
 1432.0000   -63.3029     8.8921     8.2735    13.7829     8.3541   118.4025     2.5371     0.0385
 1432.5000   -63.2827     8.9545     8.2758    12.6098     8.3585   117.3794     2.5612     0.0556
 1433.0000   -63.2626     8.9604     8.2781    12.1058     8.3617   116.2073     2.5681     0.0339
 1433.5000   -63.2422     9.0274     8.2804    13.6221     8.3617   116.6745     2.5472     0.0200
 1434.0000   -63.0728     9.0949     8.3123    13.7252     8.3617   118.4830     2.5293     0.0162
 1434.5000   -63.3507     9.1629     8.3427    13.3599     8.3617   120.3456     2.5211     0.0124
 1435.0000   -63.7712     9.1678     8.4027    13.0043     8.3617   123.2973     2.5257     0.0133
 1435.5000   -63.9047     9.1727     8.3945    12.6581     8.3617   125.5529     2.5408     0.0180
