~VERSION INFORMATION
 VERS.                2.0:   CWLS LOG ASCII STANDARD - VERSION 2.0
 WRAP.                 NO:   ONE LINE PER DEPTH STEP
~WELL INFORMATION
#MNEM.UNIT      DATA TYPE    INFORMATION
#----------   ------------   ------------------------------
 STRT.F          448.5000:   START DEPTH
 STOP.F         4490.5000:   STOP DEPTH
 STEP.F            0.5000:   STEP LENGTH
 NULL.          -999.2500:   NO VALUE
 COMP.  FENIX AND SCISSON:   COMPANY
 WELL. FENIX AND SCISSON NPR 3 #11-10:   WELL
 FLD .              NPR-3:   FIELD
 LOC .      S10 T38N R78W:   LOCATION
 CNTY.            NATRONA:   COUNTY
 STAT.            WYOMING:   STATE
 CTRY. UNITED STATES OF AMERICA:   COUNTRY
 SRVC.              WELEX:   SERVICE COMPANY
 DATE.        22-DEC-1978:   LOGDATE
 API .     49025107450000:   API NUMBER
~CURVE INFORMATION
#MNEM.UNIT       API CODE    CURVE DESCRIPTION
#----------   ------------   ------------------------------
 DEPT.F                  :   
 SPR .MV     07 010 01 00:   SPONTANEOUS POTENTIAL
 ILM .OHMM   07 120 44 00:   INDUCTION LOG MEDIUM
 ILD .OHMM   07 120 46 00:   DEEP RESISTIVITY
 SGRD.OHMM   07 220 01 00:   SHALLOW SHORT GUARD RESISTIVITY
 TENR.LBS    07 635 01 00:   TENSION FROM RESISTIVITY
 NPHI.DEC    42 890 03 00:   NEUTRON POROSITY SANDSTONE
 CALD.IN     45 280 60 00:   CALIPER FROM DENSITY LOG
 GRD .GAPI   45 310 01 00:   GAMMA RAY FROM DENSITY LOG
 RHOB.G/C3   45 350 01 00:   BULK DENSITY
 DRHO.G/C3   45 356 01 00:   DENSITY CORRECTION
 TEND.LBS    45 635 01 00:   TENSION FROM DENSITY
~PARAMETER INFORMATION
#MNEM.UNIT          VALUE    DESCRIPTION
#----------   ------------   ------------------------------
 EKB .F         5275.0000:   Kelly bushing
 EGL .F         5265.0000:   Ground level
 EDF .F            0.0000:   Drilling floor
 EPD .F         5265.0000:   Permanent datum
 TD  .F         4500.0000:   Total depth
 DATE.        22-DEC-1978:   Date logged
 CLNT.            A2DTECH:   Client Code
 SL  . 300' FNL & 500' FWL:   Surface Location
 DD  .F              4500:   Depth driller
 DL  .F              4481:   Depth logger
 BLI .F              4479:   Bottom log interval
 TLI .F               450:   Top log interval
 CS1 .IN            8.625:   Casing size
 CBD1.      8.625" @ 500':   Casing driller 1
 CBL1.F               473:   Casing logger 1
 BS1 .IN            7.875:   Bit size
 BSD1.F              4500:   Depth drilled with bit1
 DFT .               LSND:   Type fluid in hole
 DFD .                8.7:   Density
 DFV .                 49:   Viscosity
 DFPH.               11.0:   pH
 DFL .                7.6:   Fluid loss
 MSS .           FLOWLINE:   Source of sample
 RMS .OHMM            1.1:   Rm
 MST .F                86:   Rm Meas. temp.
 RMF .OHMM           0.73:   Rmf
 MFST.F                86:   Rmf Meas. temp.
 RMC .OHMM           1.68:   Rmc
 MCST.F                86:   Rmc Meas. temp.
 MFSS.               CALC:   Source Rmf.
 MCSS.               CALC:   Source Rmc.
 RMB .OHMM           0.72:   Rm. at BHT
 BHT .F               130:   BHT.
 TCS .HRS             3.5:   Time Circ. stopped
 MRT .F               130:   Maximum recorded temp.
 LUN .               9685:   Logging unit number
 LUL .             CASPER:   Logging unit location
 ENGI.            BENTSEN:   Recorded By
 WITN.           DINSMORE:   Witnessed by
 ORIG.           5" PRINT:   Origin of data
 UWI .     49025107450000:   Unique Well ID
 DICO. A2D TECHNOLOGIES, INC.:   Digitizing Company
~OTHER INFORMATION
~A  DEPTH      SPR        ILM        ILD       SGRD       TENR       NPHI       CALD        GRD       RHOB       DRHO       TEND
# ...
  479.0000   -56.7580     5.1231     7.2135     6.0970   450.8403     0.4114  -999.2500    74.8185     1.9268     0.2163   847.9760
  479.5000   -56.8430     4.9056     6.6905     5.8052   450.9063     0.4156  -999.2500    74.8814     1.9382     0.2166   845.2774
  480.0000   -56.8296     4.6485     6.1388     5.5213   450.9722     0.4185  -999.2500    75.0745     1.9488     0.2109   842.5787
  480.5000   -56.8163     4.4144     5.4929     5.1991   451.0382     0.4209  -999.2500    75.0894     1.9587     0.1991   839.8801
  481.0000   -56.8030     4.1593     4.8779     4.7962   451.1042     0.4220  -999.2500    75.1043     1.9715     0.1829   837.1814
  481.5000   -56.8630     3.8605     4.2024     4.3453   451.1701     0.4232  -999.2500    75.2447     1.9836     0.1576   834.4828
  482.0000   -56.9244     3.4520     3.6505     3.8972   451.2361     0.4237  -999.2500    75.8495     2.0224     0.1443   831.7841
  482.5000   -56.9111     3.0724     3.2254     3.6381   451.3020     0.4209  -999.2500    76.9188     2.0994     0.1507   829.0855
  483.0000   -56.9852     2.7345     2.7750     3.4555   451.3680     0.4177    15.6628    78.3010     2.1303     0.1630   826.3868
  483.5000   -57.1247     2.4849     2.5043     3.2754   451.4339     0.4144    15.3589    79.6833     2.1867     0.1783   823.6882
  484.0000   -57.1674     2.3214     2.3235     3.1462   451.4999     0.4107    15.7757    81.1501     2.2183     0.2208   820.9896
  484.5000   -57.1541     2.2264     2.1857     3.0605   451.5659     0.4072    15.3604    82.7602     2.1929     0.2317   818.2909
  485.0000   -57.1407     2.1561     2.1284     2.9976   451.6318     0.4037    15.1531    84.2772     2.1675     0.2320   815.5922
  485.5000   -57.2383     2.4858     2.1003     3.1055   451.6978     0.4004    15.4093    85.4645     2.1248     0.2262   812.8936
  486.0000   -57.3778     2.8379     2.0749     3.4607   451.7637     0.3981    15.6716    86.1873     2.0701     0.2145   810.1949
  486.5000   -57.3970     3.2284     2.1971     3.9569   451.8297     0.3970    16.0172    86.6580     2.0762     0.2013   807.4963
  487.0000   -57.6780     3.5435     2.4517     4.4145   451.8956     0.3968  -999.2500    86.7971     2.1686     0.1970   804.3171
  487.5000   -57.6651     3.8439     2.7268     4.5002   451.9616     0.3971  -999.2500    86.4692     2.2333     0.1988   816.7128
  488.0000   -57.6521     4.0675     3.0229     4.6288   452.0276     0.3976  -999.2500    86.1475     2.2507     0.2051   814.1157
  488.5000   -57.6392     4.2331     3.4463     5.4371   452.0935     0.3986  -999.2500    86.0581     2.2380     0.2160   796.5264
  489.0000   -57.6263     4.3994     3.9344     6.0568   452.1595     0.4002  -999.2500    86.3289     2.1908     0.2238   793.4967
  489.5000   -57.6128     4.5335     4.3389     6.1004   452.2254     0.4022  -999.2500    86.5350     2.1669     0.2256   790.8997
  490.0000   -57.2988     4.6553     4.6881     5.9241   452.2914     0.4042  -999.2500    86.5499     2.1204     0.2244   788.3028
  490.5000   -57.1326     4.7269     5.0451     5.6886   452.3573     0.4057  -999.2500    86.4239     2.0837     0.2247   785.7057
  491.0000   -56.9807     4.7667     5.3880     5.5386   452.4233     0.4072  -999.2500    86.2109     2.0223     0.2235   782.6760
  491.5000   -56.9674     4.7655     5.6228     5.3925   452.4893     0.4066  -999.2500    86.2972     2.0029     0.2193   780.5098
  492.0000   -56.9541     4.7587     5.7442     5.3235   452.5552     0.4059  -999.2500    86.3860     1.9992     0.2121   777.8111
  492.5000   -56.9691     4.7179     5.7808     5.3286   452.6212     0.4050  -999.2500    86.2426     2.0068     0.2018   774.8851
  493.0000   -57.1086     4.6559     5.7591     5.5719   452.6871     0.4046  -999.2500    85.8669     2.0024     0.1841   772.4138
  493.5000   -57.2104     4.5947     5.6356     5.9286   452.7531     0.4074  -999.2500    85.4260     2.0062     0.1603   769.2585
  494.0000   -57.2820     4.5246     5.4145     6.0110   452.8190     0.4105  -999.2500    84.9851     2.0581     0.1335   766.6616
  494.5000   -57.4800     4.4367     5.1644     5.8010   452.8850     0.4103  -999.2500    84.8957     2.0710     0.1036   764.3179
  495.0000   -57.5185     4.3505     4.9600     5.3661   452.9509     0.4087  -999.2500    84.9134     2.0726     0.0859   776.2437
  495.5000   -57.6580     4.2365     4.7308     4.8002   453.0169     0.4075  -999.2500    85.3751     2.0825     0.0636   758.9205
  496.0000   -57.7363     4.1542     4.5751     4.5155   453.0829     0.4081  -999.2500    86.0604     2.1318     0.0473   756.2219
  496.5000   -57.7230     4.0713     4.4526     4.4412   453.1488     0.4091  -999.2500    86.7457     2.3588     0.0506   768.6694
  497.0000   -57.7096     4.0220     4.3328     4.5383   453.2148     0.4104  -999.2500    87.6545     2.4123     0.0660   765.8171
  497.5000   -57.7716     4.0342     4.2513     4.6861   453.2807     0.4116  -999.2500    88.5633     2.4049     0.0814   763.0427
  498.0000   -57.9111     4.0976     4.2294     4.8048   453.3467     0.4124  -999.2500    88.3543     2.3885     0.0937   760.0129
  498.5000   -57.9659     4.1621     4.2883     4.9352   453.4126     0.4136  -999.2500    87.0277     2.3676     0.1061   757.7211
  499.0000   -58.0420     4.2424     4.4192     5.0472   453.4786     0.4151  -999.2500    84.5833     2.3489     0.1184   769.8116
  499.5000   -58.1815     4.3717     4.5540     5.1117   453.5446     0.4174  -999.2500    83.0331     2.3295     0.1323   766.7819
  500.0000   -58.4501     4.5329     4.8037     5.2326   453.6158     0.4196  -999.2500    81.9300     2.2973     0.1416   764.6177
  500.5000   -58.7895     4.7405     5.2211     5.4890   453.7592     0.4214  -999.2500    81.4792     2.2403     0.1555   763.6342
  501.0000   -58.8528     4.8832     5.3580     5.8879   453.9151     0.4242  -999.2500    81.0284     2.2022     0.1723   762.6508
  501.5000   -58.6867     5.0210     5.5698     6.1449   454.0710     0.4289  -999.2500    80.5776     2.1603     0.1877   761.6674
  502.0000   -58.6133     5.1147     5.8082     6.2353   454.2270     0.4350  -999.2500    80.1997     2.0951     0.1940   760.6839
  502.5000   -58.6975     5.1571     6.0124     6.2409   454.3829     0.4410  -999.2500    80.0745     2.0674     0.1868   759.7004
  503.0000   -58.7348     5.1998     6.1782     6.1945   454.5388     0.4446  -999.2500    80.1058     2.0622     0.1690   758.7170
  503.5000   -58.7215     5.2153     6.2847     6.1063   454.6947     0.4463  -999.2500    80.1371     2.1464     0.1482   757.7335
  504.0000   -58.7081     5.1988     6.3372     5.9752   454.8506     0.4469  -999.2500    80.0715     2.2366     0.1742   756.7501
  504.5000   -58.8111     5.1887     6.3296     5.8211   455.0065     0.4469  -999.2500    79.9762     2.2435     0.1790   755.7667
  505.0000   -58.9754     5.1746     6.2472     5.7032   455.1624     0.4468  -999.2500    80.0075     2.1911     0.1717   754.7832
  505.5000   -58.9625     5.1444     6.1658     5.5769   455.3184     0.4477  -999.2500    80.0387     2.1507     0.1539   753.7997
  506.0000   -59.0977     5.0772     6.0856     5.4367   455.4743     0.4493  -999.2500    79.9434     2.0764     0.1257   752.8163
  506.5000   -59.2329     4.9721     6.0064     5.3266   455.6302     0.4504  -999.2500    79.7437     2.0345     0.1049   751.8328
  507.0000   -59.2200     4.8775     5.9029     5.2324   455.7861     0.4496  -999.2500    79.4024     2.0308     0.0856   750.8494
  507.5000   -59.2071     4.7931     5.7846     5.1930   455.9420     0.4475  -999.2500    78.9717     2.0400     0.0648   749.8660
  508.0000   -59.1941     4.6969     5.6420     5.1820   456.0979     0.4448  -999.2500    78.6975     2.0446     0.0380   748.8825
  508.5000   -59.1807     4.5808     5.5168     5.1674   456.2538     0.4425  -999.2500    78.1699     2.1424     0.0292   747.8990
  509.0000   -59.1683     4.4349     5.3507     5.1725   456.4098     0.4404  -999.2500    77.5082     2.4089     0.0627   746.9156
