~VERSION INFORMATION
 VERS.                2.0:   CWLS LOG ASCII STANDARD - VERSION 2.0
 WRAP.                 NO:   ONE LINE PER DEPTH STEP
~WELL INFORMATION
#MNEM.UNIT      DATA TYPE    INFORMATION
#----------   ------------   ------------------------------
 STRT.F          720.0000:   START DEPTH
 STOP.F         3416.0000:   STOP DEPTH
 STEP.F            0.5000:   STEP LENGTH
 NULL.          -999.2500:   NO VALUE
 COMP.    FENIX & SCISSON:   COMPANY
 WELL.  FENIX "AX" #31-14:   WELL
 FLD .                NPR:   FIELD
 LOC .      S14 T38N R78W:   LOCATION
 CNTY.            NATRONA:   COUNTY
 STAT.            WYOMING:   STATE
 CTRY. UNITED STATES OF AMERICA:   COUNTRY
 SRVC.       SCHLUMBERGER:   SERVICE COMPANY
 DATE.        04-JUN-1981:   LOGDATE
 API .     49025108730000:   API NUMBER
~CURVE INFORMATION
#MNEM.UNIT       API CODE    CURVE DESCRIPTION
#----------   ------------   ------------------------------
 DEPT.F                  :   
 TEND.LBS    45 635 01 00:   TENSION FROM DENSITY LOG
 CORR.G/C3   45 356 01 00:   DENSITY CORRECTION
 RHOB.G/C3   45 350 01 00:   BULK DENSITY
 CALD.IN     45 280 60 00:   CALIPER FROM DENSITY LOG
 GRD .GAPI   45 310 01 00:   GAMMA RAY FROM DENSITY LOG
 SPR .MV     07 010 01 00:   SPONTANEOUS POTENTIAL
 SFL .OHMM   07 220 01 00:   SHALLOW FOCUSED LOG RESISTIVITY
 ILD .OHMM   07 120 46 00:   INDUCTION LOG DEEP RESISTIVITY
 ILM .OHMM   07 120 44 00:   INDUCTION LOG MEDIUM RESISTIVITY
 TENR.LBS    07 635 01 00:   TENSION FROM RESISTIVITY
~PARAMETER INFORMATION
#MNEM.UNIT          VALUE    DESCRIPTION
#----------   ------------   ------------------------------
 EKB .F         5196.0000:   Kelly bushing
 EGL .F         5186.0000:   Ground level
 EDF .F            0.0000:   Drilling floor
 TD  .F         3402.0000:   Total depth
 DATE.        04-JUN-1981:   Date logged
 CLNT.            A2DTECH:   Client Code
 SL  . 377' FWL & 1733' FWL:   Surface Location
 PD  .                 GL:   Permanent Datum
 DD  .F              3400:   Depth driller
 DL  .F              3402:   Depth logger
 BLI .F              3395:   Bottom log interval
 TLI .F               720:   Top log interval
 CS1 .IN            8.625:   Casing size
 CBD1.      8.625" @ 707':   Casing driller 1
 CBL1.F               751:   Casing logger 1
 BS1 .IN            7.875:   Bit size
 BSD1.F              3400:   Depth drilled with bit1
 DFT .                FGM:   Type fluid in hole
 DFD .                8.8:   Density
 DFV .                 55:   Viscosity
 DFPH.                9.5:   pH
 DFL .                  9:   Fluid loss
 MSS .           MUD TANK:   Source of sample
 RMS .OHMM            1.7:   Rm
 MST .F                78:   Rm Meas. temp.
 RMF .OHMM           1.45:   Rmf
 MFST.F                78:   Rmf Meas. temp.
 MFSS.               MEAS:   Source Rmf.
 RMB .OHMM           1.12:   Rm. at BHT
 BHT .F               118:   BHT.
 TCS .HRS            1200:   Time Circ. stopped
 TLAB.HRS            1600:   Time logger at bottom
 MRT .F               118:   Maximum recorded temp.
 LUN .               8043:   Logging unit number
 LUL .             CASPER:   Logging unit location
 ENGI.             LARSON:   Recorded By
 WITN.              FIVAS:   Witnessed by
 ORIG.      2.5" 5" PRINT:   Origin of data
 UWI .     49025108730000:   Unique Well ID
 DICO. A2D TECHNOLOGIES, INC.:   Digitizing Company
 EPD .               5186:   Elevation Permanent Datum
 LMF .                 KB:   Log Measured From
 DMF .                 KB:   Drilling Measured From
 DAPD.                 10:   Feet Above Permanent Datum
~OTHER INFORMATION
~A   DEPT     TEND       CORR       RHOB       CALD         GRD       SPR        SFL        ILD        ILM       TENR   
# ...
 1088.5000   956.7380     0.0140     2.5300     9.0140   104.5580   -14.7150     7.9910     7.6940     6.8320   965.0920
 1089.0000   954.9080     0.0100     2.5190     9.0180   106.5390   -14.7460     7.8980     7.6640     6.8030   965.0920
 1089.5000   953.0780     0.0060     2.5090     9.0230   107.4150   -14.7770     7.8580     7.6340     6.7730   965.0920
 1090.0000   951.2490     0.0030     2.5070     9.0270   106.3990   -14.8060     7.8110     7.6040     6.7540   965.0920
 1090.5000   949.4190     0.0030     2.5050     9.0320   103.3140   -14.8410     7.7500     7.5740     6.7570   965.0920
 1091.0000   947.5890     0.0060     2.5050     9.0360   100.2560   -14.8670     7.7110     7.4390     6.7520   965.0920
 1091.5000   945.7600     0.0090     2.5070     9.0410    97.2640   -14.8820     7.7680     7.2690     6.7480   965.0920
 1092.0000   943.9300     0.0090     2.5090     9.0450    96.5300   -14.6780     7.8730     7.0990     6.7690   965.0920
 1092.5000   942.1000     0.0140     2.5100     9.0500    97.8970   -14.4790     8.1600     6.9300     6.4330   965.0920
 1093.0000   940.2710     0.0280     2.4920     9.0540    99.8790   -14.2740     7.9060     6.7600     6.0840   965.0920
 1093.5000   938.4410     0.0410     2.4540     9.0590   101.1660   -14.0920     7.0980     6.5900     5.7350   965.0920
 1094.0000   936.6110     0.0470     2.4180     9.0640   100.5070   -14.0920     6.2900     6.4200     5.3870   965.0920
 1094.5000   934.7820     0.0240     2.3810     9.0640    99.8770   -14.0960     5.0780     6.2650     4.9950   965.0920
 1095.0000   932.9520     0.0010     2.3780     8.9800    99.4040   -14.1070     5.1610     6.2650     5.3870   965.0920
 1095.5000   931.1220    -0.0020     2.4160     8.8950    99.2200   -14.1130     6.0770     6.2650     5.5470   965.0920
 1096.0000   929.2920    -0.0010     2.4660     8.8220   100.4310   -14.1210     6.9930     6.2650     5.7280   965.0920
 1096.5000   927.4630     0.0060     2.5090     8.8250   103.4080   -14.1290     7.8580     6.3490     5.9090   965.0920
 1097.0000   925.6330     0.0080     2.5170     8.8270   105.8760   -14.1370     8.0070     6.5320     6.0910   965.0920
 1097.5000   923.8030     0.0080     2.5280     8.8290   106.2690   -14.1450     7.9540     6.7150     6.2720   965.0920
 1098.0000   921.9740     0.0150     2.5460     8.8300   104.1960   -14.1530     7.8340     6.8980     6.4530   965.0920
 1098.5000   920.1440     0.0260     2.5610     8.8320   102.3130   -14.1610     7.7130     7.0810     6.6300   965.0920
 1099.0000   918.3140     0.0280     2.5530     8.8330   102.6390   -14.1680     7.5930     7.1500     6.7560   965.0920
 1099.5000   916.4850     0.0220     2.5370     8.8350   104.8750   -14.1760     7.4730     7.1710     6.7560   965.0920
 1100.0000   914.6550     0.0120     2.5130     8.8370   107.0770   -14.1840     7.4250     7.1960     6.7560   965.0920
 1100.5000   912.8250     0.0100     2.4910     8.8380   107.4950   -14.1920     7.4250     7.2210     6.7560   965.0920
 1101.0000   910.9960     0.0120     2.4950     8.8400   106.3610   -14.2000     7.5110     7.2470     6.7560   965.0920
 1101.5000   909.1660     0.0150     2.5060     8.8410   105.2020   -14.2080     7.6560     7.2720     6.7560   965.0920
 1102.0000   907.3360     0.0180     2.5310     8.8430   104.0680   -14.2160     7.8010     7.2970     6.7560   965.0920
 1102.5000   905.5070     0.0180     2.5330     8.8440   103.6600   -14.2230     7.9460     7.3230     6.7880   965.0920
 1103.0000   903.6770     0.0120     2.5210     8.8460   105.0380   -14.2310     8.0070     7.3480     6.8290   965.0920
 1103.5000   901.8470     0.0070     2.5070     8.8470   104.5150   -14.2390     8.0070     7.3730     6.8690   965.0920
 1104.0000   901.2910     0.0040     2.5040     8.8490   100.3300   -14.2470     7.9470     7.3990     6.9090   965.0920
 1104.5000   902.4040     0.0010     2.5090     8.8510    96.1710   -14.2550     7.8850     7.4250     6.9500   965.0920
 1105.0000   903.5160    -0.0030     2.5090     8.8520    96.1150   -14.2630     7.8580     7.6540     6.9920   965.0920
 1105.5000   904.6280    -0.0040     2.4920     8.8540   100.0240   -14.2710     7.8580     7.7920     7.0190   965.0920
 1106.0000   905.7400    -0.0060     2.4760     8.8550   103.4190   -14.2780     7.8580     7.9000     7.0130   965.0920
 1106.5000   906.8530    -0.0050     2.4700     8.8570   103.3830   -14.2860     7.8580     8.0080     7.0770   965.0920
 1107.0000   907.9650    -0.0030     2.4740     8.8580   102.6560   -14.2940     8.0070     8.1160     7.1270   965.0920
 1107.5000   909.0770    -0.0020     2.4790     8.8600   101.6420   -14.3020     8.1600     8.2230     7.1790   965.0920
 1108.0000   910.1900     0.0000     2.4840     8.8610    99.2750   -14.3100     8.3080     8.3310     7.2310   965.0920
 1108.5000   911.3020     0.0000     2.4900     8.8630    96.9240   -14.3180     8.4660     8.4390     7.2860   965.0920
 1109.0000   912.4140     0.0000     2.4920     8.8660    94.5700   -14.3260     8.6230     8.5470     7.3990   965.0920
 1109.5000   913.5270    -0.0010     2.4930     8.8460    92.1750   -14.3330     8.7810     8.6540     7.5200   965.0920
 1110.0000   914.6390    -0.0010     2.4940     8.8230    91.2120   -14.3410     8.9390     8.7620     7.6410   965.0920
 1110.5000   915.7510     0.0000     2.4950     8.8290    90.3660   -14.3490     9.0970     8.8700     7.7610   965.0920
 1111.0000   916.8630     0.0020     2.4960     8.8340    89.4910   -14.3570     9.2540     8.9770     7.8820   965.0920
 1111.5000   917.9760     0.0030     2.4980     8.8390    89.2870   -14.3650     9.4900     9.1380     8.0030   965.0920
 1112.0000   919.0880     0.0060     2.5030     8.8440    89.2880   -14.3730     9.4600     9.1140     8.1240   965.0920
 1112.5000   920.2000     0.0150     2.5140     8.8490    89.6830   -14.3810     9.4010     9.0650     8.1600   965.0920
 1113.0000   921.0530     0.0180     2.5240     8.8540    91.6150   -14.3880     9.3420     9.0170     8.1600   965.0920
 1113.5000   921.7560     0.0180     2.5240     8.8580    93.5390   -14.3960     9.2830     8.9680     8.1480   965.0920
 1114.0000   922.8230     0.0200     2.5270     8.8630    91.6720   -14.4040     9.2230     8.9200     8.1310   965.0920
 1114.5000   923.8910     0.0260     2.5320     8.8680    89.8250   -14.4120     9.1640     8.8710     8.1130   965.0920
 1115.0000   924.9580     0.0230     2.5330     8.8730    91.0030   -14.4200     9.1050     8.8220     8.0960   965.0920
 1115.5000   926.0250     0.0170     2.5260     8.8780    98.5530   -14.4280     9.0460     8.7740     8.0790   965.0920
 1116.0000   927.0930     0.0100     2.5190     8.8830   103.3220   -14.4360     8.9870     8.7250     8.0620   965.0920
 1116.5000   928.1600     0.0040     2.5120     8.8880   100.6870   -14.4430     8.9670     8.6770     8.0440   965.0920
 1117.0000   929.2270     0.0000     2.5050     8.8930    98.8390   -14.4510     8.9420     8.6280     8.0270   965.0920
 1117.5000   930.2950    -0.0030     2.4980     8.8980    99.1460   -14.4590     8.8880     8.5800     8.0070   965.0920
 1118.0000   931.3620    -0.0050     2.4930     8.9030   101.7310   -14.4670     8.8340     8.5310     7.9620   965.0920
 1118.5000   932.4300    -0.0020     2.4970     8.9050   101.8920   -14.4750     8.7800     8.4830     7.8620   965.0920
 1119.0000   933.4970     0.0000     2.5040     8.9050   100.7880   -14.4820     8.7260     8.4340     7.7620   965.0920
 1119.5000   934.5640     0.0030     2.5030     8.9050    99.7170   -14.4870     8.6720     8.3850     7.6620   965.0920
 1120.0000   935.6320     0.0060     2.4920     8.9050    98.6360   -14.4570     8.6170     8.3370     7.5630   965.0920
 1120.5000   936.6990     0.0060     2.4810     8.9050    98.4090   -14.4280     8.5630     8.2880     7.4630   965.0920
 1121.0000   937.7660     0.0030     2.4900     8.9050    98.7980   -14.3980     8.5090     8.2400     7.3630   965.0920
 1121.5000   938.8340     0.0060     2.5040     8.9050    99.2010   -14.3680     8.4540     8.1910     7.2860   965.0920
