~VERSION INFORMATION
 VERS.                2.0:   CWLS LOG ASCII STANDARD - VERSION 2.0
 WRAP.                 NO:   ONE LINE PER DEPTH STEP
~WELL INFORMATION
#MNEM.UNIT      DATA TYPE    INFORMATION
#----------   ------------   ------------------------------
 STRT.F           50.5000:   START DEPTH
 STOP.F         5694.0000:   STOP DEPTH
 STEP.F            0.5000:   STEP LENGTH
 NULL.          -999.2500:   NO VALUE
 COMP. LAWRENCE ALLISON AND ASSOCIATES WEST:   COMPANY
 WELL. LAWRENCE "TX" #57-28:   WELL
 FLD .        TEAPOT DOME:   FIELD
 LOC .      S28 T39N R78W:   LOCATION
 CNTY.            NATRONA:   COUNTY
 STAT.            WYOMING:   STATE
 CTRY. UNITED STATES OF AMERICA:   COUNTRY
 SRVC.       SCHLUMBERGER:   SERVICE COMPANY
 DATE.        26-FEB-1982:   LOGDATE
 API .     49025108850000:   API NUMBER
~CURVE INFORMATION
#MNEM.UNIT       API CODE    CURVE DESCRIPTION
#----------   ------------   ------------------------------
 DEPT.F                  :   
 GRR .GAPI   11 310 01 00:   GAMMA RAY FROM RES.
 CALD.IN     45 280 60 00:   CALIPER FROM DENSITY LOG
 TEND.LBS    45 635 01 00:   TENSION FORM DENSITY LOG
 CORR.G/C3   45 356 01 00:   DENSITY CORRECTION
 RHOB.G/C3   45 350 01 00:   BULK DENSITY
 NPHI.DEC    42 890 03 00:   NEUTRON POROSITY SANDSTONE
 TENR.LBS    06 635 01 00:   TENSION FROM RESISTIVITY
 SPR .MV     11 010 01 00:   SPONTANEOUS POTENTIAL FROM RES.
 LLS .OHMM   11 220 09 00:   LATEROLOG LOG SHALLOW
 LLD .OHMM   11 220 10 00:   LATEROLOG DEEP
 MSFL.OHMM   11 270 04 00:   MICRO SPHERICALLY FOCUSED
~PARAMETER INFORMATION
#MNEM.UNIT          VALUE    DESCRIPTION
#----------   ------------   ------------------------------
 EKB .F         5101.0000:   Kelly bushing
 EGL .F         5091.0000:   Ground level
 EDF .F            0.0000:   Drilling floor
 TD  .F         3248.0000:   Total depth
 CLNT.            A2DTECH:   Client Code
 SL  . 950' FSL & 2100' FEL:   Surface Location
 PD  .                 GL:   Permanent Datum
 EPD .F              5091:   Elevation Permanent Datum
 LMF .                 KB:   Log Measured From
 DMF .                 KB:   Drilling Measured From
 DAPD.F                10:   Feet Above Permanent Datum
 DATE.        26-FEB-1982:   Date Logged [DD-MMM-YYYY]
 DD  .F              3243:   Depth driller
 DL  .F              3248:   Depth logger
 BLI .F              3216:   Bottom log interval
 TLI .F                 0:   Top log interval
 CS1 .IN            9.625:   Casing size
 CBD1.      9.625" @ 401':   Casing driller 1
 CBL1.F               401:   Casing logger 1
 BS1 .IN            7.875:   Bit size
 BSD1.F              3243:   Depth drilled with bit1
 DFT .           CHEM GEL:   Type fluid in hole
 DFD .                8.9:   Density
 DFV .                 55:   Viscosity
 DFPH.                9.5:   pH
 DFL .                 10:   Fluid loss
 MSS .            MUD PIT:   Source of sample
 RMS .OHMM           1.82:   Rm
 MST .F                76:   Rm Meas. temp.
 RMF .OHMM           1.64:   Rmf
 MFST.F                75:   Rmf Meas. temp.
 MFSS.               MEAS:   Source Rmf.
 RMB .OHMM           1.15:   Rm. at BHT
 BHT .F               120:   BHT.
 TCS .HRS            1330:   Time Circ. stopped
 TLAB.HRS            1715:   Time logger at bottom
 MRT .F               120:   Maximum recorded temp.
 LUN .               8043:   Logging unit number
 LUL .               CSPR:   Logging unit location
 ENGI.             TAYLOR:   Recorded By
 WITN.       FIVAS/STRONG:   Witnessed by
 ORIG.      1" 2.5" PRINT:   Origin of data
 UWI .     49025108850000:   Unique Well ID
 DICO. A2D TECHNOLOGIES, INC.:   Digitizing Company
~OTHER INFORMATION
~A   DEPT       GRR      CALD       TEND       CORR       RHOB       NPHI       TENR        SPR        LLS        LLD       MSFL   
# ...
 1179.0000   104.8396     9.6274   715.1975     0.0034     2.5199     0.2774   702.2154   -77.4639     8.7804     8.7533     8.9216
 1179.5000   107.3181     9.5952   710.9935     0.0079     2.5184     0.2810   700.0000   -77.4741     8.7791     8.9431     8.7974
 1180.0000   111.8259     9.5938   686.7947     0.0217     2.5218     0.2859   700.0000   -77.4847     8.7779     9.0968     8.9182
 1180.5000   108.1470     9.5615   687.9940     0.0289     2.5259     0.2817   700.0000   -77.4954     8.7767     9.0225     9.0405
 1181.0000   106.9072     9.5601   689.0578     0.0231     2.5296     0.2798   700.0000   -77.5061     8.5901     8.9892     9.4509
 1181.5000   105.0576     9.5588   690.1216     0.0136     2.5201     0.2799   706.8857   -77.5169     8.4148     8.9867    10.0942
 1182.0000   101.9065     9.5268   691.3684     0.0054     2.5075     0.2833   714.2286   -77.5276     8.2973     8.8119     9.4758
 1182.5000    99.2227     9.5254   692.3847     0.0057     2.5150     0.2957   721.5714   -77.5383     8.1814     8.6763     9.1893
 1183.0000    96.7419     9.4932   693.4012     0.0226     2.5301     0.2913   728.9143   -77.5508     8.0671     8.3780     8.8477
 1183.5000    95.2165     9.4918   694.4175     0.0241     2.5437     0.2822   736.2571   -77.5611     7.9544     8.2606     8.7826
 1184.0000    96.6990     9.4905   695.4409     0.0270     2.5371     0.2744   733.7000   -77.5713     7.9533     8.3736     8.9035
 1184.5000    98.9136     9.4583   696.5046     0.0255     2.5284     0.2769   720.8500   -77.5815     7.9522     8.6065     9.0254
 1185.0000    99.4207     9.4567   697.5684     0.0223     2.5303     0.2849   708.0000   -77.5920     7.9511     8.7243     9.2767
 1185.5000    98.1775     9.4554   698.6323     0.0168     2.5281     0.2922   700.0000   -77.6028     7.9499     8.8558     9.2748
 1186.0000    97.5474     9.4541   699.6961    -0.0017     2.5185     0.2946   700.0000   -77.6135     7.9488     9.1147     9.4021
 1186.5000    97.5271     9.4528   700.7599    -0.0012     2.5130     0.2934   700.0000   -77.6242     7.9475     9.2139     9.0913
 1187.0000    97.5061     9.4514   701.8237     0.0019     2.5160     0.2936   701.8134   -77.6350     7.9465     9.3400     8.6953
 1187.5000    97.4848     9.4500   703.0569     0.0026     2.5174     0.2984   708.6667   -77.6457     8.0570     9.2727     8.3640
 1188.0000    98.5610     9.4486   704.0735     0.0026     2.5159     0.2904   715.5200   -77.9650     8.0558     8.9539     8.2948
 1188.5000   102.3239     9.4472   705.0897     0.0025     2.5097     0.2817   722.3734   -77.9753     8.0548     8.7070     8.4083
 1189.0000    99.2500     9.4626   706.1063     0.0010     2.5051     0.2741   729.2267   -78.2923     8.0536     8.4669     8.7627
 1189.5000    99.5742     9.4752   737.5380     0.0100     2.5145     0.2787   736.0800   -78.6092     7.9155     8.2334     9.0067
 1190.0000   102.2527     9.4737   738.6017     0.0190     2.5305     0.2863   737.4117   -78.6196     7.7940     8.2313     9.2575
 1190.5000   101.6226     9.4724   739.6656     0.0153     2.5295     0.2875   731.3647   -78.6304     7.5085     8.1158     9.1194
 1191.0000   100.9926     9.4711   740.7296     0.0094     2.5231     0.2877   725.3176   -78.6411     7.4036     8.0019     8.7389
 1191.5000    97.9234     9.4697   741.7933     0.0077     2.5215     0.2869   719.2706   -78.6518     7.4024     7.9997     8.4866
 1192.0000    88.5935     9.4617   742.8572     0.0067     2.5275     0.2857   713.2235   -78.6626     7.4014     8.1095     8.3964
 1192.5000    85.0779     9.4362   744.1243     0.0052     2.5487     0.2814   707.1765   -78.6733     7.4004     8.1633     8.5649
 1193.0000    88.7541     9.4348   745.1406     0.0036     2.5486     0.2777   700.0000   -78.6860     7.3994     8.2176     8.7484
 1193.5000    95.0742     9.4334   746.1571     0.0006     2.5378     0.2758   700.0000   -78.6962     7.3984     8.4457     8.8684
 1194.0000    99.8898     9.4318   747.1733    -0.0010     2.5055     0.2772   700.0000   -78.7064     7.5013     8.6807     9.1150
 1194.5000   103.3648     9.4305   717.7947    -0.0040     2.5029     0.2813   700.0000   -78.7167     7.5247     8.9221     9.2403
 1195.0000   104.0751     9.4292   718.8450    -0.0039     2.5099     0.2849   700.0000   -78.7270     7.7471     9.0442     8.9863
 1195.5000   100.7995     9.4586   689.4324     0.0010     2.5184     0.2855   700.0000   -78.7377     7.8181     9.0292     8.7394
 1196.0000    99.3984     9.4572   690.5775     0.0093     2.5271     0.2840   700.0000   -78.4406     7.8170     8.8903     8.4790
 1196.5000   102.5881     9.4558   691.6414     0.0181     2.5361     0.2865   700.0000   -78.4525     7.8158     8.6331     8.2656
 1197.0000   106.2662     9.4545   692.7052     0.0214     2.5391     0.2944   700.0000   -78.3375     7.7066     8.3833     8.1504
 1197.5000   108.7449     9.4531   693.7690     0.0108     2.5390     0.2938   700.0000   -78.1672     7.4938     8.1971     7.9835
 1198.0000   107.9715     9.4517   695.0225     0.0047     2.5238     0.2951   700.0000   -77.8712     7.3891     7.8609     7.8156
 1198.5000   102.6659     9.4501   696.0390     0.0016     2.5176     0.2987   700.0000   -77.8834     7.3881     7.7507     7.8141
 1199.0000   101.2622     9.4488   697.0552     0.0061     2.5227     0.3016   699.9969   -77.8936     7.3871     7.6421     7.8126
 1199.5000   101.9319     9.4475   698.0718     0.0106     2.5374     0.3092   699.9992   -77.9039     7.3861     7.5350     7.9198
 1200.0000   104.2683     9.4462   699.0881     0.0181     2.5433     0.3061   700.0061   -77.9141     7.4196     7.4294     8.2536
 1200.5000   103.0251     9.4413   700.1519     0.0105     2.5256     0.3043   700.0266   -77.2565     7.6388     7.6574     8.6139
 1201.0000    99.9560     9.4126   701.2157     0.0105     2.5173     0.3025   700.0557   -76.7106     7.8062     8.2506     8.7196
 1201.5000    98.1064     9.4112   702.2795     0.0104     2.5188     0.2974   700.0956   -77.7285     7.9144     8.8393     8.5252
 1202.0000    95.6463     9.4098   703.3435     0.0126     2.5202     0.2916   700.1423   -78.3824     7.9133     8.5209     8.1538
 1202.5000    97.1492     9.4085   704.4073     0.0133     2.5171     0.2776   710.4196   -78.8957     7.8028     8.2853     7.8539
 1203.0000   100.8069     9.4069   705.4711     0.0133     2.5110     0.2775   721.6000   -79.2147     7.6938     8.0563     7.9081
 1203.5000   103.7327     9.4055   706.7112     0.0132     2.5141     0.2844   732.9778   -78.9223     7.4814     8.0537     8.2414
 1204.0000   105.6015     9.4042   707.7275     0.0042     2.5170     0.2935   735.6445   -78.9341     7.4943     8.4049     8.7085
 1204.5000   105.0061     9.3722   670.7317    -0.0019     2.5158     0.2910   724.2667   -78.9458     7.7987     8.9439     9.0756
 1205.0000   101.1583     9.4016   670.7317    -0.0035     2.5072     0.2916   712.8889   -78.9576     8.1683     9.5004     9.3283
 1205.5000    97.9207     9.3695   670.7317    -0.0020     2.5090     0.2956   700.0000   -78.6625     8.4097     8.8875     8.5631
 1206.0000    95.5572     9.4149   676.7841     0.0004     2.5154     0.2943   700.0000   -78.3374     8.2868     8.4977     8.4314
 1206.5000    95.4848     9.4139   688.3920     0.0067     2.5204     0.2921   700.0000   -78.0725     8.0460     8.1485     8.4474
 1207.0000    99.0875     9.3821   700.0000     0.0099     2.5244     0.2901   700.0000   -77.9991     7.8789     8.1458     8.5622
 1207.5000   102.1159     9.3812   711.3821     0.0114     2.5365     0.2883   700.0000   -77.6764     7.6598     8.2567     8.7323
 1208.0000   105.7541     9.3802   711.3821     0.0098     2.5310     0.2865   700.0000   -77.3538     7.5513     8.4858     9.0424
 1208.5000   105.8011     9.3791   711.3821     0.0083     2.5228     0.2859   700.0000   -77.2025     7.5488     8.7212     9.2923
 1209.0000   100.8352     9.3783   711.3821     0.0037     2.5274     0.2883   700.0000   -76.9080     7.5462     9.0974     9.4190
