~VERSION INFORMATION
 VERS.                2.0:   CWLS LOG ASCII STANDARD - VERSION 2.0
 WRAP.                 NO:   ONE LINE PER DEPTH STEP
~WELL INFORMATION
#MNEM.UNIT      DATA TYPE    INFORMATION
#----------   ------------   ------------------------------
 STRT.F          195.5000:   START DEPTH
 STOP.F         3197.0000:   STOP DEPTH
 STEP.F            0.5000:   STEP LENGTH
 NULL.          -999.2500:   NO VALUE
 COMP.    FENIX & SCISSON:   COMPANY
 WELL.  FENIX "AX" #17-11:   WELL
 FLD .              NPR-3:   FIELD
 LOC .      S11 T38N R78W:   LOCATION
 CNTY.            NATRONA:   COUNTY
 STAT.            WYOMING:   STATE
 CTRY. UNITED STATES OF AMERICA:   COUNTRY
 SRVC.              WELEX:   SERVICE COMPANY
 DATE.        16-SEP-1977:   LOGDATE
 API .     49025104170000:   API NUMBER
~CURVE INFORMATION
#MNEM.UNIT       API CODE    CURVE DESCRIPTION
#----------   ------------   ------------------------------
 DEPT.F                  :   
 GRD .GAPI   45 310 01 00:   GAMMA RAY FROM DENSITY LOG
 CALD.IN     45 280 60 00:   CALIPER FROM DENSITY LOG
 CORR.G/C3   45 356 01 00:   DENSITY CORRECTION
 TEND.LBS    45 635 01 00:   TENSION FORM DENSITY LOG
 RHOB.G/C3   45 350 01 00:   BULK DENSITY
 SPR .MV     07 010 01 00:   SPONTANEOUS POTENTIAL
 TENR.LBS    07 635 01 00:   TENSION FROM RESISTIVITY
 ILD .OHMM   07 120 46 00:   DEEP INDUCTION RESISTIVITY
 ILM .OHMM   07 120 44 00:   INDUCTION LOG MEDIUM RESISTIVITY
 SGRD.OHMM   07 220 05 00:   SHALLOW SHORT GUARD RESISTIVITY
~PARAMETER INFORMATION
#MNEM.UNIT          VALUE    DESCRIPTION
#----------   ------------   ------------------------------
 EKB .F         5212.0000:   Kelly bushing
 EGL .F         5202.0000:   Ground level
 TD  .F         3195.0000:   Total depth
 CLNT.            A2DTECH:   Client Code
 SL  . 1090' FSL & 330' FWL:   Surface Location
 PD  .                 GL:   Permanent Datum
 EPD .F              5202:   Elevation Permanent Datum
 LMF .                 KB:   Log Measured From
 DMF .                 KB:   Drilling Measured From
 DAPD.F                10:   Feet Above Permanent Datum
 DATE.        16-SEP-1977:   Date Logged [DD-MMM-YYYY]
 DD  .F              3195:   Depth driller
 DL  .F              3195:   Depth logger
 BLI .F              3193:   Bottom log interval
 TLI .F               217:   Top log interval
 CS1 .IN            8.625:   Casing size
 CBD1.      8.625" @ 216':   Casing driller 1
 CBL1.F               217:   Casing logger 1
 BS1 .IN            7.875:   Bit size
 BSD1.F              3195:   Depth drilled with bit1
 DFT .            KCL MUD:   Type fluid in hole
 DFD .                9.2:   Density
 DFV .                 36:   Viscosity
 DFPH.                 11:   pH
 DFL .                8.8:   Fluid loss
 MSS .           FLOWLINE:   Source of sample
 RMS .OHMM           2.76:   Rm
 MST .F                99:   Rm Meas. temp.
 RMF .OHMM           1.54:   Rmf
 MFST.F                99:   Rmf Meas. temp.
 MFSS.               MEAS:   Source Rmf.
 RMC .OHMM           3.01:   Rmc
 MCST.F                99:   Rmc Meas. temp.
 MCSS.               MEAS:   Source Rmc.
 RMB .OHMM           2.40:   Rm. at BHT
 BHT .F               112:   BHT.
 TCS .HRS               6:   Time Circ. stopped
 MRT .F               112:   Maximum recorded temp.
 LUN .               8611:   Logging unit number
 LUL .             CASPER:   Logging unit location
 ENGI.          D. LAWSON:   Recorded By
 WITN.         HARRINGTON:   Witnessed by
 ORIG.           5" PRINT:   Origin of data
 UWI .     49025104170000:   Unique Well ID
 DICO. A2D TECHNOLOGIES, INC.:   Digitizing Company
~OTHER INFORMATION
~A   DEPT       GRD      CALD       CORR       TEND       RHOB        SPR       TENR        ILD        ILM       SGRD   
# ...
 2775.0000    77.5254     8.1795     0.0285  2009.7305     2.4324   -30.1515  1766.4912    15.3163    15.5869    21.0660
 2775.5000    76.6088     8.1790     0.0269  1995.6753     2.4308   -30.3314  1767.0692    15.4228    16.2482    20.4894
 2776.0000    76.8989     8.1786     0.0260  1996.4072     2.4255   -30.4677  1767.6648    15.5301    16.7045    22.2630
 2776.5000    79.3404     8.1781     0.0245  1997.2305     2.4225   -30.4735  1768.3700    15.6381    17.0679    23.3672
 2777.0000    82.6040     8.1777     0.0229  1998.2036     2.4209   -30.3264  1768.9480    15.9666    17.4132    23.2044
 2777.5000    83.8019     8.1923     0.0198  1998.8773     2.4208   -30.3337  1769.5262    16.3020    18.1520    23.2133
 2778.0000    81.6757     8.1919     0.0152  1984.7306     2.4239   -30.0364  1770.1042    16.6445    18.6619    24.8645
 2778.5000    83.7756     8.2065     0.0181  1985.5541     2.4284   -29.7374  1770.6823    16.8768    19.1860    24.3517
 2779.0000    87.9872     8.2060     0.0225  1971.4572     2.4342   -29.4250  1771.2605    17.1124    19.5888    24.0155
 2779.5000    84.6572     8.2056     0.0261  1972.2554     2.4379   -29.1450  1771.8564    16.9942    19.1860    25.7358
 2780.0000    79.8190     8.1900     0.0283  1973.0540     2.4349   -28.8493  1772.4551    16.8768    18.6276    21.7936
 2780.5000    78.5985     8.2047     0.0267  1973.8774     2.4288   -28.7616  1773.1393    16.5124    17.6561    23.6800
 2781.0000    77.6817     8.2042     0.0220  1970.3788     2.4250   -28.2549  1773.7173    16.1894    16.9375    22.2367
 2781.5000    79.4800     8.2038     0.0191  1960.5540     2.4227   -27.9576  1774.2953    15.9666    16.5893    19.5035
 2782.0000    81.8844     8.2085     0.0175  1961.3773     2.4226   -27.6526  1774.8735    15.6381    16.4748    20.3293
 2782.5000    79.7581     8.2179     0.0174  1962.2006     2.4256   -27.3633  1775.4515    15.5301    16.4748    21.3376
 2783.0000    80.3497     8.2189     0.0203  1963.0238     2.4324   -27.0662  1776.0480    15.5301    16.3597    26.0817
 2783.5000    83.6888     8.2322     0.0256  1964.0054     2.4401   -26.9205  1776.6467    15.5301    15.7868    26.6278
 2784.0000    85.7561     8.2376     0.0306  1964.7372     2.4472   -26.7748  1777.3303    15.5301    15.4793    22.0850
 2784.5000    82.7248     8.2613     0.0336  1965.4939     2.4487   -26.4791  1777.9083    15.4228    15.3725    23.3414
 2785.0000    80.9031     8.2760     0.0379  1966.3174     2.4471   -26.4849  1778.4866    15.4228    15.3725    24.4992
 2785.5000    81.4947     8.2906     0.0408  1967.2655     2.4486   -26.7939  1779.0646    14.3902    15.1610    21.9278
 2786.0000    78.4664     8.3079     0.0422  1968.0637     2.4500   -27.4072  1779.6426    13.3339    14.8493    20.4593
 2786.5000    74.8347     8.3200     0.0422  1968.7957     2.4522   -28.0191  1780.2395    13.2418    14.9525    20.0373
 2787.0000    73.3147     8.3194     0.0421  1969.6107     2.4522   -28.6310  1780.9434    13.1504    14.9525    20.5987
 2787.5000    72.3979     8.3190     0.0404  1970.5258     2.4506   -29.2429  1781.5214    13.2418    14.9525    21.7706
 2788.0000    74.2197     8.3290     0.0374  1971.2576     2.4483   -30.0063  1782.0996    13.5200    14.9525    20.7391
 2788.5000    77.5846     8.3332     0.0365  1972.0809     2.4475   -30.4667  1782.6776    14.0941    14.9525    19.8936
 2789.0000    80.5046     8.3478     0.0357  1973.0537     2.4467   -30.8082  1783.2556    14.3902    14.9525    20.5928
 2789.5000    82.0011     8.3474     0.0348  1973.8523     2.4451   -31.3890  1783.8339    14.2908    14.9525    25.6997
 2790.0000    83.7993     8.3620     0.0340  1974.6509     2.4421   -31.6978  1784.4312    14.0941    15.1610    32.2959
 2790.5000    85.2959     8.3711     0.0317  1975.4491     2.4390   -32.0067  1785.1346    14.0941    15.3725    32.7446
 2791.0000    86.4908     8.3762     0.0309  1961.0779     2.4375   -32.4671  1785.7126    14.1921    15.1610    24.6488
 2791.5000    86.7836     8.3908     0.0306  1947.0811     2.4352   -32.9275  1786.2906    14.3024    15.2664    22.8394
 2792.0000    84.3557     8.3903     0.0292  1947.9043     2.4306   -33.2364  1801.8389    14.6925    15.4793    17.6198
 2792.5000    82.5242     8.3899     0.0276  1948.8359     2.4275   -33.5455  1817.3870    15.1055    16.1360    16.2648
 2793.0000    81.0136     8.3894     0.0275  1949.5509     2.4275   -34.1586  1817.9650    15.0011    16.1419    15.6018
 2793.5000    80.9993     8.3890     0.0274  1935.5288     2.4297   -34.7705  1818.5629    14.0941    14.9429    16.8356
 2794.0000    82.7975     8.3735     0.0277  1936.2274     2.4320   -35.3824  1819.2657    13.6140    14.8493    22.3619
 2794.5000    84.5957     8.3730     0.0287  1937.1256     2.4341   -35.9943  1819.8438    13.2403    14.9525    21.1557
 2795.0000    86.3495     8.3673     0.0286  1937.8741     2.4355   -36.6063  1790.4819    13.1504    15.0564    23.4695
 2795.5000    88.4938     8.3419     0.0285  1938.7224     2.4325   -37.2200  1791.0599    13.1504    14.9525    23.6310
 2796.0000    90.5936     8.3263     0.0281  1954.4911     2.4294   -37.8788  1791.6379    12.6148    14.9940    22.9838
 2796.5000    92.6935     8.3050     0.0269  1955.3143     2.4264   -38.7465  1792.2162    12.0174    15.1980    28.6831
 2797.0000    90.7157     8.2802     0.0246  1956.2875     2.4233   -39.0553  1792.8143    10.9821    15.4035    29.2838
 2797.5000    88.1097     8.2798     0.0237  1956.9612     2.4202   -39.6672  1793.5166    10.8309    15.1865    19.0601
 2798.0000    86.6222     8.2725     0.0236  1957.8843     2.4187   -40.4307  1794.0950    11.0636    15.1814    20.1445
 2798.5000    86.3088     8.2789     0.0220  1958.6079     2.4156   -41.1941  1794.6730    11.8520    15.1763    24.2846
 2799.0000    87.2020     8.2784     0.0219  1959.4312     2.4213   -42.2729  1795.2509    12.7025    15.4897    25.6755
 2799.5000    91.4135     8.2779     0.0218  1960.2795     2.4351   -43.6315  1795.8292    13.1504    15.7006    30.3044
 2800.0000    94.1167     8.2775     0.0247  1976.0477     2.4425   -44.5464  1796.5524    13.2418    15.8043    32.0290
 2800.5000    91.9933     8.2921     0.0276  1976.8711     2.4470   -45.4614  1827.3622    13.3339    15.5679    25.8438
 2801.0000    89.8700     8.3109     0.0291  1977.6945     2.4477   -46.0796  1888.1122    13.7087    15.0451    22.0238
 2801.5000    88.6516     8.3307     0.0290  1978.6427     2.4484   -46.9975  1903.9525    13.9967    14.6291    21.5651
 2802.0000    87.7345     8.3360     0.0273  1979.4409     2.4483   -48.2184  1919.7924    13.9001    14.4231    23.1038
 2802.5000    88.0335     8.3356     0.0226  1965.0699     2.4498   -49.1511  1950.6023    13.7087    14.2199    26.8988
 2803.0000    87.7273     8.3351     0.0182  1966.0181     2.4565   -50.9655  1951.4971    13.5200    13.8268    27.2666
 2803.5000    88.6321     8.3347     0.0151  1952.0292     2.4655   -52.1864  1937.5896    13.3339    13.3517    26.6989
 2804.0000    90.4446     8.3341     0.0133  1952.6948     2.4724   -53.1042  1923.3534    12.7908    12.8028    24.2254
 2804.5000    93.1648     8.3186     0.0104  1953.5179     2.4804   -53.8706  1909.1721    12.0965    12.4378    21.2330
 2805.0000    95.5825     8.3183     0.0095  1954.4908     2.4886   -55.0915  1880.3192    11.3432    12.0213    21.7152
 2805.5000    96.1847     8.3203     0.0103  1955.1647     2.5103   -56.1609  1851.2493    10.7561    11.5282    26.5248
 2806.0000    92.8527     8.3325     0.0132  1955.9880     2.5433   -57.3855  1837.1259    10.5348    11.6860    30.2027
 2806.5000    87.7061     8.3557     0.0161  1956.8862     2.5583   -58.3465  1838.0240    10.1774    12.0092    19.9274
 2807.0000    84.3748     8.3768     0.0196  1957.6348     2.5703   -59.5228  1823.9189    10.0356    12.3434    17.3454
 2807.5000    80.7411     8.3914     0.0224  1958.5497     2.5860   -60.4406  1810.0361     9.8955    12.5104    22.2504
 2808.0000    79.5278     8.3909     0.0249  1959.2815     2.5906   -61.2070  1825.8760     9.8942    12.4197    27.9556
