~VERSION INFORMATION
 VERS.                2.0:   CWLS LOG ASCII STANDARD - VERSION 2.0
 WRAP.                 NO:   ONE LINE PER DEPTH STEP
~WELL INFORMATION
#MNEM.UNIT      DATA TYPE    INFORMATION
#----------   ------------   ------------------------------
 STRT.F          484.0000:   START DEPTH
 STOP.F         4096.0000:   STOP DEPTH
 STEP.F            0.5000:   STEP LENGTH
 NULL.          -999.2500:   NO VALUE
 COMP.    FENIX & SCISSON:   COMPANY
 WELL. FENIX NPR "JX" #58-28:   WELL
 FLD .                NPR:   FIELD
 LOC .      S28 T39N R78W:   LOCATION
 CNTY.            NATRONA:   COUNTY
 STAT.            WYOMING:   STATE
 CTRY. UNITED STATES OF AMERICA:   COUNTRY
 SRVC.              WELEX:   SERVICE COMPANY
 DATE.        02-MAY-1978:   LOGDATE
 API .     49025107810000:   API NUMBER
~CURVE INFORMATION
#MNEM.UNIT       API CODE    CURVE DESCRIPTION
#----------   ------------   ------------------------------
 DEPT.F                  :   
 NPHI.DEC    42 890 03 00:   NEUTRON POROSITY SANDSTONE
 RHOB.G/C3   45 350 01 00:   BULK DENSITY
 CORR.G/C3   45 356 01 00:   DENSITY CORRECTION
 CALD.IN     45 280 60 00:   CALIPER FROM DENSITY LOG
 GRD .GAPI   45 310 01 00:   GAMMA RAY FROM DENSITY LOG
 SPR .MV     07 010 01 00:   SPONTANEOUS POTENTIAL
 ILD .OHMM   07 120 46 00:   DEEP INDUCTION RESISTIVITY
 SGRD.OHMM   07 220 05 00:   SHALLOW SHORT GUARD RESISTIVITY
 ILM .OHMM   07 120 44 00:   INDUCTION LOG MEDIUM RESISTIVITY
~PARAMETER INFORMATION
#MNEM.UNIT          VALUE    DESCRIPTION
#----------   ------------   ------------------------------
 EKB .F         5115.0000:   Kelly bushing
 EGL .F         5101.0000:   Ground level
 EDF .F            0.0000:   Drilling floor
 EPD .F         5101.0000:   Permanent datum
 TD  .F         4100.0000:   Total depth
 DATE.        02-MAY-1978:   Date logged
 CLNT.            A2DTECH:   Client Code
 SL  . 525' FSL & 2406' FEL:   Surface Location
 PD  .                 GL:   Permanent Datum
 DAPD.F                14:   Feet Above Permanent Datum
 DD  .F              4100:   Depth driller
 DL  .F              4098:   Depth logger
 BLI .F              4096:   Bottom log interval
 CS1 .IN            8.625:   Casing size
 CBD1.      8.625" @ 501':   Casing driller 1
 CBL1.F               500:   Casing logger 1
 BS1 .IN            7.875:   Bit size
 BSD1.F              4100:   Depth drilled with bit1
 DFT .            CHM GEL:   Type fluid in hole
 DFD .                9.4:   Density
 DFV .                 48:   Viscosity
 DFPH.                9.3:   pH
 DFL .                8.5:   Fluid loss
 MSS .           FLOWLINE:   Source of sample
 RMS .OHMM           1.24:   Rm
 MST .F                70:   Rm Meas. temp.
 RMF .OHMM            .57:   Rmf
 MFST.F                70:   Rmf Meas. temp.
 RMC .OHMM           1.48:   Rmc
 MCST.F                70:   Rmc Meas. temp.
 MFSS.               MEAS:   Source Rmf.
 MCSS.               MEAS:   Source Rmc.
 RMB .OHMM            .87:   Rm. at BHT
 BHT .F               123:   BHT.
 TCS .HRS               4:   Time Circ. stopped
 MRT .F               123:   Maximum recorded temp.
 LUN .               1892:   Logging unit number
 LUL .             CASPER:   Logging unit location
 ENGI.               REIN:   Recorded By
 WITN.           DINSMORE:   Witnessed by
 ORIG.         2.5" PRINT:   Origin of data
 UWI .     49025107810000:   Unique Well ID
 DICO. A2D TECHNOLOGIES, INC.:   Digitizing Company
 TLI .                500:   Top log interval
~OTHER INFORMATION
~A   DEPT       NPHI     RHOB       CORR       CALD         GRD       SPR        ILD       SGRD        ILM   
# ...
 3331.0000     0.2900     2.5510     0.0740     8.6010   132.5240    -6.3280     3.1850     3.9650     3.7510
 3331.5000     0.2900     2.5640     0.0770     8.6010   130.7180    -6.2070     3.1900     3.9650     3.7510
 3332.0000     0.2900     2.5730     0.0800     8.6010   130.9880    -6.0730     3.1950     3.9650     3.7500
 3332.5000     0.2900     2.5750     0.0830     8.6010   132.2540    -5.9340     3.2000     3.9650     3.7610
 3333.0000     0.2890     2.5790     0.0860     8.6010   133.2860    -5.8900     3.2050     3.9650     3.7810
 3333.5000     0.2880     2.5740     0.0900     8.6010   134.4450    -5.9650     3.2110     3.9650     3.8010
 3334.0000     0.2860     2.5680     0.0960     8.6010   133.2000    -6.0280     3.2160     3.9650     3.8190
 3334.5000     0.2830     2.5630     0.1020     8.6010   133.0110    -6.0920     3.2210     3.9640     3.8390
 3335.0000     0.2820     2.5730     0.1090     8.6010   134.2530    -6.1590     3.2260     3.9640     3.8580
 3335.5000     0.2840     2.5810     0.1150     8.6010   132.7940    -6.2240     3.2310     3.9630     3.8870
 3336.0000     0.2850     2.5790     0.1210     8.6010   130.8890    -6.2890     3.2350     3.9670     3.8780
 3336.5000     0.2860     2.5750     0.1310     8.6010   131.1370    -6.3550     3.1900     3.9280     3.8080
 3337.0000     0.2870     2.5690     0.1440     8.6010   132.2690    -6.4200     3.1360     3.8390     3.7390
 3337.5000     0.2880     2.5630     0.1580     8.6010   135.5210    -6.4840     3.0810     3.7520     3.6700
 3338.0000     0.2880     2.5570     0.1720     8.6010   132.4170    -6.5530     3.0270     3.6640     3.6010
 3338.5000     0.2890     2.5410     0.1860     8.6010   134.7290    -6.6120     2.9720     3.5770     3.5320
 3339.0000     0.2880     2.5260     0.2000     8.6010   137.6210    -6.6680     2.9180     3.4890     3.4630
 3339.5000     0.2870     2.4930     0.2040     8.6010   134.6270    -6.4730     2.8640     3.4050     3.3940
 3340.0000     0.2860     2.4580     0.1910     8.6010   132.0630    -6.2710     2.8090     3.3340     3.3240
 3340.5000     0.2850     2.4240     0.1880     8.6010   131.7450    -6.0580     2.7700     3.2640     3.2550
 3341.0000     0.2870     2.3890     0.1830     8.6010   132.6000    -5.8500     2.7400     3.1930     3.1860
 3341.5000     0.2880     2.3550     0.1770     8.6010   133.4360    -5.6440     2.7100     3.1170     3.1170
 3342.0000     0.2890     2.3210     0.1640     8.6010   134.2330    -5.4320     2.6800     3.0600     3.0040
 3342.5000     0.2890     2.2870     0.1500     8.6010   135.2160    -5.2220     2.6500     3.0600     3.0100
 3343.0000     0.2880     2.2490     0.1360     8.6020   134.6640    -5.1170     2.6200     3.0890     3.0240
 3343.5000     0.2880     2.2360     0.1210     8.5980   130.2120    -5.3810     2.5910     3.1190     3.0380
 3344.0000     0.2880     2.2630     0.1070     8.6380   128.0420    -5.6280     2.4890     3.1490     3.0600
 3344.5000     0.2870     2.3110     0.0930     8.7060   129.2700    -5.8550     2.3900     3.1760     2.9780
 3345.0000     0.2910     2.3580     0.0780     8.6860   131.6920    -5.7640     2.2920     2.9790     2.8060
 3345.5000     0.2940     2.4040     0.0710     8.6320   134.5560    -5.6720     2.1930     2.7440     2.6340
 3346.0000     0.2960     2.4500     0.0720     8.5800   138.0030    -5.5800     2.0950     2.4600     2.4630
 3346.5000     0.2940     2.4420     0.0720     8.5290   150.2210    -5.4800     1.9960     2.1760     2.2910
 3347.0000     0.2920     2.4370     0.0720     8.4770   156.6900    -5.4500     1.8970     1.8920     2.1190
 3347.5000     0.2910     2.4530     0.0720     8.4230   160.2040    -5.6590     1.7990     1.7900     1.9470
 3348.0000     0.2890     2.4720     0.0720     8.3950   156.6240    -6.0490     1.7000     1.9000     1.7900
 3348.5000     0.2870     2.4950     0.0720     8.3940   153.4810    -6.3790     1.6320     2.0370     1.9240
 3349.0000     0.2860     2.5170     0.0760     8.3910   148.0270    -6.6280     1.6910     2.6750     2.0690
 3349.5000     0.2870     2.5410     0.0840     8.3870   140.0710    -6.0740     1.7570     3.1170     2.2130
 3350.0000     0.2870     2.5490     0.0910     8.3840   133.7020    -5.5780     1.8680     3.1470     2.3580
 3350.5000     0.2880     2.5480     0.0990     8.3800   127.2630    -5.0320     1.9820     3.1760     2.5020
 3351.0000     0.2880     2.5390     0.1020     8.3770   120.8800    -4.7170     2.0960     3.0040     2.6470
 3351.5000     0.2870     2.5190     0.0920     8.3730   118.8200    -4.9560     2.2100     3.3310     2.7920
 3352.0000     0.2880     2.5110     0.0810     8.3700   116.7940    -5.1670     2.3240     3.8920     2.9360
 3352.5000     0.2890     2.5380     0.0850     8.3660   114.5390    -5.4050     2.4380     3.8000     3.1040
 3353.0000     0.2900     2.5480     0.0900     8.3630   116.6130    -5.2660     2.5520     3.6240     3.0770
 3353.5000     0.2940     2.5470     0.0960     8.3600   120.6090    -4.9800     2.6710     3.4490     3.0230
 3354.0000     0.2980     2.5420     0.1020     8.3690   124.7560    -4.7010     2.6410     3.2730     2.9690
 3354.5000     0.2980     2.5430     0.1070     8.3820   125.1120    -4.4240     2.5810     3.0980     2.9150
 3355.0000     0.2960     2.5450     0.1130     8.3950   125.0040    -4.1450     2.5210     2.8950     2.8610
 3355.5000     0.2940     2.5360     0.1160     8.4080   127.6520    -3.8690     2.4610     2.6390     2.8070
 3356.0000     0.2920     2.5130     0.1130     8.4210   125.0530    -3.8540     2.3620     2.6390     2.7530
 3356.5000     0.2890     2.4890     0.0930     8.4350   126.6310    -3.7850     2.3900     3.3270     2.8340
 3357.0000     0.2870     2.5050     0.0720     8.4370   130.1460    -4.4340     2.4670     3.8210     2.9610
 3357.5000     0.2850     2.5400     0.0700     8.4320   130.6200    -5.2950     2.5450     3.9490     3.0890
 3358.0000     0.2850     2.5410     0.0680     8.4270   129.7470    -5.7190     2.6230     4.0560     3.2160
 3358.5000     0.2850     2.5470     0.0710     8.4220   128.1280    -6.1550     2.7000     4.1140     3.3440
 3359.0000     0.2860     2.5530     0.0790     8.4160   124.1680    -6.6430     2.7780     4.0950     3.4720
 3359.5000     0.2870     2.5540     0.0860     8.4110   121.5500    -6.3610     2.8560     4.0680     3.6820
 3360.0000     0.2880     2.5500     0.0860     8.4060   121.7760    -6.0330     2.9330     4.0390     3.6770
 3360.5000     0.2890     2.5390     0.0840     8.4010   121.7980    -5.6480     3.0110     3.6150     3.6610
 3361.0000     0.2890     2.5280     0.0810     8.3960   123.0490    -5.4660     3.1170     3.6250     3.6450
 3361.5000     0.2870     2.5140     0.0800     8.3910   122.9690    -5.5340     3.0890     3.6490     3.6290
 3362.0000     0.2880     2.5090     0.0800     8.3860   121.8140    -5.5740     3.0430     3.6820     3.6150
 3362.5000     0.2900     2.5060     0.0800     8.3810   120.5790    -5.6180     2.9970     3.6520     3.5530
 3363.0000     0.2920     2.5030     0.0800     8.3760   119.7180    -5.6660     2.9510     3.5470     3.4960
 3363.5000     0.2930     2.4940     0.0800     8.3710   120.2520    -5.7100     2.9050     3.4430     3.4380
 3364.0000     0.2910     2.4830     0.0800     8.3660   119.9720    -5.7590     2.8590     3.3570     3.3810
 3364.5000     0.2900     2.4710     0.0810     8.3610   117.3510    -5.7990     2.8130     3.5210     3.3240
 3365.0000     0.2870     2.4600     0.0900     8.3560   114.6190    -5.8490     2.7670     3.6820     3.2660
 3365.5000     0.2840     2.4510     0.0990     8.3510   113.8870    -5.8860     2.7210     3.4990     3.1450
 3366.0000     0.2810     2.4340     0.1090     8.3460   113.2630    -5.6860     2.6540     3.2820     2.9480
 3366.5000     0.2770     2.4160     0.1180     8.3410   113.5360    -5.0650     2.5330     2.9560     2.7500
 3367.0000     0.2740     2.3450     0.1160     8.3360   113.9480    -4.4460     2.4060     2.5240     2.5440
