~VERSION INFORMATION
 VERS.                2.0:   CWLS LOG ASCII STANDARD - VERSION 2.0
 WRAP.                 NO:   ONE LINE PER DEPTH STEP
~WELL INFORMATION
#MNEM.UNIT      DATA TYPE    INFORMATION
#----------   ------------   ------------------------------
 STRT.F           61.5000:   START DEPTH
 STOP.F         4220.0000:   STOP DEPTH
 STEP.F            0.5000:   STEP LENGTH
 NULL.          -999.2500:   NO VALUE
 COMP.   LAWRENCE ALLISON:   COMPANY
 WELL. ALLISON NPR 3 "LX" #28-34:   WELL
 FLD .                NPR:   FIELD
 LOC .      S34 T39N R78W:   LOCATION
 CNTY.            NATRONA:   COUNTY
 STAT.            WYOMING:   STATE
 CTRY. UNITED STATES OF AMERICA:   COUNTRY
 SRVC.       DRESER ATLAS:   SERVICE COMPANY
 DATE.        23-MAR-1983:   LOGDATE
 API .     49025109190000:   API NUMBER
~CURVE INFORMATION
#MNEM.UNIT       API CODE    CURVE DESCRIPTION
#----------   ------------   ------------------------------
 DEPT.F                  :   
 TEND.LBS    45 635 01 00:   TENSION FROM DENSITY LOG
 CORR.G/C3   45 356 01 00:   DENSITY CORRECTION
 RHOB.G/C3   45 350 01 00:   BULK DENSITY
 CN  .DEC    42 890 00 00:   Neutron Porosity
 SPR .MV     07 010 01 00:   SPONTANEOUS POTENTIAL
 GRR .GAPI   07 310 01 00:   GAMMA RAY FROM RESISTIVITY
 TENR.LBS    07 635 01 00:   TENSION FROM RESISTIVITY
 RILD.OHMM   07 120 46 00:   DEEP INDUCTION RESISTIVITY
 RILM.OHMM   07 120 44 00:   INDUCTION LOG MEDIUM RESISTIVITY
 RFOC.OHMM   07 220 01 00:   RESISTIVITY FOCUSED LOG RES.
 TENS.LBS    60 635 01 00:   TENSION FROM SONIC LOG
 DT  .US/F   60 520 00 00:   DELTA TIME
 CALS.IN     60 280 50 00:   CALIPER FROM SONIC LOG
~PARAMETER INFORMATION
#MNEM.UNIT          VALUE    DESCRIPTION
#----------   ------------   ------------------------------
 EKB .F         5184.0000:   Kelly bushing
 EGL .F         5174.0000:   Ground level
 EDF .F            0.0000:   Drilling floor
 TD  .F         4397.0000:   Total depth
 DATE.        23-MAR-1983:   Date logged
 CLNT.            A2DTECH:   Client Code
 SL  . 942' FWL & 645' FSL:   Surface Location
 PD  .                 GL:   Permanent Datum
 EPD .F              5174:   Elevation Permanent Datum
 LMF .                 KB:   Log Measured From
 DMF .                 KB:   Drilling Measured From
 DAPD.F                10:   Feet Above Permanent Datum
 DD  .F              4397:   Depth driller
 DL  .F              4203:   Depth logger
 BLI .F              4201:   Bottom log interval
 CS1 .IN            9.625:   Casing size
 CBD1.      9.625" @ 659':   Casing driller 1
 CBL1.F               658:   Casing logger 1
 BS1 .IN             8.75:   Bit size
 BSD1.F              4397:   Depth drilled with bit1
 DFT .   GEL/DRISPACK/KCL:   Type fluid in hole
 DFD .                8.6:   Density
 DFV .                 36:   Viscosity
 DFPH.                8.5:   pH
 DFL .                 18:   Fluid loss
 MSS .               TANK:   Source of sample
 RMS .OHMM           0.55:   Rm
 MST .F                74:   Rm Meas. temp.
 RMF .OHMM           0.43:   Rmf
 MFST.F                66:   Rmf Meas. temp.
 RMC .OHMM           0.69:   Rmc
 MCST.F                74:   Rmc Meas. temp.
 MFSS.               MEAS:   Source Rmf.
 MCSS.               CALC:   Source Rmc.
 RMB .OHMM           0.33:   Rm. at BHT
 BHT .F               122:   BHT.
 TCS .HRS             5.5:   Time Circ. stopped
 MRT .F               122:   Maximum recorded temp.
 LUN .               6270:   Logging unit number
 LUL .              WLSTN:   Logging unit location
 ENGI.             REEVES:   Recorded By
 WITN.             STRONG:   Witnessed by
 ORIG.           5" PRINT:   Origin of data
 UWI .     49025109190000:   Unique Well ID
 DICO. A2D TECHNOLOGIES, INC.:   Digitizing Company
~OTHER INFORMATION
~A   DEPT     TEND       CORR       RHOB         CN        SPR         GRR      TENR       RILD       RILM       RFOC       TENS         DT       CALS   
# ...
 3701.5000  -114.7290     0.1610  -999.2500     0.3280   -46.4560    95.3230   -11.9410     2.6750     2.2390     2.2710   -24.0960    94.5180    15.2750
 3702.0000   -46.8340     0.0300  -999.2500     0.3710   -46.5580    95.4330   -12.2040     2.5770     2.2030     2.3840   -24.0960    92.9120    15.3160
 3702.5000    63.8280    -0.0940  -999.2500     0.5610   -46.5460    90.6370    -2.1040     2.4220     1.9310     2.4960   -19.5330    88.8290    15.3630
 3703.0000    95.8920    -0.1190  -999.2500     0.5320   -46.3920    84.5580     7.9960     2.2670     1.6580     2.6260    -8.1230    83.7250    15.3870
 3703.5000    51.8790    -0.1370  -999.2500     0.4850   -46.2440    78.4710    18.0960     2.1120     1.4820     2.4000     3.2860    80.7630    15.3960
 3704.0000   -22.4780    -0.1420  -999.2500     0.3980   -46.2540    75.0840    28.1960     1.9570     1.4280     2.1340    14.6950    80.8630    15.4060
 3704.5000  -114.6960    -0.1500  -999.2500     0.4570   -46.4740    73.3300    38.2970     1.8010     1.4120     1.7820    26.1040   108.7750    15.4160
 3705.0000  -185.6210    -0.1450  -999.2500     0.4730   -46.6870    74.3540    41.6950     1.6460     1.3930     1.7940    36.1450   108.1730    15.4260
 3705.5000  -188.7650    -0.1520  -999.2500     0.4810   -46.9030    75.0970    27.6660     1.5370     1.3760     1.8360    10.3270   100.7720    15.4360
 3706.0000  -191.9090    -0.1570  -999.2500     0.4690   -47.1220    76.5950    13.6380     1.5320     1.4480     1.8840   -11.1880    91.5200    15.4460
 3706.5000  -194.8900    -0.1610  -999.2500     0.4580   -47.3350    78.2680    -0.3900     1.5150     1.5130     1.9030   -22.6620    82.2690    15.4570
 3707.0000  -168.4370    -0.1340  -999.2500     0.4480   -47.6810    82.9180    -3.4600     1.5690     1.5790     1.9410   -19.0760    80.0600    15.4480
 3707.5000  -144.7900    -0.0510  -999.2500     0.4470   -48.0880    87.1480    -1.9750     1.6540     1.6450     1.9790   -15.4910    80.3280    15.4330
 3708.0000  -106.7130     0.0490  -999.2500     0.4000   -48.4910    91.6780    -0.4890     1.7390     1.7100     2.0170   -11.9050    82.8340    15.3660
 3708.5000   -70.7840     0.1380  -999.2500     0.3690   -48.8950    95.9890     0.9960     1.8240     1.7760     2.0560    -8.3190    86.7870    15.2570
 3709.0000   -44.5890     0.1450  -999.2500     0.3570   -49.2480   100.3490     2.4810     1.9090     1.8420     2.0980    -4.0160    90.7400    15.2200
 3709.5000   -34.5690     0.1590  -999.2500     0.3160   -49.5880   105.1130     3.9670     1.9940     1.9070     2.1940   -14.0560    92.7610    15.2620
 3710.0000   -55.8620     0.1060  -999.2500     0.3280   -49.9220   107.9750     5.5110     2.0790     1.9730     2.2900    76.3050    91.7070    15.2920
 3710.5000   -84.6690     0.0230  -999.2500     0.3550   -50.1860   108.1760   105.7110     2.1720     2.0280     2.3860    59.5720    89.7990    15.3270
 3711.0000   -30.1600    -0.0490  -999.2500     0.3820   -50.0880   104.8100    79.8100     2.1510     1.8160     2.4840    17.7380    87.8920    15.3390
 3711.5000     5.5110    -0.1160  -999.2500     0.4050   -50.0060    99.9370    10.3710     2.1090     1.6340     2.5310   -24.0960    89.0960    15.3190
 3712.0000    -4.8100    -0.1380  -999.2500     0.4120   -49.9090    95.1570    -8.4770     2.0670     1.5950     2.2630   -32.4630    93.4390    15.3010
 3712.5000   -34.1520    -0.1340  -999.2500     0.4350   -49.8190    91.8640   -13.5270     2.0250     1.6720     1.7930   -40.8300    99.3370    15.2920
 3713.0000   -55.3710    -0.0690  -999.2500     0.4570   -49.7270    92.6450   -18.5770     1.9830     1.7180     1.5660   -49.1970   105.2360    15.2790
 3713.5000   -57.8860     0.0060  -999.2500     0.4530   -49.6350    92.4080   -24.5490     1.9410     1.7090     1.6210   -42.7420   110.9840    15.2700
 3714.0000   -60.4010    -0.0020  -999.2500     0.4110   -49.5440    89.2770     0.2200     1.8990     1.6700     1.7420   -14.0560   108.9620    15.2640
 3714.5000   -62.9160    -0.0320  -999.2500     0.3820   -49.4450    86.1680    45.5910     1.8440     1.6250     1.8840    14.6300   105.5910    15.3160
 3715.0000   -77.4550    -0.0520  -999.2500     0.3790   -49.4120    86.1450    23.5470     1.8230     1.6250     1.9020    14.8090   101.5460    15.3600
 3715.5000  -117.6950    -0.0610  -999.2500     0.3780   -49.4620    88.9300   -34.5690     1.8020     1.6610     1.9190    -4.0160    99.3780    15.4040
 3716.0000  -131.0960    -0.0570  -999.2500     0.4120   -49.5020    91.4630   -34.5690     1.7820     1.6960     2.0290   -22.8410    96.1240    15.4550
 3716.5000   -94.6890    -0.0160  -999.2500     0.4100   -49.5440    93.9860    18.7370     1.7100     1.7490     2.3080   -14.0560    93.0460    15.4200
 3717.0000    25.5510     0.0070  -999.2500     0.3770   -49.5860    96.4390    65.6310     1.6410     1.7140     2.3510    46.1850    89.1970    15.3690
 3717.5000     8.9300     0.0010  -999.2500     0.3640   -49.6270    96.9660    24.7490     1.5730     1.6380     2.3080    26.1040    85.3480    15.3390
 3718.0000    -8.8240     0.0000  -999.2500     0.3900   -49.6710    96.1800   -35.8520     1.5090     1.5630     2.2090   -24.0960    82.2690    15.3830
 3718.5000   -26.5770    -0.0230  -999.2500     0.3930   -49.7080    92.9350   -37.1740     1.5090     1.5090     2.0970   -54.2170    83.9330    15.4200
 3719.0000   -44.3300    -0.0660  -999.2500     0.3900   -49.7570    89.9120   -14.5290     1.6080     1.5520     1.9850   -35.3920    87.0880    15.4560
 3719.5000   -62.0830    -0.1060  -999.2500     0.3880   -49.8150    86.5930   -19.2720     1.8050     1.6380     1.8730   -24.0960    90.2440    15.5110
 3720.0000   -79.8360    -0.1670  -999.2500     0.3710   -50.1870    85.1230   -66.9670     2.0020     1.7240     1.6860   -99.3980    91.5060    15.3670
 3720.5000   -94.6890    -0.2890  -999.2500     0.3430   -50.6300    89.2110  -114.6630     2.1990     1.8100     1.7380  -174.6990    90.7030    15.1060
 3721.0000   -71.2830    -0.2690  -999.2500     0.3150   -51.0350    99.6840  -162.3580     2.3960     1.8960     1.8970  -178.8820    88.2930    14.8620
 3721.5000   -54.6090    -0.0010     2.3140     0.2870   -51.6620   110.8410  -185.2040     2.5930     2.1400     2.0660  -183.0660    85.2810    14.6140
 3722.0000   -53.1140     0.1840     2.3930     0.2600   -52.2240   119.8580  -199.2320     2.7900     2.4390     2.8230  -184.7390    81.5160    14.4140
 3722.5000   -51.1790     0.2300     2.4000     0.2320   -52.8090   117.0280  -213.2600     2.9870     2.7390     3.3980  -219.8800    77.7510    14.2990
 3723.0000   -49.2450     0.1300     2.4270     0.2150   -53.3800   111.3820  -224.9500     3.1840     3.0380     3.5670  -255.0200    75.7630    14.1980
 3723.5000   -47.3100     0.0380     2.4800     0.2200   -53.9620   108.4040  -187.8760     3.3810     3.3370     3.7360  -150.6020    74.9600    14.1000
 3724.0000   -45.3750     0.0610     2.5330     0.2250   -54.3270   106.4260   -61.6230     3.4630     3.4630     3.9050     6.0240    75.0400    14.0700
 3724.5000   -36.2950     0.0990     2.5560     0.2500   -54.5210   106.0930    10.1750     3.4630     3.3880     4.0150     6.0240    76.8140    14.0380
 3725.0000   -22.3220     0.1430     2.5110     0.2590   -54.5920   107.0590    -3.5980     3.3750     3.2920     3.9390    -6.5260    80.2440    14.0060
 3725.5000    -8.3500     0.1520     2.4730     0.2690   -54.3840   109.6510   -17.3710     3.2260     3.1960     3.8110   -19.0760    83.6750    13.9780
 3726.0000     5.5110     0.1130     2.4490     0.2680   -54.2110   113.4610   -31.1440     3.0770     3.1000     3.6610   -31.6270    85.7660    13.9440
 3726.5000    -9.8200     0.1390     2.4420     0.2710   -54.0350   118.1400   -44.5890     2.9290     3.0040     3.4600   -44.1770    87.8580    13.9890
 3727.0000   -34.9700     0.1970     2.4330     0.2750   -53.8530   123.1670   -40.2810     2.7800     2.9080     3.2140   -47.7620    89.5380    14.0750
