~VERSION INFORMATION
 VERS.                2.0:   CWLS LOG ASCII STANDARD - VERSION 2.0
 WRAP.                 NO:   ONE LINE PER DEPTH STEP
~WELL INFORMATION
#MNEM.UNIT      DATA TYPE    INFORMATION
#----------   ------------   ------------------------------
 STRT.F           20.0000:   START DEPTH
 STOP.F         4128.0000:   STOP DEPTH
 STEP.F            0.5000:   STEP LENGTH
 NULL.          -999.2500:   NO VALUE
 COMP. LAWRENCE-ALLISON & ASSOCIATES:   COMPANY
 WELL. LAWRENCE "X" #53-3:   WELL
 FLD .             NPR #3:   FIELD
 LOC .       S3 T38N R78W:   LOCATION
 CNTY.            NATRONA:   COUNTY
 STAT.            WYOMING:   STATE
 CTRY. UNITED STATES OF AMERICA:   COUNTRY
 SRVC.      DRESSER ATLAS:   SERVICE COMPANY
 DATE.        18-SEP-1983:   LOGDATE
 API .     49025109370000:   API NUMBER
~CURVE INFORMATION
#MNEM.UNIT       API CODE    CURVE DESCRIPTION
#----------   ------------   ------------------------------
 DEPT.F                  :   
 NPHI.DEC    42 890 03 00:   NEUTRON POROSITY SANDSTONE
 TEND.LBS    45 635 01 00:   TENSION FORM DENSITY LOG
 CORR.G/C3   45 356 01 00:   DENSITY CORRECTION
 RHOB.G/C3   45 350 01 00:   BULK DENSITY
 CALD.IN     45 280 60 00:   CALIPER FROM DENSITY LOG
 GRR .GAPI   07 310 01 00:   GAMMA RAY FROM RESISTIVITY
 TENR.LBS    06 635 01 00:   TENSION FROM RESISTIVITY
 SPR .MV     07 010 01 00:   SPONTANEOUS POTENTIAL
 RILD.OHMM   07 120 46 00:   DEEP INDUCTION RESISTIVITY
 RILM.OHMM   07 120 44 00:   INDUCTION LOG MEDIUM RESISTIVITY
 RSFL.OHMM   07 220 01 00:   SPHERICALLY FOCUSED RESISTIVITY
 TENS.LBS    60 635 01 00:   TENSION FROM SONIC
 DT  .US/F   60 520 00 00:   DELTA TIME
~PARAMETER INFORMATION
#MNEM.UNIT          VALUE    DESCRIPTION
#----------   ------------   ------------------------------
 EKB .F         5214.0000:   Kelly bushing
 EGL .F         5204.0000:   Ground level
 EDF .F            0.0000:   Drilling floor
 TD  .F         4117.0000:   Total depth
 CLNT.            A2DTECH:   Client Code
 PD  .                 GL:   Permanent Datum
 EPD .F              5204:   Elevation Permanent Datum
 LMF .                 KB:   Log Measured From
 DMF .                 KB:   Drilling Measured From
 DAPD.F                10:   Feet Above Permanent Datum
 DATE.        18-SEP-1983:   Date Logged [DD-MMM-YYYY]
 DD  .F              4117:   Depth driller
 DL  .F              4113:   Depth logger
 BLI .F              4110:   Bottom log interval
 TLI .F                 0:   Top log interval
 CS1 .IN            9.625:   Casing size
 CBD1.      9.625" @ 523':   Casing driller 1
 CBL1.F               523:   Casing logger 1
 BS1 .IN            7.875:   Bit size
 BSD1.F              4117:   Depth drilled with bit1
 DFT .            GEL KCL:   Type fluid in hole
 DFD .                9.0:   Density
 DFV .                 42:   Viscosity
 DFPH.                8.5:   pH
 DFL .                 10:   Fluid loss
 MSS .               TANK:   Source of sample
 RMS .OHMM           0.35:   Rm
 MST .F                68:   Rm Meas. temp.
 RMF .OHMM          0.266:   Rmf
 MFST.F                68:   Rmf Meas. temp.
 MFSS.               MEAS:   Source Rmf.
 RMC .OHMM          0.443:   Rmc
 MCST.F                68:   Rmc Meas. temp.
 MCSS.               CALC:   Source Rmc.
 RMB .OHMM          0.185:   Rm. at BHT
 BHT .F               130:   BHT.
 TCS .HRS               4:   Time Circ. stopped
 MRT .F               130:   Maximum recorded temp.
 LUN .               6270:   Logging unit number
 LUL .              WLSTN:   Logging unit location
 ENGI.             REEVES:   Recorded By
 WITN.             STRONG:   Witnessed by
 ORIG.           5" PRINT:   Origin of data
 UWI .     49025109370000:   Unique Well ID
 DICO. A2D TECHNOLOGIES, INC.:   Digitizing Company
~OTHER INFORMATION
~A   DEPT     NPHI       TEND       CORR       RHOB       CALD         GRR      TENR        SPR       RILD       RILM       RSFL       TENS         DT   
# ...
 3374.0000     0.2290   -11.8665     0.1694     2.3495     9.0146   212.7660   -60.8955   -82.2565     1.5755     1.8446     1.8224   -45.7430   108.7642
 3374.5000     0.2250   -31.0027     0.0609     2.3802     8.7208   204.5593   -61.1840   -83.4330     1.5752     2.0182     2.1942   -45.6061   103.4572
 3375.0000     0.2235   -42.6683     0.0430     2.4598     8.6043   182.3708   -61.4723   -84.4622     1.6211     2.2406     3.2941   -45.4546    96.9371
 3375.5000     0.2251   -46.7216     0.0522     2.4846     8.5443   155.9270   -61.7608   -85.1971     1.8060     2.5143     4.1185   -45.3030    92.2365
 3376.0000     0.2292   -50.7749     0.0554     2.4906     8.5623   152.2796   -62.0418   -86.2267     2.0120     2.7811     4.4583   -45.1426    91.6300
 3376.5000     0.2274   -51.0575     0.0600     2.4922     8.5633   152.2796   -62.2737   -87.2562     2.3238     2.9888     4.2090   -48.7879    92.5398
 3377.0000     0.2262   -40.0985     0.0632     2.4937     8.5631   153.4954   -62.5055   -88.1384     2.6455     3.1214     4.1491   -48.6364    92.9208
 3377.5000     0.2288   -36.5397     0.0648     2.4922     8.5682   155.6231   -62.7373   -88.8954     2.8429     3.3059     4.2097   -48.4713    93.2980
 3378.0000     0.2330   -40.6637     0.0364     2.4884     8.5829   158.4072   -62.9691   -89.3138     2.9922     3.4519     4.3019   -48.3182    92.7673
 3378.5000     0.2360   -41.1628     0.0063     2.4870     8.5821   160.7903   -63.2009   -89.6070     3.1439     3.6044     4.4280   -48.1534    92.3882
 3379.0000     0.2320   -48.8409     0.0110     2.4915     8.6037   162.6140   -63.4328   -89.7528     3.1892     3.7097     4.5577   -48.0303    91.9333
 3379.5000     0.2193   -49.1235     0.0127     2.4938     8.6024   163.5258   -63.6646   -89.8984     3.2584     3.7908     4.6601   -55.4467    91.6300
 3380.0000     0.2092   -49.4061     0.0189     2.4975     8.6026   163.2219   -63.8964   -89.8969     3.3292     3.8182     4.7256   -55.2936    91.4026
 3380.5000     0.2122   -53.4691     0.0421     2.5029     8.6026   162.6140   -64.1282   -89.8952     3.3287     3.8182     4.6583   -56.8630    91.1751
 3381.0000     0.2218   -53.8126     0.0690     2.5058     8.6026   162.0061   -64.3600   -89.7465     3.3281     3.7908     4.6587   -58.8107    90.9477
 3381.5000     0.2410   -54.0952     0.0781     2.5043     8.6026   164.1337   -64.5919   -89.4506     3.3038     3.7908     4.6255   -58.6341    91.5542
 3382.0000     0.2519   -50.6034     0.0828     2.4946     8.6026   167.1732   -64.8237   -89.0073     3.2326     3.7636     4.5927   -58.4575    92.1607
 3382.5000     0.2482   -50.9604     0.0860     2.4862     8.6026   170.5167   -65.0555   -88.6941     3.2090     3.7097     4.5273   -58.3162    92.4640
 3383.0000     0.2482   -47.4015     0.0726     2.4818     8.6026   174.2213   -65.2873   -88.2678     3.1855     3.6567     4.4951   -50.5992    92.3882
 3383.5000     0.2482   -40.2133     0.0546     2.4834     8.6026   175.3799   -65.5191   -88.1191     3.1393     3.6304     4.4632   -46.6666    92.2365
 3384.0000     0.2461   -36.7252     0.0382     2.4864     8.6026   173.8602   -65.7509   -87.9704     3.1309     3.5785     4.4635   -46.5151    92.3882
 3384.5000     0.2430   -33.2370     0.0172     2.4834     8.6026   172.9483   -65.9828   -87.6745     3.0935     3.5528     4.4189   -46.3522    92.8431
 3385.0000     0.2461   -33.5902     0.0053     2.4774     8.6026   173.8602   -66.2146   -87.5110     3.0931     3.5528     4.4003   -46.2109    93.0755
 3385.5000     0.2514   -30.0906    -0.0021     2.4691     8.6026   175.7200   -66.4464   -87.2295     3.0927     3.5528     4.4007   -46.0606    93.1463
 3386.0000     0.2484   -30.3922    -0.0005     2.4669     8.6026   178.7234   -66.6782   -87.2281     3.1170     3.5785     4.4010   -45.9091    93.1463
 3386.5000     0.2442   -30.7378     0.0058     2.4737     8.6024   179.9392   -66.8945   -87.5212     3.1822     3.6044     4.4331   -45.7518    93.0705
 3387.0000     0.2412   -31.0204     0.0074     2.4774     8.6030   179.9392   -65.0694   -87.8144     3.2281     3.6304     4.4654   -45.6061    92.9947
 3387.5000     0.2385   -31.3030     0.0076     2.4730     8.6175   178.4194   -63.3587   -88.2669     3.2745     3.6567     4.5306   -45.4340    92.8431
 3388.0000     0.2373   -31.6562     0.0092     2.4685     8.6226   176.8835   -61.6480   -88.6949     3.3215     3.7097     4.5309   -45.3030    92.7673
 3388.5000     0.2468   -28.1680     0.0275     2.4700     8.6222   176.5957   -59.9374   -88.8411     3.3210     3.7101     4.5313   -45.1514    92.5398
 3389.0000     0.2565   -32.2214     0.0457     2.4738     8.6221   179.3313   -58.2267   -89.1339     3.3205     3.7636     4.5316   -45.0000    92.3740
 3389.5000     0.2586   -32.5039     0.0625     2.4783     8.6221   182.0669   -57.1289   -89.4271     3.2725     3.7636     4.4993   -44.8335    92.1607
 3390.0000     0.2576   -29.0865     0.0455     2.4813     8.6221   179.0274   -57.1289   -89.7301     3.2744     3.7636     4.4997   -44.6922    91.9333
 3390.5000     0.2591   -33.1399     0.0130     2.4806     8.6221   176.5957   -57.1289   -90.1603     3.2800     3.7636     4.5000   -44.5455    91.9333
 3391.0000     0.2618   -33.4225    -0.0050     2.4776     8.6221   174.1641   -57.1289   -90.1589     3.2856     3.7636     4.5004   -44.3939    91.9333
 3391.5000     0.2606   -33.7103    -0.0053     2.4767     8.6221   172.6444   -57.4024   -90.0102     3.2912     3.7636     4.5007   -44.2424    91.9333
 3392.0000     0.2534   -34.0582     0.0047     2.4822     8.6221   172.0365   -58.0515   -90.0088     3.3177     3.7636     4.4687   -44.0909    91.8575
 3392.5000     0.2464   -34.3408     0.0151     2.4836     8.6221   172.9483   -58.7006   -89.8601     3.3653     3.7636     4.4690   -43.9394    91.7817
 3393.0000     0.2455   -34.6234     0.0213     2.4829     8.6221   173.2523   -59.3497   -89.7111     3.4137     3.7908     4.4694   -43.7879    91.5542
 3393.5000     0.2553   -34.9766     0.0199     2.4784     8.6221   171.9441   -59.9988   -89.7097     3.4628     3.8182     4.5020   -43.6364    91.7817
 3394.0000     0.2749   -35.2592     0.0110     2.4716     8.6221   170.5167   -60.6479   -89.5610     3.5126     3.8736     4.5023   -43.4848    91.9333
 3394.5000     0.2881   -35.5418     0.0096     2.4694     8.6221   171.4286   -61.2970   -88.9705     3.5376     3.9324     4.5351   -43.3333    92.0849
 3395.0000     0.2869   -35.8243     0.0083     2.4702     8.6221   172.6444   -61.9461   -88.6697     3.5919     3.9868     4.5705   -43.1618    92.1607
 3395.5000     0.2773   -39.9483     0.0100     2.4724     8.6236   173.5562   -62.5952   -88.2309     3.6663     4.0156     4.7022   -43.0303    92.1607
 3396.0000     0.2701   -40.2309     0.0222     2.4755     8.6329   167.7078   -63.2444   -87.7877     3.7192     4.0447     4.8750   -42.8788    92.1607
 3396.5000     0.2640   -40.5134     0.0359     2.4762     8.6415   164.1337   -63.8935   -87.3445     3.7727     4.0739     5.0178   -42.7273    92.1607
 3397.0000     0.2604   -40.7994     0.0451     2.4770     8.6417   162.9179   -64.5426   -86.9013     3.7993     4.0957     4.9464   -42.5758    92.1607
 3397.5000     0.2583   -44.9201     0.0422     2.4755     8.6417   168.3891   -65.1917   -86.7526     3.7715     4.0728     4.8062   -42.3966    92.0091
 3398.0000     0.2568   -45.2027     0.0243     2.4733     8.6417   170.2128   -65.8408   -86.8981     3.7169     4.0381     4.7039   -42.2553    91.9333
 3398.5000     0.2535   -45.4853     0.0094     2.4733     8.6417   170.5167   -66.4899   -87.0443     3.6781     3.9868     4.6036   -42.1212    91.9333
 3399.0000     0.2510   -45.7767     0.0004     2.4763     8.6417   170.2128   -67.1390   -87.1902     3.6102     3.9582     4.6040   -41.9697    92.0091
 3399.5000     0.2582   -46.1211     0.0253     2.4840     8.6417   170.2128   -67.7881   -87.1884     3.5580     3.8736     4.7389   -41.8182    92.1607
