~VERSION INFORMATION
 VERS.                2.0:   CWLS LOG ASCII STANDARD - VERSION 2.0
 WRAP.                 NO:   ONE LINE PER DEPTH STEP
~WELL INFORMATION
#MNEM.UNIT      DATA TYPE    INFORMATION
#----------   ------------   ------------------------------
 STRT.F          444.0000:   START DEPTH
 STOP.F         3018.0000:   STOP DEPTH
 STEP.F            0.5000:   STEP LENGTH
 NULL.          -999.2500:   NO VALUE
 COMP.    FENIX & SCISSON:   COMPANY
 WELL.  FENIX "AX" #25-28:   WELL
 FLD .             TEAPOT:   FIELD
 LOC .      S28 T39N R78W:   LOCATION
 CNTY.            NATRONA:   COUNTY
 STAT.            WYOMING:   STATE
 CTRY. UNITED STATES OF AMERICA:   COUNTRY
 SRVC.              WELEX:   SERVICE COMPANY
 DATE.        01-DEC-1979:   LOGDATE
 API .     49025107940000:   API NUMBER
~CURVE INFORMATION
#MNEM.UNIT       API CODE    CURVE DESCRIPTION
#----------   ------------   ------------------------------
 DEPT.F                  :   
 SPR .MV     07 010 01 00:   SPONTANEOUS POTENTIAL
 RILM.OHMM   07 120 44 00:   INDUCTION LOG MEDIUM RESISTIVITY
 RILD.OHMM   07 120 46 00:   DEEP INDUCTION RESISTIVITY
 SGRD.OHMM   07 220 05 00:   SHALLOW GUARD LOG RESISTIVITY
 TENR.LBS    07 635 01 00:   TENSION FROM RESISTIVITY
 NPHI.DEC    42 890 03 00:   NEUTRON POROSITY SANDSTONE
 GRD .GAPI   45 310 01 00:   GAMMA RAY FROM DENSITY LOG
 CALD.IN     45 280 60 00:   CALIPER FROM DENSITY LOG
 RHOB.G/C3   45 350 01 00:   BULK DENSITY
 DCOR.G/C3   45 356 01 00:   DENSITY CORRECTION
 TEND.LBS    45 635 01 00:   TENSION FROM DENSITY LOG
~PARAMETER INFORMATION
#MNEM.UNIT          VALUE    DESCRIPTION
#----------   ------------   ------------------------------
 EKB .F         5092.0000:   Kelly bushing
 EGL .F         5082.0000:   Ground level
 EDF .F            0.0000:   Drilling floor
 TD  .F         3013.5000:   Total depth
 DATE.        01-DEC-1979:   Date logged
 CLNT.            A2DTECH:   Client Code
 SL  . 2267' FSL & 1070' FWL:   Surface Location
 PD  .                 GL:   Permanent Datum
 EPD .F              5082:   Elevation Permanent Datum
 LMF .                 KB:   Log Measured From
 DMF .                 KB:   Drilling Measured From
 DAPD.F                10:   Feet Above Permanent Datum
 DD  .F              3000:   Depth driller
 DL  .F            3013.5:   Depth logger
 BLI .F              3013:   Bottom log interval
 TLI .F               350:   Top log interval
 CS1 .IN            8.625:   Casing size
 CBD1.      8.625" @ 465':   Casing driller 1
 CBL1.F               462:   Casing logger 1
 BS1 .IN            7.875:   Bit size
 BSD1.F              3000:   Depth drilled with bit1
 DFT .           CHEM GEL:   Type fluid in hole
 DFD .                8.8:   Density
 DFV .                 55:   Viscosity
 DFPH.                  9:   pH
 DFL .                6.4:   Fluid loss
 MSS .           FLOWLINE:   Source of sample
 RMS .OHMM           1.53:   Rm
 MST .F                75:   Rm Meas. temp.
 RMF .OHMM           1.24:   Rmf
 MFST.F                75:   Rmf Meas. temp.
 RMC .OHMM           1.83:   Rmc
 MCST.F                75:   Rmc Meas. temp.
 MFSS.               MEAS:   Source Rmf.
 MCSS.               MEAS:   Source Rmc.
 RMB .OHMM           1.09:   Rm. at BHT
 BHT .F               105:   BHT.
 TCS .HRS             2.5:   Time Circ. stopped
 MRT .F               105:   Maximum recorded temp.
 LUN .                965:   Logging unit number
 LUL .             CASPER:   Logging unit location
 ENGI.            BENTSEN:   Recorded By
 WITN.           P. AMEND:   Witnessed by
 ORIG.           5" PRINT:   Origin of data
 UWI .     49025107940000:   Unique Well ID
 DICO. A2D TECHNOLOGIES, INC.:   Digitizing Company
~OTHER INFORMATION
~A   DEPT      SPR       RILM       RILD       SGRD       TENR       NPHI         GRD      CALD       RHOB       DCOR       TEND   
# ...
 1786.0000   -36.5970     6.1350     4.9800     7.1240   882.3530     0.2990    86.8460     8.1440     2.4750     0.0320  1366.9561
 1786.5000   -36.7130     6.0380     5.0060     6.9670   882.3530     0.2990    88.6820     8.1440     2.4660     0.0180  1368.0760
 1787.0000   -36.8270     5.8360     5.0310     6.5170   882.3530     0.2990    90.1110     8.1440     2.4760     0.0220  1369.1970
 1787.5000   -36.9400     5.6410     5.0570     5.9380   882.3530     0.2970    90.4860     8.1440     2.4750     0.0210  1370.3180
 1788.0000   -37.0530     5.6410     5.0830     5.5360   882.3530     0.2940    89.9770     8.1440     2.4730     0.0220  1371.4380
 1788.5000   -37.1700     5.8630     5.2350     6.9930   882.3530     0.2900    88.2420     8.1440     2.4800     0.0340  1372.5590
 1789.0000   -37.1400     6.0610     5.4480     6.6740   882.3530     0.2880    88.8530     8.1440     2.4930     0.0320  1370.9310
 1789.5000   -37.0640     6.2830     5.6680     7.2480   882.3530     0.2870    90.3090     8.1340     2.5200     0.0370  1353.0000
 1790.0000   -36.9850     6.5550     5.8880     8.8320   882.3530     0.2880    88.6730     8.1240     2.5340     0.0430  1333.9919
 1790.5000   -36.9070     6.8280     6.1080     8.6410   882.3530     0.2880    89.5360     8.1130     2.5410     0.0360  1338.0220
 1791.0000   -36.8290     7.1030     6.3280     8.2730   882.3530     0.2890    87.6520     8.1030     2.5460     0.0340  1342.3101
 1791.5000   -36.7510     7.3930     6.5490     8.2730   882.3530     0.2920    85.9130     8.0920     2.5540     0.0440  1346.5970
 1792.0000   -36.6720     7.7490     6.7690     8.5880   882.3530     0.2950    85.9720     8.0830     2.5650     0.0520  1350.8850
 1792.5000   -36.5940     7.7320     6.9890     8.6690   882.3530     0.2960    86.6550     8.0760     2.5680     0.0560  1355.1730
 1793.0000   -36.5160     7.7090     7.1650     8.5880   882.3530     0.2940    87.4080     8.0690     2.5560     0.0460  1359.4600
 1793.5000   -36.4380     7.6870     7.2700     8.5080   882.3530     0.2930    88.2560     8.0620     2.5420     0.0370  1363.7480
 1794.0000   -36.3600     7.6640     7.3960     8.3510   882.3530     0.2920    90.5760     8.0560     2.5340     0.0390  1368.0360
 1794.5000   -36.2820     7.6420     7.3450     8.2470   882.3530     0.2910    90.2680     8.0490     2.5370     0.0480  1372.3230
 1795.0000   -36.2030     7.6190     7.2820     8.1200   882.3530     0.2910    91.6430     8.0470     2.5390     0.0510  1371.7390
 1795.5000   -36.1250     7.5500     7.1150     8.1960   882.3530     0.2890    94.5270     8.0510     2.5320     0.0500  1369.2740
 1796.0000   -36.0470     7.4190     6.8830     8.2730   882.3530     0.2890    98.0230     8.0540     2.5180     0.0390  1366.8080
 1796.5000   -35.9690     7.2870     6.7990     8.2730   882.3530     0.2890    99.1030     8.0570     2.5070     0.0400  1364.3430
 1797.0000   -35.8910     7.1560     6.9280     8.1960   882.3530     0.2930    95.2520     8.0610     2.5020     0.0320  1361.8770
 1797.5000   -35.8120     7.0580     6.7840     8.1200   882.3530     0.2960    92.8590     8.0640     2.4970     0.0240  1359.4120
 1798.0000   -35.6700     7.5350     6.4320     8.1200   882.3530     0.2980    90.9440     8.0670     2.5030     0.0330  1356.9470
 1798.5000   -35.4950     7.4130     6.4490     8.0440   882.3530     0.2990    90.4840     8.0710     2.4820     0.0220  1354.4810
 1799.0000   -35.3200     7.1540     6.4730     7.8640   882.3530     0.2980    93.3090     8.0740     2.4650    -0.0010  1352.0160
 1799.5000   -35.1440     6.8960     6.4890     7.4890   882.3530     0.2970    94.0530     8.0770     2.4570    -0.0030  1349.5500
 1800.0000   -34.9650     6.6110     6.2830     6.9280   882.3530     0.2980    94.7900     8.0810     2.4690    -0.0020  1347.0850
 1800.5000   -34.7920     6.7910     6.1230     7.1860   882.3530     0.2990    95.8410     8.0840     2.4520    -0.0010  1344.6200
 1801.0000   -35.3420     6.9280     5.9630     7.5350   882.3530     0.2980    97.1240     8.0850     2.4570     0.0040  1342.1541
 1801.5000   -35.9660     6.6510     5.8550     6.6350   882.3530     0.2970    97.2470     8.0850     2.4510     0.0120  1339.6890
 1802.0000   -36.5860     6.4290     5.9100     5.9100   882.3530     0.2960    98.4980     8.0850     2.4740     0.0300  1337.2230
 1802.5000   -37.0130     6.8070     6.0780     8.0060   882.3530     0.2910   100.9400     8.0850     2.4850     0.0440  1334.7581
 1803.0000   -37.0770     7.2100     6.2430     9.7880   882.3530     0.2860   103.5070     8.0750     2.4780     0.0280  1337.8770
 1803.5000   -37.1480     7.4570     6.4160     9.8800   882.3530     0.2820   106.7250     8.0660     2.4720     0.0120  1343.5120
 1804.0000   -37.2200     7.4040     6.5780     9.1680   882.3530     0.2800   108.9330     8.0560     2.4920     0.0250  1349.1470
 1804.5000   -37.2910     8.1200     6.7360     8.9150   882.3530     0.2820   110.7930     8.0470     2.4940     0.0340  1354.7830
 1805.0000   -37.3620     7.8220     6.7990     9.6070   882.3530     0.2840   112.9180     8.0380     2.4990     0.0500  1360.4180
 1805.5000   -37.4330     8.1200     6.7360     9.2550   882.3530     0.2840   114.2830     8.0280     2.4930     0.0600  1366.0530
 1806.0000   -37.5040     7.4900     6.6060     7.4150   882.3530     0.2830   119.3140     8.0260     2.4770     0.0550  1371.6880
 1806.5000   -37.5720     6.9680     6.4440     6.3690   882.3530     0.2820   123.0080     8.0260     2.4620     0.0610  1377.3240
 1807.0000   -37.8310     6.6110     6.2830     6.3100   882.3530     0.2800   121.3510     8.0260     2.4520     0.0560  1382.9590
 1807.5000   -38.1910     6.4890     6.1350     6.3100   882.5030     0.2800   123.9910     8.0260     2.4450     0.0580  1388.5940
 1808.0000   -38.5520     6.7420     6.1350     6.7360   883.1110     0.2780   128.5040     8.0260     2.4460     0.0490  1394.2290
 1808.5000   -38.9140     7.2480     6.1350     9.5170   883.7190     0.2730   134.5400     8.0260     2.4520     0.0320  1399.8640
 1809.0000   -39.2740     7.7540     6.3100    10.7460   884.3270     0.2720   138.0170     8.0260     2.4530     0.0150  1405.5000
 1809.5000   -39.6340     8.2600     6.2510    11.8960   884.9350     0.2700   141.0070     8.0260     2.4570    -0.0010  1411.1350
 1810.0000   -39.8320     8.7660     6.7360    12.9620   885.5430     0.2670   142.2180     8.0260     2.4570     0.0090  1412.2321
 1810.5000   -39.8630     9.2720     7.4270    13.7000   886.1510     0.2640   141.0570     8.0260     2.4520    -0.0050  1410.4709
 1811.0000   -39.8950     9.7690     8.0560    13.7000   886.7590     0.2620   140.7840     8.0260     2.4460    -0.0080  1408.7100
 1811.5000   -39.9250    10.2580     8.6840    14.3900   887.3670     0.2630   142.1540     8.0260     2.4470    -0.0010  1406.9490
 1812.0000   -39.9550    10.7470     9.3130    15.1830   887.9750     0.2670   144.0330     8.0260     2.4500     0.0100  1405.1880
 1812.5000   -39.9860    11.2600     9.9720    14.9790   888.5830     0.2720   147.7230     8.0260     2.4500     0.0030  1403.4270
 1813.0000   -40.0160    11.5830    10.6460    14.6550   889.1910     0.2750   153.8510     8.0260     2.4440     0.0050  1401.6660
 1813.5000   -40.0460    11.9220    11.1550    15.0780   889.7980     0.2740   159.7190     8.0260     2.4380    -0.0040  1399.9050
 1814.0000   -40.0770    12.3000    11.4720    16.8260   890.4060     0.2720   163.1460     8.0260     2.4320    -0.0050  1398.1440
 1814.5000   -40.1070    12.7420    11.7980    16.6250   891.0140     0.2700   150.5530     8.0260     2.4470     0.0030  1396.3831
 1815.0000   -40.1380    13.1840    12.2480    16.2090   891.6220     0.2670   139.3410     8.0260     2.4410     0.0010  1394.6219
 1815.5000   -40.1680    13.5990    12.3010    17.3600   892.2300     0.2630   128.9760     8.0260     2.4650     0.0110  1392.8950
 1816.0000   -40.1980    13.9760    12.4330    18.3020   892.8380     0.2620   118.8010     8.0260     2.4680     0.0210  1391.2780
