~VERSION INFORMATION
 VERS.                2.0:   CWLS LOG ASCII STANDARD - VERSION 2.0
 WRAP.                 NO:   ONE LINE PER DEPTH STEP
~WELL INFORMATION
#MNEM.UNIT      DATA TYPE    INFORMATION
#----------   ------------   ------------------------------
 STRT.F           14.0000:   START DEPTH
 STOP.F         3246.0000:   STOP DEPTH
 STEP.F            0.5000:   STEP LENGTH
 NULL.          -999.2500:   NO VALUE
 COMP.   LAWRENCE ALLISON:   COMPANY
 WELL. LAWRENCE "34X" #11:   WELL
 FLD .             N.P.R.:   FIELD
 LOC .      S34 T38N R78W:   LOCATION
 CNTY.            NATRONA:   COUNTY
 STAT.            WYOMING:   STATE
 CTRY. UNITED STATES OF AMERICA:   COUNTRY
 SRVC.      DRESSER ATLAS:   SERVICE COMPANY
 DATE.        02-MAY-1985:   LOGDATE
 API .     49025110530001:   API NUMBER
~CURVE INFORMATION
#MNEM.UNIT       API CODE    CURVE DESCRIPTION
#----------   ------------   ------------------------------
 DEPT.F                  :   
 CNC .DEC    42 890 03 00:   NEUTRON POROSITY
 CALD.IN     45 280 60 00:   CALIPER FROM DENSITY LOG
 CORR.G/C3   45 356 01 00:   DENSITY CORRECTION
 RHOB.G/C3   45 350 01 00:   BULK DENSITY
 GRR .GAPI   07 310 01 00:   GAMMA RAY FROM RESISTIVITY
 SPR .MV     07 010 01 00:   SPONTANEOUS POTENTIAL FROM RES.
 TENR.LBS    06 635 01 00:   TENSION FROM RESISTIVITY
 RILD.OHMM   07 120 46 00:   DEEP INDUCTION RESISTIVITY
 RILM.OHMM   07 120 44 00:   INDUCTION LOG MEDIUM RESISTIVITY
 RFOC.OHMM   07 220 04 00:   RESISTIVITY FOCUSED LOG RES.
~PARAMETER INFORMATION
#MNEM.UNIT          VALUE    DESCRIPTION
#----------   ------------   ------------------------------
 EKB .F         5099.0000:   Kelly bushing
 TD  .F         3239.0000:   Total depth
 CLNT.            A2DTECH:   Client Code
 PD  .                 GL:   Permanent Datum
 EPD .F              5087:   Elevation Permanent Datum
 LMF .                 KB:   Log Measured From
 DMF .                 KB:   Drilling Measured From
 DAPD.F                12:   Feet Above Permanent Datum
 DATE.        02-MAY-1985:   Date Logged [DD-MMM-YYYY]
 DD  .F              3239:   Depth driller
 DL  .F              3242:   Depth logger
 BLI .F              3294:   Bottom log interval
 CS1 .IN            8.625:   Casing size
 CBD1.      8.625" @ 487':   Casing driller 1
 CBL1.F               487:   Casing logger 1
 BS1 .IN            7.875:   Bit size
 BSD1.F              3239:   Depth drilled with bit1
 DFT .            KCL GEL:   Type fluid in hole
 DFD .                9.1:   Density
 DFV .                 35:   Viscosity
 DFPH.                  8:   pH
 DFL .                9.8:   Fluid loss
 MSS .           FLOWLINE:   Source of sample
 RMS .OHMM           0.27:   Rm
 MST .F                68:   Rm Meas. temp.
 RMF .OHMM           0.20:   Rmf
 MFST.F                68:   Rmf Meas. temp.
 MFSS.               MEAS:   Source Rmf.
 RMC .OHMM           0.34:   Rmc
 MCST.F                68:   Rmc Meas. temp.
 MCSS.               CALC:   Source Rmc.
 RMB .OHMM           0.15:   Rm. at BHT
 BHT .F               126:   BHT.
 TCS .HRS               3:   Time Circ. stopped
 MRT .F               126:   Maximum recorded temp.
 LUN .               6274:   Logging unit number
 LUL .               GLTE:   Logging unit location
 ENGI.       MACK/EDWARDS:   Recorded By
 WITN.             STRONG:   Witnessed by
 ORIG.           5" PRINT:   Origin of data
 UWI .     49025110260000:   Unique Well ID
 DICO. A2D TECHNOLOGIES, INC.:   Digitizing Company
~OTHER INFORMATION
~A   DEPT      CNC       CALD       CORR       RHOB        GRR        SPR       TENR       RILD       RILM       RFOC   
# ...
 3196.5000     0.2957     6.9789    -0.0769  -999.2500   105.0674   -48.3741   183.0779     3.4490     3.3859     4.1952
 3197.0000     0.2993     6.9800     0.0150  -999.2500   106.2232   -48.6444   181.7556     3.3413     3.2972     4.3191
 3197.5000     0.3074     6.9957     0.1842  -999.2500   110.0539   -48.6212   187.9976     3.2990     3.2109     4.4148
 3198.0000     0.3109     6.9966     0.2337  -999.2500   112.7669   -48.7485   194.2396     3.3265     3.2145     4.3881
 3198.5000     0.2845     6.9824     0.2369  -999.2500   113.6916   -48.7244   200.4809     3.3768     3.2857     4.3943
 3199.0000     0.2803     6.9684     0.2371  -999.2500   112.8048   -48.6870   198.9384     3.4756     3.3145     4.4299
 3199.5000     0.2788     6.9695     0.2373  -999.2500   112.6347   -48.5224   205.1804     3.6273     3.4338     4.4350
 3200.0000     0.2739     6.9555     0.2390  -999.2500   113.5669   -48.4991   203.8581     3.7856     3.6084     4.3790
 3200.5000     0.2661     6.9415     0.2377  -999.2500   113.8209   -48.0268   202.4959     4.1295     3.7918     4.0561
 3201.0000     0.2572     6.9426     0.2379  -999.2500   113.8513   -47.8538   200.8824     4.6406     4.0964     4.2704
 3201.5000     0.2438     6.9583     0.2365  -999.2500   112.3169   -47.3815   207.4548     5.0841     4.5182     4.8090
 3202.0000     0.2309     6.9592     0.2352  -999.2500   110.3354   -47.0588   213.6968     5.6477     5.4150     6.1765
 3202.5000     0.2276     6.9600     0.2324  -999.2500   109.6945   -46.5865   219.9382     6.5860     6.0980     7.7162
 3203.0000     0.2257     6.9609     0.2334  -999.2500   110.3996   -46.2635   226.1802     7.1655     6.8859     8.6295
 3203.5000     0.2203     6.9599     0.2335  -999.2500   111.3219   -45.7857   224.5275     7.8503     8.0077     9.0056
 3204.0000     0.2091     6.9588     0.2335  -999.2500   111.5749   -45.3133   230.7867     8.5411     8.5912     9.3333
 3204.5000     0.2064     6.9576     0.2335  -999.2500   104.4505   -44.6913   237.0108     9.1720     8.9038     9.4872
 3205.0000     0.2100     6.9565     0.2336  -999.2500   102.4683   -44.3686   235.5783     9.5673     9.2919    10.0277
 3205.5000     0.2120     6.9554     0.2336  -999.2500   105.1071   -44.0460   241.8303     9.7766     9.4321    10.5374
 3206.0000     0.2135     6.9543     0.2336  -999.2500   109.6888   -43.4239   248.0617     9.4565     9.3751     9.9125
 3206.5000     0.2146     6.9532     0.2336  -999.2500   111.5069   -43.1013   246.4090     9.1444     9.1322     9.5863
 3207.0000     0.2155     6.9521     0.2337  -999.2500   111.5366   -42.7784   245.0867     8.9040     8.8909     9.5284
 3207.5000     0.2163     6.9509     0.2337  -999.2500   111.7899   -42.9051   243.7637     8.6697     8.6601     9.4757
 3208.0000     0.2172     6.9498     0.2337  -999.2500   111.7850   -43.3252   242.4414     8.5009     8.4919     9.4870
 3208.5000     0.2180     6.9487     0.2337  -999.2500   111.7666   -43.6013   241.1191     8.3240     8.3871     9.2344
 3209.0000     0.2192     6.9476     0.2337  -999.2500   111.7483   -44.0272   262.4897     8.0065     7.8897     8.7535
 3209.5000     0.2213     6.9465     0.2338  -999.2500   111.7300   -44.4588   276.2953     7.7422     7.4734     8.2916
 3210.0000     0.2335     6.9454     0.2338  -999.2500   111.7117   -44.8789   290.1016     7.2818     7.2275     7.7998
 3210.5000     0.2562     6.9444     0.2338  -999.2500   111.6933   -45.3047   296.3437     6.7077     6.7988     7.1865
 3211.0000     0.2439     6.9454     0.2338  -999.2500   111.6750   -45.5823   294.6903     6.2219     6.2625     6.8545
 3211.5000     0.2019     6.9463     0.2338  -999.2500   111.6567   -45.8759   293.3680     5.8927     5.7615     6.6290
 3212.0000     0.1875     6.9472     0.2338  -999.2500   111.6384   -46.1332   292.0457     5.5808     5.1741     6.3227
 3212.5000     0.2061     6.9481     0.2338  -999.2500   111.6200   -46.1041   298.2877     4.8525     4.7017     6.0274
 3213.0000     0.2269     6.9490     0.2340  -999.2500   111.6017   -46.2364   312.0940     4.4503     4.3320     5.5521
 3213.5000     0.2269     6.9499     0.2326  -999.2500   111.5834   -46.3571   318.3811     4.2441     4.1319     4.4284
 3214.0000     0.2268     6.9507     0.2329  -999.2500   111.5651   -46.3338   332.1416     3.9917     3.9138     4.0801
 3214.5000     0.2268     6.9516     0.2330  -999.2500   111.5467   -46.3106   338.3510     3.5517     3.6311     4.0275
 3215.0000     0.2268     6.9525     0.2347  -999.2500   111.5284   -46.1376   344.6256     3.0951     3.3225     4.0333
 3215.5000     0.2268     6.9534     0.2334  -999.2500   111.5101   -46.1138   350.8669     2.7160     2.9426     4.0659
 3216.0000     0.2268     6.9543     0.2335  -999.2500   111.4918   -46.0853   357.1089     2.3505     2.3896     4.0706
 3216.5000     0.2268     6.9552     0.2337  -999.2500   111.4734   -46.2176   363.3509     2.0894     2.1416     4.0188
 3217.0000     0.2268     6.9561     0.2339  -999.2500   111.4647   -46.0388   369.5929     1.9813     1.9596     3.8584
 3217.5000     0.2268     6.9570     0.2341  -999.2500   111.4676   -45.7162   367.9396     1.9692     1.8946     3.2969
 3218.0000     0.2268     6.9579     0.2342  -999.2500   111.4706   -45.0941   374.1815     1.9857     1.9371     2.6819
 3218.5000     0.2268     6.9588     0.2340  -999.2500   111.4735   -44.0230   372.8440     2.1604     2.1072     2.1968
 3219.0000     0.2268     6.9596     0.2338  -999.2500   111.4764   -43.4010   371.4824     2.3668     2.2608     2.1098
 3219.5000     0.2268     6.9605     0.2336  -999.2500   111.4793   -42.9281   369.8836     2.6111     2.4978     2.2018
 3220.0000     0.2268     6.9614     0.2334  -999.2500   111.4823   -42.7498   376.4560     2.9006     2.8877     3.3157
 3220.5000     0.2268     6.9623     0.2332  -999.2500   111.4852   -43.0260   389.9312     3.2724     3.2973     5.4633
 3221.0000     0.2268     6.9710     0.2330  -999.2500   111.4881   -43.4519   388.6089     3.6304     3.6368     5.2241
 3221.5000     0.2268     6.9939     0.2329  -999.2500   111.4910   -43.4286   402.4152     3.9773     3.9562     4.9019
 3222.0000     0.2268     7.0094     0.2327  -999.2500   111.4940   -43.7048   416.2215     4.6381     4.2740     5.4458
 3222.5000     0.2268     7.0076     0.2325  -999.2500   111.4969   -43.8370   422.4635     5.1882     4.8131     6.3047
 3223.0000     0.2268     7.0059     0.2323  -999.2500   111.4998   -43.8080   443.8334     5.7236     5.3827     6.1379
 3223.5000     0.2268     7.0042     0.2321  -999.2500   111.5027   -43.7844   449.7450     6.2272     5.7814     5.9771
 3224.0000     0.2267     7.0025     0.2319  -999.2500   111.5057   -43.7605   471.1156     6.5442     6.1183     6.0272
 3224.5000     0.2267     7.0007     0.2335  -999.2500   111.5086   -44.0318   492.4855     6.7891     6.3788     6.9298
 3225.0000     0.2267     6.9990     0.2337  -999.2500   111.5115   -44.0086   506.2918     7.1779     6.6109     7.8178
 3225.5000     0.2267     6.9973     0.2338  -999.2500   111.5144   -44.1409   527.6624     7.2880     6.6644     8.5481
 3226.0000     0.2267     6.9956     0.2337  -999.2500   111.5174   -43.9621   533.9045     7.2961     6.4899     8.0434
 3226.5000     0.2267     6.9939     0.2337  -999.2500   111.5203   -43.7892   532.5815     7.3550     6.4506     7.5664
 3227.0000     0.2267     6.9922     0.2337  -999.2500   111.5232   -43.6162   538.8235     7.3632     6.5499     7.2670
 3227.5000     0.2267     6.9905     0.2337  -999.2500   111.5261   -43.5928   545.0655     7.2698     6.6962     7.1238
 3228.0000     0.2267     6.9888     0.2336  -999.2500   111.5291   -43.5689   551.2104     7.0298     6.8432     7.1339
 3228.5000     0.2267     6.9871     0.2336  -999.2500   111.5320   -43.2413   549.6541     6.7950     6.5289     7.3935
 3229.0000     0.2267     6.9854     0.2336  -999.2500   111.5335   -43.2180   548.3318     6.4762     6.1843     7.7756
 3229.5000     0.2266     6.9837     0.2335  -999.2500   111.5321   -43.1948   554.9042     6.1414     6.0642     7.9965
