~VERSION INFORMATION
 VERS.                2.0:   CWLS LOG ASCII STANDARD - VERSION 2.0
 WRAP.                 NO:   ONE LINE PER DEPTH STEP
~WELL INFORMATION
#MNEM.UNIT      DATA TYPE    INFORMATION
#----------   ------------   ------------------------------
 STRT.F           36.0000:   START DEPTH
 STOP.F         3014.5000:   STOP DEPTH
 STEP.F            0.5000:   STEP LENGTH
 NULL.          -999.2500:   NO VALUE
 COMP.    TESRO PETROLEUM:   COMPANY
 WELL. TESORO N.P.R. "A" #6-21:   WELL
 FLD .             TEAPOT:   FIELD
 LOC .      S21 T39N R78W:   LOCATION
 CNTY.            NATRONA:   COUNTY
 STAT.            WYOMING:   STATE
 CTRY. UNITED STATES OF AMERICA:   COUNTRY
 SRVC.              WELEX:   SERVICE COMPANY
 DATE.        16-JUL-1968:   LOGDATE
 API .     49025100180000:   API NUMBER
~CURVE INFORMATION
#MNEM.UNIT       API CODE    CURVE DESCRIPTION
#----------   ------------   ------------------------------
 DEPT.F                  :   
 SPR .MV     05 010 01 00:   SPONTANEOUS POTENTIAL FROM RES.
 ASN .OHMM   05 041 18 00:   AMPLIFIED SHORT NORMAL 18"
 IL  .OHMM   05 120 00 00:   INDUCTION LOG
 GRD .GAPI   45 310 01 00:   GAMMA RAY FROM DENSITY LOG
 CALD.IN     45 280 60 00:   CALIPER FROM DENSITY LOG
 GDEN.CPS    45 350 30 00:   GAMMA DENS
~PARAMETER INFORMATION
#MNEM.UNIT          VALUE    DESCRIPTION
#----------   ------------   ------------------------------
 EKB .F         5002.0000:   Kelly bushing
 EGL .F         4991.0000:   Ground level
 EDF .F         5001.0000:   Drilling floor
 TD  .F         3025.0000:   Total depth
 DATE.        16-JUL-1968:   Date logged
 CLNT.            A2DTECH:   Client Code
 PD  .                 GL:   Permanent Datum
 EPD .F              4991:   Elevation Permanent Datum
 LMF .                 KB:   Log Measured From
 DMF .                 KB:   Drilling Measured From
 DD  .F              3025:   Depth driller
 DL  .F              3019:   Depth logger
 BLI .F              3014:   Bottom log interval
 TLI .F              2670:   Top log interval
 CS1 .IN            10.75:   Casing size
 CBD1.      10.75" @ 325':   Casing driller 1
 CBL1.F               325:   Casing logger 1
 BS1 .IN                9:   Bit size
 BSD1.F              3025:   Depth drilled with bit1
 DFT .     WATER BASE MUD:   Type fluid in hole
 DFD .                9.7:   Density
 DFV .                 60:   Viscosity
 DFL .                6.4:   Fluid loss
 MSS .              CIRC.:   Source of sample
 RMS .OHMM            2.2:   Rm
 MST .F                84:   Rm Meas. temp.
 RMF .OHMM            1.6:   Rmf
 MFST.F                70:   Rmf Meas. temp.
 RMC .OHMM            3.3:   Rmc
 MCST.F                68:   Rmc Meas. temp.
 MFSS.               MEAS:   Source Rmf.
 RMB .OHMM           1.55:   Rm. at BHT
 BHT .F               120:   BHT.
 MRT .F               120:   Maximum recorded temp.
 LUN .               6869:   Logging unit number
 LUL .                 NC:   Logging unit location
 ENGI.          H. STEITZ:   Recorded By
 WITN.                MAY:   Witnessed by
 ORIG.           5" PRINT:   Origin of data
 UWI .     49025100180000:   Unique Well ID
 DICO. A2D TECHNOLOGIES, INC.:   Digitizing Company
~OTHER INFORMATION
~A   DEPT      SPR        ASN           IL      GRD       CALD       GDEN   
# ...
  348.0000   -44.8770     9.8650     8.7850  -999.2500  -999.2500  -999.2500
  348.5000   -45.1160     9.6120     8.2810  -999.2500  -999.2500  -999.2500
  349.0000   -45.4000     9.3340     7.7780  -999.2500  -999.2500  -999.2500
  349.5000   -45.6640     8.9960     7.3090  -999.2500  -999.2500  -999.2500
  350.0000   -45.3940     8.8170     7.1130  -999.2500  -999.2500  -999.2500
  350.5000   -45.0110     8.8230     7.0790  -999.2500  -999.2500  -999.2500
  351.0000   -44.6790     8.8920     7.0460  -999.2500  -999.2500  -999.2500
  351.5000   -45.0080     8.9860     7.1100  -999.2500  -999.2500  -999.2500
  352.0000   -45.0350     9.5480     7.6810  -999.2500  -999.2500  -999.2500
  352.5000   -44.6970    10.2380     8.4530  -999.2500  -999.2500  -999.2500
  353.0000   -45.2700    10.5390     9.2490  -999.2500  -999.2500  -999.2500
  353.5000   -45.8770    10.8480    10.0670  -999.2500  -999.2500  -999.2500
  354.0000   -46.1090    11.1570    10.6380  -999.2500  -999.2500  -999.2500
  354.5000   -45.3710    11.4670    11.1560  -999.2500  -999.2500  -999.2500
  355.0000   -45.5850    11.7770    11.3760  -999.2500  -999.2500  -999.2500
  355.5000   -45.6670    12.0880    11.3140  -999.2500  -999.2500  -999.2500
  356.0000   -45.5070    12.1210    11.2540  -999.2500  -999.2500  -999.2500
  356.5000   -45.4680    12.1830    11.1940  -999.2500  -999.2500  -999.2500
  357.0000   -45.8100    12.2430    11.1340  -999.2500  -999.2500  -999.2500
  357.5000   -46.2000    12.2940    11.0750  -999.2500  -999.2500  -999.2500
  358.0000   -46.5920    12.1750    11.0150  -999.2500  -999.2500  -999.2500
  358.5000   -46.9820    12.0520    10.9550  -999.2500  -999.2500  -999.2500
  359.0000   -47.2410    11.9290    10.8950  -999.2500  -999.2500  -999.2500
  359.5000   -47.0310    11.8080    10.8350  -999.2500  -999.2500  -999.2500
  360.0000   -45.7000    11.6900    10.7530  -999.2500  -999.2500  -999.2500
  360.5000   -44.7620    11.7120    10.6490  -999.2500  -999.2500  -999.2500
  361.0000   -44.9020    11.8230    10.6680  -999.2500  -999.2500  -999.2500
  361.5000   -45.2480    11.8710    10.7750  -999.2500  -999.2500  -999.2500
  362.0000   -45.1420    11.8950    10.8810  -999.2500  -999.2500  -999.2500
  362.5000   -44.3130    11.7510    10.9890  -999.2500  -999.2500  -999.2500
  363.0000   -42.3870    11.7060    11.0900  -999.2500  -999.2500  -999.2500
  363.5000   -45.6830    11.5190    10.7130  -999.2500  -999.2500  -999.2500
  364.0000   -46.3950    11.3080    10.5120  -999.2500  -999.2500  -999.2500
  364.5000   -45.8560    11.0940    10.3310  -999.2500  -999.2500  -999.2500
  365.0000   -45.5570    10.8440    10.1740  -999.2500  -999.2500  -999.2500
  365.5000   -45.9600    10.2740    10.0160  -999.2500  -999.2500  -999.2500
  366.0000   -46.3340    10.1370     9.8590  -999.2500  -999.2500  -999.2500
  366.5000   -47.5550     9.6440     9.7020  -999.2500  -999.2500  -999.2500
  367.0000   -46.4900     9.0220     9.3970  -999.2500  -999.2500  -999.2500
  367.5000   -44.3810     8.4470     8.9120  -999.2500  -999.2500  -999.2500
  368.0000   -46.0990     7.8660     8.4260  -999.2500  -999.2500  -999.2500
  368.5000   -46.3200     7.3110     7.9350  -999.2500  -999.2500  -999.2500
  369.0000   -46.2840     6.7570     7.3200  -999.2500  -999.2500  -999.2500
  369.5000   -45.4170     6.2040     6.2740  -999.2500  -999.2500  -999.2500
  370.0000   -44.6990     5.6500     5.2560  -999.2500  -999.2500  -999.2500
  370.5000   -44.9470     5.0970     4.2390  -999.2500  -999.2500  -999.2500
  371.0000   -44.8640     4.5430     3.3750  -999.2500  -999.2500  -999.2500
  371.5000   -44.4790     4.0190     2.5550  -999.2500  -999.2500  -999.2500
  372.0000   -44.4700     3.8930     2.4470  -999.2500  -999.2500  -999.2500
  372.5000   -44.4560     3.8840     2.3570  -999.2500  -999.2500  -999.2500
  373.0000   -45.1260     4.0690     2.4670  -999.2500  -999.2500  -999.2500
  373.5000   -45.9980     4.2490     2.6470  -999.2500  -999.2500  -999.2500
  374.0000   -46.8840     4.4820     2.8420  -999.2500  -999.2500  -999.2500
  374.5000   -46.8330     4.8070     3.3960  -999.2500  -999.2500  -999.2500
  375.0000   -46.1370     5.3160     4.1400  -999.2500  -999.2500  -999.2500
  375.5000   -45.9160     6.0530     5.1090  -999.2500  -999.2500  -999.2500
  376.0000   -46.8120     6.9180     6.8940  -999.2500  -999.2500  -999.2500
  376.5000   -47.1300     7.5510     8.6850  -999.2500  -999.2500  -999.2500
  377.0000   -47.4430     7.8820     9.7050  -999.2500  -999.2500  -999.2500
  377.5000   -48.3230     8.1460     9.8770  -999.2500  -999.2500  -999.2500
  378.0000   -46.5700     8.4230     9.6330  -999.2500  -999.2500  -999.2500
  378.5000   -47.3950     8.6990     9.2540  -999.2500  -999.2500  -999.2500
  379.0000   -47.2960     8.9150     8.8690  -999.2500  -999.2500  -999.2500
  379.5000   -47.1740     9.0150     8.7230  -999.2500  -999.2500  -999.2500
  380.0000   -47.0450     9.1160     8.7430  -999.2500  -999.2500  -999.2500
  380.5000   -46.8840     9.2220     8.7640  -999.2500  -999.2500  -999.2500
  381.0000   -46.7180     9.2810     8.7840  -999.2500  -999.2500  -999.2500
  381.5000   -46.5520     9.3260     8.8050  -999.2500  -999.2500  -999.2500
  382.0000   -46.5560     9.3700     8.8250  -999.2500  -999.2500  -999.2500
  382.5000   -46.8460     9.4140     8.8450  -999.2500  -999.2500  -999.2500
  383.0000   -47.1330     9.4580     8.8660  -999.2500  -999.2500  -999.2500
  383.5000   -47.4190     9.5030     8.8860  -999.2500  -999.2500  -999.2500
  384.0000   -47.7060     9.5120     8.9060  -999.2500  -999.2500  -999.2500
  384.5000   -47.9890     9.5120     8.9340  -999.2500  -999.2500  -999.2500
  385.0000   -47.8890     9.5090     8.9650  -999.2500  -999.2500  -999.2500
  385.5000   -47.7330     9.4940     8.9980  -999.2500  -999.2500  -999.2500
  386.0000   -47.5750     9.4800     8.9490  -999.2500  -999.2500  -999.2500
  386.5000   -47.4300     9.4330     8.8070  -999.2500  -999.2500  -999.2500
  387.0000   -47.3790     9.3520     8.6670  -999.2500  -999.2500  -999.2500
  387.5000   -47.3300     9.2710     8.5260  -999.2500  -999.2500  -999.2500
  388.0000   -47.2810     9.1890     8.3840  -999.2500  -999.2500  -999.2500
  388.5000   -47.2770     9.0780     8.2410  -999.2500  -999.2500  -999.2500
  389.0000   -47.5150     9.0740     8.2940  -999.2500  -999.2500  -999.2500
  389.5000   -47.7530     9.0910     8.3850  -999.2500  -999.2500  -999.2500
  390.0000   -47.9950     9.1760     8.4790  -999.2500  -999.2500  -999.2500
  390.5000   -47.8340     9.2570     8.5720  -999.2500  -999.2500  -999.2500
  391.0000   -47.6040     9.3640     8.6660  -999.2500  -999.2500  -999.2500
  391.5000   -47.3220     9.4690     8.7590  -999.2500  -999.2500  -999.2500
  392.0000   -46.8540     9.4520     8.8530  -999.2500  -999.2500  -999.2500
  392.5000   -46.3810     9.4000     8.9460  -999.2500  -999.2500  -999.2500
  393.0000   -46.3800     9.3470     9.0380  -999.2500  -999.2500  -999.2500
  393.5000   -46.8530     9.2940     9.0880  -999.2500  -999.2500  -999.2500
  394.0000   -47.3250     9.2150     8.9390  -999.2500  -999.2500  -999.2500
  394.5000   -47.4260     9.1230     8.7930  -999.2500  -999.2500  -999.2500
  395.0000   -47.2860     9.0310     8.6470  -999.2500  -999.2500  -999.2500
  395.5000   -46.7700     8.9410     8.5020  -999.2500  -999.2500  -999.2500
  396.0000   -46.9220     8.8500     8.3580  -999.2500  -999.2500  -999.2500
  396.5000   -47.4340     8.7560     8.1040  -999.2500  -999.2500  -999.2500
  397.0000   -47.3440     8.6100     7.8140  -999.2500  -999.2500  -999.2500
  397.5000   -47.2440     8.4580     7.5230  -999.2500  -999.2500  -999.2500
  398.0000   -47.3110     8.3050     7.2320  -999.2500  -999.2500  -999.2500
  398.5000   -47.6240     8.1120     6.9430  -999.2500  -999.2500  -999.2500
  399.0000   -47.6400     7.8230     6.7160  -999.2500  -999.2500  -999.2500
  399.5000   -47.2550     7.7230     6.7210  -999.2500  -999.2500  -999.2500
