~VERSION INFORMATION
 VERS.                2.0:   CWLS LOG ASCII STANDARD - VERSION 2.0
 WRAP.                 NO:   ONE LINE PER DEPTH STEP
~WELL INFORMATION
#MNEM.UNIT      DATA TYPE    INFORMATION
#----------   ------------   ------------------------------
 STRT.F          208.0000:   START DEPTH
 STOP.F         2950.0000:   STOP DEPTH
 STEP.F            0.5000:   STEP LENGTH
 NULL.          -999.2500:   NO VALUE
 COMP.    FENIX & SCISSON:   COMPANY
 WELL.     FENIX A #56-28:   WELL
 FLD .                NPR:   FIELD
 LOC .      S28 T39N R78W:   LOCATION
 CNTY.            NATRONA:   COUNTY
 STAT.            WYOMING:   STATE
 CTRY. UNITED STATES OF AMERICA:   COUNTRY
 SRVC.              WELEX:   SERVICE COMPANY
 DATE.        20-AUG-1977:   LOGDATE
 API .     49025104140000:   API NUMBER
~CURVE INFORMATION
#MNEM.UNIT       API CODE    CURVE DESCRIPTION
#----------   ------------   ------------------------------
 DEPT.F                  :   
 SPR .MV     07 010 01 00:   SPONTANEOUS POTENTIAL
 RILM.OHMM   07 120 44 00:   INDUCTION LOG MEDIUM RESISTIVITY
 RILD.OHMM   07 120 46 00:   INDUCTION LOG DEEP RESISTIVITY
 SGRD.OHMM   07 220 05 00:   SHALLOW GUARD LOG RESISTIVITY
 CALD.IN     45 280 60 00:   CALIPER FROM DENSITY LOG
 DCOR.G/C3   45 356 01 00:   DENSITY CORRECTION
 GRD .GAPI   45 310 01 00:   GAMMA RAY FROM DENSITY LOG
 RHOB.G/C3   45 350 01 00:   BULK DENSITY
~PARAMETER INFORMATION
#MNEM.UNIT          VALUE    DESCRIPTION
#----------   ------------   ------------------------------
 EKB .F         5088.0000:   Kelly bushing
 EGL .F         5078.0000:   Ground level
 EDF .F            0.0000:   Drilling floor
 EPD .F         5078.0000:   Permanent datum
 TD  .F         2960.0000:   Total depth
 DATE.        20-AUG-1977:   Date logged
 CLNT.            A2DTECH:   Client Code
 SL  . 1650' FSL & 2310' FEL:   Surface Location
 PD  .                 GL:   Permanent Datum
 LMF .                 KB:   Log Measured From
 DMF .                 KB:   Drilling Measured From
 DAPD.F                10:   Feet Above Permanent Datum
 DD  .F              2960:   Depth driller
 DL  .F              2952:   Depth logger
 BLI .F              2950:   Bottom log interval
 TLI .F               210:   Top log interval
 CS1 .IN            8.625:   Casing size
 CBD1.      8.625" @ 215':   Casing driller 1
 CBL1.F               218:   Casing logger 1
 BS1 .IN            7.875:   Bit size
 BSD1.F              2960:   Depth drilled with bit1
 DFT .            KCL MUD:   Type fluid in hole
 DFD .                8.9:   Density
 DFV .                 60:   Viscosity
 DFPH.                 11:   pH
 DFL .                7.2:   Fluid loss
 MSS .           FLOWLINE:   Source of sample
 RMS .OHMM            .78:   Rm
 MST .F                81:   Rm Meas. temp.
 RMF .OHMM            .46:   Rmf
 MFST.F                81:   Rmf Meas. temp.
 RMC .OHMM           1.66:   Rmc
 MCST.F                81:   Rmc Meas. temp.
 MFSS.               CALC:   Source Rmf.
 MCSS.               CALC:   Source Rmc.
 RMB .OHMM            .56:   Rm. at BHT
 BHT .F               112:   BHT.
 TCS .HRS             2.5:   Time Circ. stopped
 MRT .F               112:   Maximum recorded temp.
 LUN .               8611:   Logging unit number
 LUL .             CASPER:   Logging unit location
 ENGI.             C DOAK:   Recorded By
 WITN.       B HARRINGTON:   Witnessed by
 ORIG.           5" PRINT:   Origin of data
 UWI .     49025104140000:   Unique Well ID
 DICO. A2D TECHNOLOGIES, INC.:   Digitizing Company
~OTHER INFORMATION
~A   DEPT      SPR       RILM       RILD       SGRD         CALD     DCOR        GRD       RHOB   
# ...
 1301.5000   -79.5100     7.5430     6.6690    10.0810     9.4680     0.0030   128.9020     2.4740
 1302.0000   -79.5100     7.4750     6.6760    10.3930     9.4670     0.0010   128.1830     2.4720
 1302.5000   -79.5100     7.4950     6.6830    10.2600     9.4650    -0.0010   127.4740     2.4710
 1303.0000   -79.5100     7.5330     6.6910    10.1110     9.4640    -0.0030   126.7050     2.4730
 1303.5000   -79.5100     8.0430     6.6960    10.4040     9.4630    -0.0010   125.4190     2.4770
 1304.0000   -79.5100     7.9010     6.6660    10.9800     9.4610     0.0010   124.2790     2.4800
 1304.5000   -79.5100     7.6420     6.6380    10.6360     9.4600     0.0020   125.3970     2.4840
 1305.0000   -79.5100     7.4590     6.6110    10.0780     9.4580     0.0040   126.5200     2.4940
 1305.5000   -79.5100     7.4170     6.5830     9.8690     9.4570     0.0060   127.2150     2.5050
 1306.0000   -79.5170     7.2880     6.5550     9.6600     9.4560     0.0070   126.3970     2.5160
 1306.5000   -79.5630     7.0750     6.5280     9.3370     9.4560     0.0070   126.9480     2.5140
 1307.0000   -79.6110     7.1680     6.5000     9.5000     9.4590     0.0070   128.0980     2.5100
 1307.5000   -79.6580     7.2630     6.4730     9.9930     9.4610     0.0070   129.2620     2.5090
 1308.0000   -79.7030     7.3390     6.4570    10.4880     9.4640     0.0070   130.4280     2.5110
 1308.5000   -79.6640     7.1920     6.4630     9.3380     9.4670     0.0070   131.5540     2.5100
 1309.0000   -79.6190     7.0750     6.4670     9.4640     9.4690     0.0070   132.3260     2.5040
 1309.5000   -79.5750     7.3720     6.4720     9.7150     9.4720     0.0060   130.3360     2.4990
 1310.0000   -79.5310     7.6130     6.4770    10.1110     9.4750     0.0050   128.9890     2.4930
 1310.5000   -79.4870     7.5420     6.4810    10.0680     9.4810     0.0030   127.6530     2.4920
 1311.0000   -79.4430     7.4730     6.4860     9.9670     9.4870     0.0020   126.3040     2.4900
 1311.5000   -79.3990     7.4070     6.4910     9.8650     9.4930     0.0010   125.5530     2.4840
 1312.0000   -79.3550     7.4410     6.4950     9.7480     9.4990    -0.0010   125.1570     2.4810
 1312.5000   -79.3110     7.4750     6.5000     9.8060     9.5050    -0.0020   124.7590     2.4890
 1313.0000   -79.2670     7.5080     6.5050     9.9280     9.5110    -0.0010   124.3640     2.4970
 1313.5000   -79.2230     7.5420     6.5090     9.8590     9.5170     0.0030   123.5240     2.5060
 1314.0000   -79.1790     7.5750     6.5140     9.7550     9.5240     0.0060   122.4010     2.5130
 1314.5000   -79.1340     7.6090     6.5240     9.6590     9.5300     0.0100   121.2670     2.5160
 1315.0000   -79.1030     7.5560     6.5360     9.8120     9.5300     0.0130   120.0930     2.5190
 1315.5000   -79.0800     7.4910     6.5490     9.9870     9.5220     0.0170   120.6560     2.5210
 1316.0000   -79.0570     7.4070     6.5610    10.1110     9.5140     0.0150   121.6180     2.5200
 1316.5000   -79.0330     7.4720     6.5730     9.8370     9.5060     0.0120   122.6050     2.5150
 1317.0000   -79.0100     7.5660     6.5860     9.9140     9.4980     0.0090   122.8210     2.5110
 1317.5000   -78.9870     7.9690     6.5980    10.1350     9.4890     0.0060   122.4770     2.5060
 1318.0000   -78.9630     7.7180     6.6100    10.3930     9.4810     0.0050   122.5480     2.5020
 1318.5000   -78.9400     7.4860     6.6230     9.6870     9.4740     0.0050   123.4450     2.4990
 1319.0000   -78.9170     7.5810     6.6360     9.9150     9.4740     0.0050   124.3260     2.5020
 1319.5000   -78.8940     7.6830     6.6320    10.2040     9.4740     0.0060   125.1950     2.5050
 1320.0000   -78.8700     7.6280     6.6280    10.0550     9.4740     0.0070   125.5910     2.5050
 1320.5000   -78.8470     7.5430     6.6230     9.7760     9.4740     0.0080   124.8700     2.5000
 1321.0000   -78.8240     7.5820     6.6190     9.4840     9.4740     0.0090   124.1890     2.4990
 1321.5000   -78.8000     7.6830     6.6150     9.9210     9.4740     0.0100   123.5090     2.5060
 1322.0000   -78.7770     7.5750     6.6110    10.4880     9.4740     0.0110   122.8270     2.5120
 1322.5000   -78.7540     7.3390     6.6060    10.2730     9.4740     0.0120   122.1450     2.5100
 1323.0000   -78.7310     7.4280     6.6020     9.9280     9.4820     0.0130   121.4630     2.5070
 1323.5000   -78.7070     7.5430     6.5980    10.0180     9.4930     0.0120   120.7800     2.5040
 1324.0000   -78.6840     7.6830     6.5930    10.1110     9.5040     0.0110   120.0980     2.5050
 1324.5000   -78.6610     7.2720     6.5890     9.9670     9.5150     0.0120   119.4960     2.5130
 1325.0000   -78.6370     7.4780     6.5850     9.7480     9.5260     0.0140   119.4910     2.5210
 1325.5000   -78.6140     7.6830     6.5810     9.8090     9.5370     0.0160   119.9370     2.5290
 1326.0000   -78.5910     7.6040     6.5760     9.9990     9.5480     0.0190   120.8170     2.5370
 1326.5000   -78.5670     7.5430     6.5880     9.7480     9.5580     0.0210   121.4650     2.5330
 1327.0000   -78.5440     7.6290     6.6030     9.8370     9.5690     0.0230   120.8170     2.5280
 1327.5000   -78.5210     7.6830     6.6190    10.0500     9.5800     0.0220   119.6820     2.5230
 1328.0000   -78.4980     7.5310     6.6340    10.2980     9.5910     0.0220   119.1300     2.5250
 1328.5000   -78.4740     7.3390     6.6490     9.8830     9.5770     0.0210   119.7910     2.5190
 1329.0000   -78.4510     7.4150     6.6640     9.3120     9.5590     0.0210   120.7340     2.5120
 1329.5000   -78.4280     7.5430     6.6800     9.6890     9.5400     0.0200   121.7120     2.5100
 1330.0000   -78.4040     7.2720     6.6950    10.0190     9.5220     0.0190   122.6130     2.5140
 1330.5000   -78.3810     7.3860     6.6750     9.8510     9.5040     0.0190   123.4240     2.5160
 1331.0000   -78.3570     7.5580     6.6500     9.7480     9.5010     0.0160   124.2370     2.5140
 1331.5000   -78.3350     7.6830     6.6240     9.9140     9.5170     0.0150   124.9700     2.5100
 1332.0000   -78.3570     7.6380     6.5990    10.1110     9.5330     0.0140   124.5840     2.5060
 1332.5000   -78.3810     7.6130     6.5750    10.0670     9.5480     0.0130   124.1740     2.5020
 1333.0000   -78.4060     7.5300     6.5260     9.9750     9.5640     0.0120   123.7690     2.4970
 1333.5000   -78.4310     7.4540     6.4810     9.8830     9.5670     0.0100   123.3650     2.4930
 1334.0000   -78.4550     7.3790     6.4350     9.6410     9.5550     0.0090   122.9600     2.4930
 1334.5000   -78.4800     7.3030     6.3900     9.1430     9.5430     0.0100   122.5650     2.4940
 1335.0000   -78.5050     7.2060     6.3450     9.2290     9.5310     0.0100   122.4360     2.4940
 1335.5000   -78.5250     7.2230     6.2990     9.3120     9.5180     0.0110   123.4410     2.4900
 1336.0000   -78.3810     7.2470     6.2540     9.1430     9.5140     0.0110   124.4250     2.4860
 1336.5000   -78.2290     7.2720     6.2240    10.0190     9.5140     0.0120   125.3960     2.4860
 1337.0000   -78.0780     7.2170     6.2390     9.7880     9.5140     0.0130   126.1820     2.4840
 1337.5000   -77.9260     7.1590     6.2500     9.4750     9.5140     0.0110   126.0340     2.4810
 1338.0000   -77.7720     7.1000     6.2610     9.3560     9.5140     0.0090   125.9050     2.4780
 1338.5000   -77.7870     7.0420     6.2720     8.9770     9.5140     0.0080   125.8070     2.4760
 1339.0000   -77.8380     6.9540     6.2830     9.0960     9.5160     0.0060   126.3880     2.4790
 1339.5000   -77.8900     6.9730     6.2950     9.3970     9.5190     0.0040   127.0090     2.4830
 1340.0000   -77.9420     7.0420     6.3070     9.3120     9.5210     0.0020   127.6830     2.4860
 1340.5000   -77.9940     7.1400     6.3190     9.4390     9.5240     0.0010   125.9840     2.4890
 1341.0000   -78.0460     7.1020     6.3310     9.6590     9.5270     0.0010   123.7510     2.4910
 1341.5000   -78.0970     7.0110     6.3430     9.4010     9.5290     0.0020   121.4900     2.4870
