~VERSION INFORMATION
 VERS.                2.0:   CWLS LOG ASCII STANDARD - VERSION 2.0
 WRAP.                 NO:   ONE LINE PER DEPTH STEP
~WELL INFORMATION
#MNEM.UNIT      DATA TYPE    INFORMATION
#----------   ------------   ------------------------------
 STRT.F           10.0000:   START DEPTH
 STOP.F         3180.0000:   STOP DEPTH
 STEP.F            0.5000:   STEP LENGTH
 NULL.          -999.2500:   NO VALUE
 COMP. LAWRENCE - ALLISON WEST:   COMPANY
 WELL. LAWRENCE ALLISON NPR 3 "AX" #17-2:   WELL
 FLD .                NPR:   FIELD
 LOC .       S2 T38N R78W:   LOCATION
 CNTY.            NATRONA:   COUNTY
 STAT.            WYOMING:   STATE
 CTRY. UNITED STATES OF AMERICA:   COUNTRY
 SRVC.      DRESSER ATLAS:   SERVICE COMPANY
 DATE.        16-FEB-1987:   LOGDATE
 API .     49025111210000:   API NUMBER
~CURVE INFORMATION
#MNEM.UNIT       API CODE    CURVE DESCRIPTION
#----------   ------------   ------------------------------
 DEPT.F                  :   
 DEN .LBS    45 350 01 00:   BULK DENSITY
 CORR.G/C3   45 356 01 00:   DENSITY CORRECTION
 TEND.LBS    45 635 01 00:   TENSION FROM DENSITY LOG
 CNC .DEC    42 890 01 00:   NEUTRON PORISITY LIMESTONE
 CALR.IN     07 280 01 00:   CALIPER FROM RESISTIVITY
 SPR .MV     07 010 01 00:   SPONTANEOUS POTENTIAL
 GRR .GAPI   07 310 01 00:   GAMMA RAY FROM RESISTIVITY
 RFOC.OHMM   07 220 04 00:   RESISTIVITY FOCUSED LOG RES.
 ILD .OHMM   07 120 46 00:   DEEP INDUCTION RESISTIVITY
 ILM .OHMM   07 120 44 00:   INDUCTION LOG MEDIUM RESISTIVITY
 TENR.LBS    07 635 01 00:   TENSION FROM RESISTIVITY
~PARAMETER INFORMATION
#MNEM.UNIT          VALUE    DESCRIPTION
#----------   ------------   ------------------------------
 EKB .F         5141.0000:   Kelly bushing
 EGL .F         5129.0000:   Ground level
 EDF .F            0.0000:   Drilling floor
 EPD .F            0.0000:   Permanent datum
 TD  .F         3161.0000:   Total depth
 DATE.        16-FEB-1987:   Date logged
 CLNT.            A2DTECH:   Client Code
 SL  . 1125' FSL & 220' FWL:   Surface Location
 PD  .                 GL:   Permanent Datum
 DAPD.F                12:   Feet Above Permanent Datum
 DD  .F              3161:   Depth driller
 DL  .F              3158:   Depth logger
 BLI .F              3156:   Bottom log interval
 TLI .F                12:   Top log interval
 CS1 .IN            8.625:   Casing size
 CBD1.      8.625" @ 626':   Casing driller 1
 CBL1.F               626:   Casing logger 1
 BS1 .IN            7.875:   Bit size
 BSD1.F              3161:   Depth drilled with bit1
 DFT .        KCL/POLYMER:   Type fluid in hole
 DFD .                8.8:   Density
 DFV .                 39:   Viscosity
 DFPH.                 10:   pH
 DFL .                8.4:   Fluid loss
 MSS .           FLOWLINE:   Source of sample
 RMS .OHMM           .292:   Rm
 MST .F                82:   Rm Meas. temp.
 RMF .OHMM           .231:   Rmf
 MFST.F                82:   Rmf Meas. temp.
 RMC .OHMM           .365:   Rmc
 MCST.F                82:   Rmc Meas. temp.
 MFSS.               MEAS:   Source Rmf.
 MCSS.               CALC:   Source Rmc.
 RMB .OHMM           .203:   Rm. at BHT
 BHT .F               118:   BHT.
 TCS .HRS               3:   Time Circ. stopped
 MRT .F               118:   Maximum recorded temp.
 LUN .            HL-6274:   Logging unit number
 LUL .           GALLETTE:   Logging unit location
 ENGI.            PANASUK:   Recorded By
 WITN.             STRONG:   Witnessed by
 ORIG.           5" PRINT:   Origin of data
 UWI .     49025111210000:   Unique Well ID
 DICO. A2D TECHNOLOGIES, INC.:   Digitizing Company
~OTHER INFORMATION
~A   DEPT      DEN       CORR       TEND        CNC       CALR        SPR          GRR     RFOC        ILD        ILM       TENR   
# ...
  955.5000  -999.2500  -999.2500  -999.2500  -999.2500     9.3572    -0.5053    89.8626     8.8993     7.6812     7.4269   -89.4530
  956.0000  -999.2500  -999.2500  -999.2500  -999.2500     9.3769    -0.5061    90.6542     8.7366     7.6104     7.2911   -69.4033
  956.5000  -999.2500  -999.2500  -999.2500  -999.2500     9.3570    -1.1025    92.6364     8.1163     7.6100     7.2908   -89.3534
  957.0000  -999.2500  -999.2500  -999.2500  -999.2500     9.3767    -0.9050    94.2217     7.4026     7.6098     7.4259   -89.3036
  957.5000  -999.2500  -999.2500  -999.2500  -999.2500     9.3766    -1.1044    95.4102     7.4023     7.8946     7.5638   -89.2538
  958.0000  -999.2500  -999.2500  -999.2500  -999.2500     9.3765    -1.8991    95.0114     7.9930     8.0408     8.1416   -89.2040
  958.5000  -999.2500  -999.2500  -999.2500  -999.2500     9.3649    -0.7096    89.4539     9.8443     8.3420     8.5251   -89.1542
  959.0000  -999.2500  -999.2500  -999.2500  -999.2500     9.3565    -1.1076    85.0865    10.2129     8.4964     9.0089   -89.1044
  959.5000  -999.2500  -999.2500  -999.2500  -999.2500     9.3762    -1.3068    84.6877    10.4021     8.8145     9.0920   -89.0546
  960.0000  -999.2500  -999.2500  -999.2500  -999.2500     9.3761    -1.7046    83.4953    10.5948     9.1446     9.1755   -89.0048
  960.5000  -999.2500  -999.2500  -999.2500  -999.2500     9.3563    -2.1022    83.0965    10.2115     9.4001     9.2600   -88.9550
  961.0000  -999.2500  -999.2500  -999.2500  -999.2500     9.3759    -2.1034    86.6659    10.0250     9.5742     9.2597   -88.9052
  961.5000  -999.2500  -999.2500  -999.2500  -999.2500     9.3560    -1.9058    92.2195    10.0244     9.7515     9.2592   -88.8554
  962.0000  -999.2500  -999.2500  -999.2500  -999.2500     9.3956    -1.5103    93.8012    10.0239     9.7511     9.2587   -88.8056
  962.5000  -999.2500  -999.2500  -999.2500  -999.2500     9.3558    -0.9161    94.1997     9.7843     9.7506     9.2583   -88.7558
  963.0000  -999.2500  -999.2500  -999.2500  -999.2500     9.3557    -0.7186    91.4199     9.8744     9.7502     9.2579   -88.7060
  963.5000  -999.2500  -999.2500  -999.2500  -999.2500     9.3755    -0.9180    87.8466    10.1506     9.7497     9.2575   -88.6562
  964.0000  -999.2500  -999.2500  -999.2500  -999.2500     9.3753    -1.3158    84.6692    10.2440     9.7493     9.2570   -88.6064
  964.5000  -999.2500  -999.2500  -999.2500  -999.2500     9.3752    -1.1184    88.6363    10.0566     9.7489     9.2568   -88.5566
  965.0000  -999.2500  -999.2500  -999.2500  -999.2500     9.3950    -1.1194    96.1739     9.7821     9.7485     9.2564   -88.5068
  965.5000  -999.2500  -999.2500  -999.2500  -999.2500     9.3949    -1.1204    98.9497     9.7816     9.7479     9.5151   -88.4570
  966.0000  -999.2500  -999.2500  -999.2500  -999.2500     9.3948    -1.3198    99.3418    10.0552     9.7477     9.6027   -88.4073
  966.5000  -999.2500  -999.2500  -999.2500  -999.2500     9.3748    -1.1222    93.3903    10.2417     9.9624     9.6024   -88.3575
  967.0000  -999.2500  -999.2500  -999.2500  -999.2500     9.3747    -1.3215    91.4042    10.5282    10.1473     9.6907   -88.3077
  967.5000  -999.2500  -999.2500  -999.2500  -999.2500     9.3746    -2.3148    91.4022    10.5277    10.1470     9.6902   -88.2579
  968.0000  -999.2500  -999.2500  -999.2500  -999.2500     9.3745    -2.7124    91.4002    10.5272    10.1465     9.7734   -88.2081
  968.5000  -999.2500  -999.2500  -999.2500  -999.2500     9.3744    -2.5152    91.0015    10.4304    10.0530     9.6837   -88.1583
  969.0000  -999.2500  -999.2500  -999.2500  -999.2500     9.3744    -2.5161    89.8090    10.0175     9.7449     9.4199   -88.1085
  969.5000  -999.2500  -999.2500  -999.2500  -999.2500     9.3914    -2.5171    89.8070     9.9254     9.7445     9.3331   -88.0587
  970.0000  -999.2500  -999.2500  -999.2500  -999.2500     9.3940    -3.1133    90.5991     9.7439     9.5664     9.2474   -88.0089
  970.5000  -999.2500  -999.2500  -999.2500  -999.2500     9.3939    -2.5191    89.0095     9.6543     9.4782     9.1622   -87.9591
  971.0000  -999.2500  -999.2500  -999.2500  -999.2500     9.3823    -2.5197    89.0075     9.6539     9.3912     9.1618   -87.9093
  971.5000  -999.2500  -999.2500  -999.2500  -999.2500     9.3540    -2.3296    90.5928     9.4774     9.2193     9.0776   -87.8595
  972.0000  -999.2500  -999.2500  -999.2500  -999.2500     9.3737    -2.3236    94.5591     9.6862     9.2192     8.9940   -87.8097
  972.5000  -999.2500  -999.2500  -999.2500  -999.2500     9.3538    -2.5230    98.1285     9.5090     9.0504     8.9114   -87.7599
  973.0000  -999.2500  -999.2500  -999.2500  -999.2500     9.3537    -2.5240    99.7138     9.4214     8.9672     8.7485   -87.7001
  973.5000  -999.2500  -999.2500  -999.2500  -999.2500     9.3536    -2.3266    99.7119     9.3346     8.8845     8.6680   -97.6503
  974.0000  -999.2500  -999.2500  -999.2500  -999.2500     9.3535    -2.3278    98.9162     9.1637     8.7222     8.4317   -87.6005
  974.5000  -999.2500  -999.2500  -999.2500  -999.2500     9.3534    -2.7256    98.9143     8.9960     8.5628     8.2020   -87.5507
  975.0000  -999.2500  -999.2500  -999.2500  -999.2500     9.3160    -2.9250   100.4952     8.9131     8.4839     8.2016   -87.5009
  975.5000  -999.2500  -999.2500  -999.2500  -999.2500     9.3334    -3.4360   100.0972     8.7209     8.4058     8.0516   -87.4511
  976.0000  -999.2500  -999.2500  -999.2500  -999.2500     9.2737    -4.3158    96.5231     8.8012     8.3285     8.0514   -87.4013
  976.5000  -999.2500  -999.2500  -999.2500  -999.2500     9.3013    -3.7216    94.1441     8.8821     8.3281     8.0511   -87.3515
  977.0000  -999.2500  -999.2500  -999.2500  -999.2500     9.3132    -3.5241    93.7454     8.8819     8.3279     8.0508   -87.3017
  977.5000  -999.2500  -999.2500  -999.2500  -999.2500     9.2734    -3.1283    94.5370     8.8814     8.2511     8.0503   -87.2519
  978.0000  -999.2500  -999.2500  -999.2500  -999.2500     9.2932    -3.1293    96.5192     9.0458     8.2507     7.9762   -87.2021
  978.5000  -999.2500  -999.2500  -999.2500  -999.2500     9.2766    -2.7335    96.1204     9.0454     8.2505     7.9760   -87.1523
  979.0000  -999.2500  -999.2500  -999.2500  -999.2500     9.2930    -2.5360    95.3248     8.8801     8.2500     7.9755   -87.1025
  979.5000  -999.2500  -999.2500  -999.2500  -999.2500     9.3127    -2.5364    95.3228     8.7985     8.3261     7.9751   -87.0527
  980.0000  -999.2500  -999.2500  -999.2500  -999.2500     9.3126    -2.5380    97.3018     8.6375     8.4024     7.9748   -87.0029
  980.5000  -999.2500  -999.2500  -999.2500  -999.2500     9.3324    -3.1342    97.3030     8.7170     8.4797     7.9744   -86.9532
  981.0000  -999.2500  -999.2500  -999.2500  -999.2500     9.3323    -3.1352    92.5043     8.9606     8.4793     7.9740   -86.9034
  981.5000  -999.2500  -999.2500  -999.2500  -999.2500     9.3322    -3.3346    88.9650     9.2960     8.4789     7.9736   -86.8536
  982.0000  -999.2500  -999.2500  -999.2500  -999.2500     9.3321    -3.3356    90.5483     9.5885     8.4787     8.1213   -86.8038
  982.5000  -999.2500  -999.2500  -999.2500  -999.2500     9.3320    -3.7334    97.6876     9.4131     8.4781     8.1960   -86.7540
  983.0000  -999.2500  -999.2500  -999.2500  -999.2500     9.3319    -3.7344    98.8820     9.2409     8.4777     8.2713   -86.7042
  983.5000  -999.2500  -999.2500  -999.2500  -999.2500     9.3318    -3.7354    94.1154     8.9585     8.4773     8.3474   -86.6544
  984.0000  -999.2500  -999.2500  -999.2500  -999.2500     9.3317    -3.7363    94.1146     8.9581     8.3224     8.1198   -86.6046
  984.5000  -999.2500  -999.2500  -999.2500  -999.2500     9.3316    -3.7373    91.7317     8.9576     8.0954     7.9715   -86.5548
  985.0000  -999.2500  -999.2500  -999.2500  -999.2500     9.3116    -3.7383    90.5393     8.8752     7.8748     7.7543   -86.5050
  985.5000  -999.2500  -999.2500  -999.2500  -999.2500     9.3315    -3.5409    90.5369     8.7935     7.8023     7.7539   -86.4552
