~VERSION INFORMATION
 VERS.                2.0:   CWLS LOG ASCII STANDARD - VERSION 2.0
 WRAP.                 NO:   ONE LINE PER DEPTH STEP
~WELL INFORMATION
#MNEM.UNIT      DATA TYPE    INFORMATION
#----------   ------------   ------------------------------
 STRT.F          205.0000:   START DEPTH
 STOP.F         3171.5000:   STOP DEPTH
 STEP.F            0.5000:   STEP LENGTH
 NULL.          -999.2500:   NO VALUE
 COMP.    FENIX & SCISSON:   COMPANY
 WELL. FENIX & SCISSON  "AX" #27-28:   WELL
 FLD .              NPR 3:   FIELD
 LOC .      S28 T39N R78W:   LOCATION
 CNTY.            NATRONA:   COUNTY
 STAT.            WYOMING:   STATE
 CTRY. UNITED STATES OF AMERICA:   COUNTRY
 SRVC.       SCHLUMBERGER:   SERVICE COMPANY
 DATE.        30-MAY-1977:   LOGDATE
 API .     49025103870000:   API NUMBER
~CURVE INFORMATION
#MNEM.UNIT       API CODE    CURVE DESCRIPTION
#----------   ------------   ------------------------------
 DEPT.F                  :   
 NPHI.DEC    42 890 03 00:   NEUTRON POROSITY SANDSTONE
 CALD.IN     45 280 60 00:   CALIPER FROM DENSITY LOG
 GRD .GAPI   45 310 01 00:   GAMMA RAY FROM DENSITY LOG
 RHOB.G/C3   45 350 01 00:   BULK DENSITY
 CORR.G/C3   45 356 01 00:   DENSITY CORRECTION
 SPR .MV     11 010 01 00:   SPONTANEOUS POTENTIAL
 MSFL.OHMM   11 270 04 00:   MICRO SPHERICALLY FOCUSED RES.
 LLD .OHMM   11 220 10 00:   LATEROLOG LOG DEEP
 LLS .OHMM   11 220 09 00:   LATEROLOG LOG SHALLOW
~PARAMETER INFORMATION
#MNEM.UNIT          VALUE    DESCRIPTION
#----------   ------------   ------------------------------
 EKB .F         5094.0000:   Kelly bushing
 EGL .F         5084.0000:   Ground level
 EDF .F            0.0000:   Drilling floor
 EPD .F            0.0000:   Permanent datum
 TD  .F         3169.0000:   Total depth
 DATE.        30-MAY-1977:   Date logged
 CLNT.            A2DTECH:   Client Code
 SL  . 1266' FSL & 871' FWL:   Surface Location
 PD  .                 GL:   Permanent Datum
 DD  .F              3163:   Depth driller
 DL  .F              3169:   Depth logger
 BLI .F              3168:   Bottom log interval
 CS1 .IN            8.625:   Casing size
 CBD1.      8.625" @ 210':   Casing driller 1
 CBL1.F               219:   Casing logger 1
 BS1 .IN            7.875:   Bit size
 DFT .           SALT/MUD:   Type fluid in hole
 DFD .                8.9:   Density
 DFV .                 32:   Viscosity
 DFPH.                8.5:   pH
 DFL .                5.8:   Fluid loss
 MSS .                PIT:   Source of sample
 RMS .OHMM           .194:   Rm
 MST .F                65:   Rm Meas. temp.
 RMF .OHMM           .165:   Rmf
 MFST.F                65:   Rmf Meas. temp.
 MFSS.               MEAS:   Source Rmf.
 RMB .OHMM           .107:   Rm. at BHT
 BHT .F               118:   BHT.
 MRT .F               118:   Maximum recorded temp.
 LUN .               5642:   Logging unit number
 LUL .               CSPR:   Logging unit location
 ENGI.             MARTIN:   Recorded By
 WITN.         PETTINGILL:   Witnessed by
 ORIG.           5" PRINT:   Origin of data
 UWI .     49025103870000:   Unique Well ID
 DICO. A2D TECHNOLOGIES, INC.:   Digitizing Company
 DAPD.F                10:   Feet Above Permanent Datum
 BSD1.F              3163:   Depth drilled with bit1
 TLI .F               219:   Top log interval
 TLAB.HRS            0930:   Time logger at bottom
~OTHER INFORMATION
~A   DEPT     NPHI         CALD      GRD         RHOB      CORR       SPR       MSFL        LLD        LLS   
# ...
  971.5000     0.3139     8.5330   145.9817     2.5321     0.0544  -103.3286    12.5588     9.1056    10.0186
  972.0000     0.3135     8.5331   144.7920     2.5381     0.0474  -103.3327    12.6730     9.1044    10.0225
  972.5000     0.3119     8.5333   149.1621     2.5500     0.0654  -103.5344    12.4962     9.1032    10.0263
  973.0000     0.3103     8.5335   149.9577     2.5560     0.0703  -103.5385    12.2676     9.1020    10.0302
  973.5000     0.3087     8.5337   149.1646     2.5440     0.0703  -103.5426    12.0433     9.1008    10.0341
  974.0000     0.3079     8.5140   149.9602     2.5071     0.0413  -103.3491    11.7152     9.0996    10.0380
  974.5000     0.3118     8.5341   153.9328     2.5250     0.0393  -103.5508    11.6068     9.0984    10.0419
  975.0000     0.3182     8.5343   154.3310     2.5350     0.0493  -103.3565    11.3946     9.0972    10.0458
  975.5000     0.3282     8.5345   151.5524     2.5050     0.0592  -103.3606    11.4979     9.0960    10.0497
  976.0000     0.3310     8.5346   148.7738     2.5150     0.0193  -103.1671    11.8168     9.0948    10.0536
  976.5000     0.3278     8.5150   147.1868     2.5170     0.0372  -103.1712    11.9240     9.0936    10.0574
  977.0000     0.3230     8.5152   145.5997     2.5179     0.0302  -103.1753    12.0321     9.0924    10.0613
  977.5000     0.3150     8.5153   144.4099     2.5169     0.0432  -102.9817    12.1413     9.0912    10.0652
  978.0000     0.3086     8.5155   144.4113     2.5099     0.0312  -102.3928    12.0289     9.0900    10.0691
  978.5000     0.3046     8.5752   148.7832     2.4989     0.0362  -102.9899    12.1380     9.0888    10.0730
  979.0000     0.3098     8.5159   149.9756     2.5179     0.0411  -102.7963    12.3609     9.0876    10.0769
  979.5000     0.3158     8.5161   150.7707     2.5198     0.0311  -102.8004    12.5878     9.0864    10.0808
  980.0000     0.3234     8.5361   151.5660     2.5228     0.0191  -102.2114    12.4713     9.0852    10.0847
  980.5000     0.3218     8.5363   153.5524     2.5238     0.0530  -102.8086    12.3559     9.0840    10.0887
  981.0000     0.3210     8.5166   153.5535     2.5168     0.0490  -103.0103    12.1300     9.0828    10.0926
  981.5000     0.3238     8.5367   153.1577     2.4978     0.0250  -103.0144    11.9082     9.0816    10.0965
  982.0000     0.3281     8.5170   151.5709     2.5108     0.0320  -103.0185    11.7980     9.0804    10.1004
  982.5000     0.3389     8.5370   149.9842     2.5277     0.0559  -103.2203    11.5823     9.0792    10.1043
  983.0000     0.3397     8.5372   151.1764     2.5387     0.0649  -103.4221    11.5808     9.0780    10.1082
  983.5000     0.3393     8.5374   151.1776     2.5436     0.0649  -103.4263    11.6858     9.0768    10.1121
  984.0000     0.3369     8.5177   153.9549     2.4987     0.0289  -103.4304    11.6843     9.0756    10.1160
  984.5000     0.3381     8.4981   156.3372     2.5077     0.0478  -103.6322    11.3660     9.0744    10.1200
  985.0000     0.3381     8.4983   156.3383     2.5117     0.0389  -103.6363    11.1049     9.0732    10.1239
  985.5000     0.3417     8.4985   154.7518     2.5236     0.0299  -103.6405    11.1037     9.0720    10.1288
  986.0000     0.3469     8.4987   151.9745     2.5475     0.0378  -103.6446    11.1023     9.0708    10.1282
  986.5000     0.3465     8.4988   153.1664     2.5565     0.0747  -103.4509    11.4646     9.0696    10.1266
  987.0000     0.3417     8.4990   156.7396     2.5475     0.0715  -103.4550    11.5685     9.0684    10.1256
  987.5000     0.3397     8.4992   162.2999     2.5385     0.0682  -103.4608    11.4616     9.0673     9.9397
  988.0000     0.3437     8.4994   164.2852     2.5205     0.0467  -103.4632    11.4600     9.0660     9.9387
  988.5000     0.3509     8.4996   167.8578     2.5305     0.0626  -103.4673    11.4585     9.0143     9.7562
  989.0000     0.3564     8.4998   169.8429     2.5514     0.0686  -103.2736    11.5621     8.6070     9.5777
  989.5000     0.3557     8.4801   171.4310     2.5603     0.0775  -103.2777    11.3511     8.6068     9.4019
  990.0000     0.3548     8.4803   173.8127     2.5474     0.0805  -103.2818    11.3496     8.4482     9.4009
  990.5000     0.3516     8.4640   170.2124     2.5439     0.0640  -103.2859    11.3481     8.2929     9.2283
  991.0000     0.3504     8.4586   169.4075     2.5335     0.0417  -103.4879    11.3466     8.2163     9.0594
  991.5000     0.3492     8.4577   168.1945     2.5316     0.0647  -103.4920    11.3451     8.0646     9.0580
  992.0000     0.3508     8.5361   168.1756     2.5326     0.0438  -103.4961    11.2396     7.9897     8.8922
  992.5000     0.3620     8.4556   168.5535     2.5307     0.0549  -103.5002    10.9819     7.9889     8.5038
  993.0000     0.3708     8.4546   169.3281     2.5297     0.0539  -103.7022    10.9816     7.9880     8.5029
  993.5000     0.3692     8.4537   169.7060     2.5188     0.0430  -103.9042    10.7798     7.7690     8.2723
  994.0000     0.3684     8.4525   168.8898     2.5029     0.0370  -104.1063    10.7778     7.7684     8.2717
  994.5000     0.3604     8.4516   167.2839     2.5159     0.0461  -104.1104    10.7763     7.7670     8.2702
  995.0000     0.3704     8.4507   166.0779     2.5199     0.0481  -104.3125    10.7758     7.6948     8.1942
  995.5000     0.3707     8.4497   163.6638     2.5260     0.0452  -103.7245    10.8499     7.6235     8.1191
  996.0000     0.3704     8.4486   164.0493     2.5340     0.0592  -103.7261    10.9245     7.6225     8.1775
  996.5000     0.3620     8.4476   165.2207     2.5540     0.0672  -103.7311    10.9996     7.7386     8.1773
  997.0000     0.3592     8.4467   165.2018     2.5261     0.0413  -103.7352    11.0700     7.7376     8.1765
  997.5000     0.3592     8.4457   163.5920     2.5192     0.0314  -103.5414    11.1704     7.7366     8.2639
  998.0000     0.3644     8.4645   163.5732     2.5372     0.0374  -103.5455    11.0671     7.7207     8.2628
  998.5000     0.3667     8.4437   162.7532     2.5462     0.0484  -103.3516    11.1318     7.7049     8.2616
  999.0000     0.3599     8.4427   161.5478     2.5383     0.0545  -102.9598    11.1968     7.6892     8.2607
  999.5000     0.3551     8.4616   159.9418     2.5184     0.0197  -102.5679    11.2623     7.6734     8.2599
 1000.0000     0.3547     8.4605   157.1350     2.5015     0.0386  -102.5720    11.3281     7.6609     8.1838
 1000.5000     0.3562     8.4419   164.3760     2.5182     0.0327  -102.5763    11.3943     7.6599     8.3058
 1001.0000     0.3591     8.4435   167.1625     2.5215     0.0347  -102.7779    11.4404     7.8697     8.3783
 1001.5000     0.3591     8.4451   166.8223     2.5175     0.0277  -102.7818    11.6781     7.8688     8.3774
 1002.0000     0.3495     8.4463   161.7169     2.5106     0.0447  -102.7858    11.6222     7.8666     8.3751
 1002.5000     0.3399     8.4479   155.4362     2.5245     0.0367  -102.9877    11.7259     7.9361     8.4483
 1003.0000     0.3383     8.4492   155.0689     2.5236     0.0407  -103.1896    11.8311     7.9352     8.4473
 1003.5000     0.3403     8.4508   155.1125     2.5256     0.0537  -103.3916    11.9366     8.0066     8.5225
 1004.0000     0.3483     8.4524   154.3717     2.5147     0.0646  -103.1975    11.9333     8.0782     8.5979
 1004.5000     0.3475     8.4536   153.2222     2.5336     0.0457  -103.3995    11.9300     8.1496     8.6729
 1005.0000     0.3371     8.4552   152.0830     2.5456     0.0547  -103.6014    11.9267     8.1755     8.7002
 1005.5000     0.3359     8.4568   152.9435     2.5566     0.0657  -103.8033    11.9235     8.1719     8.6964
 1006.0000     0.3315     8.4581   155.3635     2.5646     0.0896  -104.0052    11.8115     8.2452     8.7735
 1006.5000     0.3315     8.4597   157.0103     2.5546     0.0796  -104.0092    11.5939     8.2429     8.7711
 1007.0000     0.3335     8.4613   159.0447     2.5467     0.0737  -104.2111    11.3804     8.0912     8.6114
 1007.5000     0.3530     8.4625   160.6929     2.5616     0.0587  -103.8191    11.2736     7.9404     8.4528
