~VERSION INFORMATION
 VERS.                2.0:   CWLS LOG ASCII STANDARD - VERSION 2.0
 WRAP.                 NO:   ONE LINE PER DEPTH STEP
~WELL INFORMATION
#MNEM.UNIT      DATA TYPE    INFORMATION
#----------   ------------   ------------------------------
 STRT.F           95.0000:   START DEPTH
 STOP.F          866.5000:   STOP DEPTH
 STEP.F            0.5000:   STEP LENGTH
 NULL.          -999.2500:   NO VALUE
 COMP.          U.S. NAVY:   COMPANY
 WELL. U.S NAVY RES 3 TEAPOT DOM "SX" #41-2:   WELL
 FLD .        TEAPOT DOME:   FIELD
 LOC .       S2 T38N R78W:   LOCATION
 CNTY.            NATRONA:   COUNTY
 STAT.            WYOMING:   STATE
 CTRY. UNITED STATES OF AMERICA:   COUNTRY
 SRVC.       SCHLUMBERGER:   SERVICE COMPANY
 DATE.        20-JUL-1953:   LOGDATE
 API .     49025064770000:   API NUMBER
~CURVE INFORMATION
#MNEM.UNIT       API CODE    CURVE DESCRIPTION
#----------   ------------   ------------------------------
 DEPT.F                  :   
 SPR .MV     05 010 01 00:   SPONTANEOUS POTENTIAL FROM RES.
 ASN .OHMM   05 041 16 00:   AMPLIFIED SHORT NORMAL 16"
 ILD .OHMM   05 120 46 00:   INDUCTION LOG DEEP
 GR  .GAPI   30 310 01 00:   GAMMA RAY
~PARAMETER INFORMATION
#MNEM.UNIT          VALUE    DESCRIPTION
#----------   ------------   ------------------------------
 EKB .F         5140.0000:   Kelly bushing
 EGL .F         5135.0000:   Ground level
 TD  .F          862.0000:   Total depth
 DATE.        20-JUL-1953:   Date logged
 CLNT.            A2DTECH:   Client Code
 DD  .F               862:   Depth driller
 DL  .F               855:   Depth logger
 BLI .F               654:   Bottom log interval
 TLI .F                50:   Top log interval
 CS1 .IN            8.625:   Casing size
 CBD1.       8.625" @ 10':   Casing driller 1
 BS1 .IN             6.75:   Bit size
 BSD1.F               862:   Depth drilled with bit1
 DFT .            GEL-OIL:   Type fluid in hole
 DFD .                9.4:   Density
 DFV .                 50:   Viscosity
 DFPH.                8.0:   pH
 DFL .                3.1:   Fluid loss
 RMS .OHMM           1.83:   Rm
 MST .F                96:   Rm Meas. temp.
 RMF .OHMM           1.56:   Rmf
 MFST.F                96:   Rmf Meas. temp.
 TCS .HRS               1:   Time Circ. stopped
 LUN .               4507:   Logging unit number
 LUL .               CSPR:   Logging unit location
 ENGI.            WINKLER:   Recorded By
 WITN.          JORGENSON:   Witnessed by
 ORIG.           5" PRINT:   Origin of data
 UWI .     49025064770000:   Unique Well ID
 DICO. A2D TECHNOLOGIES, INC.:   Digitizing Company
 MSS .           FLOWLINE:   Source of sample
~OTHER INFORMATION
~A  DEPTH      SPR        ASN        ILD         GR
# ...
  314.0000   -70.1729     7.2786     7.1761  -999.2500
  314.5000   -70.7710     7.2958     7.0990  -999.2500
  315.0000   -71.9648     7.2983     7.0969  -999.2500
  315.5000   -73.0094     7.2702     7.0943  -999.2500
  316.0000   -73.7563     7.2279     7.0925  -999.2500
  316.5000   -74.0568     7.1997     7.0900  -999.2500
  317.0000   -74.0597     7.2173     7.0878  -999.2500
  317.5000   -73.7650     7.4590     7.1965  -999.2500
  318.0000   -73.6186     7.7755     7.3229  -999.2500
  318.5000   -73.4726     7.9727     7.4544  -999.2500
  319.0000   -73.3274     8.0497     7.5272  -999.2500
  319.5000   -73.3304     8.1417     7.6771  -999.2500
  320.0000   -73.1841     8.2936     7.8210  -999.2500
  320.5000   -73.0382     8.5054     7.8935  -999.2500
  321.0000   -72.5956     8.6423     8.0402  -999.2500
  321.5000   -72.1521     8.7347     8.1872  -999.2500
  322.0000   -71.8569     8.6920     8.2601  -999.2500
  322.5000   -71.7109     8.6193     8.4810  -999.2500
  323.0000   -71.4172     8.4119     8.5538  -999.2500
  323.5000   -71.5689     8.1746     8.6263  -999.2500
  324.0000   -71.5717     7.9822     8.6238  -999.2500
  324.5000   -71.7234     7.6703     8.3973  -999.2500
  325.0000   -71.7263     7.3432     7.8728  -999.2500
  325.5000   -71.7297     6.9561     6.9004  -999.2500
  326.0000   -71.7326     6.5392     5.9281  -999.2500
  326.5000   -71.7354     6.1521     5.1050  -999.2500
  327.0000   -71.5895     5.1214     4.2820  -999.2500
  327.5000   -71.4431     4.3605     3.3839  -999.2500
  328.0000   -71.2981     3.8986     2.7847  -999.2500
  328.5000   -71.1517     3.7357     2.4094  -999.2500
  329.0000   -70.8570     3.7080     2.1833  -999.2500
  329.5000   -70.7111     3.7105     2.1812  -999.2500
  330.0000   -70.7144     3.7576     2.1790  -999.2500
  330.5000   -70.7178     3.8796     2.1765  -999.2500
  331.0000   -70.7207     4.1067     2.3239  -999.2500
  331.5000   -71.1700     4.3783     2.6199  -999.2500
  332.0000   -72.0657     4.7847     3.1401  -999.2500
  332.5000   -72.5150     6.0943     4.1827  -999.2500
  333.0000   -72.6672     7.4987     6.5686  -999.2500
  333.5000   -72.9677     8.4440     9.2526  -999.2500
  334.0000   -73.4170     9.2848    10.5191  -999.2500
  334.5000   -73.8663     9.8259    11.7109  -999.2500
  335.0000   -74.1668    10.1724    12.3058  -999.2500
  335.5000   -74.1702    10.3240    12.3786  -999.2500
  336.0000   -74.0233    10.0870    10.8089  -999.2500
  336.5000   -73.8774     9.9095     8.8660  -999.2500
  337.0000   -73.5836     9.7325     7.8191  -999.2500
  337.5000   -73.2889     9.5999     6.9960  -999.2500
  338.0000   -72.9941     9.4075     6.4714  -999.2500
  338.5000   -72.4018     9.1103     6.0961  -999.2500
  339.0000   -71.5123     7.8252     5.7954  -999.2500
  339.5000   -70.6223     6.5398     5.3451  -999.2500
  340.0000   -70.0295     6.0184     5.1191  -999.2500
  340.5000   -70.4793     5.9151     5.0423  -999.2500
  341.0000   -71.5243     6.4868     5.3386  -999.2500
  341.5000   -72.7177     7.7765     6.0081  -999.2500
  342.0000   -73.3158     8.9463     6.9014  -999.2500
  342.5000   -73.3187     9.5922     7.7944  -999.2500
  343.0000   -73.4708     9.9387     8.4639  -999.2500
  343.5000   -73.7713    10.1654     8.9841  -999.2500
  344.0000   -73.9230    10.5491     9.3896  -999.2500
  344.5000   -74.2235    10.9035     9.8006  -999.2500
  345.0000   -74.5240    11.2051    10.2458  -999.2500
  345.5000   -74.9733    11.5819    10.6168  -999.2500
  346.0000   -75.1255    11.8087    10.8389  -999.2500
  346.5000   -75.2772    12.0494    11.0602  -999.2500
  347.0000   -75.1308    12.2621    11.2819  -999.2500
  347.5000   -74.9853    12.3392    11.4293  -999.2500
  348.0000   -74.8389    12.4162    11.6507  -999.2500
  348.5000   -74.6930    12.5685    11.7978  -999.2500
  349.0000   -74.6969    12.6455    11.9445  -999.2500
  349.5000   -74.6997    12.6477    11.9423  -999.2500
  350.0000   -74.8510    12.6499    11.9401  -999.2500
  350.5000   -74.4032    12.6617    12.0191  -999.2500
  351.0000   -74.4016    12.6746    12.2466  -999.2500
  351.5000   -74.2513    12.6874    12.3994  -999.2500
  352.0000   -73.9523    12.7003    12.5529  -999.2500
  352.5000   -73.6532    12.7131    12.6311  -999.2500
  353.0000   -73.5027    12.7976    12.7090  -999.2500
  353.5000   -73.7992    12.7973    12.7876  -999.2500
  354.0000   -74.2439    12.9467    12.9410  -999.2500
  354.5000   -74.6889    12.9464    13.0192  -999.2500
  355.0000   -74.8365    13.0958    13.0975  -999.2500
  355.5000   -74.9837    13.2452    13.1754  -999.2500
  356.0000   -75.1311    13.3198    13.1793  -999.2500
  356.5000   -75.5758    13.3943    13.2581  -999.2500
  357.0000   -75.8720    13.4689    13.3363  -999.2500
  357.5000   -75.8704    13.6182    13.3535  -999.2500
  358.0000   -75.8689    13.7677    13.4928  -999.2500
  358.5000   -76.0165    13.9170    13.5716  -999.2500
  359.0000   -76.0146    14.0664    13.6754  -999.2500
  359.5000   -76.1623    14.2158    13.8125  -999.2500
  360.0000   -76.1606    14.3653    14.0302  -999.2500
  360.5000   -76.3082    14.5895    14.1830  -999.2500
  361.0000   -76.6044    15.0383    14.4111  -999.2500
  361.5000   -76.9006    15.6368    14.6386  -999.2500
  362.0000   -77.3451    16.3101    14.9407  -999.2500
  362.5000   -77.4927    17.2081    15.4666  -999.2500
  363.0000   -76.7468    18.7048    16.4410  -999.2500
  363.5000   -75.7037    20.5008    18.0864  -999.2500
  364.0000   -74.5118    22.5215    22.3437  -999.2500
  364.5000   -73.9149    27.1619    27.1234  -999.2500
  365.0000   -73.7646    31.4281    29.0673  -999.2500
  365.5000   -73.7632    36.5482    29.9670  -999.2500
  366.0000   -73.7618    43.6823    29.8214  -999.2500
  366.5000   -74.0580    43.7133    28.7802  -999.2500
  367.0000   -74.3542    37.8373    26.6942  -999.2500
  367.5000   -74.5015    31.9612    23.2656  -999.2500
  368.0000   -77.1785    26.6359    21.4035  -999.2500
  368.5000   -79.7068    23.0428    19.3176  -999.2500
  369.0000   -81.3420    20.8718    16.7092  -999.2500
  369.5000   -81.3406    17.6529    14.5492  -999.2500
  370.0000   -80.8927    16.7545    14.0304  -999.2500
  370.5000   -80.4449    16.2302    13.9582  -999.2500
  371.0000   -80.1458    15.9305    13.8878  -999.2500
  371.5000   -80.1258    15.4811    14.0412  -999.2500
  372.0000   -79.8451    15.2562    14.2693  -999.2500
  372.5000   -79.3970    15.1063    14.4968  -999.2500
  373.0000   -78.5027    15.0311    14.5750  -999.2500
  373.5000   -77.5714    14.9559    14.6532  -999.2500
  374.0000   -76.8630    14.8808    14.5816  -999.2500
  374.5000   -77.6056    14.8057    14.4372  -999.2500
  375.0000   -78.6456    14.8053    14.1422  -999.2500
  375.5000   -78.7932    14.6553    13.6234  -999.2500
  376.0000   -78.1963    14.4305    12.8808  -999.2500
  376.5000   -77.4508    13.7566    11.8402  -999.2500
  377.0000   -76.2587    12.6335    11.0975  -999.2500
  377.5000   -74.3227    11.2110    10.3549  -999.2500
  378.0000   -71.9404     9.9847     9.1644  -999.2500
  378.5000   -69.5580     9.3476     8.2731  -999.2500
  379.0000   -68.2170     8.7251     7.6797  -999.2500
  379.5000   -68.0668     8.3805     7.0116  -999.2500
  380.0000   -67.9165     7.9760     6.8654  -999.2500
  380.5000   -67.7661     7.7362     6.7943  -999.2500
  381.0000   -67.6158     7.4515     6.7991  -999.2500
  381.5000   -67.6144     7.3614     6.8027  -999.2500
  382.0000   -67.4642     7.3760     6.8063  -999.2500
  382.5000   -67.4627     7.4356     6.8846  -999.2500
  383.0000   -67.4611     7.5401     6.9634  -999.2500
  383.5000   -67.3108     7.6147     7.1162  -999.2500
  384.0000   -67.3094     7.6892     7.1198  -999.2500
  384.5000   -67.3080     7.7039     7.1234  -999.2500
  385.0000   -67.3063     7.6736     7.0518  -999.2500
  385.5000   -67.1561     7.5536     6.9814  -999.2500
  386.0000   -67.1546     7.3586     6.9856  -999.2500
  386.5000   -67.0975     7.2835     6.9888  -999.2500
