~VERSION INFORMATION
 VERS.                2.0:   CWLS LOG ASCII STANDARD - VERSION 2.0
 WRAP.                 NO:   ONE LINE PER DEPTH STEP
~WELL INFORMATION
#MNEM.UNIT      DATA TYPE    INFORMATION
#----------   ------------   ------------------------------
 STRT.F          634.0000:   START DEPTH
 STOP.F         3464.0000:   STOP DEPTH
 STEP.F            0.5000:   STEP LENGTH
 NULL.          -999.2500:   NO VALUE
 COMP. LAWRENCE-ALLISON & ASSOCIATES W:   COMPANY
 WELL. LAWRENCE "TX" #44-27:   WELL
 FLD .   NAVAL RESERVE #3:   FIELD
 LOC .      S27 T39N R78W:   LOCATION
 CNTY.            NATRONA:   COUNTY
 STAT.            WYOMING:   STATE
 CTRY. UNITED STATES OF AMERICA:   COUNTRY
 SRVC.       SCHLUMBERGER:   SERVICE COMPANY
 DATE.        13-MAR-1982:   LOGDATE
 API .     49025108870000:   API NUMBER
~CURVE INFORMATION
#MNEM.UNIT       API CODE    CURVE DESCRIPTION
#----------   ------------   ------------------------------
 DEPT.F                  :   
 TENR.LBS    07 635 01 00:   TENSION FROM RESISTIVITY
 ILD .OHMM   07 120 46 00:   DEEP INDUCTION RESISTIVITY
 ILM .OHMM   07 120 44 00:   INDUCTION LOG MEDIUM RESISTIVITY
 SFLU.OHMM   07 220 01 00:   SPHERICALLY FOCUSED LOG UNAVERAGED RESISTIVITY
 SPR .MV     07 010 01 00:   SPONTANEOUS POTENTIAL
 TENN.LBS    42 635 01 00:   TENSION FROM COMPENSATE NEUTRON
 CALD.IN     45 280 60 00:   CALIPER FROM DENSITY LOG
 GRD .GAPI   45 310 01 00:   GAMMA RAY FROM DENSITY LOG
 RHOB.G/C3   45 350 01 00:   BULK DENSITY
 DRHO.G/C3   45 356 01 00:   DENSITY CORRECTION
 NPHI.DEC    42 890 03 00:   NEUTRON POROSITY SANDSTONE
~PARAMETER INFORMATION
#MNEM.UNIT          VALUE    DESCRIPTION
#----------   ------------   ------------------------------
 EKB .F         5049.0000:   Kelly bushing
 EGL .F         5039.0000:   Ground level
 EDF .F            0.0000:   Drilling floor
 EPD .F            0.0000:   Permanent datum
 TD  .F         3440.0000:   Total depth
 DATE.        13-MAR-1982:   Date logged
 CLNT.            A2DTECH:   Client Code
 PD  .                 GL:   Permanent Datum
 DD  .F              3440:   Depth driller
 DL  .F              3439:   Depth logger
 BLI .F              3433:   Bottom log interval
 CS1 .IN            9.625:   Casing size
 CBD1.      9.625" @ 650':   Casing driller 1
 CBL1.F               647:   Casing logger 1
 BS1 .IN            7.875:   Bit size
 DFT .                GEL:   Type fluid in hole
 DFD .                9.3:   Density
 DFV .                 48:   Viscosity
 DFPH.                 10:   pH
 DFL .                  8:   Fluid loss
 MSS .                PIT:   Source of sample
 RMS .OHMM           1.82:   Rm
 MST .F                67:   Rm Meas. temp.
 RMF .OHMM           1.32:   Rmf
 MFST.F                67:   Rmf Meas. temp.
 MFSS.               MEAS:   Source Rmf.
 RMB .OHMM           1.09:   Rm. at BHT
 BHT .F               112:   BHT.
 TCS .HRS            1300:   Time Circ. stopped
 MRT .F               112:   Maximum recorded temp.
 LUN .               8039:   Logging unit number
 LUL .               CSPR:   Logging unit location
 ENGI.   WAGNER/CONOSENTI:   Recorded By
 WITN.           JENNINGS:   Witnessed by
 ORIG.           5" PRINT:   Origin of data
 UWI .     49025108870000:   Unique Well ID
 DICO. A2D TECHNOLOGIES, INC.:   Digitizing Company
 DAPD.                 10:   Feet Above Permanent Datum
 BSD1.F              3440:   Depth drilled with bit1
 TLI .F               647:   Top log interval
 TLAB.HRS            1800:   Time logger at bottom
~OTHER INFORMATION
~A   DEPT     TENR        ILD        ILM       SFLU        SPR       TENN       CALD         GRD      RHOB       DRHO       NPHI   
# ...
 1183.0000   856.8090     6.4490     6.0460     6.8720   -26.3090  1286.7850    10.4220   109.5860     2.5470     0.0360     0.3130
 1183.5000   857.0680     6.4270     6.0180     6.8420   -26.0310  1285.4230    10.4450   112.3980     2.5560     0.0380     0.3180
 1184.0000   857.3260     6.4050     5.9910     6.8120   -26.1430  1284.0620    10.4690   114.0860     2.5650     0.0400     0.3210
 1184.5000   857.5850     6.3830     5.9630     6.7920   -26.6270  1282.7000    10.4930   113.5210     2.5610     0.0420     0.3210
 1185.0000   857.8440     6.3680     5.9350     6.8140   -27.0940  1281.3380    10.5170   110.0400     2.5530     0.0430     0.3160
 1185.5000   858.1020     6.6700     5.9170     6.8300   -27.5580  1279.9771    10.5420   106.6190     2.5460     0.0520     0.3120
 1186.0000   858.3610     6.8960     6.1830     6.8470   -28.0260  1278.6150    10.5650   103.2110     2.5450     0.0610     0.3070
 1186.5000   858.6190     7.1220     6.4630     7.2240   -28.2840  1277.2531    10.5420    99.8000     2.5450     0.0690     0.2990
 1187.0000   858.8780     7.3480     6.7420     7.8740   -28.3900  1275.8910    10.5120    96.9920     2.5300     0.0550     0.2960
 1187.5000   859.1360     7.5740     7.0220     8.5250   -28.4960  1274.5300    10.4830    94.8180     2.5180     0.0420     0.2910
 1188.0000   859.3950     7.8010     7.3020     9.1750   -28.6010  1273.1680    10.4530    92.6420     2.5220     0.0380     0.2790
 1188.5000   859.6530     8.0270     7.5810     9.8100   -28.7050  1271.8060    10.4230    90.4830     2.5270     0.0360     0.2700
 1189.0000   859.9120     8.2530     7.8060     9.7940   -28.8220  1270.4449    10.3930    88.9890     2.5190     0.0290     0.2680
 1189.5000   860.1710     8.4680     7.8510     9.7750   -28.1200  1269.0830    10.3640    89.4910     2.5090     0.0200     0.2650
 1190.0000   860.4290     8.5480     7.8950     9.7560   -27.0290  1267.7209    10.3470    91.2110     2.5180     0.0280     0.2630
 1190.5000   860.6880     8.6240     7.9400     9.7370   -26.0310  1266.3600    10.3470    92.8590     2.5290     0.0370     0.2660
 1191.0000   860.9460     8.7010     7.9850     9.7190   -26.0390  1264.9980    10.3500    92.7810     2.5400     0.0470     0.2680
 1191.5000   861.2050     8.7770     8.0300     9.7000   -26.0740  1263.6360    10.3540    92.6590     2.5350     0.0490     0.2650
 1192.0000   861.4630     8.7850     8.0740     9.6810   -26.1070  1262.2740    10.3580    94.0770     2.5320     0.0380     0.2630
 1192.5000   861.7220     8.7290     8.1190     9.6620   -26.1380  1260.9130    10.3630    95.6020     2.5300     0.0320     0.2620
 1193.0000   861.9800     8.6850     8.1640     9.6430   -26.1720  1260.6310    10.3670    97.1190     2.5320     0.0310     0.2610
 1193.5000   862.2390     8.6420     8.2090     9.6150   -26.2040  1263.2469    10.3710    98.1570     2.5270     0.0230     0.2600
 1194.0000   862.4980     8.5990     8.3140     9.5010   -26.4440  1265.8630    10.3750    97.7930     2.5210     0.0130     0.2590
 1194.5000   862.7560     8.5550     8.2000     9.3870   -26.8480  1268.4780    10.3800    94.8990     2.5160     0.0090     0.2580
 1195.0000   863.0150     8.5120     8.1020     9.2730   -27.2520  1271.0940    10.3840    92.0330     2.5240     0.0170     0.2560
 1195.5000   863.2730     8.4690     8.0040     9.1590   -27.6610  1273.7100    10.3880    89.1150     2.5360     0.0280     0.2550
 1196.0000   863.5320     8.4260     7.9060     9.0460   -28.0900  1276.3260    10.3930    89.0130     2.5410     0.0380     0.2530
 1196.5000   863.7900     8.3820     7.7960     8.9320   -28.0640  1278.9420    10.3970    92.1350     2.5370     0.0410     0.2520
 1197.0000   864.0490     8.3390     7.8050     8.7850   -28.1720  1281.5580    10.4010    94.0220     2.5320     0.0430     0.2520
 1197.5000   864.3080     8.2960     7.8160     8.8270   -28.2700  1284.1740    10.4050    95.1680     2.5270     0.0480     0.2590
 1198.0000   864.5660     8.2380     7.8280     8.8940   -28.3700  1286.7900    10.3840    95.4840     2.5210     0.0520     0.2660
 1198.5000   864.8250     8.2620     7.8390     8.9600   -28.4260  1289.4060    10.3330    95.6010     2.5130     0.0500     0.2700
 1199.0000   865.0830     8.3000     7.8500     9.0270   -28.5820  1292.0220    10.2830    94.8250     2.5210     0.0460     0.2690
 1199.5000   865.3420     8.3380     7.8620     9.0940   -28.7610  1294.6379    10.2320    94.1220     2.5400     0.0450     0.2670
 1200.0000   865.6000     8.3760     7.8730     9.2350   -28.9350  1297.2540    10.1870    93.8200     2.5600     0.0490     0.2700
 1200.5000   865.8590     8.4140     7.8840     9.4790   -28.8790  1299.8690    10.2030    93.5410     2.5460     0.0270     0.2720
 1201.0000   866.1170     8.4520     7.8960     9.7230   -28.3090  1302.4850    10.2260    93.9930     2.5280     0.0200     0.2600
 1201.5000   866.3760     8.4890     7.9070     9.9920   -27.7580  1305.1010    10.2490    93.9370     2.5330     0.0210     0.2470
 1202.0000   866.6350     8.5460     7.9180     9.7160   -27.2110  1307.7170    10.2710    93.1690     2.5450     0.0350     0.2400
 1202.5000   866.8930     8.5260     7.9300     9.4090   -26.7980  1310.3330    10.2800    91.9100     2.5570     0.0420     0.2440
 1203.0000   867.1520     8.4860     7.9400     9.1030   -26.5360  1312.9490    10.2670    90.8550     2.5530     0.0350     0.2510
 1203.5000   867.4100     8.4450     7.8860     8.7970   -26.2730  1315.5649    10.2670    91.4500     2.5420     0.0290     0.2510
 1204.0000   867.6690     8.4050     7.8260     8.7050   -26.0120  1318.1810    10.2710    94.0670     2.5290     0.0290     0.2500
 1204.5000   867.9270     8.3650     7.7660     8.7620   -25.7520  1314.7729    10.2740    96.6990     2.5170     0.0330     0.2560
 1205.0000   868.1860     8.3240     7.7060     8.8260   -25.4820  1305.7360    10.2770    98.9210     2.5230     0.0400     0.2670
 1205.5000   868.2630     8.2840     7.6460     8.8900   -25.4130  1296.6990    10.2800    97.3420     2.5330     0.0440     0.2770
 1206.0000   868.2630     8.2430     7.5860     8.9480   -25.4170  1287.6620    10.2840    95.7300     2.5220     0.0370     0.2730
 1206.5000   868.2630     8.2030     7.5250     8.9000   -25.5840  1259.9210    10.2870    95.6530     2.5060     0.0290     0.2610
 1207.0000   868.2630     8.1630     7.4650     8.8040   -26.2380  1262.4310    10.2900    95.9190     2.4930     0.0260     0.2610
 1207.5000   868.2630     8.1220     7.4050     8.7080   -26.8720  1265.1420    10.2930    94.5050     2.4980     0.0250     0.2650
 1208.0000   868.2630     8.0820     7.3450     8.6120   -27.5040  1267.8540    10.2960    92.6800     2.4980     0.0160     0.2720
 1208.5000   868.2630     8.0420     7.2850     8.5160   -27.8800  1270.5649    10.3000    91.3790     2.4860     0.0060     0.2750
 1209.0000   868.2630     8.0010     7.2430     8.4190   -28.0000  1273.2760    10.3030    93.4030     2.4760     0.0030     0.2730
 1209.5000   868.2630     7.9610     7.2570     8.3140   -28.1190  1275.9871    10.3060    95.3840     2.4830     0.0150     0.2700
 1210.0000   868.2630     7.9210     7.2680     8.2380   -28.2380  1278.6980    10.3090    97.3370     2.5040     0.0370     0.2690
 1210.5000   868.2630     7.8800     7.2800     8.2000   -28.3550  1281.4091    10.3130    99.1530     2.5230     0.0510     0.2730
 1211.0000   868.2630     7.8400     7.2910     8.1620   -28.4730  1284.1200    10.3160    99.7210     2.5430     0.0540     0.2760
 1211.5000   868.2630     7.7960     7.3020     8.5140   -28.6110  1286.8311    10.3190    98.7990     2.5360     0.0540     0.2750
 1212.0000   868.2630     7.8220     7.3130     8.8660   -27.9160  1289.5420    10.3220    97.8560     2.5240     0.0430     0.2710
 1212.5000   868.2630     7.8520     7.3240     8.8980   -26.9220  1292.2531    10.3250    99.4280     2.5160     0.0320     0.2670
 1213.0000   868.2630     7.8810     7.3350     8.9280   -26.1240  1294.9640    10.3310   101.4800     2.5200     0.0260     0.2700
