~VERSION INFORMATION
 VERS.                2.0:   CWLS LOG ASCII STANDARD - VERSION 2.0
 WRAP.                 NO:   ONE LINE PER DEPTH STEP
~WELL INFORMATION
#MNEM.UNIT      DATA TYPE    INFORMATION
#----------   ------------   ------------------------------
 STRT.F          210.0000:   START DEPTH
 STOP.F         2998.0000:   STOP DEPTH
 STEP.F            0.5000:   STEP LENGTH
 NULL.          -999.2500:   NO VALUE
 COMP.    FENIX & SCISSON:   COMPANY
 WELL. FENIX & SCISSON "A" #41-28:   WELL
 FLD .          N.P.R. #3:   FIELD
 LOC .      S28 T39N R78W:   LOCATION
 CNTY.            NATRONA:   COUNTY
 STAT.            WYOMING:   STATE
 CTRY. UNITED STATES OF AMERICA:   COUNTRY
 SRVC.       SCHLUMBERGER:   SERVICE COMPANY
 DATE.        08-MAY-1977:   LOGDATE
 API .     49025103670000:   API NUMBER
~CURVE INFORMATION
#MNEM.UNIT       API CODE    CURVE DESCRIPTION
#----------   ------------   ------------------------------
 DEPT.F                  :   
 CALD.IN     45 280 60 00:   CALIPER FROM DENSITY LOG
 GRD .GAPI   45 310 01 00:   GAMMA RAY FROM DENSITY LOG
 CORR.G/C3   45 356 01 00:   DENSITY CORRECTION
 RHOB.G/C3   45 350 01 00:   BULK DENSITY
 SPR .MV     07 010 01 00:   SPONTANEOUS POTENTIAL
 LL8 .OHMM   07 220 08 00:   LATEROLOG-8 RES.
 ILM .OHMM   07 120 44 00:   INDUCTION LOG MEDIUM RESISTIVITY
 ILD .OHMM   07 120 46 00:   DEEP INDUCTION RESISTIVITY
~PARAMETER INFORMATION
#MNEM.UNIT          VALUE    DESCRIPTION
#----------   ------------   ------------------------------
 EKB .F         5012.0000:   Kelly bushing
 EGL .F         5002.0000:   Ground level
 TD  .F         3000.0000:   Total depth
 CLNT.            A2DTECH:   Client Code
 SL  . 330' FNL & 2310' FWL:   Surface Location
 DATE.        08-MAY-1977:   Date Logged [DD-MMM-YYYY]
 DD  .F              3000:   Depth driller
 DL  .F              2999:   Depth logger
 BLI .F              2993:   Bottom log interval
 TLI .F               222:   Top log interval
 CS1 .              8.625:   Casing size
 CBD1.      8.625" @ 112':   Casing driller 1
 CBL1.IN              222:   Casing logger 1
 BS1 .IN            7.875:   Bit size
 BSD1.F              3000:   Depth drilled with bit1
 DFT .                KCL:   Type fluid in hole
 DFD .                8.8:   Density
 DFV .                 32:   Viscosity
 DFPH.                8.0:   pH
 DFL .                8.8:   Fluid loss
 MSS .           FLOWLINE:   Source of sample
 RMS .OHMM          0.124:   Rm
 MST .F                80:   Rm Meas. temp.
 RMF .OHMM          0.117:   Rmf
 MFST.F                80:   Rmf Meas. temp.
 MFSS.               MEAS:   Source Rmf.
 RMB .OHMM         0.0886:   Rm. at BHT
 BHT .F               112:   BHT.
 TCS .HRS            0200:   Time Circ. stopped
 TLAB.HRS            0515:   Time logger at bottom
 MRT .F               112:   Maximum recorded temp.
 LUN .               5642:   Logging unit number
 LUL .               CSPR:   Logging unit location
 ENGI.            MARATIN:   Recorded By
 WITN.         PETTINGILL:   Witnessed by
 ORIG.      2.5" 5" PRINT:   Origin of data
 UWI .     49025103670000:   Unique Well ID
 DICO. A2D TECHNOLOGIES, INC.:   Digitizing Company
 PD  .                 GL:   Permanent Datum
 EPD .               5002:   Elevation Permanent Datum
 LMF .                 KB:   Log Measured From
 DMF .                 KB:   Drilling Measured From
 DAPD.                 10:   Feet Above Permanent Datum
~OTHER INFORMATION
~A   DEPT     CALD         GRD      CORR       RHOB        SPR        LL8        ILM        ILD   
# ...
 1870.5000     8.1775   145.8048     0.1086     2.4461   -87.6188    10.8317     9.5536    10.0044
 1871.0000     8.1634   148.3668     0.1154     2.4642   -87.7901    10.9850     9.6940    10.2846
 1871.5000     8.1644   149.5770     0.1161     2.4770   -88.4034    11.3008     9.8311    10.3794
 1872.0000     8.1802   145.8692     0.1109     2.4838   -88.2222    11.4610     9.9702    10.5237
 1872.5000     8.1811   147.0794     0.0900     2.4787   -88.2176    11.6233    10.1027    10.5237
 1873.0000     8.1820   148.4386     0.0923     2.4727   -87.9043    11.9574    10.2542    10.5237
 1873.5000     8.1829   149.3508     0.0982     2.4705   -87.8997    12.1268    10.3992    10.5237
 1874.0000     8.1838   149.0706     0.0984     2.4794   -87.8951    12.4030    10.5352    10.5237
 1874.5000     8.1847   147.7466     0.1014     2.4847   -87.5818    12.8342    10.5321    10.3794
 1875.0000     8.1856   148.3614     0.1125     2.4937   -87.0885    12.9384    10.5167    10.1441
 1875.5000     8.1865   147.7832     0.1164     2.4982   -86.7747    12.8574    10.2174     9.6887
 1876.0000     8.1874   143.7773     0.1164     2.4968   -86.4610    12.3139    10.0692     9.3800
 1876.5000     8.1883   143.4928     0.1119     2.4923   -85.8384    11.5815     9.7826     9.2939
 1877.0000     8.1892   146.0487     0.1134     2.4977   -85.3981    10.6313     9.5182     9.4668
 1877.5000     8.1901   146.8074     0.1075     2.4887   -85.3935    11.4172     9.5154     9.7319
 1878.0000     8.1910   141.7627     0.1045     2.4655   -85.3731    12.1818     9.5127     9.9582
 1878.5000     8.1919   139.0981     0.1060     2.4513   -85.0746    12.8123     9.5100    10.0512
 1879.0000     8.1928   137.3232     0.1165     2.4626   -84.1791    13.3702     9.5242    10.2846
 1879.5000     8.1937   138.6870     0.1225     2.4694   -82.9851    13.4701     9.6589    10.3794
 1880.0000     8.1946   136.6185     0.1195     2.4754   -81.1940    13.6599     9.7769    10.3794
 1880.5000     8.1955   137.0835     0.1127     2.4875   -80.0000    13.6561     9.7933    10.3794
 1881.0000     8.1964   138.1447     0.1061     2.4927   -79.7015    13.6521     9.9319    10.3794
 1881.5000     8.1973   139.8020     0.1046     2.4853   -79.2339    13.6482    10.0511    10.2371
 1882.0000     8.1982   142.6516     0.0994     2.4763   -78.9453    13.5502    10.0702    10.1441
 1882.5000     8.1991   144.7560     0.1099     2.4861   -77.9103    13.3533    10.1897     9.9582
 1883.0000     8.2000   146.8604     0.1196     2.4967   -76.5973    13.2526    10.3331     9.8216
 1883.5000     8.2009   148.2196     0.1107     2.4982   -75.0946    13.2488    10.3299     9.6427
 1884.0000     8.2018   150.9941     0.1010     2.4915   -74.0895    13.0572    10.4755     9.4231
 1884.5000     8.2028   152.7250     0.0965     2.4773   -73.3233    13.0535    10.4722     9.2514
 1885.0000     8.2037   153.3391     0.0958     2.4699   -72.8358    12.8648    10.6199     9.1245
 1885.5000     8.2046   153.5060     0.0959     2.4804   -72.5373    12.7660    10.6165     8.9167
 1886.0000     8.2055   153.8221     0.0989     2.4835   -72.4576    12.5805    10.6430     8.9167
 1886.5000     8.2064   153.9890     0.1041     2.4925   -72.2388    12.3977    10.7935     8.9167
 1887.0000     8.2073   152.8148     0.1116     2.4948   -71.8807    12.3112    10.9146     9.0000
 1887.5000     8.2082   144.1889     0.1184     2.4963   -71.3433    12.4035    10.9112     9.1664
 1888.0000     8.2091   142.5630     0.1229     2.5001   -71.0050    12.5793    10.9081     9.2939
 1888.5000     8.2100   146.6093     0.1214     2.5032   -70.4478    12.7575    10.9050     9.4231
 1889.0000     8.2109   147.5215     0.1139     2.5017   -70.4478    12.8354    10.9019     9.4231
 1889.5000     8.1966   148.2846     0.1027     2.4950   -70.4478    13.0163    10.8635     9.4231
 1890.0000     8.1977   149.3457     0.0856     2.4723   -70.1493    13.1186    10.7414     9.4668
 1890.5000     8.2136   147.8734     0.0939     2.4724   -70.1493    13.1960    10.7021     9.6870
 1891.0000     8.2145   145.3578     0.1027     2.4792   -69.8507    13.3819    10.5833     9.8216
 1891.5000     8.2002   146.5680     0.0961     2.4927   -69.2537    13.3781    10.5431     9.8216
 1892.0000     8.2013   147.0286     0.0894     2.4973   -68.6567    13.3743    10.4275     9.8216
 1892.5000     8.2022   141.9840     0.0969     2.4869   -67.4627    13.3705    10.4245     9.8216
 1893.0000     8.2031   144.3864     0.1054     2.4817   -66.2687    13.2536    10.4216     9.8216
 1893.5000     8.2040   145.7457     0.1149     2.4926   -65.0746    13.1726    10.4186     9.8216
 1894.0000     8.2199   146.8069     0.1080     2.4924   -64.1791    13.1689    10.4157     9.8216
 1894.5000     8.2056   146.6758     0.1134     2.5089   -62.9851    13.1651    10.5626     9.8671
 1895.0000     8.2217   145.5015     0.1187     2.5105   -62.0896    13.1614    10.5592    10.0511
 1895.5000     8.2226   143.5821     0.1180     2.5128   -61.4925    13.3468    10.7082    10.2371
 1896.0000     8.2235   142.1097     0.1142     2.5211   -61.0150    13.3430    10.8589     9.9127
 1896.5000     8.2244   140.7864     0.1143     2.5160   -60.4279    13.5311    10.7017     9.6427
 1897.0000     8.2253   140.6508     0.1240     2.5026   -60.0000    13.5272    10.5471     9.4231
 1897.5000     8.2262   140.9713     0.1255     2.4899   -59.5522    13.5234    10.3495     9.2514
 1898.0000     8.2121   143.3738     0.1173     2.4862   -59.4030    13.3278    10.0998     9.1664
 1898.5000     8.2130   147.8627     0.1099     2.5020   -59.7015    12.9489     9.9540     9.1664
 1899.0000     8.2139   153.2683     0.1166     2.5147   -60.1194    12.4024     9.8102     9.1664
 1899.5000     8.2148   156.6934     0.1256     2.5310   -60.5970    11.5445     9.6686     9.1664
 1900.0000     8.2157   155.8333     0.1264     2.5345   -60.5970    11.5355     9.7053     9.1662
 1900.5000     8.2314   151.8199     0.1168     2.5129   -60.5970    12.4911     9.9398     9.1651
 1901.0000     8.2211   149.5984     0.1085     2.4912   -60.5173    13.1208    10.1743     9.1639
 1901.5000     8.2115   149.3162     0.0936     2.4860   -60.2289    13.3076    10.4088     9.2951
 1902.0000     8.2035   152.1844     0.0944     2.4808   -60.0000    13.3054    10.5202     9.5560
 1902.5000     8.2194   149.0678     0.1026     2.4772   -60.0000    13.4952    10.5178     9.8149
 1903.0000     8.2201   143.4102     0.1109     2.4795   -60.0000    13.4929    10.5156     9.8135
 1903.5000     8.2209   139.3968     0.1131     2.4893   -60.0696    13.6853    10.5134     9.9487
 1904.0000     8.2216   138.0683     0.1080     2.4977   -60.4818    13.7359    10.5111     9.8108
 1904.5000     8.2224   139.7406     0.1005     2.4775   -60.4800    13.4872    10.5089     9.7933
 1905.0000     8.2231   142.3042     0.1050     2.4895   -60.0412    12.9198    10.5067     9.6559
 1905.5000     8.2239   144.2698     0.1125     2.4873   -59.4198    12.2008    10.3557     9.4088
 1906.0000     8.2095   147.1324     0.1178     2.4979   -58.7983    12.3745    10.3534     9.4075
 1906.5000     8.2104   149.5464     0.1178     2.5040   -57.8683    13.1000    10.3512     9.4062
 1907.0000     8.2111   149.9737     0.1089     2.5018   -56.9383    13.4778    10.3490     9.4049
 1907.5000     8.1969   149.9322     0.1059     2.4944   -56.6255    13.5163    10.3468     9.4036
 1908.0000     8.1977   150.5981     0.1104     2.4899   -56.3127    12.7257    10.3446     9.4023
 1908.5000     8.1834   152.6277     0.1156     2.5073   -56.1466    13.0925    10.3424     9.4010
 1909.0000     8.1842   153.5470     0.1196     2.4976   -55.8364    13.4699    10.3402     9.3997
 1909.5000     8.1849   154.0123     0.1150     2.4872   -55.6831    13.6617    10.3380     9.3984
 1910.0000     8.1857   152.5710     0.1173     2.4978   -55.3704    13.6598    10.3357     9.3971
 1910.5000     8.1864   151.0677     0.1180     2.5038   -54.7490    12.8996    10.3335     9.3958
