~VERSION INFORMATION
 VERS.                2.0:   CWLS LOG ASCII STANDARD - VERSION 2.0
 WRAP.                 NO:   ONE LINE PER DEPTH STEP
~WELL INFORMATION
#MNEM.UNIT      DATA TYPE    INFORMATION
#----------   ------------   ------------------------------
 STRT.F          203.5000:   START DEPTH
 STOP.F         3126.0000:   STOP DEPTH
 STEP.F            0.5000:   STEP LENGTH
 NULL.          -999.2500:   NO VALUE
 COMP.    FENIX & SCISSON:   COMPANY
 WELL. FENIX NPR 3 "AX" #88-33:   WELL
 FLD .        TEAPOT DOME:   FIELD
 LOC .      S33 T39N R78W:   LOCATION
 CNTY.            NATRONA:   COUNTY
 STAT.            WYOMING:   STATE
 CTRY. UNITED STATES OF AMERICA:   COUNTRY
 SRVC.       SCHLUMBERGER:   SERVICE COMPANY
 DATE.        23-JAN-1978:   LOGDATE
 API .     49025105610000:   API NUMBER
~CURVE INFORMATION
#MNEM.UNIT       API CODE    CURVE DESCRIPTION
#----------   ------------   ------------------------------
 DEPT.F                  :   
 CALD.IN     45 280 60 00:   CALIPER FROM DENSITY LOG
 GRD .GAPI   45 310 01 00:   GAMMA RAY FROM DENSITY LOG
 RHOB.G/C3   45 350 01 00:   BULK DENSITY
 CORR.G/C3   45 356 01 00:   DENSITY CORRECTION
 SPR .MV     05 010 01 00:   SPONTANEOUS POTENTIAL
 SN  .OHMM   05 040 16 00:   SHORT NORMAL 16"
 ILD .OHMM   05 120 46 00:   DEEP INDUCTION RESISTIVITY
~PARAMETER INFORMATION
#MNEM.UNIT          VALUE    DESCRIPTION
#----------   ------------   ------------------------------
 EKB .F         5174.0000:   Kelly bushing
 EGL .F         5164.0000:   Ground level
 EDF .F            0.0000:   Drilling floor
 TD  .F         3115.0000:   Total depth
 DATE.        23-JAN-1978:   Date logged
 CLNT.            A2DTECH:   Client Code
 PD  .                 GL:   Permanent Datum
 EPD .F              5164:   Elevation Permanent Datum
 LMF .                 KB:   Log Measured From
 DMF .                 KB:   Drilling Measured From
 DD  .F              3115:   Depth driller
 DL  .F              3115:   Depth logger
 BLI .F              3115:   Bottom log interval
 TLI .F               210:   Top log interval
 CS1 .IN            8.625:   Casing size
 CBD1.      9.625" @ 219':   Casing driller 1
 CBL1.F               219:   Casing logger 1
 BS1 .IN            7.875:   Bit size
 BSD1.F              3115:   Depth drilled with bit1
 DFT .                GEL:   Type fluid in hole
 DFD .                8.9:   Density
 DFV .                 36:   Viscosity
 DFPH.                 10:   pH
 DFL .                7.8:   Fluid loss
 MSS .           FLOWLINE:   Source of sample
 RMS .OHMM            2.2:   Rm
 MST .F                62:   Rm Meas. temp.
 RMF .OHMM           1.94:   Rmf
 MFST.F                54:   Rmf Meas. temp.
 RMC .OHMM            3.4:   Rmc
 MCST.F                54:   Rmc Meas. temp.
 MFSS.               MEAS:   Source Rmf.
 MCSS.               MEAS:   Source Rmc.
 RMB .OHMM            1.1:   Rm. at BHT
 BHT .F               114:   BHT.
 TCS .HRS             4.5:   Time Circ. stopped
 MRT .F               114:   Maximum recorded temp.
 LUN .               2958:   Logging unit number
 LUL .             CASPER:   Logging unit location
 ENGI.           REYNOLDS:   Recorded By
 WITN.           MCGINLEY:   Witnessed by
 ORIG.           5" PRINT:   Origin of data
 UWI .     49025105610000:   Unique Well ID
 DICO. A2D TECHNOLOGIES, INC.:   Digitizing Company
 DAPD.F              5164:   Feet Above Permanent Datum
 SL  . 100' FSL & 550' FEL:   Surface Location
~OTHER INFORMATION
~A   DEPT     CALD        GRD       RHOB       CORR        SPR         SN        ILD   
  203.5000  -999.2500   125.7773  -999.2500  -999.2500  -999.2500  -999.2500  -999.2500
  204.0000  -999.2500   126.1584  -999.2500  -999.2500  -999.2500  -999.2500  -999.2500
  204.5000  -999.2500   125.2616  -999.2500  -999.2500  -999.2500  -999.2500  -999.2500
  205.0000  -999.2500   125.7100  -999.2500  -999.2500  -999.2500  -999.2500  -999.2500
  205.5000  -999.2500   126.0417  -999.2500  -999.2500  -999.2500  -999.2500  -999.2500
  206.0000  -999.2500   113.5417  -999.2500  -999.2500  -999.2500  -999.2500  -999.2500
  206.5000  -999.2500   104.4643  -999.2500  -999.2500  -999.2500  -999.2500  -999.2500
  207.0000  -999.2500    95.2381  -999.2500  -999.2500  -999.2500  -999.2500  -999.2500
  207.5000  -999.2500    84.9702  -999.2500  -999.2500  -999.2500  -999.2500  -999.2500
  208.0000  -999.2500    80.4315  -999.2500  -999.2500  -999.2500  -999.2500  -999.2500
  208.5000  -999.2500    82.7381  -999.2500  -999.2500   -91.5122  -999.2500  -999.2500
  209.0000  -999.2500    84.8924  -999.2500  -999.2500   -95.8978     0.8314     0.3919
  209.5000  -999.2500    86.1607  -999.2500  -999.2500  -100.5020     0.8467     2.4054
  210.0000  -999.2500    88.3929  -999.2500  -999.2500   -99.5128     4.7432     1.3851
  210.5000  -999.2500    92.2619  -999.2500  -999.2500   -95.7585     5.3932     1.2424
  211.0000  -999.2500    97.0238  -999.2500  -999.2500   -94.5702     5.5403    18.0338
  211.5000  -999.2500    97.6190  -999.2500  -999.2500   -91.3083     6.0149    28.2386
  212.0000  -999.2500    93.4524  -999.2500  -999.2500   -85.8442     6.0113     9.5594
  212.5000    10.5882    89.8810  -999.2500  -999.2500   -80.6831     7.7742     9.3636
  213.0000    10.7468    90.3274  -999.2500  -999.2500   -76.9074     7.6300     9.3636
  213.5000    10.7862    91.5179  -999.2500  -999.2500   -68.1576     8.0554     9.2992
  214.0000    10.9051    91.2202  -999.2500  -999.2500   -54.2390     8.2003     9.2992
  214.5000    10.9842    92.1131  -999.2500  -999.2500   -47.0728     8.2701     9.4284
  215.0000    11.0435    93.6012  -999.2500  -999.2500   -43.5047     8.2639    10.2422
  215.5000    11.0432    94.4940  -999.2500  -999.2500   -41.9246     8.3342    10.1718
  216.0000    11.0429    91.2202  -999.2500  -999.2500   -41.7417     8.8015    10.2422
  216.5000    11.0426    89.8810  -999.2500  -999.2500   -41.9569     8.9585    11.3589
  217.0000    11.0423    89.7321  -999.2500  -999.2500   -42.3819     8.9518    11.3589
  217.5000    10.9428    89.7321  -999.2500  -999.2500   -43.1849     8.9451    11.4376
  218.0000    10.9226    89.7321  -999.2500     0.4049   -44.9932     9.1891    11.5167
  218.5000    10.8826    89.8810  -999.2500     0.4307   -47.2029     9.2672    11.5167
  219.0000    10.8824    90.4762  -999.2500     0.4172   -49.0112     9.2617    11.5965
  219.5000    10.8821    91.5179  -999.2500     0.4460   -50.2221     9.6869    11.5965
  220.0000    10.8421    92.5595     2.1807     0.4672   -52.0296     9.6840    11.5965
  220.5000    10.8021    93.4524     2.3373     0.2941   -52.0457     9.7664    11.5965
  221.0000    10.8018    94.0476     2.3990     0.2039   -52.0619     9.4929    11.3589
  221.5000    10.8015    94.0476     2.3524     0.1709   -51.8789     9.4858    11.2808
  222.0000    10.8013    93.3036     2.3224     0.1800   -52.0942     9.4788    11.0497
  222.5000    10.8010    92.2619     2.2683     0.3503   -52.1103     9.2134    10.9738
  223.0000    10.8007    91.3690     2.2503     0.2586   -52.1265     9.2065    10.9738
  223.5000    10.8004    92.1131     2.4791     0.1924   -51.9403     9.1996    10.8983
  224.0000    10.8002    89.2857     2.4220     0.1986   -51.9565     9.1084    10.9738
  224.5000    10.7999    89.7321     2.3355     0.2047   -52.1717     9.0181    10.9738
  225.0000    10.7996    90.9226     2.3386     0.2063   -52.3870     8.9287    11.2732
  225.5000    10.7993    89.8810     2.3470     0.1839   -52.6023     9.0834    11.3730
  226.0000    10.7990    90.3274     2.3561     0.1749   -53.0167     9.0794    11.3611
  226.5000    10.7987    90.3274     2.3584     0.1886   -53.2320     8.8252    11.3526
  227.0000    10.7984    88.5417     2.3140     0.2068   -53.2482     8.6575    11.3457
  227.5000    10.7981    88.5417     2.3149     0.2175   -53.4634     8.7312    11.3355
  228.0000    10.7979    89.5833     2.3112     0.2296   -53.6787     8.7260    11.1191
  228.5000    10.7777    90.9226     2.3090     0.2373   -53.6949     8.5602    11.3185
  229.0000    10.7775    93.4524     2.3083     0.2449   -53.9102     8.4753    11.3100
  229.5000    10.7772    94.0476     2.3084     0.2541   -53.9263     8.3913    11.2007
  230.0000    10.7769    90.4862     2.3122     0.2663   -54.1416     8.2319    11.1889
  230.5000    10.7766    89.8870     2.3266     0.2498   -54.1577     8.1503    10.1912
  231.0000    10.7962    86.9028     2.3469     0.2424   -54.1739     7.9237    10.1835
  231.5000    10.7959    91.4672     2.3365     0.2486   -53.9909     7.6312     9.9891
  232.0000    10.7956    90.2721     2.3335     0.2547   -54.0071     7.5556     9.9816
  232.5000    10.8152    91.2660     2.3336     0.2548   -54.0200     7.4807     9.9741
  233.0000    10.8546    87.2868     2.3359     0.2504   -54.0362     7.3386     9.9666
  233.5000    10.8543    88.0801     2.3473     0.2490   -53.8532     7.1991     9.9606
  234.0000    10.8541    88.4742     2.3481     0.2461   -53.8694     7.1938     9.9531
  234.5000    10.8538    87.4775     2.3422     0.2493   -53.8855     7.1884     9.4065
  235.0000    10.8535    86.2828     2.3422     0.2494   -54.1008     7.0518     9.4008
  235.5000    10.8533    89.4578     2.3483     0.2495   -53.7187     7.0466     9.3938
  236.0000    10.8530    90.0506     2.3582     0.2376   -53.7349     7.0413     9.3867
  236.5000    10.9123    90.2467     2.3575     0.2257   -53.9501     6.9715     9.3797
  237.0000    10.9120    89.0496     2.3575     0.2168   -53.9663     6.9024     9.2862
  237.5000    10.9117    91.0350     2.3523     0.2138   -54.1816     6.8340     9.1937
  238.0000    10.9114    93.0189     2.3381     0.2140   -53.9986     6.8289     9.1868
  238.5000    10.9111    94.8041     2.3307     0.2186   -54.2139     6.6991     9.1799
  239.0000    10.9109    96.3913     2.3307     0.2202   -54.2300     6.5719     9.0046
  239.5000    10.9106    91.6183     2.3330     0.2204   -54.0438     6.5670     8.9148
  240.0000    10.9103    90.0253     2.3339     0.2205   -54.0600     6.5621     8.7446
  240.5000    10.9101    90.2208     2.3339     0.2221   -53.6779     6.5572     8.9014
  241.0000    10.9098    90.0188     2.3333     0.2207   -53.6941     6.5523     8.8948
  241.5000    10.9095    94.1867     2.3310     0.2209   -53.5111     6.5483     8.9708
  242.0000    10.9092    93.1928     2.3341     0.2240   -53.1290     6.5435     8.9641
  242.5000    10.9089    92.9908     2.3372     0.2226   -52.9460     6.5386     8.9574
  243.0000    10.9086    92.7889     2.3380     0.2212   -52.5639     6.5337     9.0339
  243.5000    10.9083    92.5870     2.3389     0.2153   -52.1818     6.5288     9.0285
  244.0000    10.9081    90.9937     2.3382     0.2109   -51.7997     6.5239     8.9385
  244.5000    10.9078    89.4004     2.3345     0.2156   -51.6135     6.4593     8.9318
  245.0000    10.9075    85.6193     2.3330     0.2157   -51.0420     6.3952     8.6004
  245.5000    10.9073    88.4000     2.3376     0.2173   -51.0485     6.3318     8.2813
  246.0000    10.9070    91.3770     2.3384     0.2099   -51.2638     6.2115     8.1232
  246.5000    10.9067    89.5868     2.3378     0.2055   -51.0808     6.1500     7.9717
  247.0000    10.9064    88.1920     2.3348     0.2056   -50.6987     6.0331     7.5316
  247.5000    10.9061    86.7973     2.3326     0.2057   -50.5157     5.9733     7.5259
  248.0000    10.9058    88.5830     2.3327     0.2104   -50.3328     5.8598     7.5903
  248.5000    10.9055    89.5737     2.3328     0.2120   -50.3489     5.7485     7.5846
