~VERSION INFORMATION
 VERS.                2.0:   CWLS LOG ASCII STANDARD - VERSION 2.0
 WRAP.                 NO:   ONE LINE PER DEPTH STEP
~WELL INFORMATION
#MNEM.UNIT      DATA TYPE    INFORMATION
#----------   ------------   ------------------------------
 STRT.F           16.0000:   START DEPTH
 STOP.F         2834.0000:   STOP DEPTH
 STEP.F            0.5000:   STEP LENGTH
 NULL.          -999.2500:   NO VALUE
 COMP.    FENIX & SCISSON:   COMPANY
 WELL. FENIX NPR 3 "AX" #14-21:   WELL
 FLD .              N P R:   FIELD
 LOC .      S21 T39N R78W:   LOCATION
 CNTY.            NATRONA:   COUNTY
 STAT.            WYOMING:   STATE
 CTRY. UNITED STATES OF AMERICA:   COUNTRY
 SRVC.           BIRDWELL:   SERVICE COMPANY
 DATE.        26-JUL-1978:   LOGDATE
 API .     49025106740000:   API NUMBER
~CURVE INFORMATION
#MNEM.UNIT       API CODE    CURVE DESCRIPTION
#----------   ------------   ------------------------------
 DEPT.F                  :   
 GRD .GAPI   45 310 01 00:   GAMMA RAY FROM DENSITY LOG
 CALD.IN     45 280 60 00:   CALIPER FROM DENSITY LOG
 RHOB.G/C3   45 350 01 00:   BULK DENSITY
 CORR.G/C3   45 356 01 00:   DENSITY CORRECTION
 SPR .MV     05 010 01 00:   SPONTANEOUS POTENTIAL
 ILD .OHMM   05 120 46 00:   DEEP INDUCTION RESISTIVITY
 SN  .OHMM   05 040 00 00:   SHORT NORMAL
~PARAMETER INFORMATION
#MNEM.UNIT          VALUE    DESCRIPTION
#----------   ------------   ------------------------------
 EKB .F         4998.0000:   Kelly bushing
 EGL .F         4988.0000:   Ground level
 EDF .F            0.0000:   Drilling floor
 EPD .F            0.0000:   Permanent datum
 TD  .F         2850.0000:   Total depth
 DATE.        26-JUL-1978:   Date logged
 CLNT.            A2DTECH:   Client Code
 SL  . 2640' FNL & 500' FWL:   Surface Location
 PD  .                 GL:   Permanent Datum
 DD  .F              2850:   Depth driller
 DL  .F              2838:   Depth logger
 BLI .F              2832:   Bottom log interval
 CS1 .IN            8.625:   Casing size
 CBD1.      8.625" @ 208':   Casing driller 1
 BS1 .IN            7.875:   Bit size
 DFT .            MUD/GEL:   Type fluid in hole
 DFD .                9.4:   Density
 DFV .                 37:   Viscosity
 DFPH.                 11:   pH
 TCS .HRS               4:   Time Circ. stopped
 LUN .               2958:   Logging unit number
 LUL .               CASP:   Logging unit location
 ENGI.             MILLER:   Recorded By
 WITN.           MCGINLEY:   Witnessed by
 ORIG.           5" PRINT:   Origin of data
 UWI .     49025106740000:   Unique Well ID
 DICO. A2D TECHNOLOGIES, INC.:   Digitizing Company
 DAPD.                 12:   Feet Above Permanent Datum
 BSD1.               3950:   Depth drilled with bit1
 MCSS.               CALC:   Source Rmc.
 TLI .F               230:   Top log interval
~OTHER INFORMATION
~A   DEPT       GRD      CALD       RHOB       CORR        SPR        ILD         SN   
# ...
 1062.5000    99.5220     8.9210     2.5070     0.2420   -38.8760     6.5590     7.4550
 1063.0000    99.4030     8.9220     2.5060     0.2410   -38.8780     6.5620     7.4570
 1063.5000    99.2660     8.9230     2.5060     0.2400   -38.8780     6.5640     7.4600
 1064.0000    98.7200     8.9240     2.5170     0.2390   -38.8780     6.5660     7.4650
 1064.5000    97.1260     8.9260     2.5200     0.2390   -38.8780     6.5680     7.4510
 1065.0000    96.3750     8.9270     2.5110     0.2390   -38.8780     6.5460     7.3960
 1065.5000    94.9640     8.9280     2.5010     0.2390   -38.8780     6.5200     7.3420
 1066.0000    92.9860     8.9290     2.5030     0.2390   -38.8780     6.4950     7.2880
 1066.5000    92.1820     8.9300     2.5050     0.2400   -38.8780     6.4690     7.2340
 1067.0000    92.2670     8.9310     2.5020     0.2440   -38.8770     6.4430     7.1970
 1067.5000    92.3980     8.9330     2.4940     0.2490   -38.8230     6.4170     7.2000
 1068.0000    93.2080     8.9340     2.5000     0.2520   -38.6700     6.3910     7.2070
 1068.5000    95.0560     8.9350     2.5120     0.2520   -38.5160     6.3650     7.2140
 1069.0000    96.8750     8.9360     2.5130     0.2520   -38.4850     6.3390     7.2210
 1069.5000    98.6870     8.9370     2.5140     0.2520   -38.4840     6.3130     7.2270
 1070.0000    99.6790     8.9380     2.5160     0.2520   -38.4840     6.2880     7.2340
 1070.5000    98.3270     8.9220     2.5180     0.2520   -38.4840     6.2760     7.2410
 1071.0000    96.2670     8.8830     2.5180     0.2520   -38.4840     6.2760     7.2480
 1071.5000    95.6630     8.8430     2.5170     0.2520   -38.4840     6.2760     7.2550
 1072.0000    95.5480     8.8040     2.5150     0.2530   -38.4850     6.2760     7.2610
 1072.5000    95.0370     8.7840     2.5150     0.2530   -38.4850     6.2760     7.2680
 1073.0000    94.5410     8.7900     2.5170     0.2530   -38.5390     6.2760     7.2750
 1073.5000    94.5580     8.7960     2.5120     0.2540   -38.6300     6.2760     7.2820
 1074.0000    94.7690     8.8020     2.5090     0.2540   -38.7210     6.2770     7.2890
 1074.5000    97.0300     8.8080     2.5100     0.2520   -38.8120     6.2780     7.2950
 1075.0000    98.7370     8.8140     2.5110     0.2470   -38.9030     6.2760     7.3020
 1075.5000    98.8000     8.8210     2.5140     0.2400   -38.9950     6.3630     7.3090
 1076.0000    98.8010     8.8270     2.5100     0.2390   -39.0860     6.4120     7.3160
 1076.5000    98.8030     8.8330     2.5050     0.2380   -39.1770     6.5090     7.3230
 1077.0000    98.8090     8.8390     2.5010     0.2370   -39.2690     6.5090     7.3290
 1077.5000    98.7790     8.8310     2.5010     0.2370   -39.3600     6.5030     7.3420
 1078.0000    97.4070     8.8130     2.5110     0.2360   -39.4520     6.4980     7.3610
 1078.5000    95.9090     8.8010     2.5150     0.2370   -39.4680     6.4940     7.3810
 1079.0000    94.4160     8.8150     2.5120     0.2370   -39.4680     6.4890     7.4010
 1079.5000    93.6730     8.8330     2.5180     0.2380   -39.4710     6.4840     7.4200
 1080.0000    93.8980     8.8410     2.5220     0.2380   -39.2490     6.4790     7.4400
 1080.5000    95.1000     8.8320     2.5140     0.2380   -38.8980     6.4740     7.4600
 1081.0000    96.3420     8.8230     2.5100     0.2380   -38.5450     6.4700     7.4790
 1081.5000    97.6030     8.8140     2.5110     0.2380   -38.4580     6.4650     7.4990
 1082.0000    97.4240     8.8050     2.5150     0.2370   -38.4240     6.4600     7.5190
 1082.5000    96.1840     8.7960     2.5220     0.2370   -38.3910     6.4550     7.5350
 1083.0000    94.4840     8.7870     2.5230     0.2360   -38.3590     6.4510     7.5410
 1083.5000    92.7790     8.7780     2.5240     0.2360   -38.3250     6.4600     7.5480
 1084.0000    92.9370     8.7690     2.5290     0.2350   -38.2880     6.4720     7.5550
 1084.5000    93.9190     8.7620     2.5260     0.2350   -38.4150     6.4840     7.5610
 1085.0000    93.7710     8.7650     2.5230     0.2380   -38.5650     6.4960     7.5680
 1085.5000    92.2410     8.7680     2.5190     0.2390   -38.7180     6.5070     7.5750
 1086.0000    91.5490     8.7710     2.5180     0.2390   -38.8690     6.5190     7.5820
 1086.5000    92.9620     8.7740     2.5180     0.2380   -39.0230     6.5310     7.5880
 1087.0000    94.8300     8.7770     2.5170     0.2380   -39.0740     6.5430     7.5940
 1087.5000    96.6920     8.7800     2.5160     0.2370   -39.0750     6.5540     7.6010
 1088.0000    97.8100     8.7830     2.5160     0.2370   -39.0750     6.5690     7.5310
 1088.5000    98.1980     8.7880     2.5180     0.2360   -39.0750     6.5220     7.4570
 1089.0000    98.5910     8.7940     2.5200     0.2360   -39.0750     6.4380     7.3830
 1089.5000    99.0070     8.8000     2.5230     0.2360   -39.0750     6.3540     7.2720
 1090.0000    98.1240     8.8020     2.5240     0.2350   -39.0770     6.2700     7.3290
 1090.5000    96.9170     8.8000     2.5220     0.2350   -38.9440     6.2190     7.3270
 1091.0000    96.8800     8.7990     2.5200     0.2350   -38.7480     6.2190     7.3240
 1091.5000    97.2770     8.7970     2.5180     0.2350   -38.5500     6.2190     7.3220
 1092.0000    97.6340     8.7960     2.5210     0.2360   -38.3460     6.2190     7.3190
 1092.5000    97.6530     8.7950     2.5280     0.2360   -38.2890     6.2190     7.3170
 1093.0000    97.7260     8.7930     2.5330     0.2370   -38.2870     6.2190     7.3140
 1093.5000    97.7700     8.7920     2.5240     0.2380   -38.2870     6.2190     7.3120
 1094.0000    98.8950     8.7900     2.5160     0.2390   -38.2870     6.2190     7.3090
 1094.5000   100.2180     8.7890     2.5170     0.2410   -38.2870     6.2190     7.3070
 1095.0000   101.5500     8.7880     2.5150     0.2440   -38.2870     6.2190     7.3040
 1095.5000   102.3500     8.7860     2.5130     0.2430   -38.2870     6.2190     7.3010
 1096.0000   101.8170     8.7850     2.5170     0.2420   -38.2880     6.2190     7.2990
 1096.5000   101.2090     8.7830     2.5190     0.2410   -38.4050     6.2190     7.2960
 1097.0000   100.5790     8.7820     2.5170     0.2400   -38.5380     6.2190     7.2940
 1097.5000    99.3960     8.7770     2.5140     0.2400   -38.6720     6.2180     7.2910
 1098.0000    97.9180     8.7700     2.5120     0.2430   -38.8050     6.2330     7.2890
 1098.5000    96.6620     8.7630     2.5090     0.2490   -38.9380     6.2530     7.2860
 1099.0000    97.6820     8.7620     2.5160     0.2520   -39.0710     6.2740     7.2840
 1099.5000    99.8590     8.7620     2.5300     0.2520   -39.2040     6.2950     7.2810
 1100.0000   100.9580     8.7620     2.5440     0.2520   -39.2130     6.3150     7.2790
 1100.5000   100.7460     8.7450     2.5450     0.2530   -39.0990     6.3360     7.2760
 1101.0000   100.4480     8.7300     2.5410     0.2520   -38.9850     6.3570     7.2740
 1101.5000    99.7910     8.7140     2.5380     0.2470   -38.8700     6.3770     7.2710
 1102.0000    98.6390     8.6990     2.5660     0.2420   -38.7550     6.3910     7.2680
 1102.5000    97.4880     8.6830     2.5570     0.2390   -38.6400     6.3790     7.2660
 1103.0000    96.3190     8.6670     2.5320     0.2400   -38.5250     6.3700     7.2630
 1103.5000    96.1070     8.6520     2.5250     0.2450   -38.4090     6.3610     7.2610
 1104.0000    96.2440     8.6500     2.5250     0.2490   -38.2930     6.3510     7.2590
 1104.5000    96.3630     8.6700     2.5350     0.2470   -38.3530     6.3420     7.2570
 1105.0000    96.5990     8.6830     2.5450     0.2450   -38.4260     6.3330     7.2550
 1105.5000    96.0410     8.6800     2.5440     0.2430   -38.4980     6.3240     7.2530
 1106.0000    95.2340     8.6780     2.5380     0.2400   -38.5700     6.3140     7.2510
 1106.5000    94.8900     8.6750     2.5360     0.2340   -38.6420     6.3050     7.2490
 1107.0000    96.6230     8.6730     2.5370     0.2310   -38.7140     6.2960     7.2470
 1107.5000    98.3790     8.6700     2.5320     0.2310   -38.7860     6.2870     7.2450
