~VERSION INFORMATION
 VERS.                2.0:   CWLS LOG ASCII STANDARD - VERSION 2.0
 WRAP.                 NO:   ONE LINE PER DEPTH STEP
~WELL INFORMATION
#MNEM.UNIT      DATA TYPE    INFORMATION
#----------   ------------   ------------------------------
 STRT.F          200.0000:   START DEPTH
 STOP.F         3050.0000:   STOP DEPTH
 STEP.F            0.5000:   STEP LENGTH
 NULL.          -999.2500:   NO VALUE
 COMP.     FENIX & SISSON:   COMPANY
 WELL. FENIX & SISSON "AX" #16-28:   WELL
 FLD .              NPR 3:   FIELD
 LOC .      S28 T39N R78W:   LOCATION
 CNTY.            NATRONA:   COUNTY
 STAT.            WYOMING:   STATE
 CTRY. UNITED STATES OF AMERICA:   COUNTRY
 SRVC.      DRESSER ATLAS:   SERVICE COMPANY
 DATE.        01-JUL-1977:   LOGDATE
 API .     49025103930000:   API NUMBER
~CURVE INFORMATION
#MNEM.UNIT       API CODE    CURVE DESCRIPTION
#----------   ------------   ------------------------------
 DEPT.F                  :   
 CALD.IN     45 280 60 00:   CALIPER FROM DENSITY LOG
 GRD .GAPI   45 310 01 00:   GAMMA RAY FROM DENSITY LOG
 CORR.G/C3   45 356 01 00:   DENSITY CORRECTION
 TEND.LBS    45 635 01 00:   TENSION FROM DENSITY LOG
 SPR .MV     07 010 01 00:   SPONTANEOUS POTENTIAL
 ILD .OHMM   07 120 46 00:   DEEP INDUCTION RESISTIVITY
 ILM .OHMM   07 120 44 00:   INDUCTION LOG MEDIUM RESISTIVITY
 SFL .OHMM   07 220 01 00:   SHALLOW FOCUSED LOG RESISTIVITY
 RHOB.G/C3   45 350 01 00:   BULK DENSITY
~PARAMETER INFORMATION
#MNEM.UNIT          VALUE    DESCRIPTION
#----------   ------------   ------------------------------
 EKB .F         5067.0000:   Kelly bushing
 EGL .F         5057.0000:   Ground level
 EDF .F         5066.0000:   Drilling floor
 EPD .F            0.0000:   Permanent datum
 TD  .F         3036.0000:   Total depth
 DATE.        01-JUL-1977:   Date logged
 CLNT.            A2DTECH:   Client Code
 SL  . 1220' FSL & 330' FWL:   Surface Location
 PD  .                 GL:   Permanent Datum
 DAPD.F                10:   Feet Above Permanent Datum
 DD  .F              3034:   Depth driller
 DL  .F              3036:   Depth logger
 BLI .F              3034:   Bottom log interval
 TLI .F               214:   Top log interval
 CS1 .IN            8.625:   Casing size
 CBD1.      8.625" @ 204':   Casing driller 1
 CBL1.F               214:   Casing logger 1
 BS1 .IN            7.875:   Bit size
 BSD1.F              3034:   Depth drilled with bit1
 DFT .                KCL:   Type fluid in hole
 DFD .                  9:   Density
 DFV .                 34:   Viscosity
 DFPH.                7.2:   pH
 DFL .                8.8:   Fluid loss
 MSS .         CIRCULATED:   Source of sample
 RMS .OHMM           .112:   Rm
 MST .F                75:   Rm Meas. temp.
 RMF .OHMM           .085:   Rmf
 MFST.F                75:   Rmf Meas. temp.
 RMC .OHMM           .141:   Rmc
 MCST.F                75:   Rmc Meas. temp.
 MFSS.               MEAS:   Source Rmf.
 MCSS.               MEAS:   Source Rmc.
 RMB .OHMM           .067:   Rm. at BHT
 BHT .F               124:   BHT.
 TCS .HRS               1:   Time Circ. stopped
 MRT .F               124:   Maximum recorded temp.
 LUN .               6134:   Logging unit number
 LUL .              GLTTE:   Logging unit location
 ENGI.              GOULD:   Recorded By
 WITN.         PETTINGILL:   Witnessed by
 ORIG.       2.5"5" PRINT:   Origin of data
 UWI .     49025103930000:   Unique Well ID
 DICO. A2D TECHNOLOGIES, INC.:   Digitizing Company
~OTHER INFORMATION
~A   DEPT     CALD         GRD      CORR       TEND        SPR        ILD        ILM        SFL       RHOB   
# ...
 1879.0000     7.9170   102.7120     0.0240   -46.3550   -67.8470     7.1210     9.3420    13.4640     2.4880
 1879.5000     7.9190   103.4360     0.0290   -46.1900   -68.2350     7.1500     9.5540    13.0210     2.4930
 1880.0000     7.9200   102.0480     0.0330   -46.0250   -68.6170     7.1810     9.7670    13.4590     2.5000
 1880.5000     7.9220   101.8620     0.0330   -45.8600   -68.7030     7.2110     9.9790    14.1760     2.5010
 1881.0000     7.9230   102.4290     0.0250   -45.6950   -68.6860     7.2370    10.0700    15.3600     2.4940
 1881.5000     7.9250   102.4460     0.0170   -45.5300   -68.4680     7.3860    10.0700    15.2600     2.4790
 1882.0000     7.9270   101.5990     0.0090   -45.3650   -68.3100     7.5130    10.0700    14.9720     2.4720
 1882.5000     7.9280   102.5090     0.0090   -45.2000   -68.1910     7.6410    10.0700    14.5370     2.4750
 1883.0000     7.9300   103.6450     0.0140   -45.0350   -68.0920     7.7690    10.0700    14.8360     2.4930
 1883.5000     7.9310   104.0670     0.0210   -44.8700   -67.9910     7.8970    10.0700    15.4460     2.5120
 1884.0000     7.9330   102.1350     0.0290   -44.7050   -67.8870     8.0250    10.2960    16.0570     2.5210
 1884.5000     7.9350   100.7530     0.0310   -44.5390   -67.7870     8.1530    10.5590    16.5090     2.5240
 1885.0000     7.9360   101.4350     0.0230   -44.3740   -67.6870     8.2870    10.8230    16.4170     2.4970
 1885.5000     7.9380   103.3270     0.0150   -44.2090   -67.5720     8.4300    11.0380    16.3250     2.4570
 1886.0000     7.9390   104.2660     0.0130   -44.0440   -67.5700     8.5730    10.8000    16.2290     2.4660
 1886.5000     7.9410   103.8080     0.0220   -43.8790   -67.7420     8.6950    10.5980    17.7160     2.4850
 1887.0000     7.9420   103.0900     0.0300   -43.7140   -67.9120     8.5610    10.3970    17.5590     2.4940
 1887.5000     7.9440   103.3750     0.0280   -43.5490   -68.1640     8.4450    10.1950    17.2440     2.4880
 1888.0000     7.9460   105.2450     0.0170   -43.3840   -68.4430     8.3280     9.8870    17.1480     2.4790
 1888.5000     7.9470   106.1690     0.0170   -43.2190   -68.7170     8.2110     9.9100    17.1480     2.4810
 1889.0000     7.9530   105.4150     0.0230   -43.0540   -68.9940     8.0940     9.9600    17.1480     2.4880
 1889.5000     7.9580   104.2730     0.0300   -42.8890   -69.2730     7.9780    10.0100    16.6700     2.4970
 1890.0000     7.9640   103.4330     0.0360   -42.7240   -69.4840     7.8610    10.0600    15.5560     2.5250
 1890.5000     7.9650   103.7790     0.0370   -42.5590   -69.4850     7.7440    10.2290    14.4410     2.5240
 1891.0000     7.9350   102.8870     0.0360   -42.3940   -69.4930     7.6460    10.4280    13.5080     2.5290
 1891.5000     7.9050   101.9430     0.0340   -42.2290   -69.4560     7.7740    10.6400    14.5560     2.5320
 1892.0000     7.8750   102.1280     0.0330   -42.0640   -69.3580     7.8840    10.4640    18.5460     2.5190
 1892.5000     7.8460   102.4140     0.0330   -41.8990   -69.2630     7.9940    10.2570    17.9620     2.5150
 1893.0000     7.8820   101.1140     0.0340   -41.7340   -69.1650     8.1030    10.2570    16.7930     2.5220
 1893.5000     7.9150   100.0520     0.0390   -41.5690   -69.0820     8.2130    10.5060    16.1000     2.5260
 1894.0000     7.9450   101.0960     0.0440   -41.4040   -69.0340     8.3230    10.7360    16.7260     2.5300
 1894.5000     7.9180   102.5650     0.0480   -41.2390   -68.9850     8.4330    10.9660    17.4660     2.5330
 1895.0000     7.8910   103.2950     0.0530   -41.0740   -68.9370     8.5420    11.1960    16.5300     2.5500
 1895.5000     7.8800   103.9800     0.0580   -40.9090   -68.8880     8.6520    11.4260    17.3350     2.5590
 1896.0000     7.9490   104.6500     0.0630   -40.7440   -68.8410     8.7620    11.6560    18.6950     2.5610
 1896.5000     8.0060   105.6750     0.0640   -40.5790   -68.7910     8.8560    11.8860    19.8610     2.5580
 1897.0000     7.9900   106.7370     0.0520   -40.4140   -68.7450     8.9400    12.1160    19.8610     2.5440
 1897.5000     7.9750   106.5520     0.0390   -40.2490   -68.7070     9.0140    12.3460    19.8610     2.5230
 1898.0000     7.9610   105.3890     0.0310   -40.0840   -68.7680     9.0880    12.5770    19.8610     2.5110
 1898.5000     7.9470   105.5980     0.0360   -39.9190   -68.8270     9.1870    12.8070    19.8610     2.5190
 1899.0000     7.9470   106.2080     0.0390   -39.7540   -68.8880     9.1510    13.0370    19.8610     2.5240
 1899.5000     7.9470   104.7670     0.0340   -39.5890   -68.9480     9.0960    13.2620    19.8610     2.5100
 1900.0000     7.9470   103.4410     0.0290   -39.4240   -69.0130     9.0400    13.5760    19.8610     2.5000
 1900.5000     7.9470   102.7400     0.0290   -39.2580   -69.0550     8.9850    14.0130    19.9970     2.5040
 1901.0000     7.9430   102.0560     0.0290   -39.0930   -69.2670     8.9300    13.8930    20.3440     2.5130
 1901.5000     7.9390   102.1070     0.0280   -38.9280   -69.6180     8.8740    13.6870    20.6910     2.5100
 1902.0000     7.9350   103.6370     0.0250   -38.7630   -69.9340     8.8190    13.4810    20.9850     2.5070
 1902.5000     7.9310   103.5990     0.0210   -38.5980   -70.2540     8.7640    13.2620    19.8610     2.4910
 1903.0000     7.9280   103.5250     0.0170   -38.4330   -70.2710     8.7090    13.4290    18.4570     2.4960
 1903.5000     7.9240   103.4730     0.0080   -38.2680   -70.2900     8.6530    13.7410    16.8360     2.4760
 1904.0000     7.9200   104.6420    -0.0060   -38.1030   -70.1670     8.5980    14.0530    16.8360     2.4300
 1904.5000     7.9160   103.8350    -0.0260   -37.9380   -69.9400     8.5370    14.2730    19.4070     2.3660
 1905.0000     7.9120   102.6550    -0.0380   -37.7730   -69.7250     8.5710    14.5000    20.6030     2.3570
 1905.5000     7.9080   102.8300    -0.0120   -37.6080   -69.5080     8.6100    14.4720    20.6030     2.4030
 1906.0000     7.9040   103.1290     0.0200   -37.4430   -69.2900     8.6500    14.2310    20.4620     2.4770
 1906.5000     7.9000   103.1200     0.0310   -37.2780   -69.0730     8.6950    13.9910    20.1570     2.5120
 1907.0000     7.8960   104.1920     0.0410   -37.1130   -68.8540     8.9200    13.7580    19.8610     2.5410
 1907.5000     7.8930   105.2060     0.0470   -36.9480   -68.6680     9.1880    13.8880    18.5700     2.5460
 1908.0000     7.8890   105.2760     0.0470   -36.7830   -68.5420     9.4560    14.0130    16.5300     2.5420
 1908.5000     7.8850   106.2120     0.0450   -36.7060   -68.4230     9.7230    14.0130    17.9120     2.5270
 1909.0000     7.8810   106.7950     0.0420   -36.7060   -68.3230     9.8870    13.1050    19.2830     2.5320
 1909.5000     7.8770   105.4100     0.0400   -36.7060   -68.4820     9.9870    12.3480    19.8610     2.5260
 1910.0000     7.8730   104.0970     0.0370   -36.7060   -68.6380    10.0880    11.5910    19.8610     2.5200
 1910.5000     7.8690   104.6210     0.0350   -36.7060   -68.8060    10.2570    10.8330    19.8610     2.5260
 1911.0000     7.8700   106.1790     0.0330   -36.7060   -68.9660    10.1880    10.5760    18.7970     2.5140
 1911.5000     7.8730   106.2470     0.0310   -36.7060   -69.1380     9.9860    10.4900    19.8610     2.5170
 1912.0000     7.8760   106.9470     0.0280   -36.7060   -69.3320     9.7830    10.4040    19.4950     2.5180
 1912.5000     7.8800   108.2910     0.0260   -36.7060   -69.5280     9.5810    10.2750    18.4550     2.5100
 1913.0000     7.8830   109.3060     0.0240   -36.7060   -69.7250     9.3790    10.2820    18.4550     2.5020
 1913.5000     7.8870   108.1030     0.0220   -36.7060   -69.8780     9.1760    10.3680    17.7000     2.4930
 1914.0000     7.8900   105.6160     0.0180   -36.7060   -69.8820     8.9740    10.4540    16.1320     2.4820
 1914.5000     7.8940   103.6830     0.0140   -36.7060   -69.8820     8.7720    10.5400    14.0130     2.4720
 1915.0000     7.8970   104.2990     0.0040   -36.7060   -69.8720     8.5370    10.6400    15.3600     2.4600
