~VERSION INFORMATION
 VERS.                2.0:   CWLS LOG ASCII STANDARD - VERSION 2.0
 WRAP.                 NO:   ONE LINE PER DEPTH STEP
~WELL INFORMATION
#MNEM.UNIT      DATA TYPE    INFORMATION
#----------   ------------   ------------------------------
 STRT.F           15.0000:   START DEPTH
 STOP.F         2952.5000:   STOP DEPTH
 STEP.F            0.5000:   STEP LENGTH
 NULL.          -999.2500:   NO VALUE
 COMP.    FENIX & SCISSON:   COMPANY
 WELL.  FENIX "AX" #64-29:   WELL
 FLD .  TEAPOT DOME NPR-3:   FIELD
 LOC .      S29 T39N R78W:   LOCATION
 CNTY.            NATRONA:   COUNTY
 STAT.            WYOMING:   STATE
 CTRY. UNITED STATES OF AMERICA:   COUNTRY
 SRVC.           BIRDWELL:   SERVICE COMPANY
 DATE.        02-MAY-1978:   LOGDATE
 API .     49025106460000:   API NUMBER
~CURVE INFORMATION
#MNEM.UNIT       API CODE    CURVE DESCRIPTION
#----------   ------------   ------------------------------
 DEPT.F                  :   
 SPR .MV     05 010 01 00:   SPONTANEOUS POTENTIAL
 IL  .OHMM   05 120 00 00:   INDUCTION RESISTIVITY
 SN  .OHMM   05 040 16 00:   SHORT NORMAL 16"
 CALD.IN     45 280 60 00:   CALIPER FROM DENSITY LOG
 GRD .GAPI   45 310 01 00:   GAMMA RAY FROM DENSITY LOG
 CORR.G/C3   45 356 01 00:   DENSITY CORRECTION
 RHOB.G/C3   45 350 01 00:   BULK DENSITY
~PARAMETER INFORMATION
#MNEM.UNIT          VALUE    DESCRIPTION
#----------   ------------   ------------------------------
 EKB .F         4993.0000:   Kelly bushing
 EGL .F         4983.0000:   Ground level
 EDF .F            0.0000:   Drilling floor
 TD  .F         2952.0000:   Total depth
 DATE.        02-MAY-1978:   Date logged
 CLNT.            A2DTECH:   Client Code
 SL  . 2150' FNL & 1560' FEL:   Surface Location
 PD  .                 GL:   Permanent Datum
 DD  .F              2950:   Depth driller
 DL  .F              2952:   Depth logger
 BLI .F              2947:   Bottom log interval
 CBL1.F               150:   Casing logger 1
 BS1 .IN            7.875:   Bit size
 DFT .                GEL:   Type fluid in hole
 DFD .                8.7:   Density
 DFV .                 30:   Viscosity
 DFPH.                 10:   pH
 DFL .                7.6:   Fluid loss
 MSS .            MUD PIT:   Source of sample
 RMS .OHMM            1.3:   Rm
 MST .F                62:   Rm Meas. temp.
 RMF .OHMM            .95:   Rmf
 MFST.F                64:   Rmf Meas. temp.
 RMC .OHMM              1:   Rmc
 MCST.F                64:   Rmc Meas. temp.
 MFSS.               MEAS:   Source Rmf.
 RMB .OHMM            .73:   Rm. at BHT
 BHT .F               110:   BHT.
 TCS .HRS               3:   Time Circ. stopped
 MRT .F               110:   Maximum recorded temp.
 LUN .               2958:   Logging unit number
 LUL .               CASP:   Logging unit location
 ENGI.             MILLER:   Recorded By
 WITN.           MCGINLEY:   Witnessed by
 ORIG.         2.5" PRINT:   Origin of data
 UWI .     49025106460000:   Unique Well ID
 DICO. A2D TECHNOLOGIES, INC.:   Digitizing Company
 DAPD.                 10:   Feet Above Permanent Datum
 BSD1.F              2950:   Depth drilled with bit1
 EPD .F              4983:   Elevation Permanent Datum
 LMF .                 KB:   Log Measured From
 DMF .                 KB:   Drilling Measured From
 TLI .F               150:   Top log interval
~OTHER INFORMATION
~A   DEPT      SPR         IL         SN       CALD        GRD       CORR       RHOB   
# ...
  333.5000   -72.7680     9.2170     8.1680    12.1120    75.5380     0.1130     2.5060
  334.0000   -72.7640     9.0690     8.1150    12.1120    79.4180     0.1090     2.5080
  334.5000   -72.7610     8.9210     8.0610    12.1120    83.6090     0.1060     2.5100
  335.0000   -72.7570     8.7450     8.0080    12.1120    85.6660     0.1030     2.5090
  335.5000   -72.7530     8.6560     7.9620    12.1120    86.2870     0.1000     2.5080
  336.0000   -72.7490     8.5470     7.9260    12.1120    86.8910     0.0970     2.5060
  336.5000   -72.7460     8.4370     7.8900    12.1120    86.8750     0.0960     2.5050
  337.0000   -72.7420     8.3280     7.8550    12.1120    82.0330     0.1020     2.5030
  337.5000   -72.7380     8.2180     7.8190    12.1120    78.7730     0.1070     2.5000
  338.0000   -72.7350     8.1090     7.7830    12.1120    81.1760     0.1120     2.4980
  338.5000   -72.7310     7.9990     7.7470    12.1120    83.3600     0.1180     2.4950
  339.0000   -72.7270     7.8890     7.7120    12.1120    84.0530     0.1230     2.4920
  339.5000   -72.7230     7.7800     7.6760    12.1120    82.7890     0.1290     2.4950
  340.0000   -72.7200     7.6700     7.6400    12.1120    80.7460     0.1310     2.5000
  340.5000   -72.7160     7.5610     7.6050    12.1120    78.8890     0.1310     2.4960
  341.0000   -72.7120     7.4510     7.5690    12.1120    76.6770     0.1310     2.4920
  341.5000   -72.7090     7.3420     7.5330    12.1120    80.0760     0.1310     2.4870
  342.0000   -72.7060     7.2320     7.4970    12.1120    83.9240     0.1310     2.4890
  342.5000   -72.7030     7.1440     7.4620    12.1120    86.9990     0.1320     2.4930
  343.0000   -72.7000     7.1090     7.4260    12.1120    84.4490     0.1370     2.4890
  343.5000   -72.6970     7.0800     7.3910    12.1120    82.4480     0.1420     2.4810
  344.0000   -72.6940     7.0510     7.3550    12.1120    80.5040     0.1480     2.4820
  344.5000   -72.6910     7.0210     7.3190    12.1120    80.4290     0.1530     2.4810
  345.0000   -72.6880     6.9920     7.2770    12.1120    80.4760     0.1580     2.4800
  345.5000   -72.6850     6.9630     7.1600    12.1120    80.5120     0.1560     2.4810
  346.0000   -72.6820     6.9340     7.0150    12.1120    82.1460     0.1540     2.4740
  346.5000   -72.6790     6.9050     6.8710    12.1120    83.9140     0.1510     2.4650
  347.0000   -72.6760     6.7200     6.7260    12.1120    84.0880     0.1490     2.4560
  347.5000   -72.6730     6.4910     6.5820    12.1120    81.5330     0.1460     2.4450
  348.0000   -72.6700     6.4480     6.4380    12.1120    79.3920     0.1420     2.4330
  348.5000   -72.6670     6.4050     6.2930    12.1120    79.8510     0.1550     2.4020
  349.0000   -72.6640     6.3620     6.0540    12.1120    79.8260     0.1770     2.3550
  349.5000   -72.6620     6.3190     6.0780    12.1120    77.9490     0.1970     2.3630
  350.0000   -72.6590     6.2750     6.1460    12.1120    76.7130     0.1800     2.4040
  350.5000   -72.6560     6.2320     6.2150    12.1120    79.5330     0.1430     2.4400
  351.0000   -72.6530     6.1890     6.2830    12.1120    82.0120     0.1280     2.4790
  351.5000   -72.6500     6.1670     6.3510    12.1120    83.4770     0.1270     2.4840
  352.0000   -72.6470     7.0440     6.5510    12.1110    83.6400     0.1250     2.4850
  352.5000   -72.6440     7.4110     7.0320    12.1090    83.9040     0.1230     2.4970
  353.0000   -72.6410     7.7900     7.1700    12.1070    84.2360     0.1210     2.5010
  353.5000   -72.6380     8.1190     7.2040    12.1050    84.4680     0.1190     2.5040
  354.0000   -72.6350     8.4290     7.2380    12.1030    84.6890     0.1170     2.5000
  354.5000   -72.6320     8.4050     7.2760    12.1010    83.0410     0.1150     2.4900
  355.0000   -72.6290     8.3820     7.8310    12.0990    80.3860     0.1250     2.4810
  355.5000   -72.6260     8.3590     7.8250    12.0960    81.2550     0.1350     2.4770
  356.0000   -72.6230     8.3360     7.8070    12.0940    82.7030     0.1400     2.4830
  356.5000   -72.6200     8.3130     7.7890    12.0920    82.7780     0.1400     2.4880
  357.0000   -72.6170     8.2910     7.7710    12.0900    82.5670     0.1410     2.4790
  357.5000   -72.6140     8.2680     7.7520    12.0880    82.3830     0.1420     2.4630
  358.0000   -72.6120     8.2450     7.7340    12.0860    79.1200     0.1470     2.4500
  358.5000   -72.6090     8.2220     7.7160    12.0840    79.0870     0.1570     2.4340
  359.0000   -72.6060     8.1990     7.6980    12.0810    80.5460     0.1660     2.4250
  359.5000   -72.6030     8.1760     7.6790    12.0810    81.8670     0.1740     2.4210
  360.0000   -72.6000     8.1530     7.6610    12.0760    79.8180     0.1760     2.4160
  360.5000   -72.5970     8.1310     7.6430    12.0730    77.8600     0.1780     2.4060
  361.0000   -72.5940     8.1080     7.6250    12.0850    75.6400     0.1790     2.3950
  361.5000   -72.5910     8.0850     7.6060    11.9090    74.8760     0.1810     2.3830
  362.0000   -72.5880     8.0630     7.5880    11.6020    75.1480     0.1830     2.3720
  362.5000   -72.5850     8.0400     7.5700    11.5960    75.2870     0.1840     2.3670
  363.0000   -72.5820     8.0180     7.5490    11.5940    75.4760     0.1860     2.3640
  363.5000   -72.5790     7.9930     7.3850    11.5780    75.7260     0.1840     2.3600
  364.0000   -72.5760     7.8580     7.1890    11.7900    77.0390     0.1770     2.3470
  364.5000   -72.5730     7.4440     6.9930    12.1390    77.7380     0.1710     2.3310
  365.0000   -72.5700     7.0140     6.7970    12.1470    78.6520     0.1640     2.3100
  365.5000   -72.5670     7.0140     6.6370    12.1470    79.4770     0.1580     2.2900
  366.0000   -72.5640     7.0140     6.3510    12.1440    83.3200     0.1390     2.2730
  366.5000   -72.5610     6.8270     6.1100    12.1410    84.4240     0.1230     2.2140
  367.0000   -72.5590     6.6450     5.8690    12.1390    84.3080     0.1120     2.1280
  367.5000   -72.5560     6.4630     5.6280    12.1360    84.1300     0.1110     2.0400
  368.0000   -72.5530     6.2810     5.4220    12.1330    84.0160     0.1140     1.9680
  368.5000   -72.5500     5.6910     4.8990    12.1300    80.7270     0.1240     1.9000
  369.0000   -72.5470     4.6800     4.4430    12.1280    76.4770     0.1200     1.8430
  369.5000   -72.5440     3.8240     3.9860    12.1250    72.1870     0.1080     1.7810
  370.0000   -72.5410     2.6960     3.5300    12.1230    68.0300     0.0970     1.7580
  370.5000   -72.5380     2.6960     3.1240    12.1200    63.7530     0.0820     1.7600
  371.0000   -72.5350     2.7500     3.1000    12.1170    59.3830     0.1080     1.7620
  371.5000   -72.5320     2.8240     3.0670    12.1150    57.9200     0.1840     1.7630
  372.0000   -72.5290     2.9360     3.1300    12.1120    63.1410     0.2440     1.8520
  372.5000   -72.5260     2.9020     3.2920    12.1100    68.1490     0.2380     2.0240
  373.0000   -72.5230     3.5700     3.4530    12.1070    73.2580     0.2330     2.1730
  373.5000   -72.5200     4.3610     3.6140    12.1040    78.4240     0.2260     2.2320
  374.0000   -72.5170     5.1510     3.7540    12.1020    80.4530     0.2190     2.2130
  374.5000   -72.5140     5.9420     5.2690    12.0990    80.9940     0.2230     2.1940
  375.0000   -72.5110     6.8860     5.7290    12.0970    81.2960     0.2270     2.1790
  375.5000   -72.5090     6.8860     5.9080    12.0940    81.9300     0.2320     2.1770
  376.0000   -72.5060     6.8860     6.1300    12.0910    77.8280     0.2370     2.1690
  376.5000   -72.5030     6.9130     6.3510    12.0890    78.0260     0.2420     2.1510
  377.0000   -72.5000     6.9450     6.5730    12.0860    78.3800     0.2460     2.1360
  377.5000   -72.4970     6.9770     6.7600    12.0840    78.2970     0.2510     2.1260
  378.0000   -72.4940     7.0080     6.8050    12.0810    82.5840     0.2550     2.1210
  378.5000   -72.4910     7.0400     6.8430    12.0780    90.2440     0.2560     2.1190
