~VERSION INFORMATION
 VERS.                2.0:   CWLS LOG ASCII STANDARD - VERSION 2.0
 WRAP.                 NO:   ONE LINE PER DEPTH STEP
~WELL INFORMATION
#MNEM.UNIT      DATA TYPE    INFORMATION
#----------   ------------   ------------------------------
 STRT.F          199.0000:   START DEPTH
 STOP.F         2951.0000:   STOP DEPTH
 STEP.F            0.5000:   STEP LENGTH
 NULL.          -999.2500:   NO VALUE
 COMP.    FENIX & SCISSON:   COMPANY
 WELL. FENIX & SCISSON "A" #3-21:   WELL
 FLD .              XPR-3:   FIELD
 LOC .      S21 T39N R78W:   LOCATION
 CNTY.            NATRONA:   COUNTY
 STAT.            WYOMING:   STATE
 CTRY. UNITED STATES OF AMERICA:   COUNTRY
 SRVC.              WELEX:   SERVICE COMPANY
 DATE.        27-JUN-1977:   LOGDATE
 API .     49025103880000:   API NUMBER
~CURVE INFORMATION
#MNEM.UNIT       API CODE    CURVE DESCRIPTION
#----------   ------------   ------------------------------
 DEPT.F                  :   
 CALD.IN     45 280 60 00:   CALIPER FROM DENSITY LOG
 GRD .GAPI   45 310 01 00:   GAMMA RAY FROM DENSITY LOG
 CORR.G/C3   45 356 01 00:   DENSITY CORRECTION
 RHOB.G/C3   45 350 01 00:   BULK DENSITY
 SPR .MV     07 010 01 00:   SPONTANEOUS POTENTIAL
 ILD .OHMM   07 120 46 00:   DEEP INDUCTION RESISTIVITY
 ILM .OHMM   07 120 44 00:   INDUCTION LOG MEDIUM RESISTIVITY
 SGRD.OHMM   07 220 05 00:   SHALLOW SHORT GUARD RESISTIVITY
~PARAMETER INFORMATION
#MNEM.UNIT          VALUE    DESCRIPTION
#----------   ------------   ------------------------------
 EKB .F         4981.0000:   Kelly bushing
 EGL .F         4971.0000:   Ground level
 TD  .F         2953.0000:   Total depth
 CLNT.            A2DTECH:   Client Code
 SL  . 330' FSL & 1650' FWL:   Surface Location
 DATE.        27-JUN-1977:   Date Logged [DD-MMM-YYYY]
 DD  .F              2930:   Depth driller
 DL  .F              2953:   Depth logger
 BLI .F              2951:   Bottom log interval
 TLI .F               200:   Top log interval
 CS1 .              8.625:   Casing size
 CBD1.      8.625" @ 217':   Casing driller 1
 BS1 .IN            7.875:   Bit size
 BSD1.F              2930:   Depth drilled with bit1
 DFT .            KCL MUD:   Type fluid in hole
 DFD .                9.4:   Density
 DFV .                 37:   Viscosity
 DFPH.                9.0:   pH
 DFL .               16.0:   Fluid loss
 MSS .           FLOWLINE:   Source of sample
 RMS .OHMM           1.10:   Rm
 MST .F                92:   Rm Meas. temp.
 RMF .OHMM           0.85:   Rmf
 MFST.F                92:   Rmf Meas. temp.
 MFSS.           FANN KIT:   Source Rmf.
 RMC .OHMM           1.44:   Rmc
 MCST.F                92:   Rmc Meas. temp.
 MCSS.           FANN KIT:   Source Rmc.
 RMB .OHMM           0.93:   Rm. at BHT
 BHT .F               109:   BHT.
 TCS .HRS            0230:   Time Circ. stopped
 MRT .F               109:   Maximum recorded temp.
 LUN .               8611:   Logging unit number
 LUL .             CASPER:   Logging unit location
 ENGI.         G. BENTSEN:   Recorded By
 WITN.  MR. W. PETTINGILL:   Witnessed by
 ORIG.      2.5" 5" PRINT:   Origin of data
 UWI .     49025103880000:   Unique Well ID
 DICO. A2D TECHNOLOGIES, INC.:   Digitizing Company
 PD  .                 GL:   Permanent Datum
 EPD .               4971:   Elevation Permanent Datum
 LMF .                 KB:   Log Measured From
 DMF .                 KB:   Drilling Measured From
 DAPD.                 10:   Feet Above Permanent Datum
~OTHER INFORMATION
~A   DEPT       CALD       GRD       CORR        RHOB      SPR        ILD        ILM       SGRD   
# ...
  725.5000     9.4239    70.1999     0.0285     2.5495   -42.1157     7.0301     8.3133    10.5070
  726.0000     9.4248    71.5976     0.0271     2.5449   -42.2433     7.0362     8.2021    10.1555
  726.5000     9.4241    72.8375     0.0257     2.5433   -43.4094     6.9455     8.2063     9.8157
  727.0000     9.4544    73.7678     0.0255     2.5418   -44.4272     6.9514     8.0966     9.5528
  727.5000     9.4537    74.6130     0.0193     2.5403   -45.7417     6.9572     7.9899     9.2970
  728.0000     9.4531    75.2322     0.0131     2.5403   -45.8694     6.9629     8.0480     9.3652
  728.5000     9.4525    74.9676     0.0102     2.5387   -45.5517     6.9687     8.1120     9.6974
  729.0000     9.4519    73.2354     0.0102     2.5388   -44.9374     6.9745     8.1669     9.9724
  729.5000     9.4512    70.8423     0.0102     2.5403   -45.3617     6.9802     8.1703    10.1849
  730.0000     9.4506    69.6904     0.0102     2.5434   -46.3795     6.9860     8.2302     9.9122
  730.5000     9.4500    68.9461     0.0103     2.5450   -46.9525     6.9918     8.2336     9.8482
  731.0000     9.4494    70.3745     0.0103     2.5435   -46.1895     6.9976     8.4671    10.1975
  731.5000     9.4488    71.6147     0.0103     2.5404   -44.9817     7.0034     8.4706    10.5592
  732.0000     9.4482    72.5448     0.0103     2.5389   -44.2191     7.0092     8.1872    10.5636
  732.5000     9.4784    73.3747     0.0103     2.5404   -43.7532     7.0149     8.0222    10.2807
  733.0000     9.4778    73.5823     0.0103     2.5435   -42.9905     7.0205     7.9166    10.0055
  733.5000     9.4772    72.4441     0.0097     2.5357   -41.9312     6.9731     7.8647     9.9409
  734.0000     9.4766    70.8917     0.0004     2.5125   -41.3169     6.8412     7.8687     9.9450
  734.5000     9.4760    69.7555    -0.0059     2.5049   -40.7026     6.8470     7.8171     9.9491
  735.0000     9.4445    70.1858    -0.0090     2.5034   -40.0883     6.8526     7.7667     9.7496
  735.5000     9.4439    72.1567    -0.0113     2.5019   -40.2159     6.8067     7.7707     9.4886
  736.0000     9.4433    73.9071    -0.0144     2.5018   -40.0467     6.6774     7.9363     9.2345
  736.5000     9.4426    75.7677    -0.0144     2.4988   -39.9812     6.6371     8.0497     9.4964
  737.0000     9.4420    77.5139    -0.0144     2.4957   -40.7469     6.5970     7.9977     9.7658
  737.5000     9.4413    78.8316    -0.0144     2.4940   -40.1327     6.5536     7.7836     9.9053
  738.0000     9.4407    77.9753    -0.0144     2.4894   -40.0871     6.5176     7.5744     9.4429
  738.5000     9.4401    76.4226    -0.0143     2.4865   -40.5362     6.5231     7.4738     8.9403
  739.0000     9.4395    74.8699    -0.0112     2.4920   -41.1088     6.5736     7.5814     8.7009
  739.5000     9.4389    73.6271    -0.0081     2.5007   -41.2364     6.5790     7.7430     9.0095
  740.0000     9.4382    73.2511    -0.0038     2.5039   -42.2542     6.5844     7.7529     9.5898
  740.5000     9.4376    74.6130    -0.0019     2.5051   -42.8268     6.5899     7.8024     9.7941
  741.0000     9.4539    75.8514     0.0013     2.5051   -42.2125     6.5953     7.8057     9.7981
  741.5000     9.4673    77.0898     0.0013     2.5021   -41.1532     6.6464     7.8090     9.7349
  742.0000     9.4666    77.3993     0.0044     2.4990   -40.6872     6.6978     7.8661     9.5397
  742.5000     9.4660    77.8870     0.0044     2.5157   -40.5181     6.7497     7.6555     9.5436
  743.0000     9.4654    77.8855     0.0044     2.5226   -40.6456     6.8041     7.6587     9.8143
  743.5000     9.4648    78.0186     0.0045     2.5253   -40.9216     6.9019     7.6619    10.0234
  744.0000     9.4642    78.1919     0.0045     2.5228   -40.9008     6.8113     7.6651     9.6880
  744.5000     9.4636    78.1904     0.0045     2.5181   -41.1767     6.7239     7.6155     9.2358
  745.0000     9.4628    78.1888     0.0045     2.5134   -41.4526     6.5935     7.4628     9.1762
  745.5000     9.4622    77.1732     0.0045     2.5056   -41.5802     6.5989     7.3608     9.3073
  746.0000     9.4925    74.6627     0.0076     2.4960   -42.0097     6.6044     7.3163     9.5713
  746.5000     9.4919    72.9426     0.0095     2.5003   -42.1372     6.6555     7.3699     9.7752
  747.0000     9.4912    71.6996     0.0108     2.5066   -42.1112     6.6610     7.4794     9.8468
  747.5000     9.5216    70.9133     0.0139     2.5128   -41.9421     6.6665     7.6872     9.8509
  748.0000     9.5209    69.9814     0.0170     2.5191   -41.4762     6.6263     7.6904     9.7201
  748.5000     9.5203    69.5093     0.0232     2.5253   -41.0102     6.6317     7.6408     9.5911
  749.0000     9.5506    70.1208     0.0233     2.5301   -40.5443     6.5914     7.5908     9.5950
  749.5000     9.5808    70.8979     0.0233     2.5363   -40.2268     6.5518     7.3876    10.0041
  750.0000     9.6110    71.6718     0.0233     2.5386   -40.0576     6.4676     7.1455    10.3589
  750.5000     9.6414    72.1363     0.0233     2.5340   -40.0368     6.6065     6.9521     9.6070
  751.0000     9.6715    72.2879     0.0233     2.5325   -40.0160     6.6558     6.9569     7.8165
  751.5000     9.7018    72.4458     0.0233     2.5389   -39.9952     6.7517     7.0098     7.6598
  752.0000     9.7320    72.5944     0.0234     2.5474   -40.5679     6.8491     7.2106     9.6189
  752.5000     9.7623    73.0650     0.0234     2.5528   -41.2941     6.9478     7.5200    10.4521
  753.0000     9.7925    73.8482     0.0234     2.5543   -41.5648     7.0480     7.7889    10.6748
  753.5000     9.8229    74.7786     0.0234     2.5534   -41.6976     7.1496     8.0674     9.5647
  754.0000     9.7913    75.8513     0.0234     2.5519   -41.9683     7.2527     8.1849    10.6836
  754.5000     9.7289    77.0898     0.0203     2.5488   -42.8377     7.2068     8.3042    11.3717
  755.0000     9.6666    78.1888     0.0172     2.5458   -42.5202     7.4122     8.3673    11.4550
  755.5000     9.6351    79.4288     0.0141     2.5442   -42.2026     7.6233     8.4309    11.0717
  756.0000     9.6036    80.6687     0.0111     2.5535   -42.9237     7.7332     8.6129    11.0003
  756.5000     9.5721    81.7338     0.0080     2.5613   -43.1996     7.8447     8.7384    11.1575
  757.0000     9.5098    81.6903     0.0080     2.5659   -43.1788     7.9578     8.8657    11.5533
  757.5000     9.5092    80.7586     0.0080     2.5721   -43.3116     8.0171     8.8718    11.8810
  758.0000     9.5086    79.9566     0.0142     2.5798   -43.2855     8.0215     8.8779    11.6428
  758.5000     9.5080    79.0232     0.0267     2.5891   -43.1164     8.0260     8.8840    11.6476
  759.0000     9.5073    77.7800     0.0298     2.5938   -42.7988     7.9752     8.8901    11.7329
  759.5000     9.5067    76.5372     0.0298     2.5984   -42.7780     8.0348     8.9577    11.9006
  760.0000     9.5061    75.0461     0.0298     2.6031   -42.6088     8.0947     9.0258    12.0707
  760.5000     9.5055    74.1158     0.0267     2.6016   -42.2913     8.0993     9.0944    11.9780
  761.0000     9.5049    72.5663     0.0205     2.5892   -41.9738     8.1037     9.1636    11.7431
  761.5000     9.5043    71.6359     0.0143     2.5722   -41.9530     8.1090     8.9823    11.8324
  762.0000     9.5037    70.7056     0.0112     2.5614   -41.9322     8.0567     8.9268    11.7592
  762.5000     9.4722    69.7753     0.0113     2.5630   -42.5100     7.9509     8.9329    11.7673
  763.0000     9.4716    71.3217     0.0175     2.5707   -42.4840     7.9564     8.8769    11.4553
  763.5000     9.5018    73.7969     0.0238     2.5769   -42.0181     7.7980     8.8228    11.1514
  764.0000     9.5012    75.9626     0.0300     2.5816   -41.5522     7.6428     8.8289    10.9308
  764.5000     9.5006    77.1994     0.0298     2.5831   -41.9765     7.4393     8.8349    10.9385
  765.0000     9.5000    75.9595     0.0236     2.5770   -42.5492     7.3406     8.7161    10.9460
  765.5000     9.4685    72.5524     0.0174     2.5677   -42.9735     7.2942     8.5475    10.8036
