~VERSION INFORMATION
 VERS.                2.0:   CWLS LOG ASCII STANDARD - VERSION 2.0
 WRAP.                 NO:   ONE LINE PER DEPTH STEP
~WELL INFORMATION
#MNEM.UNIT      DATA TYPE    INFORMATION
#----------   ------------   ------------------------------
 STRT.F          210.0000:   START DEPTH
 STOP.F         3128.0000:   STOP DEPTH
 STEP.F            0.5000:   STEP LENGTH
 NULL.          -999.2500:   NO VALUE
 COMP.    PENIX & SCISSON:   COMPANY
 WELL. FENIX NPR 3 "A" #14-27:   WELL
 FLD .                NPR:   FIELD
 LOC .      S27 T39N R78W:   LOCATION
 CNTY.            NATRONA:   COUNTY
 STAT.            WYOMING:   STATE
 CTRY. UNITED STATES OF AMERICA:   COUNTRY
 SRVC.      DRESSER ATLAS:   SERVICE COMPANY
 DATE.        31-AUG-1977:   LOGDATE
 API .     49025104280000:   API NUMBER
~CURVE INFORMATION
#MNEM.UNIT       API CODE    CURVE DESCRIPTION
#----------   ------------   ------------------------------
 DEPT.F                  :   
 GRD .GAPI   45 310 01 00:   GAMMA RAY FROM DENSITY LOG
 CALD.IN     45 280 60 00:   CALIPER FROM DENSITY LOG
 RHOB.G/C3   45 350 01 00:   BULK DENSITY
 CORR.G/C3   45 356 01 00:   DENSITY CORRECTION
 NPHI.DEC    42 890 03 00:   NEUTRON POROSITY SANDSTONE
 SPR .MV     11 010 01 00:   SPONTANEOUS POTENTIAL
 RXO .OHMM   11 220 01 00:   FLUSHED ZONE RESISTIVITY
 LLD .OHMM   11 220 10 00:   LATEROLOG LOG DEEP
 LLS .OHMM   11 220 09 00:   LATEROLOG LOG SHALLOW
 TENR.LBS    11 635 01 00:   TENSION FROM RESISTIVITY
 TEND.LBS    45 635 01 00:   TENSION FROM DENSITY LOG
~PARAMETER INFORMATION
#MNEM.UNIT          VALUE    DESCRIPTION
#----------   ------------   ------------------------------
 EKB .F         5046.0000:   Kelly bushing
 EGL .F         5036.0000:   Ground level
 TD  .F         3111.0000:   Total depth
 DATE.        31-AUG-1977:   Date logged
 CLNT.            A2DTECH:   Client Code
 SL  . 2310' FNL & 330' FWL:   Surface Location
 PD  .                 GL:   Permanent Datum
 EPD .F              5036:   Elevation Permanent Datum
 LMF .                 KB:   Log Measured From
 DMF .                 KB:   Drilling Measured From
 DAPD.F                10:   Feet Above Permanent Datum
 DD  .F              3109:   Depth driller
 DL  .F              3111:   Depth logger
 BLI .F              3109:   Bottom log interval
 TLI .F               217:   Top log interval
 CS1 .IN             8.75:   Casing size
 CBD1.       8.75" @ 215':   Casing driller 1
 CBL1.F               217:   Casing logger 1
 BS1 .IN            7.875:   Bit size
 BSD1.F              3109:   Depth drilled with bit1
 DFT .                GEL:   Type fluid in hole
 DFD .                8.8:   Density
 DFV .                 35:   Viscosity
 DFPH.                 10:   pH
 DFL .                8.8:   Fluid loss
 MSS .                PIT:   Source of sample
 RMS .OHMM            .36:   Rm
 MST .F                67:   Rm Meas. temp.
 RMF .OHMM            .24:   Rmf
 MFST.F                67:   Rmf Meas. temp.
 RMC .OHMM            .51:   Rmc
 MCST.F                67:   Rmc Meas. temp.
 MFSS.               MEAS:   Source Rmf.
 MCSS.               CALC:   Source Rmc.
 RMB .OHMM            .20:   Rm. at BHT
 BHT .F               121:   BHT.
 TCS .HRS               5:   Time Circ. stopped
 MRT .F               121:   Maximum recorded temp.
 LUN .               6080:   Logging unit number
 LUL .              WLSTN:   Logging unit location
 ENGI.               BALL:   Recorded By
 WITN.         PETTINGILL:   Witnessed by
 ORIG.      2.5" 5" PRINT:   Origin of data
 UWI .     49025104280000:   Unique Well ID
 DICO. A2D TECHNOLOGIES, INC.:   Digitizing Company
~OTHER INFORMATION
~A   DEPT      GRD         CALD     RHOB       CORR       NPHI        SPR        RXO        LLD        LLS        TENR      TEND   
# ...
 1155.5000    89.1885    10.0414     2.5043     0.0033     0.2742   -35.0981     5.4908     8.1867     7.6312    75.1304    86.3884
 1156.0000    89.1896    10.0414     2.5023    -0.0006     0.2698   -34.8000     5.4912     8.1873     7.6320    75.0902    98.3083
 1156.5000    89.1907    10.0215     2.5123     0.0033     0.2746   -34.8000     5.5932     8.3395     7.6326    75.0500    98.3072
 1157.0000    89.5900    10.0216     2.5192     0.0073     0.2769   -35.2000     5.5938     8.4938     7.7741    75.0098    91.5867
 1157.5000    88.7948    10.0216     2.5192     0.0093     0.2797   -35.2000     5.6975     8.4950     7.7749    74.9697    94.3326
 1158.0000    88.7959    10.0217     2.5153     0.0113     0.2825   -35.6000     5.8028     8.6522     7.7755    74.9295    90.3591
 1158.5000    89.1951    10.0217     2.5115     0.0073     0.2853   -36.0000     6.0199     8.8133     7.9199    74.8893    86.3849
 1159.0000    90.3909    10.0284     2.5073     0.0073     0.2864   -36.0000     6.0204     8.6544     7.9204    74.8491    94.3311
 1159.5000    91.1884    10.0351     2.4994     0.0073     0.2856   -36.0000     6.0210     8.6548     8.0675    74.8089    90.3570
 1160.0000    91.9859    10.0418     2.5113     0.0093     0.2848   -35.8864     6.0215     8.6557     8.0687    74.7687    90.3564
 1160.5000    92.3853    10.0485     2.5153     0.0093     0.2840   -35.7727     5.9130     8.6563     8.0693    74.7286    94.3290
 1161.0000    91.5900    10.0552     2.5133     0.0093     0.2817   -35.6591     5.8062     8.7916     8.0702    74.6884    86.3824
 1161.5000    90.7947    10.0619     2.5153     0.0073     0.2789   -35.6000     5.7016     8.7919     8.0708    74.6482    94.3278
 1162.0000    88.4064    10.0818     2.5173     0.0014     0.2757   -35.2000     6.0966     8.7929     8.0716    74.6080    90.3543
 1162.5000    87.6111    10.1018     2.5024     0.0034     0.2725   -34.4000     6.2097     8.7935     8.1728    74.5678    94.3265
 1163.0000    87.6121    10.1218     2.4994     0.0014     0.2761   -34.4000     6.3251     8.7945     8.3244    74.5276    98.2993
 1163.5000    89.2062    10.1616     2.4984     0.0014     0.2769   -34.4000     6.4425     8.7951     8.4788    74.4875    98.2983
 1164.0000    89.6056    10.1816     2.4974     0.0014     0.2757   -34.4000     6.4432     8.9586     8.7961    74.4473    78.4328
 1164.5000    91.5980    10.2016     2.4954    -0.0006     0.2709   -34.8000     6.4437     9.1248     8.7967    74.4071    94.3241
 1165.0000    91.5991    10.2215     2.4925    -0.0006     0.2681   -35.2000     6.4444     9.2759     8.7977    74.3669   102.2696
 1165.5000    92.3968    10.2216     2.4974    -0.0026     0.2662   -35.6000     6.4448     9.4294     8.7983    74.3267    94.3229
 1166.0000    93.5927    10.2216     2.5044    -0.0006     0.2673   -35.6000     6.4455     9.5854     8.7993    74.2866   106.2411
 1166.5000    92.7973    10.2018     2.5173     0.0034     0.2673   -35.6000     6.4460     9.7441     8.7999    74.2464   102.2672
 1167.0000    91.6036    10.2018     2.5342     0.0133     0.2669   -35.6000     6.4467     9.9053     8.8009    74.2062    90.3484
 1167.5000    90.4099    10.2019     2.5382     0.0173     0.2669   -35.2000     6.5663    10.0693     8.8015    74.1660    90.3475
 1168.0000    89.2161    10.2218     2.5084     0.0074     0.2677   -35.2000     6.5670    10.2359     9.1308    74.1258    94.3199
 1168.5000    88.4207    10.2219     2.5024     0.0074     0.2661   -35.2000     6.6889    10.4053     9.3002    74.0856    98.2919
 1169.0000    88.4218    10.2220     2.5104     0.0074     0.2653   -34.8000     6.6896    10.5775     9.8265    74.0455    98.2915
 1169.5000    88.8214    10.2220     2.5173     0.0114     0.2681   -34.8000     6.7317    10.7698     9.8272    74.0053   102.2633
 1170.0000    87.6276    10.2221     2.5124     0.0133     0.2705   -34.4000     6.6104    10.9696     9.8283    73.9651    82.3993
 1170.5000    86.0354    10.2420     2.4895    -0.0025     0.2748   -35.0000     6.6109    10.9704     9.8290    73.9249    86.3713
 1171.0000    85.2398    10.2620     2.4816    -0.0025     0.2725   -35.4000     6.6116    10.9716     9.8301    73.8847    94.3163
 1171.5000    84.4442    10.2620     2.4855    -0.0025     0.2685   -35.4000     6.6121    10.9724     9.8308    73.8445    90.3428
 1172.0000    84.0469    10.2621     2.4875    -0.0036     0.2673   -35.4000     6.6128    10.9736     9.8319    73.8044    82.3972
 1172.5000    84.0480    10.2821     2.4935    -0.0045     0.2720   -35.0000     6.7354    10.9744     9.8326    73.7642    98.2868
 1173.0000    84.4474    10.3020     2.4895    -0.0045     0.2748   -35.4000     6.6140    10.9756    10.0154    73.7240    98.2862
 1173.5000    84.8467    10.3220     2.4905    -0.0065     0.2760   -35.0000     6.6145    10.9764    10.0161    73.6838    90.3404
 1174.0000    85.2461    10.3619     2.4895    -0.0065     0.2764   -35.4000     6.6152    10.9776    10.0172    73.6436    94.3126
 1174.5000    86.0439    10.4018     2.4856    -0.0065     0.2788   -35.4000     6.6157    10.9784    10.0179    73.6034    98.2842
 1175.0000    86.0450    10.4018     2.4796    -0.0077     0.2835   -35.4000     6.6164    10.7804    10.0190    73.5633    94.3112
 1175.5000    84.8509    10.4218     2.4737    -0.0089     0.2819   -35.0000     6.7391    10.7812    10.0198    73.5231    98.2829
 1176.0000    82.4618    10.4418     2.4607    -0.0105     0.2788   -34.6000     6.6176    10.7824    10.0209    73.4829    94.3101
 1176.5000    80.8693    10.4219     2.4647    -0.0104     0.2756   -34.2000     6.7403    10.7831    10.0216    73.4427    98.2815
 1177.0000    81.2687    10.4220     2.4766    -0.0045     0.2684   -34.6000     6.7410    10.7843    10.0227    73.4025    98.2813
 1177.5000    81.2697    10.4419     2.4965     0.0054     0.2605   -34.2000     6.9932    10.7851    10.0234    73.3624    90.3356
 1178.0000    80.8723    10.4420     2.5025     0.0074     0.2526   -34.6000     6.9936    10.9856    10.0245    73.3222   106.2245
 1178.5000    80.8733    10.4397     2.4915     0.0015     0.2430   -34.6000     6.9937    10.9864    10.2105    81.2489    98.2790
 1179.0000    80.0775    10.4373     2.4836    -0.0005     0.2462   -34.6000     7.1236    11.3975    10.4003    74.4671    98.2787
 1179.5000    78.4849    10.4350     2.4806    -0.0025     0.2502   -35.0000     7.3898    11.6089    10.5933    73.2333   102.2499
 1180.0000    76.4921    10.4326     2.4886     0.0015     0.2506   -35.4000     7.5271    12.0433    11.1927    73.1833    98.2772
 1180.5000    74.5100    10.4303     2.4956     0.0034     0.2494   -35.4000     7.6666    12.4938    11.4004    73.1333    98.2764
 1181.0000    73.7232    10.4288     2.4906     0.0116     0.2513   -35.4000     7.9531    12.9608    11.8269    73.0832   101.9880
 1181.5000    74.5301    10.4273     2.4907     0.0136     0.2549   -35.0000     8.1005    13.2018    12.4961    73.0749    97.6981
 1182.0000    76.9308    10.4258     2.5016     0.0157     0.2537   -35.0000     8.2509    13.4467    12.7280    69.9337    97.6189
 1182.5000    78.5346    10.4248     2.5106     0.0158     0.2505   -34.6000     8.4038    13.6967    12.9646    66.7925    93.3286
 1183.0000    78.5447    10.4054     2.5126     0.0100     0.2501   -34.6000     8.5599    13.6977    12.9655    63.6513    97.2226
 1183.5000    78.5548    10.4059     2.4878    -0.0019     0.2505   -34.2000     8.7182    13.6992    12.9670    60.5101    96.9056
 1184.0000    78.5648    10.3864     2.4819    -0.0078     0.2509   -34.2000     8.7195    13.4516    12.9679    57.3689    88.8793
 1184.5000    79.7702    10.3869     2.4830    -0.0096     0.2501   -34.2000     8.5627    12.9693    12.5718    56.9328    88.6016
 1185.0000    81.3740    10.3675     2.4820    -0.0116     0.2450   -34.6000     8.5632    12.7349    11.9014    56.8885    88.5223
 1185.5000    82.9778    10.3480     2.4910     0.0025     0.2454   -35.0000     8.1067    12.2783    11.2672    56.8442    92.1787
