~VERSION INFORMATION
 VERS.                2.0:   CWLS LOG ASCII STANDARD - VERSION 2.0
 WRAP.                 NO:   ONE LINE PER DEPTH STEP
~WELL INFORMATION
#MNEM.UNIT      DATA TYPE    INFORMATION
#----------   ------------   ------------------------------
 STRT.F          204.0000:   START DEPTH
 STOP.F         3024.0000:   STOP DEPTH
 STEP.F            0.5000:   STEP LENGTH
 NULL.          -999.2500:   NO VALUE
 COMP.    FENIX & SCISSON:   COMPANY
 WELL. FENIX NPR 3 "AX" #87-33:   WELL
 FLD .      NPR - WILDCAT:   FIELD
 LOC .      S33 T39N R78W:   LOCATION
 CNTY.            NATRONA:   COUNTY
 STAT.            WYOMING:   STATE
 CTRY. UNITED STATES OF AMERICA:   COUNTRY
 SRVC.              WELEX:   SERVICE COMPANY
 DATE.        20-JUN-1977:   LOGDATE
 API .     49025103840000:   API NUMBER
~CURVE INFORMATION
#MNEM.UNIT       API CODE    CURVE DESCRIPTION
#----------   ------------   ------------------------------
 DEPT.F                  :   
 SPR .MV     07 010 01 00:   SPONTANEOUS POTENTIAL
 ILD .OHMM   07 120 46 00:   DEEP INDUCTION RESISTIVITY
 ILM .OHMM   07 120 44 00:   INDUCTION LOG MEDIUM RESISTIVITY
 SGRD.OHMM   07 220 05 00:   SHALLOW SHORT GUARD RESISTIVITY
 CALD.IN     45 280 60 00:   CALIPER FROM DENSITY LOG
 GRD .GAPI   45 310 01 00:   GAMMA RAY FROM DENSITY LOG
 RHOB.G/C3   45 350 01 00:   BULK DENSITY
 CORR.G/C3   45 356 01 00:   DENSITY CORRECTION
~PARAMETER INFORMATION
#MNEM.UNIT          VALUE    DESCRIPTION
#----------   ------------   ------------------------------
 EKB .F         5170.0000:   Kelly bushing
 EGL .F         5160.0000:   Ground level
 TD  .F         3040.0000:   Total depth
 DATE.        20-JUN-1977:   Date logged
 CLNT.            A2DTECH:   Client Code
 SL  . 800' FSL & 100' FEL:   Surface Location
 PD  .                 GL:   Permanent Datum
 EPD .F              5160:   Elevation Permanent Datum
 LMF .                 KB:   Log Measured From
 DMF .                 KB:   Drilling Measured From
 DD  .F              3040:   Depth driller
 DL  .F              3027:   Depth logger
 BLI .F              3025:   Bottom log interval
 TLI .F               200:   Top log interval
 CS1 .IN            8.625:   Casing size
 CBD1.      8.625" @ 230':   Casing driller 1
 CBL1.F               210:   Casing logger 1
 BS1 .IN            7.875:   Bit size
 BSD1.F              3040:   Depth drilled with bit1
 DFT .                KCL:   Type fluid in hole
 DFD .                9.2:   Density
 DFV .                 38:   Viscosity
 DFPH.                7.5:   pH
 DFL .                5.4:   Fluid loss
 MSS .           FLOWLINE:   Source of sample
 RMS .OHMM            .60:   Rm
 MST .F                92:   Rm Meas. temp.
 RMF .OHMM            .29:   Rmf
 MFST.F                92:   Rmf Meas. temp.
 RMC .OHMM            .76:   Rmc
 MCST.F                92:   Rmc Meas. temp.
 MFSS.               MEAS:   Source Rmf.
 MCSS.               MEAS:   Source Rmc.
 RMB .OHMM            .49:   Rm. at BHT
 BHT .F               112:   BHT.
 TCS .HRS               2:   Time Circ. stopped
 MRT .F               112:   Maximum recorded temp.
 LUN .               8611:   Logging unit number
 LUL .           GILLETTE:   Logging unit location
 ENGI.            C. DOAK:   Recorded By
 WITN.      B. HARRINGTON:   Witnessed by
 ORIG.     2.5", 5" PRINT:   Origin of data
 UWI .     49025103840000:   Unique Well ID
 DICO. A2D TECHNOLOGIES, INC.:   Digitizing Company
~OTHER INFORMATION
~A   DEPT      SPR        ILD        ILM       SGRD         CALD       GRD        RHOB      CORR  
# ...
 2431.5000   -62.3130     3.1510     3.3440     2.9910     9.3150   126.7660     2.4910     0.0010
 2432.0000   -62.2290     3.2040     3.4030     3.2070     9.3240   126.8530     2.4920    -0.0010
 2432.5000   -62.1260     3.2560     3.4630     3.8330     9.3320   126.1550     2.4880    -0.0020
 2433.0000   -62.0230     3.3080     3.5220     3.9960     9.3410   124.1240     2.4850    -0.0030
 2433.5000   -61.9200     3.3600     3.5820     3.6110     9.3490   122.1360     2.4860    -0.0020
 2434.0000   -61.8220     3.3950     3.6410     3.3350     9.3470   120.3900     2.4880    -0.0010
 2434.5000   -61.7100     3.3490     3.7010     4.5290     9.3440   120.6300     2.4910     0.0020
 2435.0000   -61.6170     3.2990     3.6660     4.9650     9.3410   122.4790     2.4910     0.0040
 2435.5000   -61.5580     3.2750     3.5970     4.8760     9.3380   124.8930     2.4900     0.0060
 2436.0000   -61.9650     3.2480     3.5210     4.1180     9.3350   127.0460     2.4880     0.0060
 2436.5000   -62.3440     3.1640     3.4590     3.5450     9.3320   126.8310     2.4830     0.0060
 2437.0000   -62.7380     3.0800     3.3380     3.2090     9.3290   125.8570     2.4770     0.0050
 2437.5000   -63.0640     2.9950     3.2170     2.6360     9.3260   124.9220     2.4820     0.0050
 2438.0000   -62.9650     2.9110     3.0960     2.8380     9.3230   123.9890     2.4880     0.0050
 2438.5000   -62.8730     2.8270     2.9750     3.4570     9.3200   123.5280     2.4860     0.0040
 2439.0000   -62.7610     2.7330     2.9380     3.9240     9.3170   123.7430     2.4830     0.0040
 2439.5000   -62.6590     2.7330     2.9380     3.8540     9.3140   124.5960     2.4830     0.0030
 2440.0000   -62.5550     2.7330     2.9380     3.0770     9.3110   125.4620     2.4890     0.0030
 2440.5000   -62.4500     2.7330     2.9380     2.5880     9.3220   125.2420     2.4970     0.0020
 2441.0000   -62.3460     2.7610     2.9610     3.4380     9.3350   123.6380     2.5000     0.0010
 2441.5000   -62.2420     2.8030     2.9940     3.5850     9.3480   121.5620     2.5030     0.0010
 2442.0000   -62.1370     2.8450     3.0280     3.5490     9.3620   119.4690     2.5120     0.0030
 2442.5000   -62.0350     2.8850     3.1230     3.5210     9.3750   117.2750     2.5190     0.0050
 2443.0000   -61.9190     3.0530     3.2900     3.6570     9.3890   115.4020     2.5240     0.0070
 2443.5000   -61.8060     3.2110     3.4580     3.8540     9.3980   113.4360     2.5300     0.0080
 2444.0000   -61.6760     3.3700     3.6500     3.9450     9.4080   111.4470     2.5330     0.0080
 2444.5000   -61.5490     3.5280     3.7990     4.2960     9.4180   109.3770     2.5350     0.0080
 2445.0000   -61.4200     3.6950     3.9740     4.7010     9.4280   108.6440     2.5320     0.0070
 2445.5000   -61.2920     3.8680     4.1430     5.5430     9.4290   109.1870     2.5240     0.0040
 2446.0000   -61.1640     4.0690     4.2090     6.1030     9.4290   110.1370     2.5070     0.0020
 2446.5000   -61.0360     4.0770     4.2720     4.8760     9.4290   111.6370     2.4970     0.0000
 2447.0000   -60.9080     4.0860     4.3110     5.0500     9.4290   113.0760     2.4900    -0.0010
 2447.5000   -60.7800     4.0950     4.3350     5.1480     9.4290   114.5140     2.4900    -0.0010
 2448.0000   -60.6520     4.1040     4.3590     3.6500     9.4290   115.1010     2.4940     0.0000
 2448.5000   -60.5240     4.1140     4.3830     3.8370     9.4290   112.5640     2.5020     0.0010
 2449.0000   -60.3960     4.1230     4.4070     4.3740     9.4290   109.8390     2.5200     0.0020
 2449.5000   -60.2670     4.1320     4.4310     5.2420     9.4310   107.0480     2.5160     0.0020
 2450.0000   -60.1400     4.1430     4.4540     6.3960     9.4360   107.0590     2.5070     0.0000
 2450.5000   -60.0120     4.1570     4.4780     5.6770     9.4400   107.6680     2.4910    -0.0020
 2451.0000   -59.9270     4.1920     4.5020     4.2960     9.4450   107.6990     2.4860    -0.0040
 2451.5000   -59.8720     4.2270     4.5360     4.6480     9.4510   106.1180     2.4920    -0.0060
 2452.0000   -59.8160     4.2620     4.5230     5.3380     9.4760   105.6240     2.4960    -0.0050
 2452.5000   -59.7610     4.2960     4.4620     4.9650     9.5010   107.2740     2.4900    -0.0070
 2453.0000   -59.7050     4.2320     4.4020     5.1100     9.5270   109.3960     2.4850    -0.0110
 2453.5000   -59.6500     4.1700     4.3420     5.3380     9.5240   111.2270     2.4760    -0.0150
 2454.0000   -59.5940     4.1080     4.2850     5.0480     9.5200   112.4110     2.4650    -0.0180
 2454.5000   -59.5390     4.0460     4.2370     4.1430     9.5160   112.4270     2.4570    -0.0210
 2455.0000   -59.4830     3.9840     4.1890     3.5850     9.5120   110.1400     2.4620    -0.0210
 2455.5000   -59.4280     3.9240     4.1430     3.6500     9.5080   107.4260     2.4770    -0.0210
 2456.0000   -59.3720     4.1060     4.3570     4.6180     9.5080   107.2780     2.4890    -0.0180
 2456.5000   -59.3170     4.2800     4.5610     5.8430     9.5080   107.9120     2.5020    -0.0140
 2457.0000   -59.2610     4.4550     4.7650     6.5130     9.5080   108.7330     2.5140    -0.0100
 2457.5000   -59.2060     4.6180     4.9300     6.3890     9.5080   109.2860     2.5160    -0.0090
 2458.0000   -59.1500     4.6960     5.0480     5.9530     9.5080   108.8850     2.5190    -0.0080
 2458.5000   -59.0950     4.7690     5.1660     4.7030     9.5080   107.4580     2.5180    -0.0080
 2459.0000   -59.0400     4.8420     5.2840     5.2790     9.5080   106.0570     2.5130    -0.0110
 2459.5000   -58.9840     4.9150     5.4020     6.4810     9.5080   105.8760     2.5100    -0.0140
 2460.0000   -58.9280     4.9890     5.5340     6.7530     9.5080   106.7660     2.5100    -0.0170
 2460.5000   -58.8740     5.0560     5.5340     6.6950     9.5080   108.9570     2.5140    -0.0170
 2461.0000   -58.8140     5.0710     5.5340     6.5750     9.5080   111.0680     2.5180    -0.0160
 2461.5000   -58.7950     5.0860     5.5340     6.1220     9.5250   112.7020     2.5160    -0.0140
 2462.0000   -58.8160     5.1000     5.5220     5.2420     9.5550   113.4520     2.5140    -0.0110
 2462.5000   -58.8330     5.1150     5.4790     5.9570     9.5860   114.1890     2.5160    -0.0080
 2463.0000   -58.8510     5.1290     5.4350     6.5130     9.5940   114.8440     2.5170    -0.0050
 2463.5000   -58.8690     5.1440     5.3920     6.4910     9.6010   114.8120     2.5130    -0.0040
 2464.0000   -58.8870     5.1150     5.3490     6.4670     9.6080   114.8670     2.5130    -0.0040
 2464.5000   -58.9050     5.0680     5.3060     6.4420     9.6150   117.0530     2.5210    -0.0040
 2465.0000   -58.9230     5.0220     5.2630     6.4180     9.6220   119.3800     2.5280    -0.0050
 2465.5000   -58.9400     4.9750     5.2260     6.3960     9.6290   122.3980     2.5280    -0.0050
 2466.0000   -58.9580     4.9290     5.1960     5.6530     9.6370   125.3990     2.5260    -0.0050
 2466.5000   -58.9760     4.8820     5.1660     5.1480     9.6440   126.6340     2.5270    -0.0050
 2467.0000   -58.9940     4.8360     5.1360     4.9650     9.6520   128.0050     2.5300    -0.0050
 2467.5000   -59.0120     4.7890     5.1050     4.9650     9.6600   126.9200     2.5340    -0.0050
 2468.0000   -59.0300     4.7420     5.0750     5.8160     9.6650   125.3420     2.5240    -0.0050
 2468.5000   -59.0470     4.7030     5.0450     6.6980     9.6600   124.9320     2.5060    -0.0050
 2469.0000   -59.0650     4.7030     5.0150     6.5860     9.6550   126.7300     2.4970    -0.0050
 2469.5000   -59.0830     4.7030     4.9650     6.3960     9.6490   126.6060     2.4910    -0.0050
 2470.0000   -59.1010     4.7030     5.0120     5.3750     9.6450   126.0920     2.5010    -0.0050
 2470.5000   -59.1190     4.7960     5.1430     5.0300     9.6430   123.3550     2.5090    -0.0060
 2471.0000   -59.1370     4.8920     5.2740     4.9650     9.6410   120.1420     2.5120    -0.0060
 2471.5000   -59.1540     4.9890     5.4050     5.0640     9.6380   116.8980     2.5150    -0.0060
