~VERSION INFORMATION
 VERS.                2.0:   CWLS LOG ASCII STANDARD - VERSION 2.0
 WRAP.                 NO:   ONE LINE PER DEPTH STEP
~WELL INFORMATION
#MNEM.UNIT      DATA TYPE    INFORMATION
#----------   ------------   ------------------------------
 STRT.F          176.5000:   START DEPTH
 STOP.F         3010.0000:   STOP DEPTH
 STEP.F            0.5000:   STEP LENGTH
 NULL.          -999.2500:   NO VALUE
 COMP.    FENIX & SCISSON:   COMPANY
 WELL.   FENIX "A" #36-28:   WELL
 FLD .              NPR 3:   FIELD
 LOC .      S28 T39N R78W:   LOCATION
 CNTY.            NATRONA:   COUNTY
 STAT.            WYOMING:   STATE
 CTRY. UNITED STATES OF AMERICA:   COUNTRY
 SRVC.       SCHLUMBERGER:   SERVICE COMPANY
 DATE.        19-AUG-1977:   LOGDATE
 API .     49025104150000:   API NUMBER
~CURVE INFORMATION
#MNEM.UNIT       API CODE    CURVE DESCRIPTION
#----------   ------------   ------------------------------
 DEPT.F                  :   
 SPR .MV     07 010 01 00:   SPONTANEOUS POTENTIAL
 ILM .OHMM   07 120 44 00:   INDUCTION LOG MEDIUM RESISTIVITY
 ILD .OHMM   07 120 46 00:   INDUCTION LOG DEEP RESISTIVITY
 LL8 .OHMM   07 220 08 00:   LATEROLOG-8 RESISTIVITY
 GRD .GAPI   45 310 01 00:   GAMMA RAY FROM DENSITY LOG
 CALD.IN     45 280 60 00:   CALIPER FROM DENSITY LOG
 RHOB.G/C3   45 350 01 00:   BULK DENSITY
 DCOR.G/C3   45 356 01 00:   DENSITY CORRECTION
~PARAMETER INFORMATION
#MNEM.UNIT          VALUE    DESCRIPTION
#----------   ------------   ------------------------------
 EKB .F         5107.0000:   Kelly bushing
 EGL .F         5097.0000:   Ground level
 EDF .F            0.0000:   Drilling floor
 TD  .F         3012.0000:   Total depth
 DATE.        19-AUG-1977:   Date logged
 CLNT.            A2DTECH:   Client Code
 SL  . 1650' FSL & 1650' FWL:   Surface Location
 PD  .                 GL:   Permanent Datum
 EPD .F              5097:   Elevation Permanent Datum
 LMF .                 KB:   Log Measured From
 DMF .                 KB:   Drilling Measured From
 DAPD.F                10:   Feet Above Permanent Datum
 DD  .F              3010:   Depth driller
 DL  .F              3011:   Depth logger
 BLI .F              3005:   Bottom log interval
 TLI .F               215:   Top log interval
 CS1 .IN            8.625:   Casing size
 CBD1.      8.625" @ 205':   Casing driller 1
 CBL1.F               215:   Casing logger 1
 BS1 .IN            7.875:   Bit size
 BSD1.F              3010:   Depth drilled with bit1
 DFT .                FGM:   Type fluid in hole
 DFD .                8.8:   Density
 DFV .                 33:   Viscosity
 DFPH.               10.5:   pH
 DFL .               10.6:   Fluid loss
 MSS .            MUD PIT:   Source of sample
 RMS .OHMM            .19:   Rm
 MST .F                76:   Rm Meas. temp.
 RMF .OHMM            .17:   Rmf
 MFST.F                78:   Rmf Meas. temp.
 MFSS.               MEAS:   Source Rmf.
 RMB .OHMM            .13:   Rm. at BHT
 BHT .F               112:   BHT.
 TCS .HRS            0700:   Time Circ. stopped
 TLAB.HRS            1400:   Time logger at bottom
 MRT .F               112:   Maximum recorded temp.
 LUN .               5642:   Logging unit number
 ENGI.          CHALUPSKY:   Recorded By
 WITN.     WES PETTINGILL:   Witnessed by
 ORIG.           5" PRINT:   Origin of data
 UWI .     49025104150000:   Unique Well ID
 DICO. A2D TECHNOLOGIES, INC.:   Digitizing Company
 LUL .               CSPR:   Logging unit location
~OTHER INFORMATION
~A   DEPT      SPR        ILM        ILD        LL8        GRD       CALD       RHOB       DCOR   
# ...
 2768.5000   -72.8600     4.9890     4.5640     6.3160   159.1130     8.4100     2.4180     0.0650
 2769.0000   -72.8420     4.9560     4.5820     6.1740   160.5000     8.4020     2.3950     0.0470
 2769.5000   -73.3570     5.0120     4.6210     6.4740   159.2890     8.3930     2.3790     0.0350
 2770.0000   -74.1210     5.0650     4.6610     6.7140   155.9640     8.3850     2.3920     0.0380
 2770.5000   -74.8200     5.1190     4.7200     6.8910   150.1990     8.3820     2.3920     0.0460
 2771.0000   -74.7720     5.1720     4.8300     6.8630   145.4830     8.3820     2.4040     0.0390
 2771.5000   -74.7050     5.2260     4.9110     6.8280   144.9600     8.3820     2.4110     0.0570
 2772.0000   -74.6460     5.2790     4.9110     6.8820   146.7730     8.3820     2.3870     0.0390
 2772.5000   -75.0240     5.3330     4.9110     6.9960   146.4410     8.3820     2.3940     0.0300
 2773.0000   -75.4320     5.3810     4.9340     7.1090   145.4340     8.3820     2.4030     0.0470
 2773.5000   -75.6080     5.4140     4.9840     7.2800   145.1480     8.3820     2.3980     0.0580
 2774.0000   -75.6280     5.4430     5.0330     7.2570   144.7560     8.3820     2.4300     0.0470
 2774.5000   -75.6270     5.4730     5.0820     7.2100   143.2220     8.3820     2.4190     0.0770
 2775.0000   -75.4940     5.5030     5.1310     7.1480   141.7280     8.3820     2.4100     0.0570
 2775.5000   -75.3450     5.5320     5.1810     7.2420   140.2050     8.3810     2.4150     0.0360
 2776.0000   -75.1940     5.5620     5.2300     7.3760   138.4730     8.3790     2.4080     0.0430
 2776.5000   -75.0410     5.6070     5.2790     7.4350   137.3430     8.3770     2.4100     0.0490
 2777.0000   -75.1110     5.6860     5.3290     7.4640   140.1910     8.3760     2.4070     0.0350
 2777.5000   -75.1980     5.7650     5.3780     7.5490   142.4050     8.3740     2.3930     0.0440
 2778.0000   -75.2850     5.8430     5.4310     7.7570   143.8270     8.3720     2.3980     0.0310
 2778.5000   -75.3710     5.9220     5.3440     7.9650   140.8290     8.3700     2.4080     0.0410
 2779.0000   -75.4310     6.0070     5.2490     8.1730   139.3270     8.3680     2.4200     0.0510
 2779.5000   -75.4020     5.9300     5.1540     8.3400   142.6080     8.3660     2.4250     0.0560
 2780.0000   -75.2030     5.7670     5.0600     8.0830   145.2590     8.3650     2.4210     0.0470
 2780.5000   -75.0050     5.6040     4.9650     7.5130   147.9040     8.3630     2.4640     0.0710
 2781.0000   -74.9350     5.4410     4.8660     6.9430   149.1320     8.3680     2.4610     0.0880
 2781.5000   -75.6190     5.2780     4.8440     6.3460   145.1010     8.3740     2.4460     0.0840
 2782.0000   -76.3120     5.1410     4.8210     6.2310   141.3170     8.3800     2.4250     0.0460
 2782.5000   -76.9820     5.2910     4.7980     6.4170   135.9830     8.3860     2.4070     0.0570
 2783.0000   -76.5670     5.4220     4.7760     6.9960   127.9850     8.3910     2.4040     0.0510
 2783.5000   -76.0880     5.5820     4.7530     8.4030   121.7530     8.3970     2.4190     0.0530
 2784.0000   -75.6120     5.5050     4.7340     9.8490   130.7560     8.4030     2.4080     0.0400
 2784.5000   -75.1330     5.4060     4.8890     8.4060   138.7080     8.4090     2.4180     0.0300
 2785.0000   -74.9750     5.2840     5.0220     6.8910   144.0850     8.4150     2.4140     0.0260
 2785.5000   -74.8960     5.4080     5.1540     6.5230   145.4140     8.4200     2.4110     0.0430
 2786.0000   -74.7840     5.5660     5.2610     7.0020   140.0740     8.4320     2.4320     0.0520
 2786.5000   -74.5110     5.7240     5.3250     7.4890   134.6490     8.4460     2.4440     0.0580
 2787.0000   -74.2500     5.8830     5.3900     7.9790   128.4770     8.4600     2.4350     0.0620
 2787.5000   -74.3100     6.0410     5.4540     8.3540   126.2840     8.4740     2.4780     0.0740
 2788.0000   -74.3800     6.2310     5.5310     8.4290   129.4360     8.4880     2.4550     0.0920
 2788.5000   -74.3870     6.1270     5.4560     8.3630   134.6200     8.5010     2.4300     0.0550
 2789.0000   -74.1090     5.9970     5.3170     8.1860   137.0270     8.5150     2.4400     0.0650
 2789.5000   -73.8520     5.8680     5.0120     7.7620   141.3940     8.5290     2.4530     0.0760
 2790.0000   -73.9560     5.5250     4.6490     6.9930   146.0190     8.5430     2.4320     0.0670
 2790.5000   -74.1810     5.1350     4.2740     6.2360   150.5220     8.5560     2.4110     0.0510
 2791.0000   -74.8540     4.6940     3.8990     5.8270   161.9520     8.5590     2.3890     0.0600
 2791.5000   -75.5260     4.1870     3.5240     5.6340   174.5680     8.5590     2.3790     0.0830
 2792.0000   -75.4600     3.6800     3.2330     4.6970   185.3770     8.5590     2.3760     0.0740
 2792.5000   -75.2650     3.4640     3.0220     3.7880   191.4580     8.5590     2.3730     0.0640
 2793.0000   -75.0640     3.3120     3.0820     3.1350   182.8010     8.5590     2.3780     0.0780
 2793.5000   -74.8560     3.4350     3.1880     3.1930   165.6380     8.5590     2.3840     0.0860
 2794.0000   -75.0780     3.6760     3.4040     4.7850   148.5820     8.5590     2.4030     0.0480
 2794.5000   -75.3580     4.0680     3.5980     6.3050   134.4450     8.5590     2.4260     0.0560
 2795.0000   -75.6440     4.4600     3.9330     7.1480   130.9150     8.5590     2.4110     0.0710
 2795.5000   -75.9420     4.8530     4.3440     7.0260   131.5100     8.5590     2.3940     0.0330
 2796.0000   -75.8790     5.2450     4.7550     6.9550   130.3550     8.5590     2.4050     0.0460
 2796.5000   -75.6690     5.6370     5.1650     7.2190   129.3190     8.5540     2.4220     0.0680
 2797.0000   -75.4560     5.9520     5.7380     7.5230   129.5750     8.5440     2.4450     0.0840
 2797.5000   -75.4340     6.1180     5.6910     7.7600   130.1560     8.5350     2.4290     0.0680
 2798.0000   -75.5600     6.0360     5.5940     7.9060   131.7760     8.5250     2.3960     0.0440
 2798.5000   -76.0020     5.9720     5.4980     7.5200   133.4140     8.5150     2.4000     0.0510
 2799.0000   -75.6150     5.9090     5.4010     7.2200   137.2770     8.5050     2.4040     0.0470
 2799.5000   -75.2270     5.8450     5.3040     6.9190   141.0060     8.4950     2.4210     0.0420
 2800.0000   -75.0340     5.7810     5.2360     6.7480   144.3990     8.4850     2.4540     0.0670
 2800.5000   -75.0350     5.6850     5.2560     6.6430   146.0460     8.4810     2.4460     0.0790
 2801.0000   -75.2260     5.7000     5.2720     6.5830   147.6050     8.4830     2.4200     0.0780
 2801.5000   -75.4520     5.7290     5.2840     6.8410   148.6440     8.4840     2.4280     0.0640
 2802.0000   -76.0190     5.7580     5.1960     7.0770   145.8450     8.4860     2.4380     0.0550
 2802.5000   -76.4480     5.7870     5.0600     7.3130   142.6730     8.4880     2.4230     0.0580
 2803.0000   -76.5110     5.6060     4.8890     7.4830   142.3860     8.4900     2.4380     0.0750
 2803.5000   -76.5820     5.3950     4.6470     7.2460   146.2450     8.4910     2.4240     0.0680
 2804.0000   -76.7220     5.1490     4.4050     6.9790   151.5020     8.4930     2.4040     0.0500
 2804.5000   -76.9420     4.8630     4.1640     6.6430   156.5400     8.4950     2.4130     0.0590
 2805.0000   -77.4690     4.5760     3.9220     5.8580   166.0640     8.4970     2.4270     0.0740
 2805.5000   -78.1560     4.2900     3.6800     5.1210   176.5510     8.4980     2.4220     0.0900
 2806.0000   -78.8130     4.0030     3.5640     4.3840   187.0480     8.5000     2.4340     0.1070
 2806.5000   -78.0980     3.7310     3.6170     3.5970   195.8620     8.4940     2.4250     0.1030
 2807.0000   -77.2800     3.9360     3.7340     3.6710   190.5640     8.4890     2.4090     0.0810
 2807.5000   -76.4540     4.1320     3.8510     5.0910   179.3660     8.4830     2.3940     0.0560
 2808.0000   -75.6310     4.4090     4.1370     7.3410   161.9230     8.4780     2.4140     0.0620
 2808.5000   -74.8350     4.7310     4.4550     7.3170   145.6210     8.4720     2.4300     0.0720
