~VERSION INFORMATION
 VERS.                2.0:   CWLS LOG ASCII STANDARD - VERSION 2.0
 WRAP.                 NO:   ONE LINE PER DEPTH STEP
~WELL INFORMATION
#MNEM.UNIT      DATA TYPE    INFORMATION
#----------   ------------   ------------------------------
 STRT.F          218.0000:   START DEPTH
 STOP.F         2860.0000:   STOP DEPTH
 STEP.F            0.5000:   STEP LENGTH
 NULL.          -999.2500:   NO VALUE
 COMP.    FENIX & SCISSON:   COMPANY
 WELL.  FENIX "AX" #76-20:   WELL
 FLD . TEAPOT DOME NPR -3:   FIELD
 LOC .      S20 T39N R78W:   LOCATION
 CNTY.            NATRONA:   COUNTY
 STAT.            WYOMING:   STATE
 CTRY. UNITED STATES OF AMERICA:   COUNTRY
 SRVC.           BIRDWELL:   SERVICE COMPANY
 DATE.        21-AUG-1978:   LOGDATE
 API .     49025106920000:   API NUMBER
~CURVE INFORMATION
#MNEM.UNIT       API CODE    CURVE DESCRIPTION
#----------   ------------   ------------------------------
 DEPT.F                  :   
 SPR .MV     05 010 01 00:   SPONTANEOUS POTENTIAL FROM RES.
 ILD .OHMM   05 120 46 00:   INDUCTION LOG DEEP
 SN  .OHMM   05 040 16 00:   SHORT NORMAL 16"
 RHOB.G/C3   45 350 01 00:   BULK DENSITY
 CALD.IN     45 280 60 00:   CALIPER FROM DENSITY LOG
 DCOR.G/C3   45 356 01 00:   DENSITY CORRECTION
 GRD .GAPI   45 310 01 00:   GAMMA RAY FROM DENSITY LOG
~PARAMETER INFORMATION
#MNEM.UNIT          VALUE    DESCRIPTION
#----------   ------------   ------------------------------
 EKB .F         5062.0000:   Kelly bushing
 EGL .F         5052.0000:   Ground level
 EDF .F            0.0000:   Drilling floor
 EPD .F            0.0000:   Permanent datum
 TD  .F         2854.0000:   Total depth
 DATE.        21-AUG-1978:   Date logged
 CLNT.            A2DTECH:   Client Code
 SL  . 1500' FNL & 1200' FEL:   Surface Location
 PD  .                 GL:   Permanent Datum
 DD  .F              2850:   Depth driller
 DL  .F              2854:   Depth logger
 BLI .F              2848:   Bottom log interval
 CS1 .IN            8.625:   Casing size
 CBD1.      8.625" @ 200':   Casing driller 1
 CBL1.F               235:   Casing logger 1
 BS1 .IN            7.875:   Bit size
 DFT .                KCL:   Type fluid in hole
 DFD .                9.2:   Density
 DFV .                 30:   Viscosity
 DFL .                8.4:   Fluid loss
 MSS .           FLOWLINE:   Source of sample
 RMS .OHMM            1.2:   Rm
 MST .F                86:   Rm Meas. temp.
 RMF .OHMM            0.8:   Rmf
 MFST.F                68:   Rmf Meas. temp.
 RMC .OHMM            1.6:   Rmc
 MCST.F                70:   Rmc Meas. temp.
 MFSS.              PRESS:   Source Rmf.
 BHT .F               102:   BHT.
 TCS .HRS               3:   Time Circ. stopped
 MRT .F               102:   Maximum recorded temp.
 LUN .               2968:   Logging unit number
 LUL .             CASPER:   Logging unit location
 ENGI.           REYNOLDS:   Recorded By
 ORIG.           5" PRINT:   Origin of data
 UWI .     49025106920000:   Unique Well ID
 DICO. A2D TECHNOLOGIES, INC.:   Digitizing Company
 DAPD.                 12:   Feet Above Permanent Datum
 BSD1.               2850:   Depth drilled with bit1
 MCSS.               MEAS:   Source Rmc.
 TLI .                230:   Top log interval
~OTHER INFORMATION
~A   DEPT      SPR        ILD         SN       RHOB       CALD       DCOR          GRD 
# ...
 2311.0000   -72.0000     7.6980     8.5530     2.2820    10.0380     0.4450    90.3340
 2311.5000   -72.0450     7.5320     8.7200     2.2790    10.0610     0.4490    92.1310
 2312.0000   -72.0880     7.3660     8.5940     2.2770    10.0590     0.4450    94.4520
 2312.5000   -72.1320     7.2000     8.4110     2.2800    10.0580     0.4460    95.4980
 2313.0000   -72.1760     7.0340     8.2290     2.2860    10.0510     0.4520    94.8640
 2313.5000   -72.2190     6.8680     8.0470     2.2920    10.0390     0.4500    94.0090
 2314.0000   -72.2630     6.7030     7.8640     2.2990    10.0270     0.4420    91.9320
 2314.5000   -72.3070     6.5370     7.6820     2.3050    10.0170     0.4460    89.0910
 2315.0000   -72.3500     6.3340     7.4990     2.3090    10.0020     0.4470    91.6170
 2315.5000   -72.3940     6.2890     7.3170     2.3110     9.9980     0.4460    94.7750
 2316.0000   -72.4380     6.2450     7.2970     2.3120     9.9980     0.4460    95.2160
 2316.5000   -72.4810     6.2010     7.2970     2.3140     9.9980     0.4470    95.6870
 2317.0000   -72.5250     6.1560     7.2970     2.3150     9.9980     0.4480    98.0130
 2317.5000   -72.5680     6.1120     7.2970     2.3170     9.9980     0.4500   104.0090
 2318.0000   -72.5810     6.0670     7.2700     2.3180     9.9980     0.4500   108.5000
 2318.5000   -72.4290     6.0230     7.2430     2.3340     9.9980     0.4380   108.5950
 2319.0000   -72.3070     5.9930     7.2150     2.3490     9.9980     0.4350   107.5590
 2319.5000   -72.2170     6.0440     7.1880     2.3510     9.9980     0.4340   106.5460
 2320.0000   -72.1280     6.1060     7.1600     2.3520     9.9940     0.4100   102.4160
 2320.5000   -72.0360     6.1060     7.1330     2.3590     9.9790     0.3950    97.7960
 2321.0000   -71.9460     6.0870     7.1060     2.3700     9.9640     0.4010    95.2360
 2321.5000   -71.8640     6.0720     7.0560     2.3710     9.9490     0.3950    95.7140
 2322.0000   -71.9460     6.0560     6.8980     2.3720     9.9380     0.3920    96.1740
 2322.5000   -71.9900     6.0410     6.7640     2.3740     9.9330     0.3890    96.6420
 2323.0000   -72.0150     6.0260     6.7480     2.3770     9.9180     0.3900    97.0300
 2323.5000   -72.0410     6.0100     6.7320     2.3790     9.9170     0.3910    97.0410
 2324.0000   -72.0710     5.9950     6.7150     2.3820     9.9170     0.3760    98.4880
 2324.5000   -72.1000     5.9930     6.7060     2.3770     9.9170     0.3660    98.9550
 2325.0000   -72.1290     5.9370     6.7060     2.3650     9.9170     0.3680    97.8590
 2325.5000   -72.1580     5.8810     6.6540     2.3530     9.9170     0.3720   101.4680
 2326.0000   -72.1870     5.8740     6.5650     2.3280     9.9090     0.4160   101.3780
 2326.5000   -72.2160     5.8240     6.4760     2.3050     9.8620     0.4640   101.3820
 2327.0000   -72.2450     5.7750     6.3860     2.3050     9.8150     0.5030   107.5050
 2327.5000   -72.2740     5.7260     6.2970     2.3540     9.7690     0.5230   109.1450
 2328.0000   -72.3040     5.6760     6.2080     2.3860     9.7230     0.5210   108.8690
 2328.5000   -72.3330     5.6270     6.1190     2.4160     9.6760     0.5100   108.3150
 2329.0000   -72.3620     5.5780     6.0300     2.4710     9.6570     0.4640   106.8120
 2329.5000   -72.3890     5.5290     5.9930     2.5210     9.6610     0.4000   103.1700
 2330.0000   -72.3920     5.4560     6.0840     2.5470     9.6640     0.3310    99.6830
 2330.5000   -72.3200     5.5130     6.3440     2.5030     9.6680     0.3500    97.6220
 2331.0000   -72.2360     5.6120     6.5820     2.4340     9.6720     0.3740    98.8810
 2331.5000   -72.1500     6.0330     6.6440     2.4080     9.6750     0.3990    98.4960
 2332.0000   -72.0650     6.4200     6.7520     2.4050     9.6760     0.4240    97.7220
 2332.5000   -71.9880     6.7060     7.1440     2.4170     9.6530     0.4220   103.1150
 2333.0000   -71.7600     7.0390     7.7190     2.4640     9.6550     0.3760   105.9850
 2333.5000   -71.2490     7.3680     8.9830     2.5110     9.6510     0.3360   105.0960
 2334.0000   -70.7170     7.7190    10.8050     2.5450     9.6360     0.2970   104.2530
 2334.5000   -70.4750     9.9160    12.6270     2.5220     9.6350     0.2840   105.5570
 2335.0000   -70.7430    12.2760    14.4480     2.4980     9.6350     0.2740   106.8550
 2335.5000   -70.9930    14.6370    16.2700     2.4870     9.6350     0.2670   107.0050
 2336.0000   -70.9990    16.9980    18.0910     2.4760     9.6350     0.2600   105.3260
 2336.5000   -70.5240    19.3540    19.9130     2.4660     9.6350     0.2530    85.2580
 2337.0000   -70.1280    19.6330    20.4970     2.4770     9.6350     0.2410    62.7600
 2337.5000   -69.7370    19.9820    20.7660     2.4870     9.6350     0.2290    40.1350
 2338.0000   -69.5950    20.3320    21.0340     2.4860     9.6350     0.2170    25.7290
 2338.5000   -69.6320    20.6820    21.3020     2.4320     9.6350     0.2050    23.4700
 2339.0000   -69.6680    21.1430    21.5710     2.4580     9.6350     0.1990    29.2730
 2339.5000   -69.7050    22.0600    21.8390     2.4210     9.6350     0.1910    34.1990
 2340.0000   -69.7430    23.6440    22.1080     2.4170     9.6350     0.1840    38.8980
 2340.5000   -69.7730    25.2280    22.3760     2.4100     9.6350     0.1870    39.5620
 2341.0000   -69.3570    26.8120    23.1430     2.4050     9.6400     0.1900    39.9860
 2341.5000   -69.2370    28.1650    24.2680     2.3990     9.6540     0.1910    33.8070
 2342.0000   -69.1000    28.6980    25.3920     2.3940     9.6710     0.1890    27.0590
 2342.5000   -68.9590    28.9690    26.5170     2.3980     9.6760     0.1930    24.7430
 2343.0000   -68.8150    29.5170    27.1280     2.4060     9.6780     0.1980    23.6880
 2343.5000   -68.7770    29.9850    27.3830     2.4140     9.6790     0.2030    19.2230
 2344.0000   -68.7750    31.2260    27.6760     2.4210     9.6810     0.2070    14.6190
 2344.5000   -68.7750    32.4920    28.0270     2.4490     9.6830     0.1980    14.6990
 2345.0000   -68.7750    33.6150    28.3780     2.4710     9.6840     0.1870    14.7210
 2345.5000   -68.7750    35.2750    28.7290     2.4680     9.6860     0.1760    14.7470
 2346.0000   -68.7770    34.9460    29.0530     2.4520     9.6880     0.1690    14.7760
 2346.5000   -68.7790    34.6190    29.2410     2.4360     9.6900     0.1870    14.8070
 2347.0000   -68.7330    33.8910    29.2410     2.4190     9.6910     0.1830    14.8390
 2347.5000   -68.6930    32.3480    29.2910     2.4140     9.6930     0.1810    14.8700
 2348.0000   -68.8460    30.8050    29.4030     2.4210     9.6950     0.1890    14.9010
 2348.5000   -69.0080    29.2610    29.5170     2.4420     9.7070     0.1740    14.9330
 2349.0000   -69.1720    27.7180    28.2260     2.4670     9.7500     0.1660    14.9670
 2349.5000   -69.3350    26.1290    26.9050     2.4930     9.7920     0.1710    15.0070
 2350.0000   -69.4980    24.5040    25.5830     2.5110     9.8350     0.1770    15.0420
 2350.5000   -69.6620    22.7450    24.2620     2.4940     9.8370     0.1780    15.6080
 2351.0000   -69.8250    20.9860    22.9410     2.4750     9.8370     0.1700    19.2520
 2351.5000   -69.9770    19.2270    21.6200     2.4560     9.8330     0.1620    23.9970
 2352.0000   -69.9980    17.4690    20.2990     2.4380     9.8280     0.1530    28.7280
 2352.5000   -70.0770    15.7460    18.9780     2.4190     9.8230     0.1660    31.8600
 2353.0000   -70.1550    15.3220    17.9120     2.4010     9.8190     0.1620    30.3660
 2353.5000   -70.2330    14.9070    17.0080     2.3960     9.8160     0.1580    27.3650
 2354.0000   -70.3110    14.4920    16.1040     2.3920     9.8440     0.1570    28.6160
 2354.5000   -70.3890    14.0760    15.1990     2.3920     9.9110     0.1840    31.2270
 2355.0000   -70.4660    13.6610    14.4510     2.4010     9.8980     0.1780    32.9480
 2355.5000   -70.5440    13.5510    14.3120     2.4210     9.9300     0.1780    38.0820
 2356.0000   -70.5820    13.4250    14.1730     2.4420     9.9640     0.1890    52.4010
