~VERSION INFORMATION
 VERS.                2.0:   CWLS LOG ASCII STANDARD - VERSION 2.0
 WRAP.                 NO:   ONE LINE PER DEPTH STEP
~WELL INFORMATION
#MNEM.UNIT      DATA TYPE    INFORMATION
#----------   ------------   ------------------------------
 STRT.F          450.5000:   START DEPTH
 STOP.F         3173.5000:   STOP DEPTH
 STEP.F            0.5000:   STEP LENGTH
 NULL.          -999.2500:   NO VALUE
 COMP.    FENIX & SCISSON:   COMPANY
 WELL. FENIX & SCISSONNPR #72-TX-33:   WELL
 FLD .              N.P.R:   FIELD
 LOC .      S33 T39N R78W:   LOCATION
 CNTY.            NATRONA:   COUNTY
 STAT.            WYOMING:   STATE
 CTRY. UNITED STATES OF AMERICA:   COUNTRY
 SRVC.       SCHLUMBERGER:   SERVICE COMPANY
 DATE.        03-SEP-1981:   LOGDATE
 API .     49025108810000:   API NUMBER
~CURVE INFORMATION
#MNEM.UNIT       API CODE    CURVE DESCRIPTION
#----------   ------------   ------------------------------
 DEPT.F                  :   
 CALD.IN     45 280 60 00:   CALIPER FROM DENSITY LOG
 GRD .GAPI   45 310 01 00:   GAMMA RAY FROM DENSITY LOG
 DPHI.DEC    45 890 03 00:   
 RHOB.G/C3   45 350 01 00:   BULK DENSITY
 CORR.G/C3   45 356 01 00:   DENSITY CORRECTION
 SPR .MV     07 010 01 00:   SPONTANEOUS POTENTIAL
 SFL .OHMM   07 220 01 00:   SHALLOW FOCUSED LOG RESISTIVITY
 ILD .OHMM   07 120 46 00:   DEEP INDUCTION RESISTIVITY
 ILM .OHMM   07 120 44 00:   INDUCTION LOG MEDIUM RESISTIVITY
 TENR.LBS    07 635 01 00:   TENSION FROM RESISTIVITY
~PARAMETER INFORMATION
#MNEM.UNIT          VALUE    DESCRIPTION
#----------   ------------   ------------------------------
 EKB .F         5115.0000:   Kelly bushing
 EGL .F         5105.0000:   Ground level
 EDF .F            0.0000:   Drilling floor
 TD  .F         3162.0000:   Total depth
 DATE.        03-SEP-1981:   Date logged
 CLNT.            A2DTECH:   Client Code
 CTRY.                USA:   Country
 SL  . 808' FNL & 954' FEL:   Surface Location
 PD  .                 GL:   Permanent Datum
 EPD .F              5105:   Elevation Permanent Datum
 LMF .                 KB:   Log Measured From
 DMF .                 KB:   Drilling Measured From
 DAPD.F                10:   Feet Above Permanent Datum
 DD  .F              3162:   Depth driller
 DL  .F              3162:   Depth logger
 BLI .F              3158:   Bottom log interval
 TLI .F              1612:   Top log interval
 CS1 .IN            9.625:   Casing size
 CBD1.      9.625" @ 480':   Casing driller 1
 BS1 .IN            7.875:   Bit size
 BSD1.F              3162:   Depth drilled with bit1
 DFT .              WATER:   Type fluid in hole
 MSS .               TANK:   Source of sample
 RMS .OHMM            6.3:   Rm
 MST .F                73:   Rm Meas. temp.
 RMF .OHMM            6.3:   Rmf
 MFST.F                73:   Rmf Meas. temp.
 TCS .HRS            2200:   Time Circ. stopped
 TLAB.HRS            0300:   Time logger at bottom
 MRT .F               100:   Maximum recorded temp.
 LUN .               8039:   Logging unit number
 LUL .               CSPR:   Logging unit location
 ENGI.           C. PEARR:   Recorded By
 WITN.           R. SCOTT:   Witnessed by
 ORIG.         2.5" PRINT:   Origin of data
 UWI .     49025108810000:   Unique Well ID
 DICO. A2D TECHNOLOGIES, INC.:   Digitizing Company
~OTHER INFORMATION
~A   DEPT     CALD         GRD      DPHI       RHOB       CORR        SPR        SFL        ILD        ILM       TENR   
# ...
 1187.5000     9.3055   122.4402     0.1086     2.4886     0.0433  -999.2500  -999.2500  -999.2500  -999.2500  -999.2500
 1188.0000     9.2665   125.9217     0.1225     2.4788     0.0179  -999.2500  -999.2500  -999.2500  -999.2500  -999.2500
 1188.5000     9.2660   127.0799     0.1218     2.4846     0.0120  -999.2500  -999.2500  -999.2500  -999.2500  -999.2500
 1189.0000     9.3046   127.0730     0.1110     2.4983     0.0178  -999.2500  -999.2500  -999.2500  -999.2500  -999.2500
 1189.5000     9.3040   126.4870     0.1007     2.5100     0.0217  -999.2500  -999.2500  -999.2500  -999.2500  -999.2500
 1190.0000     9.3037   125.3173     0.0897     2.5081     0.0295  -999.2500  -999.2500  -999.2500  -999.2500  -999.2500
 1190.5000     9.2645   124.7291     0.0769     2.5732     0.0740  -999.2500  -999.2500  -999.2500  -999.2500  -999.2500
 1191.0000     9.2640   124.7245     0.0641     2.6350     0.1135  -999.2500  -999.2500  -999.2500  -999.2500  -999.2500
 1191.5000     9.2637   124.7176     0.0554     2.5769     0.1135  -999.2500  -999.2500  -999.2500  -999.2500  -999.2500
 1192.0000     9.2636   125.8758     0.0834     2.5041     0.0838  -999.2500  -999.2500  -999.2500  -999.2500  -999.2500
 1192.5000     9.2630   127.0317     0.1030     2.5002     0.0412  -999.2500  -999.2500  -999.2500  -999.2500  -999.2500
 1193.0000     9.2625   127.0271     0.1085     2.5041     0.0373  -999.2500  -999.2500  -999.2500  -999.2500  -999.2500
 1193.5000     9.2622   126.4388     0.1007     2.5060     0.0451  -999.2500  -999.2500  -999.2500  -999.2500  -999.2500
 1194.0000     9.2230   125.2715     0.0960     2.5158     0.0490  -999.2500  -999.2500  -999.2500  -999.2500  -999.2500
 1194.5000     9.2227   124.1018     0.1051     2.5002     0.0334  -999.2500  -999.2500  -999.2500  -999.2500  -999.2500
 1195.0000     9.2222   122.9345     0.1156     2.4884     0.0177  -999.2500  -999.2500  -999.2500  -999.2500  -999.2500
 1195.5000     9.2219   122.9276     0.1156     2.4943     0.0119  -999.2500  -999.2500  -999.2500  -999.2500  -999.2500
 1196.0000     9.1827   123.5044     0.1132     2.5138     0.0197  -999.2500  -999.2500  -999.2500  -999.2500  -999.2500
 1196.5000     9.1824   125.2417     0.0843     2.5431     0.0841  -999.2500  -999.2500  -999.2500  -999.2500  -999.2500
 1197.0000     9.1821   126.3999     0.0904     2.5431     0.0841  -999.2500  -999.2500  -999.2500  -999.2500  -999.2500
 1197.5000     9.2204   128.1371     0.0965     2.5353     0.0782  -999.2500  -999.2500  -999.2500  -999.2500  -999.2500
 1198.0000     9.2199   128.7116     0.1054     2.4962     0.0274  -999.2500  -999.2500  -999.2500  -999.2500  -999.2500
 1198.5000     9.2195   128.1257     0.1062     2.4996     0.0274  -999.2500  -999.2500  -999.2500  -999.2500  -999.2500
 1199.0000     9.2192   128.1188     0.1054     2.5031     0.0255  -999.2500  -999.2500  -999.2500  -999.2500  -999.2500
 1199.5000     9.1799   129.2770     0.1015     2.5040     0.0196  -999.2500  -999.2500  -999.2500  -999.2500  -999.2500
 1200.0000     9.1796   128.6887     0.0992     2.5215     0.0313  -999.2500  -999.2500  -999.2500  -999.2500  -999.2500
 1200.5000     9.1948   124.5097     0.0999     2.5215     0.0379  -999.2500  -999.2500  -999.2500  -999.2500  -999.2500
 1201.0000     9.2069   120.5433     0.1031     2.5117     0.0410  -999.2500  -999.2500  -999.2500  -999.2500  -999.2500
 1201.5000     9.2177   118.7968     0.1109     2.5000     0.0332  -999.2500  -999.2500  -999.2500  -999.2500  -999.2500
 1202.0000     9.2176   119.9562     0.1172     2.4863     0.0254  -999.2500  -999.2500  -999.2500  -999.2500  -999.2500
 1202.5000     9.1786   121.1166     0.1188     2.4863     0.0000  -999.2500  -999.2500  -999.2500  -999.2500  -999.2500
 1203.0000     9.1784   125.7643     0.1094     2.4960     0.0038  -999.2500  -999.2500  -999.2500  -999.2500  -999.2500
 1203.5000     9.2170   127.5062     0.1047     2.5077     0.0038  -999.2500  -999.2500  -999.2500  -999.2500  -999.2500
 1204.0000     9.2169   132.1539     0.1024     2.5136     0.0116  -999.2500  -999.2500  -999.2500  -999.2500  -999.2500
 1204.5000     9.2166   133.3143     0.1000     2.5116     0.0135  -999.2500  -999.2500  -999.2500  -999.2500  -999.2500
 1205.0000     9.2164   134.2725     0.0993     2.5057     0.0135  -999.2500  -999.2500  -999.2500  -999.2500  -999.2500
 1205.5000     9.2162   130.4016     0.1063     2.5018     0.0037  -999.2500  -999.2500  -999.2500  -999.2500  -999.2500
 1206.0000     9.2160   129.2354     0.0993     2.5252     0.0115  -999.2500  -999.2500  -999.2500  -999.2500  -999.2500
 1206.5000     9.2159   129.8145     0.0977     2.5564     0.0419  -999.2500  -999.2500  -999.2500  -999.2500  -999.2500
 1207.0000     9.2436   132.1366     0.0712     2.5799     0.0723  -999.2500  -999.2500  -999.2500  -999.2500  -999.2500
 1207.5000     9.2542   133.8785     0.0548     2.5642     0.0935  -999.2500  -999.2500  -999.2500  -999.2500  -999.2500
 1208.0000     9.2540   134.4564     0.0563     2.5973     0.0857  -999.2500  -999.2500  -999.2500  -999.2500  -999.2500
 1208.5000     9.2538   132.7088     0.1048     2.5016     0.0290  -999.2500  -999.2500  -999.2500  -999.2500  -999.2500
 1209.0000     9.2536   128.6367     0.1087     2.4918     0.0270  -999.2500  -999.2500  -999.2500  -999.2500  -999.2500
 1209.5000     9.2534   124.5635     0.1103     2.4899     0.0211  -999.2500  -999.2500  -999.2500  -999.2500  -999.2500
 1210.0000     9.2146   123.9798     0.1154     2.4859     0.0172  -999.2500  -999.2500  -999.2500  -999.2500  -999.2500
 1210.5000     9.2530   125.7206     0.1205     2.4801     0.0133  -999.2500  -999.2500  -999.2500  -999.2500  -999.2500
 1211.0000     9.2528   126.2997     0.1197     2.4781     0.0113  -999.2500  -999.2500  -999.2500  -999.2500  -999.2500
 1211.5000     9.2527   126.2962     0.1158     2.4937     0.0230  -999.2500  -999.2500  -999.2500  -999.2500  -999.2500
 1212.0000     9.3299   126.2939     0.0997     2.5269     0.0577  -999.2500  -999.2500  -999.2500  -999.2500  -999.2500
 1212.5000     9.3299   126.2904     0.0846     2.5406     0.1128  -999.2500  -999.2500  -999.2500  -999.2500  -999.2500
 1213.0000     9.3683   126.8695     0.0838     2.5035     0.1070  -999.2500  -999.2500  -999.2500  -999.2500  -999.2500
 1213.5000     9.3682   130.3544     0.1051     2.4865     0.0786  -999.2500  -999.2500  -999.2500  -999.2500  -999.2500
 1214.0000     9.3679   132.6777     0.1291     2.4702     0.0366  -999.2500  -999.2500  -999.2500  -999.2500  -999.2500
 1214.5000     9.3678   135.5812     0.1131     2.4935     0.0601  -999.2500  -999.2500  -999.2500  -999.2500  -999.2500
 1215.0000     9.4063   135.5789     0.0893     2.5209     0.0836  -999.2500  -999.2500  -999.2500  -999.2500  -999.2500
 1215.5000     9.3682   133.8313     0.0893     2.5209     0.1127  -999.2500  -999.2500  -999.2500  -999.2500  -999.2500
 1216.0000     9.3284   132.6662     0.1120     2.5170     0.1127  -999.2500  -999.2500  -999.2500  -999.2500  -999.2500
 1216.5000     9.2894   129.1744     0.1120     2.4935     0.0804  -999.2500  -999.2500  -999.2500  -999.2500  -999.2500
 1217.0000     9.2893   127.4267     0.1120     2.4876     0.0345  -999.2500  -999.2500  -999.2500  -999.2500  -999.2500
 1217.5000     9.3279   126.2617     0.1017     2.5189     0.0345  -999.2500  -999.2500  -999.2500  -999.2500  -999.2500
 1218.0000     9.3028   125.6768     0.0870     2.5423     0.0462  -999.2500  -999.2500  -999.2500  -999.2500  -999.2500
 1218.5000     9.3274   125.6745     0.0768     2.5579     0.1010  -999.2500  -999.2500  -999.2500  -999.2500  -999.2500
 1219.0000     9.3273   124.5083     0.0768     2.5755     0.1321  -999.2500  -999.2500  -999.2500  -999.2500  -999.2500
 1219.5000     9.3270   124.5060     0.0776     2.5286     0.1263  -999.2500  -999.2500  -999.2500  -999.2500  -999.2500
 1220.0000     9.3269   126.8281     0.0983     2.4758     0.0500  -999.2500  -999.2500  -999.2500  -999.2500  -999.2500
 1220.5000     9.3267   128.5700     0.1230     2.4758     0.0402  -999.2500  -999.2500  -999.2500  -999.2500  -999.2500
