~VERSION INFORMATION
 VERS.                2.0:   CWLS LOG ASCII STANDARD - VERSION 2.0
 WRAP.                 NO:   ONE LINE PER DEPTH STEP
~WELL INFORMATION
#MNEM.UNIT      DATA TYPE    INFORMATION
#----------   ------------   ------------------------------
 STRT.F          200.0000:   START DEPTH
 STOP.F         3248.0000:   STOP DEPTH
 STEP.F            0.5000:   STEP LENGTH
 NULL.          -999.2500:   NO VALUE
 COMP.    FENIX & SCISSON:   COMPANY
 WELL.   FENIX "AX" #28-3:   WELL
 FLD .              NPR-3:   FIELD
 LOC .       S3 T38N R78W:   LOCATION
 CNTY.            NATRONA:   COUNTY
 STAT.            WYOMING:   STATE
 CTRY. UNITED STATES OF AMERICA:   COUNTRY
 SRVC.              WELEX:   SERVICE COMPANY
 DATE.        30-JUN-1977:   LOGDATE
 API .     49025104200000:   API NUMBER
~CURVE INFORMATION
#MNEM.UNIT       API CODE    CURVE DESCRIPTION
#----------   ------------   ------------------------------
 DEPT.F                  :   
 CALD.IN     45 280 60 00:   CALIPER FROM DENSITY LOG
 GRD .GAPI   45 310 01 00:   GAMMA RAY FROM DENSITY LOG
 RHOB.G/C3   45 350 01 00:   BULK DENSITY
 CORR.G/C3   45 356 01 00:   DENSITY CORRECTION
 SPR .MV     07 010 01 00:   SPONTANEOUS POTENTIAL
 ILD .OHMM   07 120 46 00:   DEEP INDUCTION RESISTIVITY
 ILM .OHMM   07 120 44 00:   INDUCTION LOG MEDIUM RESISTIVITY
 SGRD.OHMM   07 220 05 00:   SHALLOW SHORT GUARD RESISTIVITY
~PARAMETER INFORMATION
#MNEM.UNIT          VALUE    DESCRIPTION
#----------   ------------   ------------------------------
 EKB .F         4969.0000:   Kelly bushing
 EGL .F         4959.0000:   Ground level
 TD  .F         3250.0000:   Total depth
 CLNT.            A2DTECH:   Client Code
 SL  . 500' FSL & 800' FWL:   Surface Location
 PD  .                 GL:   Permanent Datum
 EPD .F              4959:   Elevation Permanent Datum
 LMF .                 KB:   Log Measured From
 DMF .                 KB:   Drilling Measured From
 DAPD.F                10:   Feet Above Permanent Datum
 DATE.        30-JUN-1977:   Date Logged [DD-MMM-YYYY]
 DD  .F              3250:   Depth driller
 DL  .F              3250:   Depth logger
 BLI .F              3248:   Bottom log interval
 TLI .F               200:   Top log interval
 CS1 .IN            8.625:   Casing size
 CBD1.      8.625" @ 217':   Casing driller 1
 CBL1.F               225:   Casing logger 1
 BS1 .IN            7.875:   Bit size
 BSD1.F              3250:   Depth drilled with bit1
 DFT .                KCL:   Type fluid in hole
 DFD .                8.9:   Density
 RMS .OHMM           1.76:   Rm
 MST .F                63:   Rm Meas. temp.
 TCS .HRS             2.5:   Time Circ. stopped
 MRT .F                68:   Maximum recorded temp.
 LUN .               8611:   Logging unit number
 ENGI.         G. BENTSEN:   Recorded By
 WITN.         PETTINGILL:   Witnessed by
 ORIG.         2.5" PRINT:   Origin of data
 UWI .     49025104200000:   Unique Well ID
 DICO. A2D TECHNOLOGIES, INC.:   Digitizing Company
 DFV .                 30:   Viscosity
 DFPH.                  7:   pH
 DFL .                 10:   Fluid loss
 MSS .                PIT:   Source of sample
 RMF .OHMM           1.09:   Rmf
 MFST.F                68:   Rmf Meas. temp.
 MFSS.               MEAS:   Source Rmf.
 RMC .OHMM           2.01:   Rmc
 MCST.F                68:   Rmc Meas. temp.
 MCSS.               MEAS:   Source Rmc.
 RMB .OHMM           1.01:   Rm. at BHT
 BHT .F               118:   BHT.
 LUL .             CASPER:   Logging unit location
~OTHER INFORMATION
~A   DEPT       CALD       GRD        RHOB      CORR       SPR        ILD        ILM       SGRD   
# ...
  605.0000     8.4721    90.7530     2.5190     0.0248   -29.7935    10.0203    10.4344    11.4177
  605.5000     8.4416    90.7319     2.5165     0.0248   -30.0885     9.8264    10.2935    11.3969
  606.0000     8.4403    90.7069     2.5066     0.0248   -30.6785     9.5571    10.1546    11.2652
  606.5000     8.4098    90.6864     2.4976     0.0232   -30.9735     9.2951     9.9436    11.0787
  607.0000     8.4377    90.0634     2.4966     0.0232   -31.5634     9.1652     9.6701    10.8143
  607.5000     8.4364    90.0429     2.5022     0.0236   -31.8584     8.8653     9.3559    10.6685
  608.0000     8.4351    90.6247     2.5114     0.0246   -32.4484     8.3934     8.9797    10.4734
  608.5000     8.4045    90.6042     2.5159     0.0246   -32.7493     7.7314     8.6186    10.3261
  609.0000     8.4100    91.1860     2.5113     0.0245   -33.0383     7.0245     8.1592    10.1809
  609.5000     8.4313    91.1655     2.5052     0.0245   -33.0383     6.8357     7.5152    10.1051
  610.0000     8.4298    92.3695     2.4975     0.0245   -33.0383     6.6519     6.7345     9.8966
  610.5000     8.4173    94.1867     2.4929     0.0244   -33.0383     6.3848     6.4453     9.2743
  611.0000     8.4106    96.1688     2.5023     0.0244   -33.0383     6.2132     6.2036     6.8872
  611.5000     8.4259    98.4237     2.5101     0.0243   -33.0383     6.1297     6.4291     8.2754
  612.0000     8.4246   100.9879     2.5128     0.0243   -33.0383     6.1310     7.0227     9.7740
  612.5000     8.4232   102.6606     2.5079     0.0243   -32.8909     6.2170     7.5998    10.8702
  613.0000     8.4217   104.0824     2.5036     0.0242   -32.4484     6.3984     8.0390    11.3586
  613.5000     8.4204   105.0903     2.4955     0.0242   -32.1534     6.7762     8.5583    11.4443
  614.0000     8.4191   106.3052     2.5006     0.0242   -32.1534     7.2837     9.1833    11.6038
  614.5000     8.4180   107.2199     2.5100     0.0226   -32.1534     8.1304     9.7798    11.4474
  615.0000     8.4166   107.1988     2.5201     0.0226   -32.1113     8.8200     9.9440    11.6073
  615.5000     8.4153   106.5712     2.5304     0.0225   -32.0632     9.2681    10.0426    11.7691
  616.0000     8.4140   105.3458     2.5344     0.0225   -32.0151     9.3059    10.1828    11.8159
  616.5000     8.4127   102.3132     2.5311     0.0224   -31.9669     9.5721    10.1841    11.7720
  617.0000     8.4407    99.8830     2.5296     0.0239   -31.9188     9.7973    10.1855    11.9363
  617.5000     8.4393    97.4529     2.5342     0.0239   -31.9100     9.9896    10.1869    11.9379
  618.0000     8.4419    96.8299     2.5388     0.0239   -31.9118    10.2133    10.3290    12.1042
  618.5000     8.4661    96.2069     2.5434     0.0238   -31.9132    10.3566    10.4732    12.4423
  619.0000     8.4646    95.5840     2.5388     0.0238   -31.6197    10.3587    10.7662    12.7898
  619.5000     8.4633    94.9608     2.5342     0.0237   -31.6211    10.3609    11.0673    13.1513
  620.0000     8.4620    94.9398     2.5280     0.0237   -31.3274    10.6519    11.5341    13.1488
  620.5000     8.4607    94.9187     2.5357     0.0237   -31.0339    10.6540    11.7018    13.3321
  621.0000     8.4594    94.8976     2.5418     0.0236   -30.7404    10.9528    12.0223    13.3621
  621.5000     8.4580    94.8765     2.5450     0.0236   -30.7420    10.9550    12.0447    13.7436
  622.0000     8.4567    94.8554     2.5464     0.0235   -30.4484    11.1086    12.2199    14.0892
  622.5000     8.4262    94.8343     2.5407     0.0235   -30.4499    11.1109    12.3620    14.0912
  623.0000     8.4246    95.0402     2.5304     0.0235   -30.7463    11.1131    12.3637    14.0931
  623.5000     8.4233    96.2550     2.5280     0.0234   -30.7478    11.2690    12.1966    14.2895
  624.0000     8.3928    97.1807     2.5335     0.0234   -30.7493    11.2713    12.1985    14.4887
  624.5000     8.3915    98.0823     2.5408     0.0234   -30.7507    11.4293    12.2002    14.4907
  625.0000     8.3610    99.5482     2.5417     0.0233   -30.7522    11.4317    12.2018    14.3940
  625.5000     8.3597    99.5234     2.5388     0.0233   -30.7537    11.5920    12.2035    14.2974
  626.0000     8.3584    98.2980     2.5317     0.0232   -30.7552    11.5817    12.3739    14.2993
  626.5000     8.3572    96.4702     2.5247     0.0232   -30.7566    11.4386    12.3756    14.3016
  627.0000     8.3558    94.6424     2.5165     0.0232   -30.7581    11.5992    12.3773    14.5010
  627.5000     8.3545    94.0195     2.5078     0.0216   -30.7596    11.6016    12.3793    14.7030
  628.0000     8.3825    92.7941     2.5019     0.0216   -30.7611    11.6040    12.3809    14.7050
  628.5000     8.3811    92.7735     2.5069     0.0215   -30.7625    11.6064    12.3826    14.5066
  629.0000     8.3798    92.1506     2.5155     0.0215   -30.7640    11.4501    12.3843    14.1164
  629.5000     8.4079    92.0713     2.5218     0.0219   -30.7655    11.2963    12.3859    13.9261
  630.0000     8.3772    90.3012     2.5294     0.0229   -30.7670    11.2374    12.3876    13.7384
  630.5000     8.3871    89.6777     2.5309     0.0244   -30.7684    11.1473    12.5605    13.7403
  631.0000     8.4038    89.7791     2.5294     0.0251   -30.7702    10.9976    12.5622    13.9318
  631.5000     8.3732    90.9939     2.5278     0.0274   -30.7716    10.9999    12.7375    14.1260
  632.0000     8.3719    92.8113     2.5248     0.0265   -30.7731    10.7693    12.7392    14.1279
  632.5000     8.3877    94.4163     2.5171     0.0243   -30.7745    10.5609    12.7410    13.9091
  633.0000     8.3985    94.6386     2.5110     0.0227   -30.7760    10.4186    12.5547    13.7495
  633.5000     8.3970    94.3705     2.5171     0.0227   -30.7774    10.2791    12.3993    13.7515
  634.0000     8.3957    94.3494     2.5217     0.0226   -30.7789    10.1407    12.0378    13.7010
  634.5000     8.4238    94.3283     2.5278     0.0226   -30.7803    10.1430    11.7400    13.5083
  635.0000     8.4224    94.3033     2.5293     0.0226   -30.7818    10.1451    11.7418    13.1371
  635.5000     8.4211    94.2827     2.5261     0.0225   -31.0782    10.1471    11.7434    12.9524
  636.0000     8.4198    94.2622     2.5232     0.0225   -31.0797    10.1492    11.7450    12.6746
  636.5000     8.4186    94.2416     2.5238     0.0224   -31.3761    10.1512    11.9707    12.5906
  637.0000     8.4173    94.8235     2.5297     0.0224   -31.3776    10.1533    12.2152    12.3353
  637.5000     8.4159    95.4066     2.5284     0.0224   -31.6740    10.0169    12.5714    12.4363
  638.0000     8.4439    96.5904     2.5232     0.0223   -31.6755     9.8823    12.9367    13.0691
  638.5000     8.4425    97.1717     2.5274     0.0238   -31.9720     9.8844    12.0803    14.3346
  639.0000     8.4412    98.3735     2.5299     0.0238   -31.9735     9.8864    11.7547    14.1553
  639.5000     8.4399    99.6375     2.5278     0.0240   -31.9749     9.7535    11.1282    13.4020
  640.0000     8.4386   101.3267     2.5247     0.0244   -31.9764     9.7557    10.5351    13.4037
  640.5000     8.4668    99.9880     2.5289     0.0247   -31.9779     9.7257    10.2454    12.6904
  641.0000     8.4652    99.3333     2.5354     0.0251   -31.9794     9.5899    10.1128    12.0150
  641.5000     8.4639    97.9027     2.5216     0.0236   -31.9808     9.3676    10.0970    11.3756
  642.0000     8.4626    96.4217     2.5047     0.0220   -31.9823     9.1157     9.9776    11.3771
  642.5000     8.4613    96.8725     2.5016     0.0204   -32.1165     8.9446     9.9791    11.3786
  643.0000     8.4597    99.0563     2.5062     0.0036   -32.2802     8.8729    10.0150    11.3896
  643.5000     8.4877   100.2711     2.5231     0.0158   -32.5767     8.8747    10.4434    11.3817
  644.0000     8.4864   100.8836     2.5353     0.0219   -32.8732     8.8765    10.9408    11.3833
  644.5000     8.4851   101.1355     2.5522     0.0234   -33.1699     8.8784    11.1435    11.3849
  645.0000     8.4838   101.7133     2.5567     0.0248   -33.1714     8.7595    11.1450    11.3864
