~VERSION INFORMATION
 VERS.                2.0:   CWLS LOG ASCII STANDARD - VERSION 2.0
 WRAP.                 NO:   ONE LINE PER DEPTH STEP
~WELL INFORMATION
#MNEM.UNIT      DATA TYPE    INFORMATION
#----------   ------------   ------------------------------
 STRT.F            0.0000:   START DEPTH
 STOP.F         1071.5000:   STOP DEPTH
 STEP.F            0.5000:   STEP LENGTH
 NULL.          -999.2500:   NO VALUE
 COMP.       FLUOR DANIEL:   COMPANY
 WELL.     FLUOR X #82-22:   WELL
 FLD .                NPR:   FIELD
 LOC .      S22 T38N R78W:   LOCATION
 CNTY.            NATRONA:   COUNTY
 STAT.            WYOMING:   STATE
 CTRY. UNITED STATES OF AMERICA:   COUNTRY
 SRVC.      WESTERN ATLAS:   SERVICE COMPANY
 DATE.        19-SEP-1994:   LOGDATE
 API .     49025226520000:   API NUMBER
~CURVE INFORMATION
#MNEM.UNIT       API CODE    CURVE DESCRIPTION
#----------   ------------   ------------------------------
 DEPT.F                  :   
 GRR .GAPI   07 310 01 00:   GAMMA RAY FROM RESISTIVITY
 TENR.LBS    07 635 01 00:   TENSION
 ILD .OHMM   07 120 46 00:   INDUCTION LOG DEEP RESISTIVITY
 ILM .OHMM   07 120 44 00:   INDUCTION LOG MEDIUM RESISTIVITY
~PARAMETER INFORMATION
#MNEM.UNIT          VALUE    DESCRIPTION
#----------   ------------   ------------------------------
 EKB .F         5288.0000:   Kelly bushing
 EGL .F         5278.0000:   Ground level
 EDF .F         5287.0000:   Drilling floor
 EPD .F         5278.0000:   Permanent datum
 TD  .F         1062.0000:   Total depth
 DATE.        19-SEP-1994:   Date logged
 CLNT.            A2DTECH:   Client Code
 SL  . 937' FNL & 347' FEL:   Surface Location
 PD  .                 GL:   Permanent Datum
 LMF .                 KB:   Log Measured From
 DMF .                 KB:   Drilling Measured From
 DAPD.F                10:   Feet Above Permanent Datum
 DD  .F              1060:   Depth driller
 DL  .F              1062:   Depth logger
 BLI .F              1054:   Bottom log interval
 CS1 .IN            9.625:   Casing size
 CBD1.       9.625" @ 77':   Casing driller 1
 CBL1.F                78:   Casing logger 1
 BS1 .IN             8.75:   Bit size
 BSD1.F              1060:   Depth drilled with bit1
 DFT .                AIR:   Type fluid in hole
 LUN .            HL 6530:   Logging unit number
 LUL .             CASPER:   Logging unit location
 ENGI.      PAT RASMUSSEN:   Recorded By
 WITN.        GARY STRONG:   Witnessed by
 ORIG.           5" PRINT:   Origin of data
 UWI .     49025226520000:   Unique Well ID
 DICO. A2D TECHNOLOGIES, INC.:   Digitizing Company
~OTHER INFORMATION
~A    DEPT      GRR      TENR        ILD        ILM   
# ...
  584.0000   135.3290   -25.1960     6.7860     6.8200
  584.5000   134.3950   -24.1700     6.7140     6.7660
  585.0000   128.6700   -23.1440     6.6550     6.7240
  585.5000   124.6410   -22.1180     6.6160     6.7010
  586.0000   125.7600   -21.0920     6.5770     6.6780
  586.5000   127.5150   -20.0660     6.5380     6.6560
  587.0000   127.7330   -19.0400     6.4980     6.6330
  587.5000   123.5560   -18.0140     6.4730     6.6090
  588.0000   122.2060   -16.9880     6.4520     6.6250
  588.5000   123.1590   -15.9620     6.4280     6.6470
  589.0000   124.2370   -14.9360     6.4740     6.6680
  589.5000   124.2220   -13.9100     6.5310     6.6890
  590.0000   124.2970   -15.2580     6.5880     6.7110
  590.5000   127.6380   -17.7250     6.6450     6.7320
  591.0000   130.7510   -20.1930     6.6750     6.7530
  591.5000   130.6960   -22.6600     6.6830     6.7750
  592.0000   130.7090   -23.6420     6.6920     6.7950
  592.5000   132.6600   -23.6420     6.7000     6.8040
  593.0000   134.5740   -23.6420     6.7080     6.8110
  593.5000   133.8870   -23.6420     6.7160     6.8190
  594.0000   130.0540   -23.6420     6.7240     6.8270
  594.5000   125.3910   -23.6420     6.7330     6.8350
  595.0000   123.5080   -23.6420     6.7810     6.8430
  595.5000   127.0670   -23.6420     6.8310     6.8510
  596.0000   131.0300   -23.6420     6.8810     6.8590
  596.5000   129.8120   -23.6420     6.9310     6.9490
  597.0000   127.3460   -23.6420     6.9800     7.0340
  597.5000   127.0980   -19.3000     7.0300     7.1180
  598.0000   128.7150   -14.5930     7.1050     7.2030
  598.5000   132.1530    -9.8860     7.1980     7.2880
  599.0000   135.6620    -5.1780     7.2920     7.3730
  599.5000   137.1760    -0.4710     7.3850     7.4470
  600.0000   135.2280     4.2360     7.4790     7.5190
  600.5000   132.0530     1.7650     7.5640     7.5920
  601.0000   133.1360    -7.5820     7.6400     7.6640
  601.5000   135.5210   -16.9290     7.7160     7.7360
  602.0000   135.8850   -26.2760     7.7930     7.8090
  602.5000   133.2360   -32.4350     7.8090     7.8090
  603.0000   130.4210   -26.2660     7.8090     7.8090
  603.5000   129.4430   -20.0970     7.8150     7.8090
  604.0000   131.8990   -13.9280     7.8290     7.8080
  604.5000   134.4010    -7.7590     7.8440     7.8940
  605.0000   133.5860    -4.7130     7.8580     8.0190
  605.5000   131.1520    -8.5210     7.8720     8.1440
  606.0000   128.7220   -12.3300     7.9550     8.2690
  606.5000   128.8370   -16.1380     8.1630     8.3940
  607.0000   131.8870   -19.9460     8.3710     8.5190
  607.5000   132.2240   -23.6420     8.5150     8.6150
  608.0000   129.8490   -20.4350     8.6440     8.6930
  608.5000   128.5430   -17.3190     8.7730     8.7720
  609.0000   128.2530   -14.2030     8.8900     8.8500
  609.5000   127.9900   -11.0880     8.9490     8.9280
  610.0000   125.4210    -7.9720     9.0020     9.0070
  610.5000   120.6520    -4.8560     9.0550     9.0850
  611.0000   119.5150    -6.6130     9.1090     9.1630
  611.5000   122.4220   -12.0250     9.1740     9.2410
  612.0000   125.1050   -17.4360     9.2560     9.3200
  612.5000   127.0010   -22.8480     9.3380     9.3980
  613.0000   128.2250   -21.8870     9.3990     9.4860
  613.5000   127.3080   -19.8310     9.2880     9.3940
  614.0000   125.9180   -17.7750     9.2010     9.2890
  614.5000   128.0790   -15.7180     9.1130     9.1840
  615.0000   131.1570   -13.6620     9.0330     9.0790
  615.5000   131.9520   -11.6060     8.9660     8.9740
  616.0000   130.1280    -9.5490     8.9000     8.8870
  616.5000   129.7550    -7.4930     8.8330     8.8710
  617.0000   129.6020    -5.4370     8.8080     8.8550
  617.5000   129.8230    -3.5210     8.8080     8.8390
  618.0000   131.7730   -10.3870     8.8080     8.8230
  618.5000   134.2430   -16.8130     8.8080     8.8070
  619.0000   134.9040   -23.2390     8.8090     8.7910
  619.5000   134.2350   -29.6650     8.7900     8.7750
  620.0000   133.5780   -31.1540     8.7370     8.7590
  620.5000   132.9480   -24.2990     8.6840     8.7430
  621.0000   131.2700   -17.4450     8.6310     8.7270
  621.5000   130.3070   -16.7860     8.5780     8.6480
  622.0000   131.0170   -24.1300     8.5260     8.5710
  622.5000   133.3410   -31.4750     8.4880     8.4930
  623.0000   136.8680   -29.7230     8.4880     8.4100
  623.5000   139.6620   -24.0110     8.4880     8.4250
  624.0000   139.0090   -18.2990     8.4880     8.4410
  624.5000   136.1610   -14.1410     8.4880     8.4580
  625.0000   134.5400   -17.3540     8.4880     8.4750
  625.5000   135.4040   -20.5670     8.4880     8.4870
  626.0000   137.5160   -23.7800     8.4880     8.4510
  626.5000   138.7470   -26.9930     8.4880     8.4200
  627.0000   141.1170   -30.2060     8.4170     8.3890
  627.5000   144.3730   -33.7020     8.3510     8.3590
  628.0000   147.1260   -32.1900     8.2130     8.3070
  628.5000   147.0560   -30.5320     8.0470     8.1120
  629.0000   146.0380   -28.8730     7.8810     7.9180
  629.5000   146.2080   -27.2150     7.7150     7.7230
  630.0000   147.5050   -25.5570     7.5490     7.5280
  630.5000   146.4850   -23.8980     7.3530     7.3340
  631.0000   143.3500   -20.7440     7.1170     7.1390
  631.5000   144.2010   -17.3170     6.8820     6.9440
  632.0000   147.4030   -13.8900     6.6710     6.8270
  632.5000   148.1580   -10.4630     6.6710     6.7290
  633.0000   146.6980    -7.0360     6.6710     6.6970
  633.5000   145.2360    -3.5210     6.6710     6.6710
  634.0000   143.0710   -16.0460     6.7360     6.9240
  634.5000   140.5910   -28.8980     6.9050     7.1230
  635.0000   138.0840   -29.9150     7.0730     7.2970
  635.5000   136.1750   -23.8670     7.2420     7.4710
  636.0000   134.2850   -17.8190     7.4100     7.6460
  636.5000   132.4770   -13.1870     7.5950     7.7150
  637.0000   132.0720   -11.8690     7.6170     7.7720
  637.5000   132.2320   -10.5500     7.6410     7.8090
  638.0000   129.6230    -9.2320     7.6650     7.7460
  638.5000   125.2230    -7.9140     7.6260     7.6990
  639.0000   125.5370    -6.5960     7.5860     7.6520
  639.5000   129.3940    -5.2780     7.5460     7.6050
  640.0000   130.7710    -3.9600     7.5050     7.5580
  640.5000   130.4220    -5.8080     7.4650     7.5140
  641.0000   127.9000    -9.2350     7.4250     7.4770
  641.5000   128.0330   -12.6630     7.3840     7.4400
  642.0000   132.1100   -16.0900     7.3440     7.3860
  642.5000   134.7930   -19.5170     7.3180     7.5550
  643.0000   134.8320   -22.9440     7.6610     7.8570
  643.5000   130.4830   -21.0830     7.9130     8.1590
  644.0000   124.4170   -17.8700     8.1650     8.4330
  644.5000   116.8930   -14.6570     8.3190     8.6710
  645.0000   107.1420   -10.9500     8.4100     8.8900
  645.5000   100.8750    -6.9960     8.4100     8.7010
  646.0000   108.0750    -3.0410     8.4100     8.5260
  646.5000   120.9630     0.9130     8.3590     8.3780
  647.0000   132.0970     4.8680     8.2090     8.2850
  647.5000   138.6870     0.9750     8.0600     8.1920
  648.0000   139.3310    -8.6640     7.9550     8.0990
  648.5000   139.0040   -18.3040     7.8620     8.0060
  649.0000   138.6370   -22.8060     7.7690     7.9410
  649.5000   137.8490   -20.9340     7.6760     7.9100
  650.0000   135.5110   -19.0620     7.6430     7.8790
  650.5000   133.4700   -17.1900     7.6190     7.8480
  651.0000   133.5500   -15.3180     7.5940     7.8170
  651.5000   134.7340   -13.4450     7.5690     7.7860
  652.0000   135.1790   -11.5730     7.5440     7.7550
  652.5000   134.1360    -9.7010     7.5020     7.6680
  653.0000   133.3880    -7.8290     7.3960     7.5010
  653.5000   132.7890    -5.9560     7.2900     7.3340
  654.0000   131.1780    -4.0840     7.1840     7.1670
  654.5000   130.6850    -7.3120     7.0780     7.0460
  655.0000   132.1610   -12.7340     6.9840     7.0280
  655.5000   134.2320   -18.1560     6.9660     7.0090
  656.0000   134.3870   -23.6420     6.9470     6.9910
  656.5000   132.3540   -18.5360     6.9280     6.9800
