~VERSION INFORMATION
 VERS.                2.0:   CWLS LOG ASCII STANDARD - VERSION 2.0
 WRAP.                 NO:   ONE LINE PER DEPTH STEP
~WELL INFORMATION
#MNEM.UNIT      DATA TYPE    INFORMATION
#----------   ------------   ------------------------------
 STRT.F          204.5000:   START DEPTH
 STOP.F         2964.0000:   STOP DEPTH
 STEP.F            0.5000:   STEP LENGTH
 NULL.          -999.2500:   NO VALUE
 COMP.    FENIX & SCISSON:   COMPANY
 WELL. FENIX NPR 3 "AX" #14-28:   WELL
 FLD .  TEAPOT DOME NPR-3:   FIELD
 LOC .      S28 T39N R78W:   LOCATION
 CNTY.            NATRONA:   COUNTY
 STAT.            WYOMING:   STATE
 CTRY. UNITED STATES OF AMERICA:   COUNTRY
 SRVC.           BIRDWELL:   SERVICE COMPANY
 DATE.        24-MAY-1978:   LOGDATE
 API .     49025106450000:   API NUMBER
~CURVE INFORMATION
#MNEM.UNIT       API CODE    CURVE DESCRIPTION
#----------   ------------   ------------------------------
 DEPT.F                  :   
 SPR .MV     05 010 01 00:   SPONTANEOUS POTENTIAL
 CORR.G/C3   45 356 01 00:   DENSITY CORRECTION
 DEN .G/C3   45 350 01 00:   DENSITY
 CALD.IN     45 280 60 00:   CALIPER FROM DENSITY LOG
 GRD .GAPI   45 310 01 00:   GAMMA RAY FROM DENSITY LOG
 SN  .OHMM   05 040 16 00:   SHORT NORMAL 16"
 ILD .OHMM   05 120 46 00:   DEEP INDUCTION RESISTIVITY
~PARAMETER INFORMATION
#MNEM.UNIT          VALUE    DESCRIPTION
#----------   ------------   ------------------------------
 EKB .F         5042.0000:   Kelly bushing
 EGL .F         5032.0000:   Ground level
 EDF .F            0.0000:   Drilling floor
 TD  .F         2957.0000:   Total depth
 DATE.        24-MAY-1978:   Date logged
 CLNT.            A2DTECH:   Client Code
 SL  . 2410' FNL & 280' FWL:   Surface Location
 PD  .                 GL:   Permanent Datum
 EPD .F              5032:   Elevation Permanent Datum
 LMF .                 KB:   Log Measured From
 DMF .                 KB:   Drilling Measured From
 DAPD.F                10:   Feet Above Permanent Datum
 DD  .F              2950:   Depth driller
 DL  .F              2957:   Depth logger
 BLI .F              2951:   Bottom log interval
 TLI .F               225:   Top log interval
 CS1 .IN            8.625:   Casing size
 CBL1.F               225:   Casing logger 1
 BS1 .IN            7.875:   Bit size
 BSD1.F              2950:   Depth drilled with bit1
 DFT .       CHEMICAL GEL:   Type fluid in hole
 DFD .                  9:   Density
 DFV .                 34:   Viscosity
 DFPH.               10.5:   pH
 DFL .                  6:   Fluid loss
 MSS .           FLOWLINE:   Source of sample
 RMS .OHMM            1.5:   Rm
 MST .F                70:   Rm Meas. temp.
 RMF .OHMM            1.1:   Rmf
 MFST.F                78:   Rmf Meas. temp.
 RMC .OHMM            2.8:   Rmc
 MCST.F                72:   Rmc Meas. temp.
 MFSS.               MEAS:   Source Rmf.
 RMB .OHMM           0.95:   Rm. at BHT
 BHT .F               110:   BHT.
 TCS .HRS               2:   Time Circ. stopped
 MRT .F               110:   Maximum recorded temp.
 LUN .               2958:   Logging unit number
 LUL .               CASP:   Logging unit location
 ENGI.             MILLER:   Recorded By
 WITN.            RHOADES:   Witnessed by
 ORIG.           5" PRINT:   Origin of data
 UWI .     49025106450000:   Unique Well ID
 DICO. A2D TECHNOLOGIES, INC.:   Digitizing Company
~OTHER INFORMATION
~A   DEPT      SPR       CORR        DEN       CALD         GRD        SN        ILD   
# ...
 2752.5000    -3.0000     0.0140     2.5110  -999.2500  -999.2500     5.5700     4.2920
 2753.0000    -3.0000     0.0150     2.5140  -999.2500  -999.2500     5.6040     4.3160
 2753.5000    -3.0000     0.0160     2.5150  -999.2500  -999.2500     5.6380     4.3400
 2754.0000    -3.0000     0.0170     2.5110  -999.2500  -999.2500     5.6710     4.3540
 2754.5000    -3.0000     0.0180     2.5100  -999.2500  -999.2500     5.7050     4.3630
 2755.0000    -3.0000     0.0180     2.5130  -999.2500  -999.2500     5.7430     4.3720
 2755.5000    -3.0000     0.0190     2.5160  -999.2500  -999.2500     5.7910     4.3810
 2756.0000    -3.0000     0.0200     2.5160  -999.2500  -999.2500     5.8390     4.3900
 2756.5000    -3.0000     0.0210     2.5150  -999.2500  -999.2500     5.8870     4.3990
 2757.0000    -3.0000     0.0220     2.5180  -999.2500  -999.2500     5.9350     4.4080
 2757.5000    -3.0000     0.0220     2.5210  -999.2500  -999.2500     5.9840     4.4160
 2758.0000    -3.0000     0.0230     2.5220  -999.2500  -999.2500     6.0540     4.4290
 2758.5000    -3.0000     0.0240     2.5200  -999.2500  -999.2500     5.9840     4.4010
 2759.0000    -3.0000     0.0250     2.5220  -999.2500  -999.2500     5.8530     4.3480
 2759.5000    -3.0000     0.0260     2.5260  -999.2500  -999.2500     5.7210     4.2950
 2760.0000    -3.0000     0.0260     2.5310  -999.2500  -999.2500     5.5900     4.2420
 2760.5000    -3.0000     0.0270     2.5330  -999.2500  -999.2500     5.4580     4.1890
 2761.0000    -3.0000     0.0280     2.5320  -999.2500  -999.2500     5.2260     4.1360
 2761.5000    -3.0000     0.0290     2.5290  -999.2500  -999.2500     5.3270     4.0830
 2762.0000    -3.0000     0.0300     2.5230  -999.2500  -999.2500     5.5010     4.0300
 2762.5000    -3.0000     0.0300     2.5220  -999.2500  -999.2500     5.6750     3.9670
 2763.0000    -3.0000     0.0300     2.5270  -999.2500  -999.2500     5.8490     3.9990
 2763.5000    -3.0000     0.0300     2.5300  -999.2500  -999.2500     6.0540     4.0390
 2764.0000    -3.0000     0.0300     2.5360  -999.2500  -999.2500     5.7130     4.0790
 2764.5000    -3.0000     0.0260     2.5440  -999.2500  -999.2500     5.2260     4.1190
 2765.0000    -3.0000     0.0220     2.5460  -999.2500  -999.2500     5.3090     4.1590
 2765.5000    -3.0000     0.0180     2.5360  -999.2500  -999.2500     5.4220     4.1990
 2766.0000    -3.0000     0.0210     2.5260  -999.2500  -999.2500     5.6500     4.2390
 2766.5000    -3.0000     0.0240     2.5210  -999.2500  -999.2500     5.9180     4.2800
 2767.0000    -3.0000     0.0240     2.5300  -999.2500  -999.2500     6.1670     4.3200
 2767.5000    -3.0000     0.0180     2.5330  -999.2500  -999.2500     6.0460     4.3410
 2768.0000    -3.0000     0.0120     2.5270  -999.2500  -999.2500     5.9440     4.3120
 2768.5000    -3.0000     0.0100     2.5220  -999.2500  -999.2500     5.5300     4.2840
 2769.0000    -3.0000     0.0120     2.5180  -999.2500  -999.2500     5.1490     4.0950
 2769.5000    -3.0000     0.0130     2.5160  -999.2500  -999.2500     4.7070     3.7460
 2770.0000    -3.0000     0.0140     2.5120  -999.2500  -999.2500     4.2390     3.3970
 2770.5000    -3.0000     0.0200     2.5090  -999.2500  -999.2500     3.7720     3.0480
 2771.0000    -3.0000     0.0260     2.5030  -999.2500  -999.2500     3.3040     2.7460
 2771.5000    -3.0000     0.0330     2.4960  -999.2500  -999.2500     3.1810     2.8010
 2772.0000    -3.0000     0.0410     2.4850  -999.2500  -999.2500     3.1810     2.8490
 2772.5000    -3.0000     0.0520     2.4750  -999.2500  -999.2500     3.1810     2.8970
 2773.0000    -3.0000     0.0620     2.4640  -999.2500  -999.2500     3.3260     2.9450
 2773.5000    -3.0000     0.0690     2.4570  -999.2500  -999.2500     3.7310     3.0840
 2774.0000    -3.0000     0.1310     2.4470  -999.2500  -999.2500     4.3820     3.4290
 2774.5000    -3.0000     0.1140     2.5490  -999.2500  -999.2500     5.0380     3.7730
 2775.0000    -3.0000     0.0560     2.5150  -999.2500  -999.2500     5.1710     4.1170
 2775.5000    -3.0000     0.0190     2.5230  -999.2500  -999.2500     5.3060     4.5950
 2776.0000    -3.0000     0.0180     2.5440  -999.2500  -999.2500     5.4400     4.5710
 2776.5000    -3.0000     0.0160     2.5480  -999.2500  -999.2500     5.6250     4.5330
 2777.0000    -3.0000     0.0160     2.5490  -999.2500  -999.2500     5.5620     4.4940
 2777.5000    -3.0000     0.0160     2.5480  -999.2500  -999.2500     5.4620     4.4550
 2778.0000    -3.0000     0.0150     2.5450  -999.2500  -999.2500     5.3610     4.4160
 2778.5000    -3.0000     0.0150     2.5410  -999.2500  -999.2500     5.2260     4.3770
 2779.0000    -3.0000     0.0140     2.5390  -999.2500  -999.2500     5.2430     4.3490
 2779.5000    -3.0000     0.0170     2.5400  -999.2500  -999.2500     5.2670     4.3490
 2780.0000    -3.0000     0.0200     2.5410  -999.2500  -999.2500     5.2920     4.3490
 2780.5000    -3.0000     0.0220     2.5380  -999.2500  -999.2500     5.3170     4.3490
 2781.0000    -3.0000     0.0220     2.5330  -999.2500  -999.2500     5.3410     4.3490
 2781.5000    -3.0000     0.0220     2.5290  -999.2500  -999.2500     5.3660     4.3490
 2782.0000    -3.0000     0.0150     2.5310  -999.2500  -999.2500     5.3910     4.3490
 2782.5000    -3.0000     0.0110     2.5320  -999.2500  -999.2500     5.4150     4.2410
 2783.0000    -3.0000     0.0130     2.5290  -999.2500  -999.2500     5.1840     4.1150
 2783.5000    -3.0000     0.0150     2.5160  -999.2500  -999.2500     4.8540     3.8970
 2784.0000    -3.0000     0.0180     2.5190  -999.2500  -999.2500     4.6390     3.6610
 2784.5000    -3.0000     0.0200     2.5250  -999.2500  -999.2500     4.2630     3.4260
 2785.0000    -3.0000     0.0220     2.5240  -999.2500  -999.2500     3.8870     3.1810
 2785.5000    -3.0000     0.0190     2.5160  -999.2500  -999.2500     3.4390     3.2640
 2786.0000    -3.0000     0.0140     2.5100  -999.2500  -999.2500     3.4660     3.3500
 2786.5000    -3.0000     0.0220     2.5020  -999.2500  -999.2500     3.5200     3.4350
 2787.0000    -3.0000     0.0360     2.4970  -999.2500  -999.2500     3.7780     3.5820
 2787.5000    -3.0000     0.0490     2.4980  -999.2500  -999.2500     4.3590     3.8260
 2788.0000    -3.0000     0.0420     2.5300  -999.2500  -999.2500     4.9390     4.0700
 2788.5000    -3.0000     0.0380     2.5390  -999.2500  -999.2500     5.6250     4.3130
 2789.0000    -3.0000     0.0400     2.5500  -999.2500  -999.2500     5.7250     4.5570
 2789.5000    -3.0000     0.0420     2.5600  -999.2500  -999.2500     5.8460     4.8010
 2790.0000    -3.0000     0.0330     2.5540  -999.2500  -999.2500     5.9680     5.0440
 2790.5000    -3.0000     0.0290     2.5580  -999.2500  -999.2500     6.0900     5.1610
 2791.0000    -3.0000     0.0270     2.5570  -999.2500  -999.2500     6.2110     5.2080
 2791.5000    -3.0000     0.0260     2.5540  -999.2500  -999.2500     6.3330     5.2550
 2792.0000    -3.0000     0.0300     2.5520  -999.2500  -999.2500     6.4590     5.3010
 2792.5000    -3.0000     0.0330     2.5560  -999.2500  -999.2500     6.5890     5.3480
 2793.0000    -3.0000     0.0270     2.5580  -999.2500  -999.2500     6.7200     5.3950
 2793.5000    -3.0000     0.0200     2.5510  -999.2500  -999.2500     6.7970     5.4420
 2794.0000    -3.0000     0.0150     2.5450  -999.2500  -999.2500     6.8500     5.4880
 2794.5000    -3.0000     0.0240     2.5500  -999.2500  -999.2500     6.9030     5.5350
 2795.0000    -3.0000     0.0320     2.5600  -999.2500  -999.2500     6.9570     5.5820
 2795.5000    -3.0000     0.0350     2.5650  -999.2500  -999.2500     7.0140     5.6280
 2796.0000    -3.0000     0.0350     2.5580  -999.2500  -999.2500     7.0570     5.6750
 2796.5000    -3.0000     0.0360     2.5610  -999.2500  -999.2500     7.1050     5.7220
 2797.0000    -3.0000     0.0370     2.5640  -999.2500  -999.2500     7.1520     5.7690
 2797.5000    -3.0000     0.0380     2.5650  -999.2500  -999.2500     7.1990     5.8360
