~VERSION INFORMATION
 VERS.                2.0:   CWLS LOG ASCII STANDARD - VERSION 2.0
 WRAP.                 NO:   ONE LINE PER DEPTH STEP
~WELL INFORMATION
#MNEM.UNIT      DATA TYPE    INFORMATION
#----------   ------------   ------------------------------
 STRT.F          602.0000:   START DEPTH
 STOP.F         5553.0000:   STOP DEPTH
 STEP.F            0.5000:   STEP LENGTH
 NULL.          -999.2500:   NO VALUE
 COMP.         U. S. NAVY:   COMPANY
 WELL. U. S. 1-TP-33 NPR #3-33:   WELL
 FLD . TEAPOT NAVAL RESERVE:   FIELD
 LOC .      S33 T39N R78W:   LOCATION
 CNTY.            NATRONA:   COUNTY
 STAT.            WYOMING:   STATE
 CTRY. UNITED STATES OF AMERICA:   COUNTRY
 SRVC.       SCHLUMBERGER:   SERVICE COMPANY
 DATE.        24-JUN-1952:   LOGDATE
 API .     49025065260000:   API NUMBER
~CURVE INFORMATION
#MNEM.UNIT       API CODE    CURVE DESCRIPTION
#----------   ------------   ------------------------------
 DEPT.F                  :   
 SPR .MV     01 010 01 00:   SPONTANEOUS POTENTIAL FROM RES.
 ASN .OHMM   01 041 16 00:   AMPLIFIED SHORT NORMAL 16"
 LAT .OHMM   01 070 08 00:   LATERAL 8'
 LN  .OHMM   01 060 64 00:   LONG NORMAL 64"
~PARAMETER INFORMATION
#MNEM.UNIT          VALUE    DESCRIPTION
#----------   ------------   ------------------------------
 EKB .F         5160.0000:   Kelly bushing
 EGL .F         5147.0000:   Ground level
 TD  .F         5553.0000:   Total depth
 CLNT.            A2DTECH:   Client Code
 DATE.        24-JUN-1952:   Date Logged [DD-MMM-YYYY]
 DD  .F              5549:   Depth driller
 DL  .F              5553:   Depth logger
 BLI .F              5553:   Bottom log interval
 TLI .F               602:   Top log interval
 CBL1.F               602:   Casing logger 1
 BSD1.F              5549:   Depth drilled with bit1
 DFT .           GYP BASE:   Type fluid in hole
 DFD .                9.8:   Density
 DFV .                 44:   Viscosity
 MSS .           FLOWLINE:   Source of sample
 RMS .OHMM            1.4:   Rm
 MST .F                60:   Rm Meas. temp.
 RMB .OHMM           0.48:   Rm. at BHT
 BHT .F               175:   BHT.
 TCS .HRS             1.5:   Time Circ. stopped
 MRT .F               175:   Maximum recorded temp.
 LUN .                563:   Logging unit number
 ENGI.             SANDER:   Recorded By
 WITN.            GRIBBIN:   Witnessed by
 ORIG.      1" 2.5" PRINT:   Origin of data
 UWI .     49025065260000:   Unique Well ID
 DICO. A2D TECHNOLOGIES, INC.:   Digitizing Company
~OTHER INFORMATION
~A  DEPTH      SPR        ASN        LAT         LN
# ...
 1916.0000   -59.5342    11.5880    10.8899    11.2640
 1916.5000   -59.3025    11.5626    10.9795    11.2637
 1917.0000   -59.0650    11.4446    10.9792    11.2264
 1917.5000   -58.8391    11.3322    10.9788    11.1187
 1918.0000   -58.7760    11.2171    10.9784    11.1185
 1918.5000   -58.7753    11.1019    10.9781    11.1183
 1919.0000   -58.7746    11.0145    10.9777    11.1180
 1919.5000   -58.7739    11.0144    10.9774    11.1178
 1920.0000   -58.7732    10.8997    10.9770    11.1175
 1920.5000   -58.7724    10.8710    10.9767    11.1173
 1921.0000   -58.7717    10.9292    10.9179    11.2139
 1921.5000   -58.7710    11.0141    10.8021    11.2613
 1922.0000   -58.7703    11.0140    10.6863    11.2611
 1922.5000   -58.7696    11.0140    10.5705    11.2717
 1923.0000   -58.7688    11.1027    10.5438    11.4051
 1923.5000   -58.7681    11.1571    10.5435    11.5029
 1924.0000   -58.7674    11.1570    10.5431    11.5491
 1924.5000   -58.7667    11.1612    10.5427    11.5896
 1925.0000   -58.7660    11.2763    10.5424    11.6932
 1925.5000   -58.7653    11.3001    10.5420    11.6929
 1926.0000   -58.7645    11.3630    10.5417    11.7919
 1926.5000   -58.7638    11.4432    10.5763    11.8369
 1927.0000   -58.7631    11.4431    10.6913    11.7948
 1927.5000   -58.7622    11.4430    10.8279    11.6920
 1928.0000   -58.7617    11.4430    10.9215    11.6917
 1928.5000   -58.7609    11.3775    10.9709    11.5911
 1929.0000   -58.7602    11.2996    10.9705    11.4750
 1929.5000   -58.7595    11.2904    10.9702    11.3589
 1930.0000   -58.7587    11.1561    10.9698    11.2572
 1930.5000   -58.5654    11.0601    10.9695    11.2570
 1931.0000   -58.4698    11.0128    10.9691    11.2567
 1931.5000   -58.3896    10.9731    10.9688    11.1835
 1932.0000   -58.1808    10.8693    10.9684    11.1118
 1932.5000   -58.1800    10.8693    10.9680    11.1115
 1933.0000   -58.3768    10.7708    10.8690    11.1112
 1933.5000   -58.4662    10.7259    10.7532    11.0082
 1934.0000   -58.5498    10.6838    10.6796    10.9663
 1934.5000   -58.7524    10.5686    10.6653    10.9660
 1935.0000   -58.7515    10.4391    10.5352    10.9827
 1935.5000   -58.7509    10.4390    10.4338    11.1100
 1936.0000   -58.7502    10.4390    10.3908    11.2139
 1936.5000   -58.7494    10.4389    10.3904    11.2541
 1937.0000   -58.7487    10.4388    10.3901    11.2539
 1937.5000   -58.7479    10.4387    10.3897    11.2536
 1938.0000   -58.7473    10.4387    10.3894    11.2533
 1938.5000   -58.7466    10.4386    10.3890    11.2531
 1939.0000   -58.7458    10.4385    10.4356    11.2529
 1939.5000   -58.7451    10.4385    10.5320    11.2047
 1940.0000   -58.7444    10.4384    10.5316    11.1079
 1940.5000   -58.7437    10.5439    10.6371    11.1076
 1941.0000   -58.7430    10.5815    10.6746    11.0010
 1941.5000   -58.7423    10.6306    10.6742    10.8849
 1942.0000   -58.7415    10.7247    10.6739    10.7688
 1942.5000   -58.7408    10.7246    10.6735    10.6732
 1943.0000   -58.5235    10.8324    10.6731    10.6729
 1943.5000   -58.4518    10.9474    10.6728    10.6727
 1944.0000   -58.4511    11.0109    10.6207    10.5144
 1944.5000   -58.4504    11.0108    10.5284    10.3832
 1945.0000   -58.4496    11.0107    10.5280    10.3613
 1945.5000   -58.2275    11.0107    10.4170    10.2382
 1946.0000   -58.1607    11.0106    10.3836    10.2380
 1946.5000   -58.2683    10.9566    10.3833    10.1575
 1947.0000   -58.4468    10.8156    10.3829    10.0930
 1947.5000   -58.4461    10.5806    10.3825    10.0927
 1948.0000   -58.4454    10.5805    10.2692    10.0925
 1948.5000   -58.6143    10.5804    10.1534    10.0922
 1949.0000   -58.7315    10.6367    10.0941    10.0920
 1949.5000   -58.7308    10.7236    10.0938    10.0918
 1950.0000   -58.7300    10.7235    10.0934    10.0674
 1950.5000   -58.7293    10.8385     9.9776     9.9468
 1951.0000   -58.7286    10.8666     9.9490     9.9465
 1951.5000   -58.7279    10.8665     9.9486     9.8637
 1952.0000   -58.7272    10.8359     9.9176     9.8015
 1952.5000   -58.7264    10.7231     9.8042     9.8013
 1953.0000   -58.7257    10.7231     9.8039     9.8011
 1953.5000   -58.5457    10.6337     9.8035     9.6883
 1954.0000   -58.3141    10.5185     9.8032     9.6561
 1954.5000   -58.1485    10.2930     9.8028     9.6558
 1955.0000   -58.1478     9.5309     9.7977     9.6556
 1955.5000   -58.1470     9.1752     9.6819     9.6553
 1956.0000   -58.1463     9.1379     9.5661     9.6551
 1956.5000   -58.2731     9.1148     9.5140     9.6549
 1957.0000   -58.4324     9.0892     9.4782     9.6546
 1957.5000   -58.4317     9.1302     9.3624     9.6544
 1958.0000   -58.4309     9.2507     9.2255     9.6541
 1958.5000   -58.4303     9.4025     9.2252     9.6539
 1959.0000   -58.4296     9.5333     9.2249     9.6537
 1959.5000   -58.5046     9.6333     9.2245     9.6534
 1960.0000   -58.7157     9.6542     9.2146     9.6532
 1960.5000   -58.7148     9.6311     9.0800     9.6529
 1961.0000   -58.7142     9.6142     9.0797     9.6527
 1961.5000   -58.7135     9.6495     9.0794     9.6525
 1962.0000   -58.7128     9.7476     9.0790     9.6522
 1962.5000   -58.7121     9.9624     9.0906     9.6821
 1963.0000   -58.7112    10.0475     9.2219     9.7962
 1963.5000   -58.7106    10.0672     9.2216     9.7960
 1964.0000   -58.7099    10.0869     9.2213     9.7958
 1964.5000   -58.6239    10.1065     9.2635     9.7955
 1965.0000   -58.4209    10.1262     9.3786     9.7953
 1965.5000   -58.4201    10.1482     9.5075     9.7977
 1966.0000   -58.2163    10.1481     9.6087     9.9133
 1966.5000   -58.1312    10.2211     9.7238     9.9391
 1967.0000   -58.1305    10.3362     9.7938     9.9388
 1967.5000   -58.1298    10.4345     9.8102     9.9386
 1968.0000   -58.1290    10.4344     9.9367     9.9383
 1968.5000   -58.1284    10.4343     9.9364     9.9381
 1969.0000   -58.2791    10.4342    10.0117    10.0289
 1969.5000   -58.4145    10.4814    10.0794    10.0821
 1970.0000   -58.4520    10.5964    10.0790    10.0819
 1970.5000   -58.7005    10.7206    10.0786    10.0816
 1971.0000   -58.6998    10.7205     9.9720    10.0814
 1971.5000   -58.6991    10.6426     9.9343     9.9889
 1972.0000   -58.6984    10.5274     9.8841     9.9364
 1972.5000   -58.6977    10.3908     9.7899     9.9012
 1973.0000   -58.6969    10.1471     9.7895     9.7852
 1973.5000   -58.6962     9.9742     9.7892     9.6466
 1974.0000   -58.6955     9.7094     9.6279     9.6464
 1974.5000   -58.6948     9.4446     9.4489     9.5814
 1975.0000   -58.6941     9.1440     9.3331     9.5014
 1975.5000   -58.6933     8.9086     9.2130     9.4937
 1976.0000   -58.6926     8.8256     9.2126     9.3564
 1976.5000   -58.6919     8.7999     9.1294     9.2616
 1977.0000   -58.6912     8.8203     9.0136     9.2115
 1977.5000   -58.6905     8.8580     8.9242     9.1739
 1978.0000   -58.6898     8.9132     8.9238     9.0665
 1978.5000   -58.4619     8.9751     8.8579     9.0662
 1979.0000   -58.4008     9.0001     8.7795     9.0660
 1979.5000   -58.4001     8.9582     8.7700     9.0658
 1980.0000   -58.3994     8.8510     8.6350     9.0655
 1980.5000   -58.3986     8.7225     8.6347     9.0653
 1981.0000   -58.3979     8.6153     8.6343     9.0650
 1981.5000   -58.5726     8.5413     8.6737     9.0648
 1982.0000   -58.9218     8.6696     8.7773     9.0645
 1982.5000   -59.3207     8.8392     8.7769     9.0643
 1983.0000   -59.5452     9.0942     8.8752     9.0641
 1983.5000   -59.5445     9.6548     8.9903     9.0638
 1984.0000   -59.7240     9.9790     9.1054     9.1619
 1984.5000   -59.8306     9.9859     9.2066     9.2079
 1985.0000   -59.8299     9.9927     9.2061     9.2076
 1985.5000   -59.8186     9.9995     9.4079     9.2074
 1986.0000   -59.5408    10.0746     9.4928     9.2071
 1986.5000   -59.5402    10.1452     9.5370     9.3064
 1987.0000   -59.4110    10.1451     9.6521     9.4220
 1987.5000   -59.2512    10.1451     9.7791     9.4954
 1988.0000   -59.2351    10.2481     9.7787     9.4952
 1988.5000   -58.9621    10.2882     9.7784     9.4949
