~VERSION INFORMATION
 VERS.                2.0:   CWLS LOG ASCII STANDARD - VERSION 2.0
 WRAP.                 NO:   ONE LINE PER DEPTH STEP
~WELL INFORMATION
#MNEM.UNIT      DATA TYPE    INFORMATION
#----------   ------------   ------------------------------
 STRT.F            0.0000:   START DEPTH
 STOP.F         4152.0000:   STOP DEPTH
 STEP.F            0.5000:   STEP LENGTH
 NULL.          -999.2500:   NO VALUE
 COMP. LAWRENCE ALLISON & ASSOCIATES:   COMPANY
 WELL. LAWRENCE "X" #28-27:   WELL
 FLD .             NPR #3:   FIELD
 LOC .      S27 T39N R78W:   LOCATION
 CNTY.            NATRONA:   COUNTY
 STAT.            WYOMING:   STATE
 CTRY. UNITED STATES OF AMERICA:   COUNTRY
 SRVC.      DRESSER ATLAS:   SERVICE COMPANY
 DATE.        26-FEB-1984:   LOGDATE
 API .     49025109630000:   API NUMBER
~CURVE INFORMATION
#MNEM.UNIT       API CODE    CURVE DESCRIPTION
#----------   ------------   ------------------------------
 DEPT.F                  :   
 GRR .GAPI   07 310 01 00:   GAMMA RAY FROM RES.
 TENR.LBS    07 635 01 00:   TENSION FROM RES.
 SPR .MV     07 010 01 00:   SPONTANEOUS POTENTIAL
 RILD.OHMM   07 120 46 00:   RESISTIVITY INDUCTION LOG DEEP
 RILM.OHMM   07 120 44 00:   RESISTIIVTY INDUCTION LOG MEDIUM
 RFOC.OHMM   07 220 04 00:   RESISTIVITY FOCUSED LOG
 DT  .US/F   60 520 00 00:   DELTA TIME
 TENS.LBS    60 635 01 00:   TENSION FROM SONIC
 CALD.IN     45 280 60 00:   CALIPER FROM DENSITY LOG
 TEND.LBS    45 635 01 00:   TENSION FORM DENSITY LOG
 CNC .DEC    42 890 03 00:   NEUTRON POROSITY SANDSTONE
 CORR.G/C3   45 356 01 00:   DENSITY CORRECTION
 DENS.G/C3   45 350 01 00:   DENSITY
~PARAMETER INFORMATION
#MNEM.UNIT          VALUE    DESCRIPTION
#----------   ------------   ------------------------------
 EKB .F         5088.0000:   Kelly bushing
 EGL .F         5078.0000:   Ground level
 EDF .F            0.0000:   Drilling floor
 TD  .F         4154.0000:   Total depth
 CLNT.            A2DTECH:   Client Code
 SL  . 250' FSL & 810' FWL:   Surface Location
 PD  .                 GL:   Permanent Datum
 EPD .F              5078:   Elevation Permanent Datum
 LMF .                 KB:   Log Measured From
 DMF .                 KB:   Drilling Measured From
 DAPD.F                10:   Feet Above Permanent Datum
 DATE.        26-FEB-1984:   Date Logged [DD-MMM-YYYY]
 DD  .F              4154:   Depth driller
 DL  .F              4148:   Depth logger
 BLI .F              4146:   Bottom log interval
 TLI .F                 0:   Top log interval
 CS1 .IN            8.625:   Casing size
 CBD1.      8.625" @ 537':   Casing driller 1
 CBL1.F               540:   Casing logger 1
 BS1 .IN            7.875:   Bit size
 BSD1.F              4154:   Depth drilled with bit1
 DFT .            GEL KCL:   Type fluid in hole
 DFD .                  9:   Density
 DFV .                 45:   Viscosity
 DFPH.                  8:   pH
 DFL .                 14:   Fluid loss
 MSS .           FLOWLINE:   Source of sample
 RMS .OHMM          0.595:   Rm
 MST .F                60:   Rm Meas. temp.
 RMF .OHMM          0.446:   Rmf
 MFST.F                60:   Rmf Meas. temp.
 MFSS.               CALC:   Source Rmf.
 RMC .OHMM          0.744:   Rmc
 MCST.F                60:   Rmc Meas. temp.
 MCSS.               CALC:   Source Rmc.
 RMB .OHMM           0.26:   Rm. at BHT
 BHT .F               138:   BHT.
 TCS .HRS               4:   Time Circ. stopped
 MRT .F               138:   Maximum recorded temp.
 LUN .               6307:   Logging unit number
 LUL .               GLTE:   Logging unit location
 ENGI.           FAHLSING:   Recorded By
 WITN.           JENNINGS:   Witnessed by
 ORIG.      1" 2.5" PRINT:   Origin of data
 UWI .     49025109630000:   Unique Well ID
 DICO. A2D TECHNOLOGIES, INC.:   Digitizing Company
~OTHER INFORMATION
~A    DEPT       GRR     TENR        SPR       RILD       RILM       RFOC         DT       TENS       CALD       TEND        CNC       CORR       DENS   
# ...
 1014.0000    96.6038   -44.9219   -24.9820     7.7650     7.3144     6.0156  -999.2500  -999.2500     9.6810   -40.0000     0.2467     0.0481     2.4979
 1014.5000   100.0123   -44.9219   -24.9749     7.6618     7.1197     6.2674  -999.2500  -999.2500     9.6820   -40.0000     0.2529     0.0543     2.4995
 1015.0000    97.0553   -44.9219   -24.9694     7.6641     7.0207     6.3547  -999.2500  -999.2500     9.6829   -40.0000     0.2529     0.0730     2.5041
 1015.5000    94.0983   -44.9219   -24.9639     7.6662     6.9322     6.1537  -999.2500  -999.2500     9.6535     0.0000     0.2535     0.0846     2.5073
 1016.0000    92.2382   -44.9219   -24.3593     7.6686     6.9343     5.9107  -999.2500  -999.2500     9.6544     0.0000     0.2506     0.0707     2.5102
 1016.5000    91.7557   -44.9219   -23.7545     7.6705     6.9362     5.8621  -999.2500  -999.2500     9.6553     0.0000     0.2389     0.0550     2.5103
 1017.0000    94.7597   -44.9219   -23.3473     7.6725     6.9383     5.9441  -999.2500  -999.2500     9.6562     0.0000     0.2382     0.0458     2.5126
 1017.5000    96.5656   -44.9219   -23.0378     7.6746     6.9400     6.0269  -999.2500  -999.2500     9.6571     0.0000     0.2350     0.0248     2.5119
 1018.0000    97.1800   -44.9219   -23.0296     7.7181     6.9418     6.0428  -999.2500  -999.2500     9.6749     0.0000     0.2282     0.0128     2.5014
 1018.5000    97.8055   -44.9219   -23.0210     7.7841     6.9223     6.1961  -999.2500  -999.2500     9.6893     0.0000     0.2336     0.0129     2.4985
 1019.0000    98.4107   -44.9219   -23.0120     7.7865     6.8150     6.1235  -999.2500  -999.2500     9.7203     0.0000     0.2433     0.0293     2.5000
 1019.5000    99.2420   -44.9219   -23.0030     7.7884     6.7610     5.9419  -999.2500  -999.2500     9.7212     0.0000     0.2450     0.0419     2.5061
 1020.0000   100.2381   -44.9219   -22.9924     7.7834     6.7631     5.7626  -999.2500  -999.2500     9.7221     0.0000     0.2396     0.0578     2.4996
 1020.5000    98.4760   -44.9219   -22.9841     7.6869     6.7648     5.7635  -999.2500  -999.2500     9.7230     0.0000     0.2327     0.0708     2.4885
 1021.0000    96.1143   -44.9219   -23.5746     7.6892     6.7665     5.7642  -999.2500  -999.2500     9.7239     0.0000     0.2270     0.0858     2.4837
 1021.5000    93.1003   -44.9219   -24.5000     7.6917     6.7684     5.8456  -999.2500  -999.2500     9.7248     0.0000     0.2258     0.0497     2.4898
 1022.0000    90.5357   -44.9219   -24.7557     7.6937     6.7702     5.9396  -999.2500  -999.2500     9.7257     0.0000     0.2264     0.0137     2.5110
 1022.5000    88.2044   -44.9219   -24.7455     7.5915     6.7724     6.0885  -999.2500  -999.2500     9.7267     0.0000     0.2387     0.0140     2.5231
 1023.0000    87.2679   -44.9219   -24.7350     7.4906     6.7741     6.0893  -999.2500  -999.2500     9.7276     0.0353     0.2551     0.0267     2.5199
 1023.5000    87.8865   -44.9219   -24.7268     7.4927     6.7758     6.0903  -999.2500  -999.2500     9.7284     0.1062     0.2567     0.0552     2.5154
 1024.0000    93.8580   -44.9219   -24.7185     7.4528     6.7776     6.0911  -999.2500  -999.2500     9.6991     0.2312     0.2474     0.0771     2.5127
 1024.5000    98.1374   -44.9219   -24.7096     7.2953     6.7794     6.0094  -999.2500  -999.2500     9.7062     0.3947     0.2438     0.0888     2.5143
 1025.0000   100.5951   -44.9219   -24.7006     7.2975     6.8742     5.8362  -999.2500  -999.2500     9.7311     0.5571     0.2462     0.0866     2.5234
 1025.5000    99.4636   -44.9219   -24.6916     7.2993     6.9706     5.7711  -999.2500  -999.2500     9.7320     0.6767     0.2462     0.0837     2.5355
 1026.0000    95.1349   -44.9219   -24.6813     7.3012     6.8779     5.9310  -999.2500  -999.2500     9.7633   -19.3359     0.2464     0.0869     2.5431
 1026.5000    96.9398   -44.9219   -24.6730     7.3032     6.7869     6.0953  -999.2500  -999.2500     9.7944   -19.5039     0.2594     0.0999     2.5432
 1027.0000    97.5542   -44.9219   -24.3653     7.3052     6.7886     6.0960  -999.2500  -999.2500     9.7952   -20.0000     0.2798     0.1120     2.5449
 1027.5000    96.2552   -44.9219   -24.2964     7.3076     6.7668     6.1802  -999.2500  -999.2500     9.8263   -20.0000     0.2831     0.1172     2.5493
 1028.0000    94.6164   -44.9219   -23.9361     7.3094     6.6097     6.1688  -999.2500  -999.2500     9.8272   -20.0000     0.2672     0.0986     2.5458
 1028.5000    94.9088   -44.9219   -23.4401     7.3113     6.6122     6.0729  -999.2500  -999.2500     9.8281   -20.0000     0.2629     0.0843     2.5434
 1029.0000    95.8548   -44.9219   -23.4300     7.3132     6.6138     5.9358  -999.2500  -999.2500     9.8290   -20.0000     0.2603     0.0844     2.5435
 1029.5000   100.0406   -44.9219   -23.4217     7.3152     6.6155     5.7775  -999.2500  -999.2500     9.8156   -57.2480     0.2555     0.0875     2.5481
 1030.0000   100.6747   -44.9219   -23.7129     7.3172     6.6172     5.7783  -999.2500  -999.2500     9.8006   -53.1200     0.2419     0.0877     2.5481
 1030.5000    99.9156   -44.9219   -23.4042     7.4199     6.6190     5.7791  -999.2500  -999.2500     9.8016   -48.9920     0.2287     0.0833     2.5467
 1031.0000    93.6804   -45.4552   -23.1476     7.5236     6.6208     5.7899  -999.2500  -999.2500     9.8025   -44.8640     0.2284     0.0736     2.5467
 1031.5000    89.6722   -45.5605   -22.7857     7.5255     6.6230     5.9398  -999.2500  -999.2500     9.7731   -40.7360     0.2365     0.0654     2.5468
 1032.0000    94.1938   -26.0477   -23.0769     7.6308     6.6246     5.9775  -999.2500  -999.2500     9.7740   -36.6080     0.2468     0.0700     2.5490
 1032.5000    95.4035   -25.9806   -23.3683     7.7376     6.7170     6.1052  -999.2500  -999.2500     9.7749   -32.4800     0.2521     0.0761     2.5538
 1033.0000    94.2322   -25.8460   -23.9585     7.7397     6.7188     6.1060  -999.2500  -999.2500     9.7758   -28.3520     0.2503     0.0732     2.5550
 1033.5000    89.9863   -25.6862   -24.2497     7.7422     6.8127     6.1068  -999.2500  -999.2500     9.7767   -24.2240     0.2479     0.0673     2.5485
 1034.0000    89.5086   -25.5450   -24.2395     7.8503     6.8146     6.1076  -999.2500  -999.2500     9.7778   -20.0000     0.2412     0.0816     2.5486
 1034.5000    92.2183   -25.3906   -24.2290     7.9600     6.8167     6.1084  -999.2500  -999.2500     9.7787   -20.0315     0.2358     0.1035     2.5503
 1035.0000    92.5328   -25.3906   -24.2207     7.9621     6.8185     6.1092  -999.2500  -999.2500     9.7795   -20.0249     0.2378     0.1128     2.5551
 1035.5000    92.5520   -25.3906   -24.2125     7.9643     6.8202     6.1102  -999.2500  -999.2500     9.7804   -20.0161     0.2400     0.1099     2.5608
 1036.0000    92.5714   -25.3906   -24.2036     7.9665     6.8220     6.0285  -999.2500  -999.2500     9.8115   -20.0079     0.2400     0.0919     2.5564
 1036.5000    91.9951   -25.3906   -24.4953     7.8608     6.8238     6.1117  -999.2500  -999.2500     9.8124   -20.0024     0.2387     0.0559     2.5489
 1037.0000    89.9462   -25.3906   -24.4850     7.8632     6.8684     6.1125  -999.2500  -999.2500     9.8133   -19.9999     0.2346     0.0530     2.5475
 1037.5000    87.5495   -25.3906   -24.4747     7.8651     6.9214     6.1134  -999.2500  -999.2500     9.8293   -19.9996     0.2316     0.0565     2.5475
 1038.0000    86.1071   -25.3906   -24.4664     7.8672     7.0180     6.1142  -999.2500  -999.2500     9.8455   -20.0000     0.2304     0.0638     2.5476
 1038.5000    87.9148   -25.3906   -24.1547     7.8694     7.1159     6.1152  -999.2500  -999.2500     9.8463   -20.0000     0.2366     0.0707     2.5476
 1039.0000    93.3592   -25.3906   -23.8503     7.8715     7.1178     6.1160  -999.2500  -999.2500     9.8774   -20.0000     0.2406     0.0775     2.5481
 1039.5000    95.0471   -25.3906   -23.4341     7.8740     7.0910     6.1167  -999.2500  -999.2500     9.8782   -20.0000     0.2382     0.0806     2.5499
