~VERSION INFORMATION
 VERS.                2.0:   CWLS LOG ASCII STANDARD - VERSION 2.0
 WRAP.                 NO:   ONE LINE PER DEPTH STEP
~WELL INFORMATION
#MNEM.UNIT      DATA TYPE    INFORMATION
#----------   ------------   ------------------------------
 STRT.F            9.5000:   START DEPTH
 STOP.F         3154.0000:   STOP DEPTH
 STEP.F            0.5000:   STEP LENGTH
 NULL.          -999.2500:   NO VALUE
 COMP. LAWRENCE ALISON AND ASSOCIATES:   COMPANY
 WELL. LAWRENCE "X" #86-3:   WELL
 FLD .          N.P.R. #3:   FIELD
 LOC .       S3 T38N R78W:   LOCATION
 CNTY.            NATRONA:   COUNTY
 STAT.            WYOMING:   STATE
 CTRY. UNITED STATES OF AMERICA:   COUNTRY
 SRVC.       DRESSER ALAS:   SERVICE COMPANY
 DATE.        13-JUN-1986:   LOGDATE
 API .     49025110920000:   API NUMBER
~CURVE INFORMATION
#MNEM.UNIT       API CODE    CURVE DESCRIPTION
#----------   ------------   ------------------------------
 DEPT.F                  :   
 CALD.IN     45 280 60 00:   CALIPER FROM DENSITY LOG
 RHOB.G/C3   45 350 01 00:   BULK DENSITY
 CORR.G/C3   45 356 01 00:   DENSITY CORRECTION
 CNC .DEC    42 890 03 00:   NEUTRON PORISITY LIMESTONE
 SPR .MV     07 010 01 00:   SPONTANEOUS POTENTIAL
 GRR .GAPI   07 310 01 00:   GAMMA RAY FROM RESISTIVITY
 RFOC.OHMM   07 220 04 00:   RESISTIVITY FOCUSED LOG RES.
 ILD .OHMM   07 120 46 00:   DEEP INDUCTION RESISTIVITY
 ILM .OHMM   07 120 44 00:   INDUCTION LOG MEDIUM RESISTIVITY
 TENR.LBS    07 635 01 00:   TENSION FROM RESISTIVITY
~PARAMETER INFORMATION
#MNEM.UNIT          VALUE    DESCRIPTION
#----------   ------------   ------------------------------
 EKB .F         5153.0000:   Kelly bushing
 EGL .F         5142.0000:   Ground level
 EDF .F         5151.0000:   Drilling floor
 TD  .F         3151.0000:   Total depth
 DATE.        13-JUN-1986:   Date logged
 CLNT.            A2DTECH:   Client Code
 SL  . 1450' FSL & 144' FEL:   Surface Location
 PD  .                 GL:   Permanent Datum
 EPD .F              5142:   Elevation Permanent Datum
 LMF .                 KB:   Log Measured From
 DMF .                 KB:   Drilling Measured From
 DAPD.F                11:   Feet Above Permanent Datum
 DD  .F              3151:   Depth driller
 DL  .F              3151:   Depth logger
 BLI .F              3146:   Bottom log interval
 TLI .F                11:   Top log interval
 CS1 .IN            8.625:   Casing size
 CBD1.      8.625" @ 584':   Casing driller 1
 CBL1.F               592:   Casing logger 1
 BS1 .IN            7.875:   Bit size
 BSD1.F              3151:   Depth drilled with bit1
 DFT .            KCL-GEL:   Type fluid in hole
 DFD .                8.8:   Density
 DFV .                 35:   Viscosity
 DFPH.                8.5:   pH
 DFL .               15.5:   Fluid loss
 MSS .           FLOWLINE:   Source of sample
 RMS .OHMM           0.49:   Rm
 MST .F                80:   Rm Meas. temp.
 RMF .OHMM           0.38:   Rmf
 MFST.F                80:   Rmf Meas. temp.
 RMC .OHMM           0.61:   Rmc
 MCST.F                80:   Rmc Meas. temp.
 MFSS.               MEAS:   Source Rmf.
 MCSS.               CALC:   Source Rmc.
 RMB .OHMM           0.37:   Rm. at BHT
 BHT .F               112:   BHT.
 TCS .HRS            0.37:   Time Circ. stopped
 MRT .F               112:   Maximum recorded temp.
 LUN .            HL-6274:   Logging unit number
 LUL .           GILLETTE:   Logging unit location
 WITN.             STRONG:   Witnessed by
 ORIG.           5" PRINT:   Origin of data
 UWI .     49025110920000:   Unique Well ID
 DICO. A2D TECHNOLOGIES, INC.:   Digitizing Company
~OTHER INFORMATION
~A    DEPT    CALD       RHOB       CORR        CNC        SPR        GRR       RFOC        ILD        ILM       TENR   
# ...
  780.0000  -999.2500  -999.2500  -999.2500  -999.2500  -112.1387    99.5554     5.8148     5.9964     5.1702   -78.8532
  780.5000  -999.2500  -999.2500  -999.2500  -999.2500  -112.1420    95.5322     5.8148     6.0063     5.2183   -78.8532
  781.0000  -999.2500  -999.2500  -999.2500  -999.2500  -112.1447    98.7437     5.8148     6.0162     5.2669   -68.7927
  781.5000  -999.2500  -999.2500  -999.2500  -999.2500  -112.1474   104.7685     5.8148     6.0262     5.2669   -68.7927
  782.0000  -999.2500  -999.2500  -999.2500  -999.2500  -112.1502   107.9796     5.8148     6.0362     5.2669   -68.7927
  782.5000  -999.2500  -999.2500  -999.2500  -999.2500  -112.6783   106.7698     5.8148     6.0461     5.2669   -88.9135
  783.0000  -999.2500  -999.2500  -999.2500  -999.2500  -112.7585   103.1487     5.8148     6.0561     5.2669   -78.8532
  783.5000  -999.2500  -999.2500  -999.2500  -999.2500  -112.5603    99.5278     5.8689     6.0661     5.2669   -88.9135
  784.0000  -999.2500  -999.2500  -999.2500  -999.2500  -112.3620    97.1103     5.9235     6.0762     5.2669   -98.9739
  784.5000  -999.2500  -999.2500  -999.2500  -999.2500  -112.1638    98.7154     5.9235     6.0862     5.2183   -78.8532
  785.0000  -999.2500  -999.2500  -999.2500  -999.2500  -111.7658    99.9170     5.9235     6.0963     5.2183   -78.8532
  785.5000  -999.2500  -999.2500  -999.2500  -999.2500  -111.7664   100.7167     5.9235     6.1063     5.1702   -78.8532
  786.0000  -999.2500  -999.2500  -999.2500  -999.2500  -111.9711   101.9183     5.9235     6.1164     5.0752   -78.8532
  786.5000  -999.2500  -999.2500  -999.2500  -999.2500  -112.0406   105.5308     5.9235     6.1265     5.0284   -88.9135
  787.0000  -999.2500  -999.2500  -999.2500  -999.2500  -112.1101   105.1249     5.9235     6.1367     5.0284   -78.8532
  787.5000  -999.2500  -999.2500  -999.2500  -999.2500  -112.1808   102.3081     5.8689     6.1468     5.0752   -88.9135
  788.0000  -999.2500  -999.2500  -999.2500  -999.2500  -112.1829    95.4734     5.9079     6.1570     5.1225   -78.8532
  788.5000  -999.2500  -999.2500  -999.2500  -999.2500  -112.1862    95.4695     5.9472     6.1654     5.1702   -78.8532
  789.0000  -999.2500  -999.2500  -999.2500  -999.2500  -112.1890    94.2603     5.9867     6.1933     5.3654   -78.8532
  789.5000  -999.2500  -999.2500  -999.2500  -999.2500  -112.1917    94.6582     6.0264     6.2171     5.4657   -78.8532
  790.0000  -999.2500  -999.2500  -999.2500  -999.2500  -112.1944    96.2599     6.0665     6.3982     5.4657   -78.8532
  790.5000  -999.2500  -999.2500  -999.2500  -999.2500  -111.9963    98.6682     6.0903     6.4578     5.4657   -78.8532
  791.0000  -999.2500  -999.2500  -999.2500  -999.2500  -111.9990    99.4678     6.0903     6.4578     5.4657   -78.8532
  791.5000  -999.2500  -999.2500  -999.2500  -999.2500  -112.0017    99.0605     6.0903     6.4578     5.4657   -78.8532
  792.0000  -999.2500  -999.2500  -999.2500  -999.2500  -112.0045    97.4512     6.0903     6.3376     5.5166   -78.8532
  792.5000  -999.2500  -999.2500  -999.2500  -999.2500  -112.0072    95.0369     6.0903     6.3619     5.5166   -78.8532
  793.0000  -999.2500  -999.2500  -999.2500  -999.2500  -112.6125    94.6305     6.0903     6.3864     5.5166   -78.8532
  793.5000  -999.2500  -999.2500  -999.2500  -999.2500  -113.0177    95.0284     6.0903     6.4110     5.5680   -88.9135
  794.0000  -999.2500  -999.2500  -999.2500  -999.2500  -113.0183    96.2296     6.0903     6.4356     5.5680   -88.9135
  794.5000  -999.2500  -999.2500  -999.2500  -999.2500  -112.8210   100.6445     6.0903     6.4578     5.5680   -88.9135
  795.0000  -999.2500  -999.2500  -999.2500  -999.2500  -112.2222   103.4524     6.0903     6.6542     5.5680   -88.9135
  795.5000  -999.2500  -999.2500  -999.2500  -999.2500  -112.2233   102.6450     6.1469     6.7143     5.6198   -88.9135
  796.0000  -999.2500  -999.2500  -999.2500  -999.2500  -112.0269   100.2309     6.1469     6.5179     5.6198   -88.9135
  796.5000  -999.2500  -999.2500  -999.2500  -999.2500  -112.0296   100.6286     6.2041     6.5179     5.7249   -88.9135
  797.0000  -999.2500  -999.2500  -999.2500  -999.2500  -112.0323   105.0429     6.2618     6.5179     5.8320   -88.9135
  797.5000  -999.2500  -999.2500  -999.2500  -999.2500  -112.0351   104.6372     6.3788     6.7016     5.9411   -88.9135
  798.0000  -999.2500  -999.2500  -999.2500  -999.2500  -112.0378   103.8299     6.4979     6.8905     5.9964   -88.9135
  798.5000  -999.2500  -999.2500  -999.2500  -999.2500  -112.0405    94.1865     6.6809     7.2173     6.1654   -78.8532
  799.0000  -999.2500  -999.2500  -999.2500  -999.2500  -112.4449    93.3794     6.6809     7.3523     6.3392   -78.8532
  799.5000  -999.2500  -999.2500  -999.2500  -999.2500  -112.4476    96.1870     6.6809     7.4898     6.5786   -88.9135
  800.0000  -999.2500  -999.2500  -999.2500  -999.2500  -112.6506    96.7871     6.9974     7.6299     6.5956   -88.9135
  800.5000  -999.2500  -999.2500  -999.2500  -999.2500  -112.8099    94.7754     7.2610     7.8803     7.2168   -93.1429
  801.0000  -999.2500  -999.2500  -999.2500  -999.2500  -112.6535    88.1445     7.4653     8.2162     7.2168   -91.9525
  801.5000  -999.2500  -999.2500  -999.2500  -999.2500  -112.8555    81.9174     7.9644     8.8480     7.5586   -90.7621
  802.0000  -999.2500  -999.2500  -999.2500  -999.2500  -112.8566    83.7204     8.0382     9.4405     7.7713   -89.5717
  802.5000  -999.2500  -999.2500  -999.2500  -999.2500  -112.8577    85.9280     8.2640     9.7965     7.9162   -88.6644
  803.0000  -999.2500  -999.2500  -999.2500  -999.2500  -113.0597    89.7380     8.2638     9.8873     7.9897   -88.6147
  803.5000  -999.2500  -999.2500  -999.2500  -999.2500  -113.0605    92.1448     8.1874    10.0718     7.9894   -88.5651
  804.0000  -999.2500  -999.2500  -999.2500  -999.2500  -113.0619    92.9450     8.1869     9.9784     7.9889   -88.5153
  804.5000  -999.2500  -999.2500  -999.2500  -999.2500  -112.6614    90.5321     8.1110     9.9780     7.9884   -88.4656
  805.0000  -999.2500  -999.2500  -999.2500  -999.2500  -112.6627    86.5125     8.1860     9.9775     7.9882   -88.4159
  805.5000  -999.2500  -999.2500  -999.2500  -999.2500  -112.6638    82.4921     8.1856     9.9771     7.9878   -88.3662
  806.0000  -999.2500  -999.2500  -999.2500  -999.2500  -112.6650    81.4880     8.1853    10.0694     7.9873   -88.3165
  806.5000  -999.2500  -999.2500  -999.2500  -999.2500  -112.6661    85.2981     8.4935    10.2573     8.0612   -88.2667
  807.0000  -999.2500  -999.2500  -999.2500  -999.2500  -112.8674    87.7050     8.6518    10.3523     8.3653   -88.2171
  807.5000  -999.2500  -999.2500  -999.2500  -999.2500  -112.8683    88.1036     8.7320    10.4481     8.5214   -88.1674
  808.0000  -999.2500  -999.2500  -999.2500  -999.2500  -113.0703    88.5021     8.8946    10.4477     8.5211   -88.1177
  808.5000  -999.2500  -999.2500  -999.2500  -999.2500  -113.0714    88.0974     8.8942    10.7418     8.6799   -88.0680
  809.0000  -999.2500  -999.2500  -999.2500  -999.2500  -113.0725    87.2909     8.8939    10.7412     8.7606   -88.0083
  809.5000  -999.2500  -999.2500  -999.2500  -999.2500  -113.2745    85.6811     8.8934    10.5435     8.7600   -87.9586
  810.0000  -999.2500  -999.2500  -999.2500  -999.2500  -113.2756    85.6779     8.8931    10.5432     8.7595   -87.9089
  810.5000  -999.2500  -999.2500  -999.2500  -999.2500  -112.8750    87.6827     8.8924    10.5427     8.7591   -87.8592
  811.0000  -999.2500  -999.2500  -999.2500  -999.2500  -112.2736    89.2864     8.8104    10.6401     8.7587   -87.8095
  811.5000  -999.2500  -999.2500  -999.2500  -999.2500  -112.2747    88.8816     8.7287    10.6398     8.7583   -87.7598
  812.0000  -999.2500  -999.2500  -999.2500  -999.2500  -112.6775    86.0653     8.6478    10.6394     8.6771   -87.7101
  812.5000  -999.2500  -999.2500  -999.2500  -999.2500  -112.6795    86.8668     8.9737    10.6389     8.6768   -87.6604
  813.0000  -999.2500  -999.2500  -999.2500  -999.2500  -112.6807    88.0689     8.9732    10.7374     8.6763   -87.6106
