~VERSION INFORMATION
 VERS.                2.0:   CWLS LOG ASCII STANDARD - VERSION 2.0
 WRAP.                 NO:   ONE LINE PER DEPTH STEP
~WELL INFORMATION
#MNEM.UNIT      DATA TYPE    INFORMATION
#----------   ------------   ------------------------------
 STRT.F           50.0000:   START DEPTH
 STOP.F         2832.5000:   STOP DEPTH
 STEP.F            0.5000:   STEP LENGTH
 NULL.          -999.2500:   NO VALUE
 COMP.    FENIX & SCISSON:   COMPANY
 WELL. FENIX NPR 3 "AX" #87-20:   WELL
 FLD .              N P R:   FIELD
 LOC .      S20 T39N R78W:   LOCATION
 CNTY.            NATRONA:   COUNTY
 STAT.            WYOMING:   STATE
 CTRY. UNITED STATES OF AMERICA:   COUNTRY
 SRVC.           BIRDWELL:   SERVICE COMPANY
 DATE.        01-AUG-1978:   LOGDATE
 API .     49025106780000:   API NUMBER
~CURVE INFORMATION
#MNEM.UNIT       API CODE    CURVE DESCRIPTION
#----------   ------------   ------------------------------
 DEPT.F                  :   
 CALD.IN     45 280 60 00:   CALIPER FROM DENSITY LOG
 CORR.G/C3   45 356 01 00:   DENSITY CORRECTION
 GRD .GAPI   45 310 01 00:   GAMMA RAY FROM DENSITY LOG
 RHOB.G/C3   45 350 01 00:   BULK DENSITY
 SPR .MV     05 010 01 00:   SPONTANEOUS POTENTIAL
 ILD .OHMM   05 120 46 00:   DEEP INDUCTION RESISTIVITY
 SN  .OHMM   05 040 00 00:   SHORT NORMAL
~PARAMETER INFORMATION
#MNEM.UNIT          VALUE    DESCRIPTION
#----------   ------------   ------------------------------
 EKB .F         5007.0000:   Kelly bushing
 EGL .F         4997.0000:   Ground level
 EDF .F            0.0000:   Drilling floor
 EPD .F            0.0000:   Permanent datum
 TD  .F         2832.0000:   Total depth
 DATE.        01-AUG-1978:   Date logged
 CLNT.            A2DTECH:   Client Code
 SL  . 940' FSL & 200' FEL:   Surface Location
 PD  .                 GL:   Permanent Datum
 DD  .F              2825:   Depth driller
 DL  .F              2832:   Depth logger
 BLI .F              2826:   Bottom log interval
 CS1 .IN            8.625:   Casing size
 CBD1.      8.625" @ 140':   Casing driller 1
 CBL1.F               240:   Casing logger 1
 BS1 .IN            7.875:   Bit size
 DFT .            KCL/GEL:   Type fluid in hole
 DFD .                  9:   Density
 DFV .                 34:   Viscosity
 DFL .                  8:   Fluid loss
 MSS .           FLOWLINE:   Source of sample
 RMS .OHMM            1.5:   Rm
 MST .F                70:   Rm Meas. temp.
 RMF .OHMM            .70:   Rmf
 MFST.F                72:   Rmf Meas. temp.
 RMC .OHMM            2.2:   Rmc
 MCST.F                75:   Rmc Meas. temp.
 MFSS.               MEAS:   Source Rmf.
 TCS .HRS               6:   Time Circ. stopped
 LUN .               3007:   Logging unit number
 LUL .               CASP:   Logging unit location
 ENGI.            POINTER:   Recorded By
 WITN.              AMEND:   Witnessed by
 ORIG.           5" PRINT:   Origin of data
 UWI .     49025106780000:   Unique Well ID
 DICO. A2D TECHNOLOGIES, INC.:   Digitizing Company
 DAPD.                 10:   Feet Above Permanent Datum
 BSD1.F              2825:   Depth drilled with bit1
 LMF .                 KB:   Log Measured From
 DMF .                 KB:   Drilling Measured From
 TLI .F               140:   Top log interval
~OTHER INFORMATION
~A   DEPT     CALD       CORR         GRD      RHOB        SPR        ILD         SN   
# ...
 1005.5000     9.4380     0.1330   115.2390     2.5840   -23.4090     9.8010     9.0140
 1006.0000     9.4350     0.1380   111.4600     2.5740   -24.0660     9.8060     9.0100
 1006.5000     9.4310     0.1350   110.2730     2.5860   -24.3510     9.8120     9.0060
 1007.0000     9.4270     0.1280   111.3780     2.5990   -24.4270     9.8170     9.0020
 1007.5000     9.4230     0.1210   113.8240     2.5990   -24.5130     9.8230     8.9990
 1008.0000     9.4190     0.1130   114.6110     2.5800   -24.6090     9.8280     8.9950
 1008.5000     9.4160     0.1160   115.2060     2.5570   -24.7030     9.8340     8.9910
 1009.0000     9.4120     0.1200   113.0870     2.5570   -24.7970     9.8390     8.9870
 1009.5000     9.4090     0.1240   113.5460     2.5660   -24.8650     9.8450     8.9840
 1010.0000     9.4090     0.1210   110.8590     2.5750   -24.8980     9.8500     8.9800
 1010.5000     9.4090     0.1170   108.2330     2.5720   -24.9310     9.8560     8.9760
 1011.0000     9.4090     0.1150   106.2090     2.5630   -24.9630     9.8620     8.9720
 1011.5000     9.4090     0.1190   105.2230     2.5640   -24.9960     9.8670     8.9690
 1012.0000     9.4100     0.1030    99.5650     2.5590   -25.0280     9.8730     8.9650
 1012.5000     9.4110     0.1100    99.2650     2.5490   -25.0160     9.8780     8.9610
 1013.0000     9.4130     0.1240    97.9820     2.5490   -24.7840     9.8840     8.9570
 1013.5000     9.4140     0.1280    95.3290     2.5640   -24.5490     9.8900     8.9530
 1014.0000     9.4160     0.1230    94.0350     2.5810   -24.4560     9.8570     8.9500
 1014.5000     9.4170     0.1200    91.7540     2.5880   -24.4550     9.8140     8.9460
 1015.0000     9.4190     0.1180    90.9160     2.5890   -24.4550     9.7710     8.9430
 1015.5000     9.4200     0.1180    91.8430     2.5890   -24.4550     9.7270     8.9310
 1016.0000     9.4220     0.0950   101.3290     2.5760   -24.4550     9.7100     8.9170
 1016.5000     9.4240     0.1070   102.1720     2.5470   -24.4550     9.7100     8.9010
 1017.0000     9.4250     0.1190   101.8460     2.5480   -24.4550     9.7100     8.8880
 1017.5000     9.4270     0.1300   103.0010     2.5590   -24.4630     9.7100     8.8710
 1018.0000     9.4280     0.1370   104.3570     2.5710   -24.5180     9.7100     8.7810
 1018.5000     9.4290     0.1320    99.6710     2.5830   -24.5750     9.7100     8.7810
 1019.0000     9.4290     0.1270    98.3340     2.5850   -24.6310     9.7100     8.7810
 1019.5000     9.4290     0.1220    97.9390     2.5860   -24.6970     9.7100     8.7810
 1020.0000     9.4290     0.1180    93.8660     2.5830   -24.7680     9.7100     8.7810
 1020.5000     9.4290     0.1160    91.5840     2.5860   -24.8400     9.7100     8.7810
 1021.0000     9.4290     0.1140    92.9700     2.5910   -24.9120     9.7100     8.7810
 1021.5000     9.4290     0.1120    95.3900     2.5910   -24.9840     9.7100     8.7810
 1022.0000     9.4290     0.1100    95.7400     2.5840   -25.0490     9.7100     8.7810
 1022.5000     9.4290     0.1080    96.0960     2.5660   -25.0500     9.7100     8.7770
 1023.0000     9.4290     0.1070    97.9260     2.5600   -25.0500     9.7100     8.7580
 1023.5000     9.4290     0.1080    99.3450     2.5580   -25.0510     9.7120     8.7400
 1024.0000     9.4290     0.1090    98.2890     2.5580   -25.0460     9.6450     8.7210
 1024.5000     9.4290     0.1110    98.4290     2.5450   -24.9150     9.3960     8.7030
 1025.0000     9.4290     0.1160    98.8220     2.5450   -24.2350     9.1470     8.6930
 1025.5000     9.4290     0.1220    98.7860     2.5540   -24.1880     8.9430     8.6820
 1026.0000     9.4290     0.1280   101.2470     2.5540   -24.1190     8.9260     8.6710
 1026.5000     9.4270     0.1320   104.2440     2.5620   -24.0480     8.9080     8.6600
 1027.0000     9.4180     0.1290   105.1410     2.5710   -23.9790     8.8900     8.6480
 1027.5000     9.4090     0.1250   112.4670     2.5750   -23.9110     8.8720     8.6370
 1028.0000     9.4000     0.1190   112.8850     2.5730   -23.8970     8.8610     8.6260
 1028.5000     9.3900     0.1130   115.5450     2.5700   -24.0410     8.9800     8.6210
 1029.0000     9.3890     0.1070   116.0020     2.5700   -24.1780     9.1290     8.6200
 1029.5000     9.3890     0.1030   115.3890     2.5720   -24.3160     9.2770     8.6930
 1030.0000     9.3890     0.1000   113.9960     2.5720   -24.4510     9.4260     8.7780
 1030.5000     9.3890     0.0970   112.4580     2.5710   -24.4860     9.6220     8.8630
 1031.0000     9.3890     0.0940   110.9220     2.5690   -24.5220     9.6500     8.9490
 1031.5000     9.3890     0.0910   112.7040     2.5680   -24.5590     9.6770     9.0130
 1032.0000     9.3870     0.0880   115.0540     2.5630   -24.5970     9.7030     8.8720
 1032.5000     9.3860     0.0850   106.2400     2.5550   -24.6340     9.7100     8.7340
 1033.0000     9.3840     0.0920   110.3170     2.5470   -24.6710     9.4900     8.5960
 1033.5000     9.3830     0.0980   111.9350     2.5450   -24.7090     9.2970     8.4580
 1034.0000     9.3810     0.1040   107.9410     2.5570   -24.7460     9.1030     8.3190
 1034.5000     9.3790     0.1100   107.4470     2.5810   -24.7840     9.0100     8.2360
 1035.0000     9.3780     0.1110   108.1570     2.5860   -24.8210     8.9720     8.2220
 1035.5000     9.3760     0.1110   108.1730     2.5860   -24.8510     8.9340     8.2080
 1036.0000     9.3740     0.1110   106.3380     2.5850   -24.7760     8.8970     8.1930
 1036.5000     9.3730     0.1100   108.4760     2.5840   -24.6980     8.8610     8.1790
 1037.0000     9.3710     0.1070   111.0510     2.5850   -24.5930     8.8480     8.1650
 1037.5000     9.3700     0.1030   113.9590     2.5850   -24.4490     8.8360     8.1500
 1038.0000     9.3490     0.0990   103.2270     2.5800   -24.2980     8.8230     8.1360
 1038.5000     9.3160     0.0950   105.5570     2.5730   -24.2940     8.8110     8.1220
 1039.0000     9.2910     0.0920   106.2590     2.5680   -24.3460     8.7990     8.1070
 1039.5000     9.2910     0.0880   106.5580     2.5670   -24.4000     8.7860     8.0930
 1040.0000     9.2900     0.0880   102.6860     2.5690   -24.4540     8.7750     8.0750
 1040.5000     9.2910     0.0870   100.8240     2.5690   -24.5030     8.7660     8.0530
 1041.0000     9.2900     0.0860   103.6950     2.5650   -24.5860     8.7570     8.0320
 1041.5000     9.2910     0.0860   107.2410     2.5690   -24.6690     8.7480     8.0110
 1042.0000     9.2640     0.0850   109.2080     2.5700   -24.7540     8.7390     7.9900
 1042.5000     9.2310     0.0870   107.2970     2.5660   -24.8370     8.7290     7.9680
 1043.0000     9.2310     0.0920   110.6440     2.5630   -24.8870     8.7200     7.9470
 1043.5000     9.2310     0.0960   110.4320     2.5570   -24.9430     8.7110     7.9260
 1044.0000     9.2310     0.1010   105.7650     2.5560   -24.9990     8.7010     7.9040
 1044.5000     9.2310     0.1050   102.2200     2.5610   -25.0490     8.6330     7.8830
 1045.0000     9.2310     0.1090   100.0810     2.5650   -25.0510     8.5010     7.8620
 1045.5000     9.2310     0.1180   100.6970     2.5750   -25.0540     8.3690     7.8400
 1046.0000     9.2310     0.1290   102.3490     2.5860   -25.0230     8.3030     7.8190
 1046.5000     9.2310     0.1170   102.1800     2.5960   -24.0970     8.2860     7.7980
 1047.0000     9.2310     0.1000   101.7000     2.5980   -24.1620     8.2700     7.7770
 1047.5000     9.2300     0.0820    99.3820     2.5870   -24.2790     8.2540     7.7550
 1048.0000     9.2840     0.0860   102.8880     2.5420   -24.3900     8.2380     7.7340
 1048.5000     9.3640     0.0990   107.8680     2.5230   -24.3440     8.2210     7.7130
 1049.0000     9.3890     0.1160   107.2790     2.5250   -24.0900     8.2050     7.6910
 1049.5000     9.3890     0.1360   104.4730     2.5310   -23.8450     8.1890     7.6700
 1050.0000     9.3890     0.1360   100.7290     2.5730   -23.7930     8.1720     7.6550
 1050.5000     9.3890     0.1270    98.2320     2.5930   -24.3130     8.1610     7.6940
