~VERSION INFORMATION
 VERS.                2.0:   CWLS LOG ASCII STANDARD - VERSION 2.0
 WRAP.                 NO:   ONE LINE PER DEPTH STEP
~WELL INFORMATION
#MNEM.UNIT      DATA TYPE    INFORMATION
#----------   ------------   ------------------------------
 STRT.F           30.0000:   START DEPTH
 STOP.F         5698.0000:   STOP DEPTH
 STEP.F            0.5000:   STEP LENGTH
 NULL.          -999.2500:   NO VALUE
 COMP. LAWRRENCE-ALLISON & ASSOCIATES:   COMPANY
 WELL. LAWERNCE "X" #41-3:   WELL
 FLD .           N P R #3:   FIELD
 LOC .       S3 T38N R78W:   LOCATION
 CNTY.            NATRONA:   COUNTY
 STAT.            WYOMING:   STATE
 CTRY. UNITED STATES OF AMERICA:   COUNTRY
 SRVC.      DRESSER ATLAS:   SERVICE COMPANY
 DATE.        04-JUN-1983:   LOGDATE
 API .     49025109200000:   API NUMBER
~CURVE INFORMATION
#MNEM.UNIT       API CODE    CURVE DESCRIPTION
#----------   ------------   ------------------------------
 DEPT.F                  :   
 TENS.LBS    60 635 01 00:   TENSION FROM SONIC
 DT  .US/F   60 520 00 00:   DELTA TIME
 SPR .MV     11 010 01 00:   SPONTANEOUS POTENTIAL FROM RES.
 TENR.LBS    11 635 01 00:   TENSION FROM RES. LOG
 GRR .GAPI   11 310 01 00:   GAMMA RAY FROM RES.
 CALR.IN     11 280 01 00:   CALIPER FROM RES.
 RMLL.OHMM   11 270 04 00:   MICRO LATEROLOG
 RD  .OHMM   11 220 10 00:   RESISTIVITY DEEP
 RS  .OHMM   11 220 09 00:   RESISTIVITY SHALLOW
 TEND.LBS    45 635 01 00:   TENSION FROM DENSITY LOG
 CORR.G/C3   45 356 01 00:   DENSITY CORRECTION
 RHOB.G/C3   45 350 01 00:   BULK DENSITY
 NPHI.DEC    42 890 03 00:   NEUTRON POROSITY SANDSTONE
~PARAMETER INFORMATION
#MNEM.UNIT          VALUE    DESCRIPTION
#----------   ------------   ------------------------------
 EKB .F         5157.5000:   Kelly bushing
 EGL .F         5147.5000:   Ground level
 EDF .F            0.0000:   Drilling floor
 TD  .F         5690.0000:   Total depth
 DATE.        04-JUN-1983:   Date logged
 CLNT.            A2DTECH:   Client Code
 SL  . 2218' FWL & 287' FNL:   Surface Location
 PD  .                 GL:   Permanent Datum
 EPD .F            5147.5:   Elevation Permanent Datum
 LMF .                 KB:   Log Measured From
 DMF .                 KB:   Drilling Measured From
 DD  .F              5690:   Depth driller
 DL  .F              5685:   Depth logger
 BLI .F              5682:   Bottom log interval
 CS1 .IN            9.625:   Casing size
 CBD1.       9.625 @ 568':   Casing driller 1
 CBL1.F               568:   Casing logger 1
 BS1 .IN             8.75:   Bit size
 DFT .        KCL-DRISPAC:   Type fluid in hole
 DFD .                9.1:   Density
 DFV .                 37:   Viscosity
 DFPH.                  8:   pH
 DFL .                3.8:   Fluid loss
 MSS .               TANK:   Source of sample
 RMS .OHMM           0.41:   Rm
 MST .F                75:   Rm Meas. temp.
 RMF .OHMM           0.28:   Rmf
 MFST.F                70:   Rmf Meas. temp.
 RMC .OHMM           0.53:   Rmc
 MCST.F                75:   Rmc Meas. temp.
 MFSS.               MEAS:   Source Rmf.
 RMB .OHMM           0.18:   Rm. at BHT
 BHT .F               160:   BHT.
 TCS .HRS               5:   Time Circ. stopped
 MRT .F               166:   Maximum recorded temp.
 LUN .               6274:   Logging unit number
 LUL .               GLTE:   Logging unit location
 ENGI.             RAUTIO:   Recorded By
 WITN.             STRONG:   Witnessed by
 ORIG.     2.5", 5" PRINT:   Origin of data
 UWI .     49025109200000:   Unique Well ID
 DICO. A2D TECHNOLOGIES, INC.:   Digitizing Company
 MCSS.               CALC:   Source Rmc.
 DAPD.                 10:   Feet Above Permanent Datum
 BSD1.               5690:   Depth drilled with bit1
~OTHER INFORMATION
~A   DEPT     TENS         DT        SPR       TENR         GRR      CALR       RMLL         RD         RS       TEND       CORR       RHOB       NPHI   
# ...
 5308.0000   -64.2080    57.8600   -72.2940   -68.0860    48.7780    10.9760    15.1000    39.8350    27.4680  -101.5730     0.1590     2.8720     0.1300
 5308.5000   -64.8580    56.3070   -72.3360   -66.0240    56.0820    10.9670    15.1000    41.4050    40.1960  -104.1360     0.1560     2.8350     0.1290
 5309.0000   -65.5070    54.0190   -72.3820   -61.0030    51.5510    10.9590    19.1140    43.2190    40.9310  -106.6990     0.1510     2.8390     0.1120
 5309.5000   -66.1560    51.6850   -72.4280   -56.1280    42.2270    10.9300    53.3830    44.0100    41.8380  -109.2630     0.1460     2.8680     0.0900
 5310.0000   -66.8060    52.2180   -72.4630   -50.9290    33.2410    10.9060   405.3560    66.5380    42.4430  -111.8260     0.1580     2.9000     0.0670
 5310.5000   -65.6300    53.5340   -72.5260   -48.2530    23.5820    10.8810   292.2810    80.0560    71.8040  -114.3890     0.1700     2.9280     0.0570
 5311.0000   -63.9280    55.5490   -72.5880   -54.8760    26.3020    10.8560   121.0090    64.4370    54.9930  -116.9530     0.1810     2.9090     0.0680
 5311.5000   -62.2260    57.7030   -73.6250   -58.2680    39.5890    10.8310    35.0090    48.8170    26.9740  -119.5160     0.1900     2.8610     0.0900
 5312.0000   -60.5250    59.5090   -74.9650   -58.1590    50.7060    10.8050    19.4630    30.0740    26.2520  -122.0790     0.1750     2.8020     0.1110
 5312.5000   -58.8230    59.6210   -76.3400   -56.4570    62.8990    10.7800    19.4930    29.7740    25.5550  -124.6430     0.1620     2.7410     0.1260
 5313.0000   -57.1210    59.7450   -76.8710   -52.3540    68.2550    10.7550    19.5670    29.0220    24.9810  -127.4510     0.1710     2.6960     0.1360
 5313.5000   -58.2400    59.6530   -76.0710   -48.5050    68.6660    10.7300    19.6410    27.9700    24.6370  -125.4870     0.1780     2.6820     0.1420
 5314.0000   -59.7350    58.8980   -75.1100   -48.0190    68.6240    10.7040    19.7160    28.4820    25.0340  -123.3160     0.1870     2.6700     0.1470
 5314.5000   -61.2310    57.3490   -74.1030   -51.8280    64.5260    10.6810    19.7900    30.4460    25.6960  -121.1450     0.1640     2.6630     0.1450
 5315.0000   -62.7260    55.5970   -73.6970   -62.4420    61.4380    10.6520    20.5510    31.7550    26.4900  -118.9730     0.1480     2.6700     0.1410
 5315.5000   -64.2210    54.6940   -73.6250   -69.2990    55.9270    10.6500    34.1710    37.3120    30.8030  -116.8020     0.1460     2.6760     0.1380
 5316.0000   -65.7170    55.4020   -73.5300   -59.1600    50.5620    10.6490    75.8180    41.9430    41.5850  -114.6310     0.1420     2.6890     0.1370
 5316.5000   -66.8120    56.9670   -73.4280   -49.5160    48.0460    10.6500    74.4550    46.5740    52.3670  -112.4600     0.1470     2.7070     0.1350
 5317.0000   -66.0160    58.9160   -73.3380   -42.1170    50.7570    10.6500    50.4730    51.2050    60.9930  -110.2880     0.1620     2.7170     0.1320
 5317.5000   -65.2200    59.6090   -73.2410   -38.1250    58.1430    10.6500    23.7590    55.8360    59.8970  -108.1170     0.1770     2.7080     0.1270
 5318.0000   -64.4240    58.4080   -73.1470   -38.4290    67.9370    10.6500    24.6050    60.4670    61.2800  -105.9460     0.1760     2.6700     0.1110
 5318.5000   -63.6280    56.1520   -73.0520   -38.3990    64.1330    10.6490    26.0140    64.8310    63.6320  -103.7750     0.1490     2.6410     0.0920
 5319.0000   -62.8320    53.8960   -72.9570   -38.3580    53.0600    10.6420    41.6800    68.0030    67.4400  -101.6030     0.1230     2.6330     0.0730
 5319.5000   -62.0360    52.3840   -72.8620   -38.3880    42.3300    10.6340   357.7960   105.6750    71.2480   -99.4320     0.1280     2.6550     0.0540
 5320.0000   -61.9360    51.2840   -72.7670   -38.3620    31.8360    10.6260   752.9400   137.0680    75.8180  -100.9800     0.1220     2.6850     0.0380
 5320.5000   -61.9360    51.6850   -72.6720   -37.8730    20.8040    10.6190  1148.0850   168.4610   192.5220  -109.1830     0.1120     2.7370     0.0380
 5321.0000   -61.9360    53.2320   -72.5780   -37.2230    16.8710    10.6110  1306.1429   181.0180   255.4640  -117.3860     0.1020     2.7720     0.0380
 5321.5000   -61.9360    55.7770   -72.4820   -36.5710    19.0160    10.6030   800.5570   159.3970   223.2650  -125.5880     0.0970     2.7820     0.0500
 5322.0000   -61.8030    58.5480   -72.3860   -35.9270    21.2020    10.5950   351.1590   129.3010   142.7690  -122.3790     0.1050     2.7830     0.0600
 5322.5000   -61.1360    61.2280   -72.2970   -35.2780    37.9040    10.5870    66.0950    99.2050    62.2730  -115.8170     0.1270     2.7400     0.1060
 5323.0000   -60.4690    63.2250   -72.1780   -34.6310    51.8040    10.5800    19.8200    69.1090    29.5340  -109.2550     0.1350     2.6960     0.1460
 5323.5000   -59.8020    63.8600   -72.2920   -33.9830    67.1590    10.5730    17.4570    39.0130    19.8200  -102.6930     0.1230     2.6510     0.1870
 5324.0000   -59.1360    63.3490   -72.5990   -33.3350    74.8060    10.5860    16.3720    25.0870    19.2290   -96.1310     0.1140     2.6030     0.1840
 5324.5000   -58.4690    62.0870   -72.8970   -32.6860    77.1880    10.5990    14.5620    25.9310    18.2450   -89.5690     0.1040     2.6080     0.1780
 5325.0000   -57.8020    60.5010   -73.1920   -32.0400    77.1720    10.6130    14.5620    28.0400    17.4570   -88.2350     0.1000     2.6260     0.1650
 5325.5000   -57.1350    58.9150   -73.5050   -31.3910    76.0660    10.6260    17.7180    30.1480    19.3490   -84.1980     0.0980     2.6490     0.1520
 5326.0000   -53.1980    58.7400   -73.7400   -30.7350    71.6120    10.6400    23.5700    32.2570    20.9250   -77.4870     0.0960     2.6750     0.1410
 5326.5000   -47.7150    59.4320   -74.2440   -30.1120    65.1970    10.6540    31.5690    34.3660    22.5010   -70.7750     0.0950     2.6710     0.1360
 5327.0000   -42.2320    60.7010   -74.9030   -29.4210    60.9440    10.6670    35.4050    36.0530    21.6320   -64.0640     0.0980     2.6540     0.1490
 5327.5000   -36.8610    62.6030   -75.5520   -28.8090    67.5450    10.6810    26.9970    33.8500    20.1820   -54.6300     0.1010     2.6370     0.1610
 5328.0000   -41.8960    64.6240   -76.1980   -28.7040    73.0830    10.6950    22.9130    31.0970    18.2080   -35.4900     0.1040     2.6190     0.1730
 5328.5000   -46.8300    65.1740   -76.8510   -31.0810    78.8810    10.7080    18.9590    28.3440    16.1150   -16.3510     0.1030     2.6110     0.1860
 5329.0000   -51.7650    65.6380   -77.4940   -33.0070    85.4520    10.7220    15.6650    25.5910    14.0220     2.7890     0.0890     2.6080     0.1950
 5329.5000   -56.9210    65.6990   -78.1460   -35.0980    85.8580    10.7350    12.3700    22.8380    11.9290     8.3190     0.0740     2.6040     0.1960
 5330.0000   -56.5640    65.7610   -78.5480   -37.2790    86.8620    10.7490    12.1480    20.0850    10.5080     5.9760     0.0640     2.6050     0.1920
 5330.5000   -56.0890    65.8270   -78.7430   -38.4880    87.4550    10.7630    12.0390    18.1020    10.3190     3.6320     0.0600     2.6110     0.1880
 5331.0000   -55.6150    65.7330   -78.9660   -38.3600    85.6050    10.7760    11.9290    18.1020    10.3190     1.2890     0.0550     2.6160     0.1910
 5331.5000   -55.1400    65.6300   -79.2460   -38.3880    83.6810    10.7900    11.6840    18.1020    10.3190    -1.0550     0.0610     2.6220     0.1940
 5332.0000   -54.6660    65.5270   -79.6070   -38.3960    81.6060    10.8030    11.4790    18.1020    10.3190    -3.3990     0.0670     2.6190     0.1980
 5332.5000   -54.1910    65.4240   -79.4520   -38.3810    80.5380    10.8170    11.2740    18.1020    10.3190    -5.7420     0.0750     2.6160     0.1990
 5333.0000   -53.7170    65.3260   -79.3240   -38.3900    82.2130    10.8310    11.0690    18.1020    10.0910    -8.0860     0.0830     2.6120     0.1980
 5333.5000   -53.2420    65.3260   -79.1730   -38.3860    83.7600    10.8440    10.8640    17.3170     9.7110    -9.8040     0.0890     2.6110     0.1970
