~VERSION INFORMATION
 VERS.                2.0:   CWLS LOG ASCII STANDARD - VERSION 2.0
 WRAP.                 NO:   ONE LINE PER DEPTH STEP
~WELL INFORMATION
#MNEM.UNIT      DATA TYPE    INFORMATION
#----------   ------------   ------------------------------
 STRT.F          218.0000:   START DEPTH
 STOP.F         2860.0000:   STOP DEPTH
 STEP.F            0.5000:   STEP LENGTH
 NULL.          -999.2500:   NO VALUE
 COMP.    FENIX & SCISSON:   COMPANY
 WELL.  FENIX "AX" #76-20:   WELL
 FLD . TEAPOT DOME NPR -3:   FIELD
 LOC .      S20 T39N R78W:   LOCATION
 CNTY.            NATRONA:   COUNTY
 STAT.            WYOMING:   STATE
 CTRY. UNITED STATES OF AMERICA:   COUNTRY
 SRVC.           BIRDWELL:   SERVICE COMPANY
 DATE.        21-AUG-1978:   LOGDATE
 API .     49025106920000:   API NUMBER
~CURVE INFORMATION
#MNEM.UNIT       API CODE    CURVE DESCRIPTION
#----------   ------------   ------------------------------
 DEPT.F                  :   
 SPR .MV     05 010 01 00:   SPONTANEOUS POTENTIAL FROM RES.
 ILD .OHMM   05 120 46 00:   INDUCTION LOG DEEP
 SN  .OHMM   05 040 16 00:   SHORT NORMAL 16"
 RHOB.G/C3   45 350 01 00:   BULK DENSITY
 CALD.IN     45 280 60 00:   CALIPER FROM DENSITY LOG
 DCOR.G/C3   45 356 01 00:   DENSITY CORRECTION
 GRD .GAPI   45 310 01 00:   GAMMA RAY FROM DENSITY LOG
~PARAMETER INFORMATION
#MNEM.UNIT          VALUE    DESCRIPTION
#----------   ------------   ------------------------------
 EKB .F         5062.0000:   Kelly bushing
 EGL .F         5052.0000:   Ground level
 EDF .F            0.0000:   Drilling floor
 EPD .F            0.0000:   Permanent datum
 TD  .F         2854.0000:   Total depth
 DATE.        21-AUG-1978:   Date logged
 CLNT.            A2DTECH:   Client Code
 SL  . 1500' FNL & 1200' FEL:   Surface Location
 PD  .                 GL:   Permanent Datum
 DD  .F              2850:   Depth driller
 DL  .F              2854:   Depth logger
 BLI .F              2848:   Bottom log interval
 CS1 .IN            8.625:   Casing size
 CBD1.      8.625" @ 200':   Casing driller 1
 CBL1.F               235:   Casing logger 1
 BS1 .IN            7.875:   Bit size
 DFT .                KCL:   Type fluid in hole
 DFD .                9.2:   Density
 DFV .                 30:   Viscosity
 DFL .                8.4:   Fluid loss
 MSS .           FLOWLINE:   Source of sample
 RMS .OHMM            1.2:   Rm
 MST .F                86:   Rm Meas. temp.
 RMF .OHMM            0.8:   Rmf
 MFST.F                68:   Rmf Meas. temp.
 RMC .OHMM            1.6:   Rmc
 MCST.F                70:   Rmc Meas. temp.
 MFSS.              PRESS:   Source Rmf.
 BHT .F               102:   BHT.
 TCS .HRS               3:   Time Circ. stopped
 MRT .F               102:   Maximum recorded temp.
 LUN .               2968:   Logging unit number
 LUL .             CASPER:   Logging unit location
 ENGI.           REYNOLDS:   Recorded By
 ORIG.           5" PRINT:   Origin of data
 UWI .     49025106920000:   Unique Well ID
 DICO. A2D TECHNOLOGIES, INC.:   Digitizing Company
 DAPD.                 12:   Feet Above Permanent Datum
 BSD1.               2850:   Depth drilled with bit1
 MCSS.               MEAS:   Source Rmc.
 TLI .                230:   Top log interval
~OTHER INFORMATION
~A   DEPT      SPR        ILD         SN       RHOB       CALD       DCOR          GRD 
# ...
 1947.0000   -72.9920     4.9330     6.1870     2.5060     7.8630     0.0320   102.5150
 1947.5000   -73.0440     4.8970     6.1450     2.5060     7.8760     0.0310   113.5600
 1948.0000   -73.0960     4.8600     6.1030     2.5020     7.8830     0.0320   116.1790
 1948.5000   -73.1480     4.8240     6.0600     2.4970     7.8890     0.0430   121.3010
 1949.0000   -73.1990     4.7870     6.0490     2.4920     7.8940     0.0430   126.1640
 1949.5000   -73.2510     4.7510     6.0270     2.4970     7.9000     0.0390   126.0760
 1950.0000   -73.3030     4.7400     5.9570     2.5010     7.9050     0.0380   125.2050
 1950.5000   -73.3550     4.7850     5.8870     2.4980     7.9110     0.0670   125.1710
 1951.0000   -73.3940     4.8300     5.8170     2.4960     7.9160     0.0600   131.1290
 1951.5000   -73.3700     4.9080     5.7470     2.4990     7.9210     0.0500   139.3380
 1952.0000   -73.3180     4.9810     5.6650     2.5250     7.9270     0.0400   147.4420
 1952.5000   -73.2670     5.0540     5.7590     2.5270     7.9320     0.0380   155.8890
 1953.0000   -73.2150     5.1270     5.8740     2.5260     7.9380     0.0390   164.3340
 1953.5000   -73.1630     5.2990     5.9930     2.5240     7.9370     0.0400   165.8650
 1954.0000   -73.1110     5.6710     6.4190     2.5100     7.9220     0.0400   155.9140
 1954.5000   -73.0600     6.0430     6.8570     2.4960     7.9210     0.0410   145.0550
 1955.0000   -73.0080     6.4140     7.2950     2.4900     7.9300     0.0410   134.4010
 1955.5000   -72.9560     6.5820     7.7330     2.4830     7.9480     0.0410   128.3820
 1956.0000   -72.9040     6.5820     8.0480     2.4800     7.9600     0.0420   133.1350
 1956.5000   -72.8520     6.6440     8.3100     2.4810     7.8810     0.0400   133.5740
 1957.0000   -72.8000     6.6060     8.5580     2.4820     7.7980     0.0390   133.4960
 1957.5000   -72.7910     6.5620     8.5540     2.4780     7.7770     0.0390   138.7080
 1958.0000   -72.7910     6.5180     8.5450     2.4720     7.7490     0.0390   146.6050
 1958.5000   -72.7930     6.4740     8.5350     2.4660     7.6940     0.0380   148.8750
 1959.0000   -72.8850     6.4300     8.5260     2.4680     7.6600     0.0380   148.9220
 1959.5000   -72.9840     6.3860     8.5160     2.4740     7.6600     0.0380   148.4620
 1960.0000   -73.0820     6.3390     8.5060     2.4800     7.6490     0.0390   147.4530
 1960.5000   -73.1810     6.3390     8.4970     2.4720     7.6340     0.0510   142.4320
 1961.0000   -73.2790     6.3390     8.4870     2.4760     7.6180     0.0660   131.4610
 1961.5000   -73.3780     6.3390     8.4790     2.4890     7.6020     0.0680   125.0030
 1962.0000   -73.4760     6.5460     8.5760     2.5020     7.6180     0.0680   126.6310
 1962.5000   -73.5740     6.8330     8.6650     2.5090     7.6210     0.0660   133.8140
 1963.0000   -73.6720     6.8470     8.7540     2.5030     7.6280     0.0590   145.0170
 1963.5000   -73.7770     6.8680     8.8430     2.5110     7.6360     0.0520   155.9020
 1964.0000   -73.5950     6.8890     8.9330     2.5150     7.5800     0.0450   151.8560
 1964.5000   -73.2480     6.9300     8.9780     2.5070     7.4430     0.0430   145.5810
 1965.0000   -72.8810     6.9840     9.0240     2.5000     7.4180     0.0420   139.3760
 1965.5000   -72.5010     7.0390     9.0700     2.4930     7.4310     0.0420   133.8410
 1966.0000   -72.3530     7.0930     9.1170     2.4790     7.4570     0.0440   133.1810
 1966.5000   -72.2010     7.1480     9.2250     2.4720     7.4540     0.0620   128.9170
 1967.0000   -72.2530     7.2020     9.3580     2.4780     7.4500     0.0630   126.0490
 1967.5000   -72.3140     7.2570     9.5130     2.4830     7.4470     0.0660   125.7330
 1968.0000   -72.3760     7.2970     9.6670     2.4890     7.4430     0.0810   125.3220
 1968.5000   -72.4370     7.1690     9.8220     2.4940     7.4400     0.0880   130.2770
 1969.0000   -72.4990     7.0340     9.9770     2.5140     7.4450     0.0670   138.0730
 1969.5000   -72.5600     6.8980    10.1320     2.5310     7.4620     0.0500   144.8090
 1970.0000   -72.6220     6.6360    10.0860     2.5090     7.4830     0.0390   141.0440
 1970.5000   -72.6830     6.3740    10.0380     2.4900     7.5260     0.0370   137.4920
 1971.0000   -72.7450     6.1120     9.8640     2.4850     7.5680     0.0340   136.1910
 1971.5000   -72.8060     5.9370     9.3170     2.4800     7.6100     0.0310   134.4880
 1972.0000   -72.8680     5.9440     8.7700     2.4750     7.6520     0.0300   132.8780
 1972.5000   -72.9290     5.9520     8.2240     2.4700     7.6610     0.0360   132.8300
 1973.0000   -72.9900     5.9600     7.9050     2.4730     7.7050     0.0450   131.9320
 1973.5000   -72.9920     5.9670     7.8330     2.4790     7.7200     0.0540   128.9340
 1974.0000   -72.9910     5.9750     7.7920     2.4840     7.7350     0.0630   126.1360
 1974.5000   -72.9370     5.9830     8.1150     2.4740     7.7480     0.0690   133.0650
 1975.0000   -72.8370     5.9930     8.3740     2.4820     7.7660     0.0540   132.4510
 1975.5000   -72.7360     5.8700     8.6390     2.4870     7.8040     0.0380   131.0830
 1976.0000   -72.6360     5.7150     8.2880     2.4830     8.5100     0.0230   129.8760
 1976.5000   -72.5350     5.5610     7.9310     2.5050     8.1880     0.0230   131.3310
 1977.0000   -72.4340     5.4070     7.5730     2.5020     8.0200     0.0230   133.1280
 1977.5000   -72.3330     5.2520     7.2160     2.4990     7.9820     0.0220   132.9140
 1978.0000   -72.2320     5.0980     6.8580     2.4950     7.9840     0.0220   131.5440
 1978.5000   -72.1880     4.9440     6.5010     2.5140     7.9970     0.0320   130.1890
 1979.0000   -72.2460     4.8300     6.1640     2.5080     8.0100     0.0500   130.3440
 1979.5000   -72.3190     4.8750     6.2590     2.5000     8.0260     0.0670   132.0460
 1980.0000   -72.3930     4.9310     6.3710     2.5210     8.0420     0.0580   134.5540
 1980.5000   -72.4680     4.9680     6.4590     2.5510     8.0650     0.0410   144.1700
 1981.0000   -72.5420     5.0140     6.2210     2.5440     8.1670     0.0290   144.2350
 1981.5000   -72.6160     4.9730     5.9370     2.5270     8.4410     0.0320   139.8980
 1982.0000   -72.6900     4.9210     6.0020     2.5100     8.1970     0.0330   135.1590
 1982.5000   -72.7650     4.8750     6.1180     2.4980     8.0000     0.0350   131.6990
 1983.0000   -72.8390     4.9660     6.2190     2.4970     8.0310     0.0350   136.3760
 1983.5000   -72.9130     5.1390     6.1950     2.4950     8.0440     0.0290   141.6300
 1984.0000   -72.9790     5.3130     6.1640     2.5030     8.0570     0.0240   139.8680
 1984.5000   -72.8310     5.4060     6.5210     2.5030     8.1580     0.0180   137.0000
 1985.0000   -72.7260     5.4100     6.7060     2.4970     8.3010     0.0180   134.8140
 1985.5000   -72.6610     5.4130     6.7060     2.4900     8.4390     0.0240   133.6940
 1986.0000   -72.5950     5.4170     6.7060     2.4860     8.1690     0.0310   132.5790
 1986.5000   -72.5280     5.4210     6.9870     2.5000     7.8750     0.0320   132.3030
 1987.0000   -72.4610     5.4240     7.1540     2.5090     7.9900     0.0280   133.8690
 1987.5000   -72.3940     5.4280     7.0810     2.4970     8.1220     0.0250   136.3550
 1988.0000   -72.3270     5.4310     7.0230     2.5210     8.0070     0.0210   134.5760
 1988.5000   -72.2600     5.4350     6.9650     2.5120     7.9190     0.0280   132.5610
 1989.0000   -72.1920     5.4390     6.9060     2.5050     7.9220     0.0380   133.2790
 1989.5000   -72.1870     5.4420     6.8480     2.4980     7.9240     0.0490   134.2870
 1990.0000   -72.2480     5.4460     6.7900     2.4910     7.9050     0.0590   132.7560
 1990.5000   -72.3290     5.4490     6.7700     2.4890     7.9110     0.0620   126.9010
 1991.0000   -72.4110     5.4530     6.8810     2.4900     7.9160     0.0550   124.6000
 1991.5000   -72.4930     5.4560     7.0140     2.4980     7.9210     0.0570   122.5680
 1992.0000   -72.5750     5.4560     7.2130     2.5140     7.9180     0.0530   120.8640
