~VERSION INFORMATION
 VERS.                2.0:   CWLS LOG ASCII STANDARD - VERSION 2.0
 WRAP.                 NO:   ONE LINE PER DEPTH STEP
~WELL INFORMATION
#MNEM.UNIT      DATA TYPE    INFORMATION
#----------   ------------   ------------------------------
 STRT.F           40.0000:   START DEPTH
 STOP.F         1336.0000:   STOP DEPTH
 STEP.F            0.5000:   STEP LENGTH
 NULL.          -999.2500:   NO VALUE
 COMP. LAWRENCE - ALLISON WEST:   COMPANY
 WELL. LAWRENCE NPR 3 "AX" #54-23:   WELL
 FLD .              N P R:   FIELD
 LOC .      S23 T38N R78W:   LOCATION
 CNTY.            NATRONA:   COUNTY
 STAT.            WYOMING:   STATE
 CTRY. UNITED STATES OF AMERICA:   COUNTRY
 SRVC.       SCHLUMBERGER:   SERVICE COMPANY
 DATE.        13-MAY-1982:   LOGDATE
 API .     49025108880000:   API NUMBER
~CURVE INFORMATION
#MNEM.UNIT       API CODE    CURVE DESCRIPTION
#----------   ------------   ------------------------------
 DEPT.F                  :   
 NPOR.DEC    42 890 03 00:   ALPHA PROCESSED NEUTRON POROSITY
 TEND.LBS    45 635 01 00:   TENSION FROM DENSITY LOG
 CORR.G/C3   45 356 01 00:   DENSITY CORRECTION
 RHOB.G/C3   45 350 01 00:   BULK DENSITY
 GRD .GAPI   45 310 01 00:   GAMMA RAY FROM DENSITY LOG
 CALD.IN     45 280 60 00:   CALIPER FROM DENSITY LOG
 SPR .MV     07 010 01 00:   SPONTANEOUS POTENTIAL
 TENR.LBS    07 635 01 00:   TENSION
 ILD .OHMM   07 120 46 00:   DEEP INDUCTION RESISTIVITY
 ILM .OHMM   07 120 44 00:   INDUCTION LOG MEDIUM RESISTIVITY
 SFL .OHMM   07 220 01 00:   SHALLOW FOCUSED LOG RESISTIVITY
~PARAMETER INFORMATION
#MNEM.UNIT          VALUE    DESCRIPTION
#----------   ------------   ------------------------------
 EKB .F         5342.0000:   Kelly bushing
 EGL .F         5332.0000:   Ground level
 EDF .F            0.0000:   Drilling floor
 TD  .F         1325.0000:   Total depth
 DATE.        13-MAY-1982:   Date logged
 CLNT.            A2DTECH:   Client Code
 SL  . 2278' FSL & 2665' FWL:   Surface Location
 PD  .                 GL:   Permanent Datum
 DD  .F              1325:   Depth driller
 DL  .F              1314:   Depth logger
 BLI .F              1308:   Bottom log interval
 CS1 .IN             15.5:   Casing size
 CBD1.        15.5" @ 40':   Casing driller 1
 CBL1.F                54:   Casing logger 1
 BS1 .IN            12.25:   Bit size
 DFT .             LT/GEL:   Type fluid in hole
 DFD .                8.9:   Density
 DFV .                 33:   Viscosity
 DFPH.                8.8:   pH
 DFL .                 16:   Fluid loss
 MSS .                PIT:   Source of sample
 RMS .OHMM           2.47:   Rm
 MST .F                61:   Rm Meas. temp.
 RMF .OHMM           2.12:   Rmf
 MFST.F                62:   Rmf Meas. temp.
 MFSS.               MEAS:   Source Rmf.
 RMB .OHMM           1.73:   Rm. at BHT
 BHT .F                87:   BHT.
 TCS .HRS            2300:   Time Circ. stopped
 MRT .F                87:   Maximum recorded temp.
 LUN .               8043:   Logging unit number
 LUL .               CSPR:   Logging unit location
 ENGI.        WAGNER/CSPR:   Recorded By
 WITN.           JENNINGS:   Witnessed by
 ORIG.           5" PRINT:   Origin of data
 UWI .     49025108880000:   Unique Well ID
 DICO. A2D TECHNOLOGIES, INC.:   Digitizing Company
 BSD1.F              1325:   Depth drilled with bit1
 EPD .F              5332:   Elevation Permanent Datum
 LMF .                 KB:   Log Measured From
 DMF .                 KB:   Drilling Measured From
 TLI .F                54:   Top log interval
 DAPD.F                10:   Feet Above Permanent Datum
~OTHER INFORMATION
~A   DEPT     NPOR       TEND       CORR       RHOB        GRD       CALD        SPR       TENR        ILD        ILM        SFL   
# ...
  528.0000     0.1620   133.4090    -0.0080     2.4070   138.7760    13.0090   -23.2670    -1.4890     5.6620     5.3430     5.7000
  528.5000     0.1580   132.9080    -0.0100     2.4050   134.7340    13.0080   -22.1230    -1.7640     5.6620     5.4530     5.8190
  529.0000     0.1540   132.4070    -0.0100     2.4060   130.3580    13.0060   -23.6350    -2.0380     5.6620     5.4100     5.8990
  529.5000     0.1500   131.9060    -0.0060     2.4080   125.8360    13.0050   -24.9290    -2.3130     5.6620     5.3510     5.9910
  530.0000     0.1550   131.4040    -0.0010     2.4150   122.4050    13.0030   -26.5400    -2.5870     5.6620     5.3510     5.8790
  530.5000     0.1610   130.9030     0.0050     2.4240   124.7460    13.0010   -27.2640    -2.8610     5.5940     5.2770     5.6840
  531.0000     0.1580   130.4020     0.0120     2.4330   130.3430    13.0000   -27.2000    -3.1360     5.5290     5.2060     5.4970
  531.5000     0.1540   129.9010     0.0150     2.4400   135.2120    12.9980   -25.1360    -3.4100     5.4640     5.1180     5.3090
  532.0000     0.1530   129.4000     0.0100     2.4350   138.4470    12.9970   -25.3570    -3.6850     5.3990     4.9790     5.1210
  532.5000     0.1660   128.8990     0.0040     2.4210   136.2140    12.9950   -25.6940    -3.9590     5.3000     4.8400     4.9880
  533.0000     0.1650   128.3970    -0.0030     2.4160   133.8980    12.9940   -26.0950    -4.2340     5.1060     4.7010     4.8840
  533.5000     0.1560   127.8960    -0.0070     2.4120   133.3280    12.9920   -25.7300    -4.5080     4.9260     4.5620     4.7800
  534.0000     0.1520   127.3950    -0.0070     2.4080   133.0070    12.9910   -25.3290    -4.7820     4.7890     4.4320     4.6750
  534.5000     0.1590   126.8940    -0.0040     2.4070   133.7250    12.9890   -24.9190    -5.0570     4.6900     4.4010     4.5710
  535.0000     0.1710   126.3930    -0.0020     2.4090   134.4710    12.9880   -24.9720    -5.3310     4.7800     4.3560     4.5170
  535.5000     0.1820   125.8920     0.0000     2.4110   136.2910    12.9850   -25.7530    -5.6060     4.8820     4.3770     4.6210
  536.0000     0.1950   125.3900     0.0010     2.4150   138.6230    12.9820   -27.1360    -5.8800     4.9840     4.4750     4.7750
  536.5000     0.1890   124.8890     0.0020     2.4190   140.5990    12.9790   -27.2460    -6.1540     5.0620     4.5730     4.9290
  537.0000     0.1760   124.3880     0.0020     2.4230   139.1390    12.9760   -27.2240    -6.4290     5.0780     4.6710     5.0820
  537.5000     0.1630   123.8870     0.0040     2.4270   136.7630    12.9730   -26.3440    -6.7030     5.0940     4.7790     5.2510
  538.0000     0.1510   123.3860     0.0070     2.4280   136.3340    12.9700   -25.0270    -6.9780     5.1100     4.7790     5.1630
  538.5000     0.1470   122.8840     0.0090     2.4260   137.1650    12.9670   -24.9010    -7.2520     5.1260     4.7790     5.0570
  539.0000     0.1480   122.3830     0.0120     2.4210   136.2750    12.9640   -24.8900    -7.5270     5.1420     4.7790     5.0570
  539.5000     0.1500   121.8820     0.0140     2.4170   135.3940    12.9610   -24.9300    -7.8010     5.1590     4.8000     5.0570
  540.0000     0.1550   122.5320     0.0110     2.4070   135.0670    12.9580   -24.6720    -8.0750     5.1780     4.8190     5.0570
  540.5000     0.1630   123.8950     0.0010     2.3990   135.0360    12.9550   -23.5830    -8.3500     5.1970     4.8380     5.0570
  541.0000     0.1660   125.2590     0.0010     2.4050   135.9190    12.9520   -22.2850    -8.6240     5.2160     4.8570     5.0570
  541.5000     0.1670   126.6220     0.0000     2.4170   136.9370    12.9490   -22.3200    -8.8990     5.2350     4.8780     5.0570
  542.0000     0.1600   127.9850     0.0000     2.4270   138.1910    12.9460   -24.5190    -9.1730     5.2510     4.9010     5.0570
  542.5000     0.1580   129.3480    -0.0010     2.4310   139.6570    12.9430   -26.6510    -9.4480     5.2990     4.9240     5.0570
  543.0000     0.1660   130.7110    -0.0020     2.4340   139.2740    12.9400   -27.2190    -9.7220     5.3400     4.9470     5.0570
  543.5000     0.1730   132.0750    -0.0020     2.4320   137.2330    12.9370   -27.2000    -9.9960     5.5140     5.0260     5.1380
  544.0000     0.1680   133.4380    -0.0030     2.4280   134.3210    12.9340   -27.1900   -10.2710     5.7320     5.2110     5.3730
  544.5000     0.1600   134.8010    -0.0030     2.4280   131.9480    12.9310   -23.4480   -10.5450     5.9510     5.3950     5.6070
  545.0000     0.1620   136.1640    -0.0040     2.4320   133.1910    12.9280   -24.2460   -10.8200     6.1690     5.5790     5.8420
  545.5000     0.1660   137.5270    -0.0050     2.4350   137.0130    12.9250   -26.1010   -11.0940     6.2960     5.7700     6.0260
  546.0000     0.1730   138.8910    -0.0050     2.4290   139.9910    12.9220   -27.9330   -11.3680     6.3390     5.9480     6.1220
  546.5000     0.1770   140.2540    -0.0060     2.4230   142.3130    12.9190   -28.8880   -11.6430     6.3390     5.9910     6.2210
  547.0000     0.1740   141.6170    -0.0070     2.4230   142.1070    12.9160   -28.8050   -11.9170     6.2130     5.8350     6.1050
  547.5000     0.1680   142.6440    -0.0060     2.4240   140.1430    12.9130   -27.4660   -12.1920     6.0830     5.6740     5.9430
  548.0000     0.1590   143.5100    -0.0050     2.4210   137.6570    12.9100   -25.7740   -12.4660     5.9530     5.5140     5.8060
  548.5000     0.1520   144.3770    -0.0040     2.4190   135.1620    12.9070   -25.7700   -12.7410     5.7700     5.3510     5.6680
  549.0000     0.1530   145.2430    -0.0020     2.4210   132.9360    12.9040   -27.8420   -13.0150     5.7840     5.3510     5.5560
  549.5000     0.1530   146.1100     0.0000     2.4250   134.0930    12.9010   -27.9820   -13.2890     5.8090     5.3510     5.5560
  550.0000     0.1460   146.9760     0.0020     2.4300   137.5380    12.8980   -27.4450   -13.5640     5.8340     5.3510     5.5560
  550.5000     0.1400   147.8430     0.0040     2.4440   140.9870    12.8950   -26.8200   -13.8380     5.8590     5.3510     5.6770
  551.0000     0.1430   148.7090     0.0050     2.4460   141.7810    12.8920   -26.1330   -14.1130     5.8790     5.4960     5.7780
  551.5000     0.1510   149.5750     0.0050     2.4410   140.0650    12.8890   -25.8790   -14.3870     6.0250     5.6410     5.8790
  552.0000     0.1580   150.4420     0.0050     2.4350   136.0470    12.8860   -25.8120   -14.6620     6.1460     5.7860     6.1720
  552.5000     0.1600   151.3080     0.0040     2.4330   131.9570    12.8830   -27.1440   -14.7180     6.2660     5.9310     6.5830
  553.0000     0.1550   152.2400     0.0030     2.4460   131.1050    12.8800   -27.9070   -14.4470     6.3870     6.1050     6.5460
  553.5000     0.1420   147.8110     0.0020     2.4610   133.0590    12.8770   -27.0200   -14.1770     6.4600     6.1800     6.4600
  554.0000     0.1330   143.0180    -0.0010     2.4620   137.6000    12.8740   -26.1600   -13.9060     6.4600     6.2750     6.5230
  554.5000     0.1290   138.2260    -0.0040     2.4510   138.5510    12.8710   -25.6310   -13.6360     6.4600     6.3690     6.6270
  555.0000     0.1330   133.4330    -0.0050     2.4430   136.3380    12.8680   -25.7060   -13.3650     6.6050     6.4630     6.7310
  555.5000     0.1410   128.6410    -0.0060     2.4400   136.2220    12.8650   -25.6860   -13.0950     6.7500     6.5570     6.8360
  556.0000     0.1560   123.8480    -0.0060     2.4410   138.0020    12.8680   -25.6830   -12.8240     6.8950     6.6510     7.0400
  556.5000     0.1580   122.4300    -0.0030     2.4390   140.0180    12.8720   -25.6950   -12.5540     7.0400     6.7400     7.2440
  557.0000     0.1530   123.7750     0.0000     2.4360   139.1140    12.8750   -25.6980   -12.2830     7.1380     6.8210     7.4490
  557.5000     0.1440   125.1210     0.0050     2.4350   136.9240    12.8790   -25.8950   -12.0130     7.2060     6.9010     7.6530
  558.0000     0.1380   126.4660     0.0150     2.4390   135.0880    12.8830   -26.0750   -11.7420     7.2330     6.9650     7.5110
