~VERSION INFORMATION
 VERS.                2.0:   CWLS LOG ASCII STANDARD - VERSION 2.0
 WRAP.                 NO:   ONE LINE PER DEPTH STEP
~WELL INFORMATION
#MNEM.UNIT      DATA TYPE    INFORMATION
#----------   ------------   ------------------------------
 STRT.F         1053.5000:   START DEPTH
 STOP.F         3062.0000:   STOP DEPTH
 STEP.F            0.5000:   STEP LENGTH
 NULL.          -999.2500:   NO VALUE
 COMP.    FENIX & SCISSON:   COMPANY
 WELL.  FENIX "A" #301-11:   WELL
 FLD .              NPR-3:   FIELD
 LOC .      S11 T38N R78W:   LOCATION
 CNTY.            NATRONA:   COUNTY
 STAT.            WYOMING:   STATE
 CTRY. UNITED STATES OF AMERICA:   COUNTRY
 SRVC.      NL MCCULLOUGH:   SERVICE COMPANY
 DATE.        13-OCT-1977:   LOGDATE
 API .     49025104410000:   API NUMBER
~CURVE INFORMATION
#MNEM.UNIT       API CODE    CURVE DESCRIPTION
#----------   ------------   ------------------------------
 DEPT.F                  :   
 GR  .GAPI   35 310 01 00:   GAMMA RAY
 NEUT.NAPI   35 330 01 00:   NEUTRON
~PARAMETER INFORMATION
#MNEM.UNIT          VALUE    DESCRIPTION
#----------   ------------   ------------------------------
 EDF .F         5165.0000:   Drilling floor
 TD  .F         3097.0000:   Total depth
 CLNT.            A2DTECH:   Client Code
 PD  .                 DF:   Permanent Datum
 EPD .F              5165:   Elevation Permanent Datum
 LMF .                 GL:   Log Measured From
 DMF .                 DF:   Drilling Measured From
 DATE.        13-OCT-1977:   Date Logged [DD-MMM-YYYY]
 DD  .F              3097:   Depth driller
 BLI .F              3060:   Bottom log interval
 TLI .F              1060:   Top log interval
 BSD1.F              3097:   Depth drilled with bit1
 DFT .              WATER:   Type fluid in hole
 ENGI.            MUNDELL:   Recorded By
 ORIG.           5" PRINT:   Origin of data
 UWI .     49025104410000:   Unique Well ID
 DICO. A2D TECHNOLOGIES, INC.:   Digitizing Company
~OTHER INFORMATION
~A  DEPT         GR      NEUT   
# ...
 1661.0000    73.3210   283.6247
 1661.5000    72.3824   281.9409
 1662.0000    74.9689   284.7184
 1662.5000    76.9511   294.7453
 1663.0000    76.1697   303.0970
 1663.5000    75.2311   312.5689
 1664.0000    76.1788   291.9225
 1664.5000    76.6538   299.1611
 1665.0000    75.4020   295.8044
 1665.5000    75.4586   291.3291
 1666.0000    76.8269   291.8794
 1666.5000    77.9318   290.7506
 1667.0000    78.5650   287.3940
 1667.5000    77.9409   276.7878
 1668.0000    77.7871   286.2571
 1668.5000    77.3212   294.0534
 1669.0000    76.3650   294.6003
 1669.5000    76.5455   292.8457
 1670.0000    75.2926   291.2301
 1670.5000    74.9816   290.6617
 1671.0000    76.5581   290.6509
 1671.5000    75.4634   291.2005
 1672.0000    76.2539   292.8600
 1672.5000    78.4775   302.3292
 1673.0000    78.7780   302.3182
 1673.5000    77.2118   304.5356
 1674.0000    74.8586   310.6589
 1674.5000    74.2333   316.7823
 1675.0000    77.2255   322.3507
 1675.5000    78.4875   302.8195
 1676.0000    79.7876   297.2322
 1676.5000    80.5400   289.9234
 1677.0000    78.9739   284.3821
 1677.5000    78.1914   263.1807
 1678.0000    76.7824   269.8617
 1678.5000    77.7300   290.4839
 1679.0000    76.6343   303.2990
 1679.5000    76.3245   305.5189
 1680.0000    78.8451   304.9504
 1680.5000    81.0503   305.4973
 1681.0000    81.6824   301.0227
 1681.5000    80.4307   297.6660
 1682.0000    80.9068   301.0011
 1682.5000    81.0685   321.0657
 1683.0000    81.3876   332.2079
 1683.5000    81.7075   350.0419
 1684.0000    78.5683   350.0284
 1684.5000    76.6867   348.9023
 1685.0000    76.0613   340.5268
 1685.5000    76.0670   334.3819
 1686.0000    78.5865   337.7170
 1686.5000    78.5709   348.8592
 1687.0000    77.9669   351.0790
 1687.5000    77.6571   349.8595
 1688.0000    77.9771   349.9422
 1688.5000    81.1254   349.9287
 1689.0000    81.4443   348.8027
 1689.5000    81.4489   330.9471
 1690.0000    81.4326   317.5528
 1690.5000    79.5729   305.2658
 1691.0000    78.0056   295.9314
 1691.5000    77.3814   287.4047
 1692.0000    77.8575   287.9543
 1692.5000    78.3336   287.3832
 1693.0000    79.1241   285.1418
 1693.5000    80.2721   284.5734
 1694.0000    81.8065   300.7344
 1694.5000    83.0685   318.9229
 1695.0000    83.5435   334.1691
 1695.5000    83.0765   336.9492
 1696.0000    83.5538   336.3781
 1696.5000    83.7155   333.5791
 1697.0000    81.0727   315.1659
 1697.5000    78.5386   309.0025
 1698.0000    77.6001   312.0370
 1698.5000    77.4463   327.3992
 1699.0000    77.7663   331.2946
 1699.5000    78.0853   326.8227
 1700.0000    80.6048   329.6002
 1700.5000    81.8623   328.4713
 1701.0000    80.6048   325.1147
 1701.5000    78.7186   326.3159
 1702.0000    78.5614   334.0128
 1702.5000    78.0898   349.6162
 1703.0000    77.6183   350.7234
 1703.5000    78.4367   344.5759
 1704.0000    80.9257   322.8167
 1704.5000    81.5480   309.9800
 1705.0000    79.6812   289.2617
 1705.5000    79.6812   284.3040
 1706.0000    83.4147   284.8509
 1706.5000    82.7685   295.4354
 1707.0000    81.8591   307.1353
 1707.5000    81.8591   309.3578
 1708.0000    82.7924   313.8055
 1708.5000    82.4813   326.6206
 1709.0000    81.8591   319.3577
 1709.5000    82.1702   312.6552
 1710.0000    83.4147   297.5879
 1710.5000    82.7924   297.5771
 1711.0000    82.6369   296.4510
 1711.5000    82.4813   282.4990
 1712.0000    80.6146   287.5830
 1712.5000    79.9924   295.8595
 1713.0000    79.3701   300.3126
 1713.5000    79.0590   296.8808
 1714.0000    80.6146   300.2884
 1714.5000    81.5480   292.4701
 1715.0000    82.1702   291.3417
 1715.5000    82.7924   287.9851
 1716.0000    83.2591   287.4167
 1716.5000    85.2814   290.1968
 1717.0000    84.8147   290.1834
 1717.5000    84.5036   278.2723
 1718.0000    84.3481   257.8182
 1718.5000    84.1925   275.6495
 1719.0000    84.0369   280.1026
 1719.5000    82.7924   265.5903
 1720.0000    82.6369   267.8101
 1720.5000    82.6369   273.3759
 1721.0000    81.5480   286.7937
 1721.5000    79.9924   294.9099
 1722.0000    79.6812   305.1269
 1722.5000    79.5257   315.7114
 1723.0000    79.3701   319.6069
 1723.5000    79.2145   310.1134
 1724.0000    81.2368   304.5261
 1724.5000    82.0146   302.2717
 1725.0000    82.1702   290.8415
 1725.5000    82.6369   287.7617
 1726.0000    83.7258   293.3274
 1726.5000    84.0369   315.6226
 1727.0000    83.5702   323.4216
 1727.5000    83.7258   317.8316
 1728.0000    84.0369   318.9362
 1728.5000    84.6592   316.9678
 1729.0000    84.3481   306.6437
 1729.5000    84.5036   291.0187
 1730.0000    84.9703   275.9514
 1730.5000    86.9926   267.5759
 1731.0000    85.9037   268.8072
 1731.5000    83.7258   267.5543
 1732.0000    83.4147   275.9057
 1732.5000    87.1481   288.7209
 1733.0000    89.6371   322.7267
 1733.5000    89.3260   338.8877
 1734.0000    83.6844   348.9146
 1734.5000    83.2591   356.7109
 1735.0000    85.2814   362.3138
 1735.5000    85.9037   366.7244
 1736.0000    89.6371   368.3893
 1736.5000    87.3037   365.0326
 1737.0000    85.2814   366.6948
 1737.5000    84.6592   343.2600
 1738.0000    85.9037   334.8846
 1738.5000    82.1702   336.0093
 1739.0000    80.3035   335.4180
 1739.5000    77.8145   322.0237
 1740.0000    76.5700   306.3987
 1740.5000    78.1256   305.8303
 1741.0000    81.0813   305.8195
 1741.5000    82.8131   303.5782
 1742.0000    84.1925   283.4699
 1742.5000    86.5259   285.1516
 1743.0000    87.7704   285.6984
 1743.5000    87.6148   295.1677
 1744.0000    84.9703   301.8487
 1744.5000    84.8147   303.5109
 1745.0000    82.9480   305.1733
 1745.5000    83.1450   299.4887
 1746.0000    85.2814   272.4998
 1746.5000    85.2814   278.6597
 1747.0000    85.5925   286.5027
 1747.5000    85.9037   283.6943
 1748.0000    85.9037   288.1737
 1748.5000    85.1259   297.1380
 1749.0000    84.6592   305.7647
 1749.5000    84.6592   317.8682
 1750.0000    84.9703   333.5597
 1750.5000    85.2814   336.3587
 1751.0000    85.5925   312.8064
 1751.5000    85.7481   297.1040
 1752.0000    84.5036   297.6594
 1752.5000    82.9480   297.0931
 1753.0000    83.2591   293.0583
 1753.5000    83.4147   282.5051
 1754.0000    81.8591   272.4088
 1754.5000    79.6812   270.1609
 1755.0000    79.0590   268.4737
 1755.5000    79.6812   267.3470
 1756.0000    79.6812   274.6295
 1756.5000    79.6812   278.5483
 1757.0000    79.9924   282.5866
 1757.5000    81.0813   285.2633
 1758.0000    83.2591   283.5761
 1758.5000    85.4370   286.3737
 1759.0000    86.2148   295.3380
 1759.5000    86.3703   305.9840
 1760.0000    86.6815   314.9483
 1760.5000    88.1229   305.4126
 1761.0000    88.7038   303.7252
 1761.5000    87.9260   302.0367
 1762.0000    85.4370   300.3495
 1762.5000    87.1481   295.8592
 1763.0000    86.5259   283.5204
 1763.5000    85.9037   247.2477
 1764.0000    84.6592   239.2207
 1764.5000    83.7258   240.8985
 1765.0000    83.2591   238.6493
 1765.5000    82.9480   233.5984
 1766.0000    81.8591   238.6384
 1766.5000    81.0813   249.8451
 1767.0000    81.5480   253.7639
 1767.5000    82.9480   245.1234
 1768.0000    84.6592   240.8577
 1768.5000    85.6013   227.3978
 1769.0000    86.5259   225.7119
 1769.5000    86.6815   231.8717
 1770.0000    84.1925   245.3208
 1770.5000    83.4147   267.7397
 1771.0000    83.5702   284.5524
 1771.5000    84.9703   297.6306
 1772.0000    84.8147   314.2523
 1772.5000    84.8381   317.0499
 1773.0000    85.9037   322.6505
 1773.5000    87.3037   317.0390
 1774.0000    88.5482   314.7925
 1774.5000    88.5482   313.6645
 1775.0000    88.5482   315.9015
 1775.5000    88.5482   314.7036
 1776.0000    86.1983   319.8135
 1776.5000    86.0592   321.4913
 1777.0000    86.6815   323.7269
 1777.5000    88.8593   305.7821
 1778.0000    90.1038   301.2918
 1778.5000    86.9926   299.6046
 1779.0000    87.1481   289.4053
 1779.5000    87.7704   272.4487
 1780.0000    88.3926   264.8293
 1780.5000    89.4816   265.9451
 1781.0000    89.9482   263.6972
 1781.5000    89.7927   269.2979
 1782.0000    90.1038   274.8985
