~VERSION INFORMATION
 VERS.                2.0:   CWLS LOG ASCII STANDARD - VERSION 2.0
 WRAP.                 NO:   ONE LINE PER DEPTH STEP
~WELL INFORMATION
#MNEM.UNIT      DATA TYPE    INFORMATION
#----------   ------------   ------------------------------
 STRT.F           32.0000:   START DEPTH
 STOP.F         5116.0000:   STOP DEPTH
 STEP.F            0.5000:   STEP LENGTH
 NULL.          -999.2500:   NO VALUE
 COMP. LAWRENCE ALLISON AND ASSOCIATES:   COMPANY
 WELL. LAWRENCE "X" #11-26:   WELL
 FLD .       N.P.R. NO. 3:   FIELD
 LOC .      S26 T38N R78W:   LOCATION
 CNTY.            NATRONA:   COUNTY
 STAT.            WYOMING:   STATE
 CTRY. UNITED STATES OF AMERICA:   COUNTRY
 SRVC.      DRESSER ATLAS:   SERVICE COMPANY
 DATE.        03-DEC-1984:   LOGDATE
 API .     49025110120000:   API NUMBER
~CURVE INFORMATION
#MNEM.UNIT       API CODE    CURVE DESCRIPTION
#----------   ------------   ------------------------------
 DEPT.F                  :   
 CALD.IN     45 280 60 00:   CALIPER FROM DENSITY LOG
 TEND.LBS    45 635 01 00:   TENSION FORM DENSITY LOG
 CORR.G/C3   45 356 01 00:   DENSITY CORRECTION
 DEN .G/C3   45 350 01 00:   BULK DENSITY
 NPHI.DEC    42 890 03 00:   NEUTRON POROSITY SANDSTONE
 GRR .GAPI   07 310 01 00:   GAMMA RAY FROM RESISTIVITY
 SPR .MV     07 010 01 00:   SPONTANEOUS POTENTIAL
 CALR.IN     07 280 01 00:   CALIPER FROM RESISTIVITY
 TENR.LBS    07 635 01 00:   TENSION FROM RESISTIVITY
 RILD.OHMM   07 120 46 00:   INDUCTION LOG DEEP RESISTIVITY
 RILM.OHMM   07 120 44 00:   INDUCTION LOG MEDIUM RESISTIVITY
 RFOC.OHMM   07 220 04 00:   RESISTIVITY FOCUSED LOG RES.
 TENS.LBS    60 635 01 00:   TENSION FROM SONIC
 DT  .US/F   60 520 00 00:   DELTA TIME
~PARAMETER INFORMATION
#MNEM.UNIT          VALUE    DESCRIPTION
#----------   ------------   ------------------------------
 EKB .F         5321.0000:   Kelly bushing
 EGL .F         5309.0000:   Ground level
 EDF .F         5320.0000:   Drilling floor
 TD  .F         5104.0000:   Total depth
 CLNT.            A2DTECH:   Client Code
 SL  . 509' FWL & 22' FNL:   Surface Location
 PD  .                 GL:   Permanent Datum
 EPD .F              5309:   Elevation Permanent Datum
 LMF .                 KB:   Log Measured From
 DMF .                 KB:   Drilling Measured From
 DAPD.F                12:   Feet Above Permanent Datum
 DATE.        03-DEC-1984:   Date Logged [DD-MMM-YYYY]
 DD  .F              5100:   Depth driller
 DL  .F              5104:   Depth logger
 BLI .F              5102:   Bottom log interval
 TLI .F              1400:   Top log interval
 CS1 .IN            9.625:   Casing size
 CBD1.     9.625' @ 1657':   Casing driller 1
 CBL1.F              1652:   Casing logger 1
 BS1 .IN            7.875:   Bit size
 DFT .            KCL GEL:   Type fluid in hole
 DFD .                90.:   Density
 DFV .                 41:   Viscosity
 DFPH.                8.9:   pH
 DFL .               12.6:   Fluid loss
 MSS .           FLOWLINE:   Source of sample
 RMS .OHMM           .327:   Rm
 MST .F                84:   Rm Meas. temp.
 RMF .OHMM            .29:   Rmf
 MFST.F                84:   Rmf Meas. temp.
 MFSS.               CALC:   Source Rmf.
 RMC .OHMM            .42:   Rmc
 MCST.F                84:   Rmc Meas. temp.
 MCSS.               CALC:   Source Rmc.
 RMB .OHMM            .23:   Rm. at BHT
 BHT .F               142:   BHT.
 TCS .HRS               4:   Time Circ. stopped
 MRT .F               142:   Maximum recorded temp.
 LUN .               6307:   Logging unit number
 LUL .               CLTE:   Logging unit location
 WITN.             STRONG:   Witnessed by
 ORIG.           5" PRINT:   Origin of data
 UWI .     49025110120000:   Unique Well ID
 DICO. A2D TECHNOLOGIES, INC.:   Digitizing Company
~OTHER INFORMATION
~A  DEPTH     CALD       TEND       CORR        DEN       NPHI        GRR        SPR       CALR       TENR       RILD       RILM       RFOC       TENS         DT
# ...
 3707.0000     7.9994    -8.9808     0.0360     2.4628     0.1427    60.2836   -32.0518     8.0266   -45.9264    10.1891     9.9726    10.3592   -36.2259    71.4663
 3707.5000     8.0315    -2.4942     0.0467     2.4749     0.1451    59.9991   -31.4781     8.0272   -46.0656    10.4704     9.9697    10.9476   -37.5486    71.4543
 3708.0000     8.0335    11.5117     0.0529     2.4720     0.1381    55.7972   -31.1676     8.0285   -46.2048    10.9882    10.4627    11.8124   -38.8891    71.2901
 3708.5000     8.0505   -27.3724     0.0624     2.4804     0.1251    51.8927   -31.1583     8.0307   -46.3440    11.7738    12.3510    13.7552   -40.2403    70.1539
 3709.0000     8.0525   -43.4417     0.0656     2.5046     0.1239    51.6078   -31.1489     8.0330   -46.4832    12.2709    12.5211    16.2842   -49.3550    67.0687
 3709.5000     8.0546   -51.9927     0.0538     2.5317     0.1250    55.5511   -31.2902     8.0641   -46.6224    12.4396    12.2601    21.4240   -42.8395    64.3584
 3710.0000     8.0254   -53.0249     0.0433     2.5423     0.1406    63.4113   -31.1295     8.1100   -46.7616    12.2655    11.8402    18.7771   -52.0004    65.0213
 3710.5000     8.0139   -69.0978     0.0678     2.5205     0.1628    69.1599   -31.1186     8.1711   -46.9008    12.0944    11.5866    15.3554   -45.8156    66.6588
 3711.0000     8.0161   -70.1506     0.0863     2.4902     0.1813    73.7019   -31.1093     8.2020   -47.0400    11.9257    11.4313    13.5518   -39.3002    68.8960
 3711.5000     8.0182   -71.2028     0.0987     2.4609     0.1801    74.9261   -30.7988     8.1840   -47.5011    11.7593    11.4287    12.7147   -48.1304    71.5079
 3712.0000     8.0205   -49.6340     0.1030     2.4505     0.1728    74.3437   -30.4879     8.1282   -48.7020    11.5947    11.4261    12.2084   -34.4381    72.9205
 3712.5000     8.0226   -28.3677     0.0882     2.4431     0.1650    72.5508   -29.8742     8.0989   -49.9029    11.5928    11.4234    12.0380   -28.5286    72.9085
 3713.0000     8.0545   -36.9182     0.0750     2.4350     0.1589    69.2496   -29.5637     8.0999   -51.1037    11.6158    11.4202    11.9525   -29.9061    72.6717
 3713.5000     8.0714   -45.4692     0.0572     2.4314     0.1481    63.7696   -29.2531     8.0706   -52.3046    11.6685    11.2605    12.1169   -46.2464    72.1328
 3714.0000     8.0735   -54.0197     0.0304     2.4360     0.1402    58.1267   -29.2438     8.0715   -53.5055    11.6661    11.2579    12.2937   -47.5976    71.2215
 3714.5000     8.0755   -62.5707     0.0245     2.4489     0.1432    55.4289   -28.9330     8.1025   -54.7063    11.6632    11.3257    12.6263   -48.9487    70.3853
 3715.0000     8.0776   -71.1212     0.0428     2.4573     0.1463    54.5410   -29.2228     8.1032   -55.5573    11.7420    11.2861    12.8891   -42.7045    70.0737
 3715.5000     8.0801   -79.6722     0.0550     2.4634     0.1512    54.5593   -29.5171     8.1191   -47.7810    11.6586    11.2465    12.7970   -36.8504    70.3618
 3716.0000     8.0667   -65.6669     0.0688     2.4689     0.1550    60.0093   -30.1078     8.1349   -47.5661    11.5759    11.2068    12.6644   -38.1731    70.9498
 3716.5000     8.0690   -59.1731     0.0874     2.4720     0.1568    66.9645   -30.8515     8.1358   -47.3510    11.4937    11.1672    12.4288   -54.5108    71.3129
 3717.0000     8.0542   -52.6932     0.0998     2.4706     0.1615    71.5065   -31.6149     8.1518   -47.1360    11.4116    11.1393    12.0154   -55.8336    71.9759
 3717.5000     8.0430   -53.7593     0.1115     2.4684     0.1711    73.9369   -32.3365     8.1675   -54.4295    11.2524    10.9850    11.7658   -42.1413    72.7211
 3718.0000     8.0301   -62.5338     0.1163     2.4686     0.1710    76.9748   -32.7814     8.1684   -61.7210    11.2502    10.8328    11.6017   -28.1183    73.1734
 3718.5000     8.0326   -71.0848     0.0864     2.4710     0.1737    78.1985   -33.0732     8.1692   -61.4522    11.2480    10.8317    11.5993   -29.7717    73.4400
 3719.0000     8.0412   -72.1165     0.0762     2.4756     0.1784    77.6123   -33.3629     8.1702   -61.2373    11.2452    10.9817    11.6082   -53.6169    73.5032
 3719.5000     8.0516   -73.1487     0.0809     2.4825     0.1763    75.8194   -33.3532     8.1860   -61.0222    11.4004    11.1338    11.7565   -54.9397    73.4886
 3720.0000     8.0388   -59.1428     0.0916     2.4901     0.1720    76.8636   -33.3418     8.2019   -60.8108    11.5565    11.4451    11.9182   -33.7399    73.4019
 3720.5000     8.0409   -45.1375     0.1008     2.4985     0.1717    81.2878   -33.3325     8.2027   -60.5856    11.5543    11.5237    12.2502   -35.3933    73.3153
 3721.0000     8.0434   -53.4300     0.0890     2.5169     0.1752    85.5281   -33.3238     8.2035   -60.3235    11.5519    11.5223    12.5921   -36.7160    72.1791
 3721.5000     8.0603   -62.2390     0.0727     2.5372     0.1785    92.1845   -33.3139     8.2043   -60.1084    11.5495    11.4417    12.9428   -53.0537    71.5677
 3722.0000     8.0621   -70.7895     0.0881     2.5529     0.1800    96.7265   -33.2189     8.2052   -59.8935    11.4672    11.4402    12.7621   -54.3765    71.7059
 3722.5000     8.0644   -71.8217     0.0777     2.5313     0.1802    95.8386   -32.9932     8.1759   -59.6784    11.3858    11.4391    12.1554   -33.1760    72.1451
 3723.0000     8.0663   -72.8570     0.0569     2.4819     0.1799    92.2358   -32.7927     8.1466   -51.9519    11.5423    11.4380    11.7391   -26.6605    72.5985
 3723.5000     8.0531   -73.9097     0.0421     2.4655     0.1780    87.2773   -32.6718     8.1172   -51.6871    11.7004    11.5497    11.5752   -35.8215    73.3170
 3724.0000     8.0402   -58.6219     0.0739     2.4678     0.1738    82.3195   -32.3613     8.0879   -43.9646    11.7794    11.5959    11.6528   -29.5794    73.3053
 3724.5000     8.0278   -53.3931     0.1057     2.4890     0.1692    81.4273   -32.3416     8.0586   -43.7496    11.9131    11.7555    11.8953   -30.9594    73.1437
 3725.0000     8.0149   -77.2396     0.1209     2.4944     0.1638    82.0520   -32.0391     8.0595   -43.5345    12.0225    12.0010    12.2272   -32.2821    72.6822
 3725.5000     8.0170   -78.2719     0.1286     2.4975     0.1655    82.0694   -32.0298     8.0603   -43.3183    12.1051    12.0835    12.6559   -41.7994    71.9958
 3726.0000     8.0195   -56.4892     0.1393     2.5029     0.1691    78.4705   -31.7193     8.0914   -58.0658    12.1846    12.2849    13.0995   -58.8112    71.3094
 3726.5000     8.0216   -42.4839     0.1261     2.5038     0.1715    76.6734   -31.7101     8.0921   -65.3583    12.1818    12.3345    13.2795   -81.6260    71.2257
 3727.0000     8.0236   -28.4780     0.1141     2.4987     0.1732    77.5997   -31.7003     8.1231   -72.7046    12.1794    12.1633    13.4617   -97.9638    71.5859
 3727.5000     8.0406   -29.7681     0.1038     2.4973     0.1713    79.7435   -31.6890     8.1239   -79.9433    12.1770    12.1621    13.3661  -106.7940    71.8740
 3728.0000     8.0426   -45.8374     0.0937     2.5004     0.1662    83.9730   -31.6807     8.1548   -87.2372    12.2592    12.0770    12.9083  -115.2935    72.2429
 3728.5000     8.0445   -61.9072     0.0819     2.4953     0.1622    87.0067   -31.6703     8.1558   -86.9671    12.2562    12.0758    12.6303   -71.9019    72.3753
 3729.0000     8.0318   -70.4582     0.0626     2.4856     0.1652    86.7221   -31.8116     8.1717   -86.7520    12.1692    12.0746    12.4632   -50.3714    72.4386
 3729.5000     8.0338   -79.4270     0.0328     2.4783     0.1669    85.8342   -31.9927     8.1724   -84.5253    12.1668    12.0731    12.9897   -74.5474    72.1991
 3730.0000     8.0359   -87.5942     0.0210     2.4904     0.1654    81.9340   -32.6942     8.1580   -71.3070    12.1644    12.0721    14.0159   -84.3374    71.2878
 3730.5000     8.0379   -81.0726     0.0167     2.5070     0.1641    79.5336   -33.4379     8.1433   -71.0920    12.1614    12.2390    14.8120   -62.1778    69.7019
 3731.0000     8.0250   -67.0673     0.0260     2.5139     0.1638    80.4599   -33.7321     8.1148   -55.8559    12.1593    12.2378    14.9121   -48.4855    70.1399
