~VERSION INFORMATION
 VERS.                2.0:   CWLS LOG ASCII STANDARD - VERSION 2.0
 WRAP.                 NO:   ONE LINE PER DEPTH STEP
~WELL INFORMATION
#MNEM.UNIT      DATA TYPE    INFORMATION
#----------   ------------   ------------------------------
 STRT.F         2200.0000:   START DEPTH
 STOP.F         3200.0000:   STOP DEPTH
 STEP.F            0.5000:   STEP LENGTH
 NULL.          -999.2500:   NO VALUE
 COMP.   LAWRENCE ALLISON:   COMPANY
 WELL. LAWRENCE "X" #18-34:   WELL
 FLD .          NPR NO. 3:   FIELD
 LOC .      S34 T39N R78W:   LOCATION
 CNTY.            NATRONA:   COUNTY
 STAT.            WYOMING:   STATE
 CTRY. UNITED STATES OF AMERICA:   COUNTRY
 SRVC.      DRESSER ATLAS:   SERVICE COMPANY
 DATE.        14-MAY-1986:   LOGDATE
 API .     49025110720000:   API NUMBER
~CURVE INFORMATION
#MNEM.UNIT       API CODE    CURVE DESCRIPTION
#----------   ------------   ------------------------------
 DEPT.F                  :   
 CALD.IN     45 280 60 00:   CALIPER FROM DENSITY LOG
 GRD .GAPI   45 310 01 00:   GAMMA RAY FROM DENSITY LOG
 TEND.LBS    45 635 01 00:   TENSION FORM DENSITY LOG
 CORR.G/C3   45 356 01 00:   DENSITY CORRECTION
 DEN .G/C3   45 350 01 00:   BULK DENSITY
 CNC .DEC    42 890 03 00:   NEUTRON POROSITY SANDSTONE
~PARAMETER INFORMATION
#MNEM.UNIT          VALUE    DESCRIPTION
#----------   ------------   ------------------------------
 EKB .F         5192.0000:   Kelly bushing
 EGL .F         5181.0000:   Ground level
 EDF .F         5189.0000:   Drilling floor
 TD  .F         3195.0000:   Total depth
 CLNT.            A2DTECH:   Client Code
 SL  . 722' FWL & 239' FSL:   Surface Location
 PD  .                 GL:   Permanent Datum
 EPD .F              5181:   Elevation Permanent Datum
 LMF .                 KB:   Log Measured From
 DMF .                 KB:   Drilling Measured From
 DAPD.F                11:   Feet Above Permanent Datum
 DATE.        14-MAY-1986:   Date Logged [DD-MMM-YYYY]
 DD  .F              3195:   Depth driller
 DL  .F              3194:   Depth logger
 BLI .F              3192:   Bottom log interval
 TLI .F                 0:   Top log interval
 CS1 .IN            8.625:   Casing size
 CBD1.      8.625" @ 601':   Casing driller 1
 CBL1.F               596:   Casing logger 1
 BS1 .IN            7.875:   Bit size
 BSD1.F              3195:   Depth drilled with bit1
 DFT .        POLYMER-KCL:   Type fluid in hole
 DFD .                  9:   Density
 DFV .                 35:   Viscosity
 DFPH.                9.5:   pH
 DFL .               16.2:   Fluid loss
 MSS .           FLOWLINE:   Source of sample
 RMS .OHMM          0.378:   Rm
 MST .F                65:   Rm Meas. temp.
 RMF .OHMM          0.306:   Rmf
 MFST.F                65:   Rmf Meas. temp.
 MFSS.               MEAS:   Source Rmf.
 RMC .OHMM          0.472:   Rmc
 MCST.F                65:   Rmc Meas. temp.
 MCSS.               CALC:   Source Rmc.
 RMB .OHMM          0.208:   Rm. at BHT
 BHT .F               118:   BHT.
 TCS .HRS               3:   Time Circ. stopped
 MRT .F               118:   Maximum recorded temp.
 LUN .            HL-6274:   Logging unit number
 LUL .           GILLETTE:   Logging unit location
 ENGI.             RAUTIO:   Recorded By
 WITN.             STRONG:   Witnessed by
 ORIG.           5" PRINT:   Origin of data
 UWI .     49025110720000:   Unique Well ID
 DICO. A2D TECHNOLOGIES, INC.:   Digitizing Company
~OTHER INFORMATION
~A  DEPT        CALD      GRD        TEND        CORR        DEN        CNC 
# ...
 3084.0000     8.0109    74.7985   -13.8855    -0.0056     2.3308     0.2478
 3084.5000     8.0107    73.8848     1.5159    -0.0164     2.3232     0.2406
 3085.0000     8.0105    71.4628    16.9173    -0.0178     2.3164     0.2348
 3085.5000     8.0104    66.6274    24.8120    -0.0043     2.3186     0.2315
 3086.0000     8.0102    65.1104    10.1262     0.0077     2.3341     0.2312
 3086.5000     8.0252    68.4177    -4.5477     0.0092     2.3555     0.2304
 3087.0000     8.0250    71.1238    -4.0928     0.0106     2.3584     0.2292
 3087.5000     8.0249    72.6233     3.7897     0.0196     2.3501     0.2310
 3088.0000     8.0398    75.0278    11.6724     0.0332     2.3486     0.2383
 3088.5000     8.0397    81.0523    27.0737     0.0255     2.3515     0.2414
 3089.0000     8.0395    85.5684    19.9188    -0.0002     2.3523     0.2298
 3089.5000     8.0393    85.5578    12.7637     0.0043     2.3446     0.2268
 3090.0000     8.0241    82.4537     5.6088     0.0178     2.3356     0.2359
 3090.5000     8.0391    78.3000     6.0635     0.0057     2.3273     0.2498
 3091.0000     8.0238    76.4813     6.4274    -0.0065     2.3468     0.2577
 3091.5000     8.0237    75.5676    -0.7277    -0.0095     2.3506     0.2529
 3092.0000     8.0235    77.6711    -0.3638    -0.0046     2.3475     0.2481
 3092.5000     8.0234    81.9748    -7.5187     0.0069     2.3610     0.2499
 3093.0000     8.0232    85.4945   -15.6622     0.0084     2.3808     0.2484
 3093.5000     8.0231    88.2007   -29.3475     0.0083     2.4002     0.2475
 3094.0000     8.0078    91.8118   -28.8928     0.0098     2.4145     0.2481
 3094.5000     8.0077   101.1545   -28.5289     0.0218     2.4137     0.2496
 3095.0000     8.0075   108.6872   -24.9717     0.0338     2.4287     0.2533
 3095.5000     8.0074   110.2295   -19.6017     0.0463     2.4362     0.2584
 3096.0000     8.0072   106.8597   -14.2317     0.0246     2.4379     0.2569
 3096.5000     7.9920   102.8610    -8.8616    -0.0071     2.4294     0.2521
 3097.0000     7.9918   102.0134    -4.0929    -0.0132     2.4376     0.2473
 3097.5000     7.9917   101.7030     3.7897    -0.0178     2.4361     0.2416
 3098.0000     7.9915   103.2025    11.6724    -0.0194     2.4436     0.2340
 3098.5000     7.9914   105.9087    19.5549    -0.0210     2.4549     0.2301
 3099.0000     7.9912   108.6148    19.9248    -0.0195     2.4616     0.2307
 3099.5000     7.9911   111.0193    27.8922    -0.0150     2.4631     0.2326
 3100.0000     8.0060   120.0603    28.2561    -0.0076     2.4668     0.2365
 3100.5000     8.0059   126.7643    36.1387    -0.0031     2.4714     0.2441
 3101.0000     8.0057   123.6605    28.8928    -0.0077     2.4728     0.2423
 3101.5000     8.0056   120.3335    20.2846    -0.0183     2.4705     0.2378
 3102.0000     8.0205   118.8186    12.0855    -0.0244     2.4645     0.2363
 3102.5000     8.0354   126.6507     3.8865    -0.0124     2.4630     0.2402
 3103.0000     8.0344   129.3568    -0.0791     0.0027     2.4630     0.2436
 3103.5000     8.0330   130.2534    -7.3059     0.0117     2.4599     0.2439
 3104.0000     8.0325   127.8310   -14.4597     0.0146     2.4591     0.2436
 3104.5000     8.0170   124.7344   -14.1677    -0.0021     2.4683     0.2445
 3105.0000     8.0165   120.5714    -6.3569     0.0075     2.4855     0.2458
 3105.5000     8.0313   119.3560    -6.0650     0.0175     2.5044     0.2476
 3106.0000     8.0158   120.2544     1.7459     0.0219     2.5081     0.2455
 3106.5000     8.0152   120.5472     2.0378     0.0143     2.5013     0.2431
 3107.0000     8.0148   117.8213     2.3309     0.0052     2.4975     0.2480
 3107.5000     8.0143   118.7175     2.6316     0.0006     2.4937     0.2510
 3108.0000     8.0138   121.7253    10.5056    -0.0010     2.4862     0.2465
 3108.5000     8.0133   125.3364    10.7976    -0.0011     2.4839     0.2417
 3109.0000     8.0129   122.2136    11.0896     0.0125     2.4831     0.2393
 3109.5000     8.0125   119.2835    11.3817    -0.0223     2.4801     0.2369
 3110.0000     8.0120   117.7664    11.6736    -0.0526     2.4748     0.2402
 3110.5000     8.0116   117.1543    19.4845    -0.0556     2.4703     0.2457
 3111.0000     8.0262   118.9555    19.7764    -0.0240     2.4650     0.2396
 3111.5000     8.0258   119.8539    27.5940    -0.0029     2.4597     0.2333
 3112.0000     8.0253   119.2396    35.4709     0.0016     2.4612     0.2360
 3112.5000     8.0248   118.6275    35.7630    -0.0106     2.4634     0.2448
 3113.0000     8.0244   119.3308    36.0549    -0.0121     2.4642     0.2476
 3113.5000     8.0239   123.7359    36.3470     0.0018     2.4660     0.2346
 3114.0000     8.0235   124.9359    36.6389     0.0179     2.4762     0.2278
 3114.5000     8.0230   120.4001    29.3391     0.0270     2.4875     0.2243
 3115.0000     8.0226   116.7714    29.7041     0.0103     2.4965     0.2234
 3115.5000     8.0222   118.8742    29.9961     0.0042     2.5003     0.2250
 3116.0000     8.0217   119.5660    22.7692     0.0026     2.4920     0.2301
 3116.5000     8.0212   117.9516    23.1343    -0.0126     2.4837     0.2395
 3117.0000     8.0207   116.1085    30.9450    -0.0277     2.4799     0.2474
 3117.5000     8.0204   115.5208    31.2371    -0.0445     2.4760     0.2492
 3118.0000     8.0199   117.3198    39.0478    -0.0264     2.4746     0.2471
 3118.5000     8.0043   117.3110    61.8963     0.0053     2.4806     0.2499
 3119.0000     8.0039   117.3022    69.7070     0.0083     2.4836     0.2532
 3119.5000     8.0035   117.2934    92.5564     0.0082     2.4821     0.2557
 3120.0000     8.0030   119.6979   100.3760     0.0082     2.4798     0.2566
 3120.5000     8.0026   118.9011   100.7312     0.0111     2.4805     0.2557
 3121.0000     8.0020   117.8581   101.0231     0.0171     2.4858     0.2429
 3121.5000     8.0016   116.6061    93.7234     0.0246     2.4933     0.2303
 3122.0000     8.0011   115.4373    71.5321     0.0308     2.4978     0.2228
 3122.5000     8.0007   114.2219    64.2322     0.0275     2.4940     0.2213
 3123.0000     8.0003   111.7999    49.5489     0.0123     2.4880     0.2213
 3123.5000     7.9998   109.3778    49.8515    -0.0028     2.4850     0.2225
 3124.0000     7.9994   106.6541    42.6248    -0.0120     2.4872     0.2275
 3124.5000     7.9989   108.7572    42.9897     0.0016     2.4887     0.2307
 3125.0000     8.0136   111.7647    50.8006     0.0033     2.4894     0.2253
 3125.5000     8.0130   115.1098    51.0925    -0.0031     2.4902     0.2220
 3126.0000     8.0126   115.6687    51.3846     0.0014     2.4894     0.2214
 3126.5000     8.0122   113.2444    51.6765    -0.0379     2.4849     0.2214
 3127.0000     8.0118   111.7274    51.9685    -0.0305     2.4849     0.2218
 3127.5000     8.0264   110.5119    52.2605    -0.0245     2.4856     0.2271
 3128.0000     8.0108   109.2987    67.5939    -0.0170     2.4856     0.2384
 3128.5000     8.0104   112.6060    60.3632    -0.0110     2.4856     0.2391
 3129.0000     8.0250   116.8204    60.7283    -0.0050     2.4809     0.2385
 3129.5000     8.0094   119.8282    61.0202    -0.0021     2.4757     0.2418
 3130.0000     8.0090   118.0073    76.3499    -0.0021     2.4704     0.2491
 3130.5000     8.0085   118.6018    84.1606    -0.0135     2.4659     0.2509
 3131.0000     8.0081   121.6096    91.9714    -0.0430     2.4598     0.2506
 3131.5000     8.0077   123.4108    99.7822    -0.0340     2.4576     0.2576
 3132.0000     8.0072   122.4970   100.0752    -0.0039     2.4719     0.2613
 3132.5000     8.0068   120.9799    84.3379     0.0142     2.4854     0.2570
 3133.0000     8.0063   120.3679    78.1018     0.0217     2.4900     0.2480
 3133.5000     7.9908   120.6607    78.4669     0.0020     2.4859     0.2432
 3134.0000     7.9903   120.0483    86.2776     0.0034     2.4816     0.2444
 3134.5000     7.9898   119.1327    86.5696     0.0079     2.4809     0.2422
 3135.0000     7.9894   118.5206    86.8616     0.0016     2.4831     0.2378
 3135.5000     7.9889   117.3051    94.6724    -0.0088     2.4906     0.2375
