~VERSION INFORMATION
 VERS.                2.0:   CWLS LOG ASCII STANDARD - VERSION 2.0
 WRAP.                 NO:   ONE LINE PER DEPTH STEP
~WELL INFORMATION
#MNEM.UNIT      DATA TYPE    INFORMATION
#----------   ------------   ------------------------------
 STRT.F          517.0000:   START DEPTH
 STOP.F         3222.0000:   STOP DEPTH
 STEP.F            0.5000:   STEP LENGTH
 NULL.          -999.2500:   NO VALUE
 COMP.    FENIX & SCISSON:   COMPANY
 WELL.  FENIX "TX" #53-33:   WELL
 FLD .             NPR #3:   FIELD
 LOC .      S33 T39N R78W:   LOCATION
 CNTY.            NATRONA:   COUNTY
 STAT.            WYOMING:   STATE
 CTRY. UNITED STATES OF AMERICA:   COUNTRY
 SRVC.              WELEX:   SERVICE COMPANY
 DATE.        24-AUG-1980:   LOGDATE
 API .     49025108460000:   API NUMBER
~CURVE INFORMATION
#MNEM.UNIT       API CODE    CURVE DESCRIPTION
#----------   ------------   ------------------------------
 DEPT.F                  :   
 CALD.IN     45 280 60 00:   CALIPER FROM DENSITY LOG
 GRD .GAPI   45 310 01 00:   GAMMA RAY FROM DENSITY LOG
 CORR.G/C3   45 356 01 00:   DENSITY CORRECTION
 RHOB.G/C3   45 350 01 00:   BULK DENSITY
 SPR .MV     07 010 01 00:   SPONTANEOUS POTENTIAL
 ILD .OHMM   07 120 46 00:   DEEP INDUCTION RESISTIVITY
 ILM .OHMM   07 120 44 00:   INDUCTION LOG MEDIUM RESISTIVITY
 SGRD.OHMM   07 220 05 00:   SHALLOW SHORT GUARD RESISTIVITY
~PARAMETER INFORMATION
#MNEM.UNIT          VALUE    DESCRIPTION
#----------   ------------   ------------------------------
 EKB .F         5173.0000:   Kelly bushing
 EGL .F         5163.0000:   Ground level
 EDF .F            0.0000:   Drilling floor
 EPD .F            0.0000:   Permanent datum
 TD  .F         3224.0000:   Total depth
 CLNT.            A2DTECH:   Client Code
 SL  . 1650' FNL & 2500' FEL:   Surface Location
 PD  .                 GL:   Permanent Datum
 DAPD.F                10:   Feet Above Permanent Datum
 DATE.        24-AUG-1980:   Date Logged [DD-MMM-YYYY]
 DD  .F              3190:   Depth driller
 DL  .F              3224:   Depth logger
 BLI .F              3222:   Bottom log interval
 TLI .F               528:   Top log interval
 CS1 .IN            8.625:   Casing size
 CBD1.      8.625" @ 532':   Casing driller 1
 CBL1.F               528:   Casing logger 1
 BS1 .IN            7.875:   Bit size
 BSD1.F              3190:   Depth drilled with bit1
 DFT .     WATER BASE MUD:   Type fluid in hole
 DFD .                8.8:   Density
 DFV .                 45:   Viscosity
 DFL .                9.4:   Fluid loss
 MSS .            MUD PIT:   Source of sample
 RMS .OHMM           2.10:   Rm
 MST .F                65:   Rm Meas. temp.
 RMF .OHMM           1.68:   Rmf
 MFST.F                65:   Rmf Meas. temp.
 MFSS.               CALC:   Source Rmf.
 RMC .OHMM           2.52:   Rmc
 MCST.F                65:   Rmc Meas. temp.
 MCSS.               CALC:   Source Rmc.
 RMB .OHMM           1.14:   Rm. at BHT
 BHT .F               120:   BHT.
 TCS .HRS               3:   Time Circ. stopped
 MRT .F               120:   Maximum recorded temp.
 LUN .               1892:   Logging unit number
 LUL .             CASPER:   Logging unit location
 ENGI.           WACHTEIL:   Recorded By
 ORIG.         2.5" PRINT:   Origin of data
 UWI .     49025108460000:   Unique Well ID
 DICO. A2D TECHNOLOGIES, INC.:   Digitizing Company
~OTHER INFORMATION
~A   DEPT     CALD         GRD      CORR       RHOB        SPR        ILD        ILM       SGRD   
# ...
 2825.5000    10.2776   103.7910     0.0999     2.5501   -22.9149     3.7148     4.8323     5.1446
 2826.0000    10.2990   103.3284     0.1056     2.5190   -22.9194     3.5127     4.5053     5.0020
 2826.5000    10.2975   106.8085     0.0788     2.4791   -22.9239     3.3216     4.1136     4.7306
 2827.0000    10.2962   112.8652     0.0608     2.4473   -23.0776     3.1847     3.7692     4.4041
 2827.5000    10.2645   118.3924     0.0670     2.4511   -23.2313     3.0059     3.4291     4.1111
 2828.0000    10.2331   124.8500     0.0938     2.4647   -23.2365     2.8027     3.1562     3.8181
 2828.5000    10.2318   131.8786     0.1504     2.4753   -23.5393     2.6310     2.9842     3.5251
 2829.0000    10.2306   138.4452     0.1836     2.4770   -23.5436     2.4456     2.8215     3.2322
 2829.5000    10.2294   145.2654     0.2076     2.4219   -23.5479     2.3170     2.6676     2.9922
 2830.0000    10.2281   149.3208     0.2347     2.4097   -23.8507     2.2143     2.5574     3.5312
 2830.5000    10.2268   149.7628     0.2045     2.3947   -23.8552     2.1662     2.6746     4.2253
 2831.0000    10.2255   148.8474     0.2377     2.3321   -23.8597     2.3376     3.0892     4.7833
 2831.5000    10.2242   143.8501     0.2302     2.3932   -23.8642     2.7209     3.5558     5.9720
 2832.0000    10.2230   130.2399     0.1006     2.5098   -23.5694     3.2559     4.0828     6.3997
 2832.5000    10.2217   115.9058     0.0591     2.5817   -23.5746     3.6355     4.7032     6.5659
 2833.0000    10.2202   108.6740     0.0982     2.5841   -23.4299     3.8405     5.0903     6.5615
 2833.5000    10.1887   108.1307     0.1024     2.5566   -23.2851     4.0601     5.4508     6.5574
 2834.0000    10.1573   112.0989     0.0769     2.5460   -22.9910     4.2922     5.5231     6.5533
 2834.5000    10.1258   115.3747     0.0617     2.5429   -22.6976     4.4768     5.5969     6.5492
 2835.0000    10.0944   116.2274     0.0707     2.5398   -22.7019     4.5884     5.7498     6.5444
 2835.5000    10.0931   115.7628     0.0766     2.5352   -22.7062     4.6720     5.7460     6.5405
 2836.0000    10.0918   115.6686     0.0766     2.5291   -23.0090     4.7397     5.8223     6.5365
 2836.5000    10.0834   117.0966     0.0687     2.5210   -23.0134     4.7748     5.8996     6.5326
 2837.0000    10.0591   117.5376     0.0485     2.5132   -23.0677     4.7716     5.9120     6.5287
 2837.5000    10.0276   116.0588     0.0461     2.5049   -23.3954     4.7691     5.9976     6.5248
 2838.0000    10.0110   114.3533     0.0477     2.4979   -24.0219     4.7665     6.0846     6.6233
 2838.5000     9.9643   116.6016     0.0459     2.5255   -24.2254     4.7642     6.1727     6.7194
 2839.0000     9.9631   116.2695     0.0579     2.5621   -24.2298     4.7615     6.3005     6.8169
 2839.5000     9.9317   114.5700     0.0699     2.5833   -23.9358     4.7589     6.3840     6.8800
 2840.0000     9.9002   114.0963     0.0879     2.5772   -23.9410     4.7563     6.3790     6.8750
 2840.5000     9.8688   115.6493     0.0939     2.5528   -23.6468     4.7537     6.3747     6.9665
 2841.0000     9.9294   116.5421     0.0908     2.5497   -23.6511     4.7510     6.3705     7.0593
 2841.5000     9.9570   118.3385     0.0811     2.5527   -23.3569     4.7484     6.3663     7.0543
 2842.0000     9.9859   118.7801     0.0719     2.5587   -23.3612     4.7458     6.2744     7.1484
 2842.5000    10.0149   118.7687     0.0740     2.5633   -23.0670     4.7432     6.2549     7.0458
 2843.0000    10.0134   118.2393     0.0846     2.5682   -23.0716     4.7405     6.1795     6.8493
 2843.5000    10.0122   116.4872     0.0947     2.5726   -23.0761     4.7374     6.0609     6.8392
 2844.0000     9.9804   116.9291     0.0932     2.5772   -23.1800     4.6698     5.9660     6.7330
 2844.5000     9.9792   115.8576     0.0961     2.5748   -23.3836     4.6031     5.7123     6.6285
 2845.0000     9.9477   114.6461     0.0969     2.5614   -23.3881     4.4750     5.6703     6.4640
 2845.5000     9.9465   115.5596     0.0930     2.5478   -23.6919     4.2905     5.7456     6.4600
 2846.0000     9.9453   117.7841     0.0838     2.5278   -23.6962     4.2292     5.9030     6.5893
 2846.5000     9.9440   120.0323     0.0807     2.5263   -23.7005     4.2269     5.9816     6.9290
 2847.0000     9.9389   120.9251     0.0739     2.5262   -24.0033     4.2356     6.3179     7.2035
 2847.5000     9.9113   121.8179     0.0636     2.5246   -24.3061     4.4177     6.4121     7.1984
 2848.0000     9.9007   123.6143     0.0523     2.5215   -24.3104     4.5443     6.6823     7.6039
 2848.5000     9.8785   124.5071     0.0459     2.5131   -24.6383     4.6746     6.9695     8.0323
 2849.0000     9.8625   122.9314     0.0394     2.5047   -24.9164     4.8086     7.1691     8.3680
 2849.5000     9.7981   120.6501     0.0422     2.5092   -24.9954     4.9741     7.3744     8.7376
 2850.0000     9.7234   117.3946     0.0317     2.5041   -25.5224     5.0408     7.5856     8.9778
 2850.5000     9.6919   114.5218     0.0309     2.5064   -25.8254     5.2518     7.7382     9.0768
 2851.0000     9.6907   114.0587     0.0376     2.5189   -25.8298     5.3222     7.8418     9.0705
 2851.5000     9.6895   114.4993     0.0466     2.5332   -25.8343     5.5451     7.9450     9.1380
 2852.0000     9.6572   114.0345     0.0496     2.5256   -25.8395     5.6194     8.0505     8.9346
 2852.5000     9.6230   112.6683     0.0482     2.5179   -25.8438     5.8547     8.0451     8.9279
 2853.0000     9.5648   110.8502     0.0372     2.5194   -25.5493     5.9451     8.0397     8.7999
 2853.5000     9.5635   110.8230     0.0511     2.5239   -24.9569     6.0219     8.0341     8.7242
 2854.0000     9.5320   111.7559     0.0594     2.5269   -24.6627     6.0933     8.0286     8.6689
 2854.5000     9.5005   112.6892     0.0611     2.5268   -24.6672     6.0895     8.1357     8.6633
 2855.0000     9.4690   114.0739     0.0580     2.5267   -24.6716     6.0024     8.1293     8.6561
 2855.5000     9.4373   115.1524     0.0549     2.5248   -24.9746     5.9991     8.0709     8.5337
 2856.0000     9.4361   116.3915     0.0548     2.5226   -24.9791     5.9127     8.0064     8.5065
 2856.5000     9.4349   117.7762     0.0547     2.5199   -25.4065     5.8282     7.8899     8.4058
 2857.0000     9.4336   118.4391     0.0516     2.5197   -26.0330     5.7450     7.7762     8.4006
 2857.5000     9.4324   119.3319     0.0422     2.5326   -26.3606     5.7420     7.7710     8.6179
 2858.0000     9.4311   119.3211     0.0393     2.5492   -27.3858     5.8189     7.7659     9.0661
 2858.5000     9.4298   118.4066     0.0574     2.5537   -28.2856     5.8158     8.0907     9.4969
 2859.0000     9.3810   117.4922     0.0745     2.5567   -29.7824     5.9024     9.0430     9.7578
 2859.5000     9.2950   116.0861     0.0636     2.5323   -30.9808     5.9881     9.1518     9.8886
 2860.0000     9.2306   114.6990     0.0601     2.5337   -32.1791     6.1597     9.1449    10.1596
 2860.5000     9.1830   113.5412     0.0721     2.5399   -33.7720     6.3672     8.9689    10.4389
 2861.0000     9.1815   111.0077     0.0750     2.5374   -35.1735     6.6483     8.8828    11.0380
 2861.5000     9.1803   107.6707     0.0719     2.5320   -36.9688     6.9420     8.8117    11.7285
 2862.0000     9.1790   103.4380     0.0658     2.5315   -39.3612     7.5364    11.3805    13.1571
 2862.5000     9.1778    99.7907     0.0687     2.5298   -41.8169     8.0725    13.8066    15.4516
 2863.0000     9.1158    96.1654     0.0843     2.5265   -43.4000     8.6467    15.6291    17.6920
 2863.5000     8.9882    92.5401     0.0969     2.5239   -44.9831    10.2047    18.1891    22.2124
 2864.0000     8.9267    85.3004     0.1017     2.4846   -46.5661    13.6422    22.6863    30.2670
 2864.5000     8.8925    80.3197     0.0842     2.4405   -48.3393    16.5525    26.1293    42.6555
 2865.0000     8.8583    74.3592     0.0818     2.4358   -50.1347    19.6091    29.2541    41.4653
 2865.5000     8.8076    69.9114     0.1129     2.4305   -52.2285    21.9468    30.7065    39.7539
