~VERSION INFORMATION
 VERS.                2.0:   CWLS LOG ASCII STANDARD - VERSION 2.0
 WRAP.                 NO:   ONE LINE PER DEPTH STEP
~WELL INFORMATION
#MNEM.UNIT      DATA TYPE    INFORMATION
#----------   ------------   ------------------------------
 STRT.F           48.0000:   START DEPTH
 STOP.F         3235.5000:   STOP DEPTH
 STEP.F            0.5000:   STEP LENGTH
 NULL.          -999.2500:   NO VALUE
 COMP.    TESORO PEROLEUM:   COMPANY
 WELL. TESORO P46 T 28 N.P.R. #3-28:   WELL
 FLD .        TEAPOT DOME:   FIELD
 LOC .      S28 T39N R78W:   LOCATION
 CNTY.            NATRONA:   COUNTY
 STAT.            WYOMING:   STATE
 CTRY. UNITED STATES OF AMERICA:   COUNTRY
 SRVC.      DRESSER ATLAS:   SERVICE COMPANY
 DATE.        17-SEP-1975:   LOGDATE
 API .     49025102530000:   API NUMBER
~CURVE INFORMATION
#MNEM.UNIT       API CODE    CURVE DESCRIPTION
#----------   ------------   ------------------------------
 DEPT.F                  :   
 CALD.IN     45 280 60 00:   CALIPER FROM DENSITY LOG
 RHOB.G/C3   45 350 01 00:   BULK DENSITY
 CORR.G/C3   45 356 01 00:   DENSITY CORRECTION
 TEND.LBS    45 635 01 00:   TENSION FORM DENSITY LOG
 NPHI.DEC    42 890 03 00:   NEUTRON POROSITY SANDSTONE
 SPR .MV     07 010 01 00:   SPONTANEOUS POTENTIAL
 ILD .OHMM   07 120 46 00:   DEEP INDUCTION RESISTIVITY
 ILM .OHMM   07 120 44 00:   INDUCTION LOG MEDIUM RESISTIVITY
 SFL .OHMM   07 220 01 00:   SHALLOW FOCUSED LOG RESISTIVITY
 GRD .GAPI   45 310 01 00:   GAMMA RAY FROM DENSITY LOG
~PARAMETER INFORMATION
#MNEM.UNIT          VALUE    DESCRIPTION
#----------   ------------   ------------------------------
 EKB .F         5088.0000:   Kelly bushing
 EGL .F         5075.0000:   Ground level
 TD  .F         3218.0000:   Total depth
 CLNT.            A2DTECH:   Client Code
 SL  . 2310' FWL & 1650' FSL:   Surface Location
 PD  .                 GL:   Permanent Datum
 EPD .F              5075:   Elevation Permanent Datum
 LMF .                 KB:   Log Measured From
 DMF .                 KB:   Drilling Measured From
 DAPD.F                13:   Feet Above Permanent Datum
 DATE.        17-SEP-1975:   Date Logged [DD-MMM-YYYY]
 DD  .F              3218:   Depth driller
 DL  .F              3217:   Depth logger
 BLI .F              3215:   Bottom log interval
 TLI .F               395:   Top log interval
 CS1 .IN            8.625:   Casing size
 CBD1.      8.625" @ 393':   Casing driller 1
 CBL1.F               395:   Casing logger 1
 BS1 .IN            7.875:   Bit size
 BSD1.F              3218:   Depth drilled with bit1
 DFT .           CHEM GEL:   Type fluid in hole
 DFD .                9.5:   Density
 DFV .                 60:   Viscosity
 DFPH.                9.5:   pH
 DFL .                 11:   Fluid loss
 MSS .           FLOWLINE:   Source of sample
 RMS .OHMM           0.55:   Rm
 MST .F                60:   Rm Meas. temp.
 RMF .OHMM           0.48:   Rmf
 MFST.F                62:   Rmf Meas. temp.
 MFSS.               MEAS:   Source Rmf.
 RMC .OHMM            1.6:   Rmc
 MCST.F                62:   Rmc Meas. temp.
 MCSS.               MEAS:   Source Rmc.
 RMB .OHMM            0.3:   Rm. at BHT
 BHT .F               112:   BHT.
 TCS .HRS               5:   Time Circ. stopped
 MRT .F               112:   Maximum recorded temp.
 LUN .               6008:   Logging unit number
 LUL .              GLTTE:   Logging unit location
 ENGI.            MILHOAN:   Recorded By
 WITN.               WOLF:   Witnessed by
 ORIG.           5" PRINT:   Origin of data
 UWI .     49025102530000:   Unique Well ID
 DICO. A2DTECHNOLOGIES,INC.:   Digitizing Company
~OTHER INFORMATION
~A   DEPT     CALD       RHOB       CORR       TEND       NPHI         SPR         ILD        ILM        SFL      GRD   
# ...
 2728.0000     9.4075     2.5931     0.0161  1486.3555     0.2930   -25.3921     5.6297     5.6133     5.9060    87.6234
 2728.5000     9.4095     2.5940     0.0162  1484.8882     0.2909   -25.2345     5.5543     5.5384     5.8271    86.4355
 2729.0000     9.3814     2.5979     0.0164  1483.3835     0.2848   -25.0769     5.5189     5.5407     6.0788    85.5256
 2729.5000     9.3731     2.6032     0.0166  1481.8728     0.2806   -25.0680     5.5612     5.5046     6.4328    85.0840
 2730.0000     9.3853     2.6041     0.0167  1480.3623     0.2830   -25.0592     5.5643     5.5070     6.4275    85.1145
 2730.5000     9.3873     2.6027     0.0169  1478.6501     0.2899   -24.9016     5.6452     5.5093     6.0698    84.4254
 2731.0000     9.3892     2.5982     0.0171  1492.6548     0.2898   -24.7440     5.6085     5.5116     5.7603    83.7287
 2731.5000     9.3915     2.5931     0.0172  1490.9366     0.2898   -24.7313     5.6120     5.5523     5.9911    83.2795
 2732.0000     9.3934     2.5909     0.0174  1489.4259     0.2907   -24.4286     5.6154     5.6325     6.6288    84.0373
 2732.5000     9.3953     2.5963     0.0160  1487.8850     0.2922   -24.4196     5.6577     5.6348     6.4489    85.9869
 2733.0000     9.3972     2.5964     0.0163  1501.5104     0.2966   -24.5872     5.6608     5.6372     6.2319    86.7371
 2733.5000     9.3989     2.5881     0.0164  1500.0001     0.2936   -24.6999     5.7431     5.6395     6.1060    87.2474
 2734.0000     9.4010     2.5798     0.0151  1498.5873     0.2899   -24.9865     5.8267     5.7273     6.0244    87.5178
 2734.5000     9.4029     2.5771     0.0152  1512.2256     0.2848   -24.9777     5.8299     5.8445     5.9439    87.8085
 2735.0000     9.4048     2.5757     0.0139  1510.3905     0.2799   -25.1177     5.8331     5.8877     5.9048    88.2999
 2735.5000     9.4217     2.5705     0.0125  1524.1693     0.2832   -25.2599     5.8770     5.8901     5.9912    88.3368
 2736.0000     9.4237     2.5654     0.0127  1522.6584     0.2874   -25.5465     5.8802     5.8926     6.2937    87.8799
 2736.5000     9.4300     2.5639     0.0129  1521.0934     0.2892   -25.5377     5.8427     5.8950     6.4747    87.4307
 2737.0000     9.4429     2.5671     0.0145  1519.6252     0.2913   -25.8265     5.7653     5.8975     6.4778    87.0602
 2737.5000     9.4448     2.5747     0.0150  1548.3385     0.2933   -25.8177     5.7685     5.8999     6.3913    87.3163
 2738.0000     9.4313     2.5823     0.0179  1546.5343     0.2948   -25.8089     5.6920     5.9023     6.3051    88.2889
 2738.5000     9.4337     2.5884     0.0181  1545.3174     0.2968   -25.5025     5.6166     5.8226     6.2209    88.7795
 2739.0000     9.4056     2.5908     0.0167  1543.5989     0.2992   -25.4937     5.5421     5.7445     6.1377    86.6519
 2739.5000     9.3775     2.5909     0.0154  1542.0084     0.3019   -25.1872     5.4687     5.6270     6.0563    87.8633
 2740.0000     9.3793     2.5842     0.0155  1540.6633     0.2955   -24.8808     5.3962     5.5686     5.9755    88.8358
 2740.5000     9.3813     2.5813     0.0157  1539.1952     0.3057   -24.8720     5.3247     5.4409     5.9784    89.3313
 2741.0000     9.3982     2.5784     0.0159  1537.7644     0.3108   -24.5655     5.2541     5.3679     5.9813    88.6360
 2741.5000     9.4001     2.5732     0.0156  1536.2539     0.3189   -24.5565     5.1137     5.2954     5.9426    88.4102
 2742.0000     9.4021     2.5696     0.0147  1534.7430     0.3173   -24.5476     5.0452     5.1887     5.9043    90.3423
 2742.5000     9.4040     2.5696     0.0139  1532.9573     0.3128   -24.5369     4.9446     5.0831     5.8254    92.0313
 2743.0000     9.4064     2.5712     0.0135  1531.4899     0.3131   -24.5281     4.8790     4.9462     5.8282    89.8994
 2743.5000     9.4233     2.5691     0.0137  1530.2118     0.3197   -24.8191     4.8473     4.8798     5.7388    89.9167
 2744.0000     9.4252     2.5669     0.0121  1528.5544     0.3061   -24.8081     4.8506     4.8480     5.6269    90.9214
 2744.5000     9.4271     2.5685     0.0110  1527.1904     0.3085   -24.9503     4.8533     4.8839     5.5202    94.4930
 2745.0000     9.4135     2.5694     0.0092  1525.6798     0.3066   -25.0903     4.8559     4.8859     5.3717    92.8387
 2745.5000     9.4159     2.5687     0.0083  1535.3123     0.3084   -25.0793     4.8586     4.9222     5.0830    94.2889
 2746.0000     9.4176     2.5583     0.0067  1538.7671     0.3096   -25.0705     4.8952     4.9585     4.9451    95.5002
 2746.5000     9.4195     2.5486     0.0043  1551.4269     0.3059   -25.0617     4.9664     4.9606     5.3795    93.8459
 2747.0000     9.4214     2.5472     0.0028  1549.5917     0.3059   -25.0529     5.0037     5.0322     5.7705    93.1145
 2747.5000     9.4233     2.5511    -0.0001  1563.5970     0.3107   -25.1929     5.0765     5.0747     5.9364    92.9254
 2748.0000     9.4252     2.5587     0.0001  1561.7620     0.3040   -25.3351     5.1504     5.1785     5.9801    91.1761
 2748.5000     9.4271     2.5618    -0.0013  1560.2946     0.3067   -25.3241     5.1891     5.2536     5.9414    87.9494
 2749.0000     9.4289     2.5634    -0.0011  1558.9125     0.3076   -25.3152     5.2282     5.2558     5.9450    87.7236
 2749.5000     9.4308     2.5635    -0.0009  1557.3591     0.3009   -25.3064     5.3042     5.2580     6.0313    88.2229
 2750.0000     9.4327     2.5696    -0.0008  1555.8910     0.2919   -25.0000     5.3441     5.2602     6.2048    88.0014
 2750.5000     9.4346     2.5720     0.0009  1554.3809     0.2991   -24.8423     5.3844     5.3361     6.1647    86.5816
 2751.0000     9.4365     2.5704     0.0013  1552.5885     0.2969   -24.6845     5.4627     5.3383     6.0394    88.0361
 2751.5000     9.4384     2.5707     0.0024  1551.1212     0.2888   -24.6756     5.4704     5.4153     6.0430    87.5443
 2752.0000     9.4402     2.5700     0.0034  1534.6915     0.2909   -24.3673     5.5515     5.4934     6.0459    86.8767
 2752.5000     9.4421     2.5641     0.0045  1532.7236     0.2923   -24.3585     5.6658     5.5727     5.9650    88.5700
 2753.0000     9.4440     2.5558     0.0055  1530.7556     0.2869   -24.2009     5.7883     5.6531     6.0518    88.8262
 2753.5000     9.4459     2.5634     0.0066  1528.7877     0.2838   -24.1921     5.8725     5.7747     6.1396    88.1271
 2754.0000     9.4477     2.5680     0.0076  1526.8198     0.2898   -24.1833     5.8758     5.8174     6.3162    86.9504
 2754.5000     9.4495     2.5711     0.0084  1524.8519     0.2859   -24.1745     5.8790     5.9014     6.4079    85.5349
 2755.0000     9.4513     2.5757     0.0101  1522.8840     0.2819   -24.1656     5.8822     5.9865     6.3223    87.2239
 2755.5000     9.4531     2.5795     0.0103  1520.9161     0.2789   -24.1568     5.8855     5.9890     6.4142    86.1910
 2756.0000     9.4549     2.5789     0.0135  1518.6978     0.2782   -24.3692     5.8887     5.8271     6.5074    83.4377
 2756.5000     9.4567     2.5713     0.0152  1516.9303     0.2782   -24.3656     5.7130     5.6694     6.5559    84.4145
 2757.0000     9.4585     2.5661     0.0169  1515.1637     0.2818   -24.3627     5.5940     5.5161     6.3729    86.1035
 2757.5000     9.4603     2.5671     0.0171  1513.5948     0.2875   -24.3598     5.3724     5.2929     6.2003    88.2715
 2758.0000     9.4621     2.5717     0.0142  1511.7822     0.2995   -24.6552     5.1549     5.1141     5.7854    90.9157
 2758.5000     9.4639     2.5763     0.0114  1509.8623     0.3052   -24.8004     5.0149     4.9413     5.3983    89.9779
 2759.0000     9.4657     2.5786     0.0116  1508.1573     0.3082   -24.9464     4.8791     4.8750     5.2888    89.5132
 2759.5000     9.4675     2.5689     0.0087  1506.3442     0.3082   -25.0923     4.8812     4.8097     5.3280    90.2513
 2760.0000     9.4693     2.5645     0.0059  1504.5316     0.2999   -25.0893     4.8829     4.8791     5.4055    89.7910
 2760.5000     9.4711     2.5661     0.0045  1502.7191     0.2941   -24.9375     4.9529     4.9894     5.4836    85.5099
 2761.0000     9.4729     2.5692     0.0032  1500.5850     0.2870   -24.7852     5.0239     5.2354     5.5628    87.6808
