~VERSION INFORMATION
 VERS.                2.0:   CWLS LOG ASCII STANDARD - VERSION 2.0
 WRAP.                 NO:   ONE LINE PER DEPTH STEP
~WELL INFORMATION
#MNEM.UNIT      DATA TYPE    INFORMATION
#----------   ------------   ------------------------------
 STRT.F            7.0000:   START DEPTH
 STOP.F         3304.0000:   STOP DEPTH
 STEP.F            0.5000:   STEP LENGTH
 NULL.          -999.2500:   NO VALUE
 COMP. LAWRENCE ALLISON ASSOC. WEST:   COMPANY
 WELL. LAWRENCE NPR  "X" #18-2:   WELL
 FLD .              N P R:   FIELD
 LOC .       S2 T38N R78W:   LOCATION
 CNTY.            NATRONA:   COUNTY
 STAT.            WYOMING:   STATE
 CTRY. UNITED STATES OF AMERICA:   COUNTRY
 SRVC.      DRESSER ATLAS:   SERVICE COMPANY
 DATE.        28-APR-1986:   LOGDATE
 API .     49025110710000:   API NUMBER
~CURVE INFORMATION
#MNEM.UNIT       API CODE    CURVE DESCRIPTION
#----------   ------------   ------------------------------
 DEPT.F                  :   
 TEND.LBS    45 635 01 00:   TENSION FROM DENSITY LOG
 DEN .G/C3   45 635 01 00:   DENSITY
 CORR.G/C3   45 356 01 00:   DENSITY CORRECTION
 CNC .DEC    42 890 03 00:   NEUTRON PORISITY SANDSTONE
 TENR.LBS    07 635 01 00:   TENSION FROM RESISTIVITY
 CALR.IN     07 280 01 00:   CALIPER FROM RESISTIVITY
 SPR .MV     07 010 01 00:   SPONTANEOUS POTENTIAL
 GRR .GAPI   07 310 01 00:   GAMMA RAY FROM RESISTIVITY
 RFOC.OHMM   07 220 04 00:   RESISTIVITY FOCUSED LOG RES.
 RILD.OHMM   07 120 46 00:   DEEP INDUCTION RESISTIVITY
 RILM.OHMM   07 120 44 00:   INDUCTION LOG MEDIUM RESISTIVITY
 TENS.LBS    60 635 01 00:   TENSION
 AC  .US/F   60 250 00 00:   ACCOUSTIC
~PARAMETER INFORMATION
#MNEM.UNIT          VALUE    DESCRIPTION
#----------   ------------   ------------------------------
 EKB .F         5142.0000:   Kelly bushing
 EGL .F         5130.0000:   Ground level
 EDF .F            0.0000:   Drilling floor
 EPD .F         5130.0000:   Permanent datum
 TD  .F         3296.0000:   Total depth
 DATE.        28-APR-1986:   Date logged
 CLNT.            A2DTECH:   Client Code
 SL  . 210' FSL & 204' FWL:   Surface Location
 PD  .                 GL:   Permanent Datum
 DD  .F              3295:   Depth driller
 DL  .F              3290:   Depth logger
 BLI .F              3296:   Bottom log interval
 CS1 .IN            8.625:   Casing size
 CBD1.      8.625" @ 563':   Casing driller 1
 CBL1.F               560:   Casing logger 1
 BS1 .IN            7.875:   Bit size
 BSD1.F              3295:   Depth drilled with bit1
 DFT .        POLYMER KCL:   Type fluid in hole
 DFD .                8.9:   Density
 DFV .                 38:   Viscosity
 DFPH.                8.5:   pH
 DFL .                9.2:   Fluid loss
 MSS .           FLOWLINE:   Source of sample
 RMS .OHMM           .435:   Rm
 MST .F                74:   Rm Meas. temp.
 RMF .OHMM            .33:   Rmf
 MFST.F                74:   Rmf Meas. temp.
 RMC .OHMM            .54:   Rmc
 MCST.F                74:   Rmc Meas. temp.
 MFSS.               CALC:   Source Rmf.
 MCSS.               CALC:   Source Rmc.
 RMB .OHMM            .77:   Rm. at BHT
 BHT .F               119:   BHT.
 TCS .HRS               4:   Time Circ. stopped
 MRT .F               119:   Maximum recorded temp.
 LUN .            HL 6264:   Logging unit number
 LUL .           GILLETTE:   Logging unit location
 ENGI.      P.M. FAHLSING:   Recorded By
 WITN.             STRONG:   Witnessed by
 ORIG.         2.5" PRINT:   Origin of data
 UWI .     49025110710000:   Unique Well ID
 DICO. A2D TECHNOLOGIES, INC.:   Digitizing Company
 DAPD.                 12:   Feet Above Permanent Datum
~OTHER INFORMATION
~A    DEPT    TEND        DEN       CORR        CNC       TENR       CALR        SPR         GRR      RFOC       RILD       RILM       TENS         AC   
# ...
 1853.0000  -999.2500  -999.2500  -999.2500  -999.2500   -84.4600    11.4710   -38.7020   102.4280     6.6820     5.6650     5.8450  -999.2500  -999.2500
 1853.5000  -999.2500  -999.2500  -999.2500  -999.2500   -85.2440    11.4900   -39.0140   101.0550     6.1750     5.4640     5.6460  -999.2500  -999.2500
 1854.0000  -999.2500  -999.2500  -999.2500  -999.2500   -86.0290    11.4790   -39.3180   104.0730     5.5990     5.2640     5.4460  -999.2500  -999.2500
 1854.5000  -999.2500  -999.2500  -999.2500  -999.2500   -86.8130    11.4700   -39.5850   109.0730     5.9150     5.0630     5.2470  -999.2500  -999.2500
 1855.0000  -999.2500  -999.2500  -999.2500  -999.2500   -87.5970    11.4610   -39.9710   109.4880     6.2800     4.7590     5.0240  -999.2500  -999.2500
 1855.5000  -999.2500  -999.2500  -999.2500  -999.2500   -88.3820    11.4550   -39.9820   108.1480     6.4690     4.7900     5.0240  -999.2500  -999.2500
 1856.0000  -999.2500  -999.2500  -999.2500  -999.2500   -89.1660    11.4310   -40.4040   106.1250     6.2170     4.8550     5.1360  -999.2500  -999.2500
 1856.5000  -999.2500  -999.2500  -999.2500  -999.2500   -89.9500    11.3910   -40.7290   103.9690     5.5990     4.9190     5.2400  -999.2500  -999.2500
 1857.0000  -999.2500  -999.2500  -999.2500  -999.2500   -90.7350    11.3560   -40.7150   102.4860     5.6600     4.9840     5.3430  -999.2500  -999.2500
 1857.5000  -999.2500  -999.2500  -999.2500  -999.2500   -91.5190    11.3180   -40.6760   101.9450     5.8560     5.0490     5.4470  -999.2500  -999.2500
 1858.0000  -999.2500  -999.2500  -999.2500  -999.2500   -92.3030    11.2890   -40.6240   101.8920     6.1240     5.1130     5.5500  -999.2500  -999.2500
 1858.5000  -999.2500  -999.2500  -999.2500  -999.2500   -93.0870    11.3300   -40.5820   103.1480     6.9540     5.1780     5.5990  -999.2500  -999.2500
 1859.0000  -999.2500  -999.2500  -999.2500  -999.2500   -93.8720    11.3630   -40.5360   105.7850     6.8300     5.2430     5.5940  -999.2500  -999.2500
 1859.5000  -999.2500  -999.2500  -999.2500  -999.2500   -94.6560    11.3880   -40.4920   108.2750     6.4680     5.3070     5.5810  -999.2500  -999.2500
 1860.0000  -999.2500  -999.2500  -999.2500  -999.2500   -95.4400    11.4120   -40.4450   110.6830     6.1060     5.3720     5.5680  -999.2500  -999.2500
 1860.5000  -999.2500  -999.2500  -999.2500  -999.2500   -96.2250    11.4390   -40.3980   113.1650     5.8050     5.4000     5.5540  -999.2500  -999.2500
 1861.0000  -999.2500  -999.2500  -999.2500  -999.2500   -97.0090    11.4550   -40.3690   112.9410     6.0140     5.3600     5.5410  -999.2500  -999.2500
 1861.5000  -999.2500  -999.2500  -999.2500  -999.2500   -97.7930    11.4470   -40.2250   111.7320     6.1280     5.3260     5.5280  -999.2500  -999.2500
 1862.0000  -999.2500  -999.2500  -999.2500  -999.2500   -98.5780    11.4370   -39.9610   112.9500     6.1280     5.2920     5.5140  -999.2500  -999.2500
 1862.5000  -999.2500  -999.2500  -999.2500  -999.2500   -99.3620    11.4280   -39.7090   114.5640     6.2390     5.2580     5.4990  -999.2500  -999.2500
 1863.0000  -999.2500  -999.2500  -999.2500  -999.2500  -100.1460    11.4130   -39.4750   114.2090     6.4690     5.2240     5.4000  -999.2500  -999.2500
 1863.5000  -999.2500  -999.2500  -999.2500  -999.2500  -100.9310    11.4510   -39.1940   113.1460     6.4200     5.1890     5.2490  -999.2500  -999.2500
 1864.0000  -999.2500  -999.2500  -999.2500  -999.2500  -101.7150    11.5120   -39.1760   112.1720     6.1930     5.1550     5.0990  -999.2500  -999.2500
 1864.5000  -999.2500  -999.2500  -999.2500  -999.2500  -102.4990    11.5480   -39.1690   110.8050     5.8050     5.1150     4.9490  -999.2500  -999.2500
 1865.0000  -999.2500  -999.2500  -999.2500  -999.2500  -102.6500    11.5880   -39.1770   109.5310     5.8050     4.9540     4.7990  -999.2500  -999.2500
 1865.5000  -999.2500  -999.2500  -999.2500  -999.2500  -101.9820    11.6280   -39.1730   106.6400     5.8050     4.7610     4.6500  -999.2500  -999.2500
 1866.0000  -999.2500  -999.2500  -999.2500  -999.2500  -101.3140    11.6680   -39.1700   103.9330     5.7170     4.5680     4.5000  -999.2500  -999.2500
 1866.5000  -999.2500  -999.2500  -999.2500  -999.2500  -100.6470    11.7090   -39.1870   101.2100     5.5990     4.3750     4.3500  -999.2500  -999.2500
 1867.0000  -999.2500  -999.2500  -999.2500  -999.2500   -99.9790    11.7380   -39.0500    98.4200     5.5400     4.1820     4.2700  -999.2500  -999.2500
 1867.5000  -999.2500  -999.2500  -999.2500  -999.2500   -99.3110    11.7620   -38.7500    95.9940     5.1070     4.1190     4.2700  -999.2500  -999.2500
 1868.0000  -999.2500  -999.2500  -999.2500  -999.2500   -98.6430    11.7250   -38.5050    98.2060     4.5270     4.1580     4.2700  -999.2500  -999.2500
 1868.5000  -999.2500  -999.2500  -999.2500  -999.2500   -97.9760    11.6180   -38.0720   104.6580     4.2700     4.2400     4.3130  -999.2500  -999.2500
 1869.0000  -999.2500  -999.2500  -999.2500  -999.2500   -97.3080    11.5230   -37.5520   105.0850     4.6600     4.3220     4.4580  -999.2500  -999.2500
 1869.5000  -999.2500  -999.2500  -999.2500  -999.2500   -96.6400    11.4210   -37.0400   102.0490     5.4400     4.4030     4.6030  -999.2500  -999.2500
 1870.0000  -999.2500  -999.2500  -999.2500  -999.2500   -95.9720    11.4170   -36.7160    96.8260     6.1280     4.4850     4.8460  -999.2500  -999.2500
 1870.5000  -999.2500  -999.2500  -999.2500  -999.2500   -95.3050    11.4540   -36.3190    94.0430     5.9750     4.5080     4.7980  -999.2500  -999.2500
 1871.0000  -999.2500  -999.2500  -999.2500  -999.2500   -94.6370    11.4910   -35.8120    95.3220     5.7010     4.5080     4.6510  -999.2500  -999.2500
 1871.5000  -999.2500  -999.2500  -999.2500  -999.2500   -93.9690    11.5270   -35.4220    95.9100     5.3870     4.5900     4.5040  -999.2500  -999.2500
 1872.0000  -999.2500  -999.2500  -999.2500  -999.2500   -93.3020    11.5640   -34.9990   100.6410     5.1110     4.5900     4.3580  -999.2500  -999.2500
 1872.5000  -999.2500  -999.2500  -999.2500  -999.2500   -92.6340    11.6000   -34.6700   103.6390     4.9340     4.3170     4.2110  -999.2500  -999.2500
 1873.0000  -999.2500  -999.2500  -999.2500  -999.2500   -91.9660    11.6370   -33.9250    99.9110     4.9700     4.0630     4.0640  -999.2500  -999.2500
 1873.5000  -999.2500  -999.2500  -999.2500  -999.2500   -91.2980    11.6750   -33.8100    96.3080     5.0240     3.8090     3.9170  -999.2500  -999.2500
 1874.0000  -999.2500  -999.2500  -999.2500  -999.2500   -90.6310    11.6900   -34.3410    93.3910     4.9340     3.5550     3.7710  -999.2500  -999.2500
 1874.5000  -999.2500  -999.2500  -999.2500  -999.2500   -89.9630    11.6810   -34.4470    93.3280     3.8320     3.5010     3.6240  -999.2500  -999.2500
 1875.0000  -999.2500  -999.2500  -999.2500  -999.2500   -89.2950    11.6750   -34.4570    93.1910     4.2910     3.5010     3.5650  -999.2500  -999.2500
 1875.5000  -999.2500  -999.2500  -999.2500  -999.2500   -88.6270    11.6680   -34.4800    91.4900     4.9340     3.4530     3.5650  -999.2500  -999.2500
 1876.0000  -999.2500  -999.2500  -999.2500  -999.2500   -87.9600    11.6620   -35.4080    88.8150     4.8140     3.4380     3.6060  -999.2500  -999.2500
 1876.5000  -999.2500  -999.2500  -999.2500  -999.2500   -87.2920    11.6540   -36.4510    88.5020     4.2700     3.4380     3.6480  -999.2500  -999.2500
 1877.0000  -999.2500  -999.2500  -999.2500  -999.2500   -86.6240    11.6480   -36.9200    89.9460     4.1940     3.5230     3.6960  -999.2500  -999.2500
 1877.5000  -999.2500  -999.2500  -999.2500  -999.2500   -85.9570    11.5960   -37.2350    95.8570     4.4270     3.6050     3.8320  -999.2500  -999.2500
 1878.0000  -999.2500  -999.2500  -999.2500  -999.2500   -85.2890    11.5310   -37.2630   102.5740     5.0010     3.6880     3.9010  -999.2500  -999.2500
 1878.5000  -999.2500  -999.2500  -999.2500  -999.2500   -84.6210    11.4660   -37.4410   108.8460     5.3030     3.7710     4.0450  -999.2500  -999.2500
