~VERSION INFORMATION
 VERS.                2.0:   CWLS LOG ASCII STANDARD - VERSION 2.0
 WRAP.                 NO:   ONE LINE PER DEPTH STEP
~WELL INFORMATION
#MNEM.UNIT      DATA TYPE    INFORMATION
#----------   ------------   ------------------------------
 STRT.F          480.0000:   START DEPTH
 STOP.F         4609.5000:   STOP DEPTH
 STEP.F            0.5000:   STEP LENGTH
 NULL.          -999.2500:   NO VALUE
 COMP.   FENNIX & SCISSON:   COMPANY
 WELL. FENNIX NPR-3 "LX" #58-14:   WELL
 FLD .              NPR-3:   FIELD
 LOC .      S14 T38N R78W:   LOCATION
 CNTY.            NATRONA:   COUNTY
 STAT.            WYOMING:   STATE
 CTRY. UNITED STATES OF AMERICA:   COUNTRY
 SRVC.       SCHLUMBERGER:   SERVICE COMPANY
 DATE.        08-MAR-1978:   LOGDATE
 API .     49025105920000:   API NUMBER
~CURVE INFORMATION
#MNEM.UNIT       API CODE    CURVE DESCRIPTION
#----------   ------------   ------------------------------
 DEPT.F                  :   
 SPR .MV     07 010 01 00:   SPONTANEOUS POTENTIAL
 SFL .OHMM   07 220 01 00:   SHALLOW FOCUSED LOG RESISTIVITY
 ILD .OHMM   07 120 46 00:   DEEP INDUCTION RESISTIVITY
 ILM .OHMM   07 120 44 00:   INDUCTION LOG MEDIUM RESISTIVITY
 CALD.IN     45 280 60 00:   CALIPER FROM DENSITY LOG
 GRD .GAPI   45 310 01 00:   GAMMA RAY FROM DENSITY LOG
 CORR.G/C3   45 356 01 00:   DENSITY CORRECTION
 RHOB.G/C3   45 350 01 00:   BULK DENSITY
 NPHI.DEC    42 890 03 00:   NEUTRON POROSITY SANDSTONE
~PARAMETER INFORMATION
#MNEM.UNIT          VALUE    DESCRIPTION
#----------   ------------   ------------------------------
 EKB .F         5320.0000:   Kelly bushing
 EGL .F         5310.0000:   Ground level
 EDF .F            0.0000:   Drilling floor
 TD  .F         4635.0000:   Total depth
 DATE.        08-MAR-1978:   Date logged
 CLNT.            A2DTECH:   Client Code
 SL  . 810' FSL & 1830' FEL:   Surface Location
 PD  .                 GL:   Permanent Datum
 DD  .F              4635:   Depth driller
 DL  .F              4608:   Depth logger
 BLI .F              4607:   Bottom log interval
 DFT .                FGM:   Type fluid in hole
 DFD .                9.1:   Density
 DFV .                 38:   Viscosity
 DFPH.                 11:   pH
 MSS .           FLOWLINE:   Source of sample
 RMS .OHMM           1.53:   Rm
 MST .F                58:   Rm Meas. temp.
 RMF .OHMM           1.06:   Rmf
 MFST.F                58:   Rmf Meas. temp.
 MFSS.               MEAS:   Source Rmf.
 RMB .OHMM           0.68:   Rm. at BHT
 BHT .F               131:   BHT.
 TCS .HRS            0630:   Time Circ. stopped
 MRT .F               131:   Maximum recorded temp.
 LUN .               8039:   Logging unit number
 LUL .               CSPP:   Logging unit location
 ENGI.           PETERSON:   Recorded By
 ORIG.           5" PRINT:   Origin of data
 UWI .     49025105920000:   Unique Well ID
 DICO. A2D TECHNOLOGIES, INC.:   Digitizing Company
 DAPD.                 20:   Feet Above Permanent Datum
 BSD1.               4635:   Depth drilled with bit1
 EPD .               5310:   Elevation Permanent Datum
 LMF .                 KB:   Log Measured From
 DMF .                 KB:   Drilling Measured From
 TLI .                508:   Top log interval
 CS1 .              8.625:   Casing size
 CBL1.                508:   Casing logger 1
 BS1 .              7.875:   Bit size
~OTHER INFORMATION
~A   DEPT      SPR        SFL        ILD        ILM       CALD         GRD      CORR       RHOB         NPHI 
# ...
 1611.5000   -48.5860     7.6430     8.3800     7.4660    13.1060    91.7330     0.0280     2.5180     0.2890
 1612.0000   -48.4400     7.7620     8.4710     7.5630    13.1240    92.4250     0.0320     2.5130     0.2850
 1612.5000   -48.2940     7.8800     8.5510     7.6590    13.2430    93.8900     0.0350     2.5110     0.2840
 1613.0000   -48.2700     7.9770     8.6250     7.7510    13.2350    94.8140     0.0380     2.5110     0.2840
 1613.5000   -48.4730     8.0090     8.7420     7.8030    13.1840    95.1770     0.0390     2.5140     0.2840
 1614.0000   -48.7370     8.0410     8.7340     7.8520    13.1320    95.6140     0.0390     2.5280     0.2800
 1614.5000   -48.9870     8.0730     8.7150     7.9010    13.0870    96.7550     0.0390     2.5400     0.2780
 1615.0000   -48.9430     8.1050     8.6970     7.9700    13.0680    98.1200     0.0370     2.5380     0.2810
 1615.5000   -48.8990     8.1180     8.6780     7.8790    13.0480    99.3760     0.0390     2.5330     0.2850
 1616.0000   -48.8540     7.8960     8.6600     7.7270    13.0190    99.2800     0.0430     2.5340     0.2870
 1616.5000   -48.8170     7.5390     8.6420     7.5390    12.9570    99.1540     0.0410     2.5310     0.2870
 1617.0000   -48.9490     7.5760     8.6230     7.5740    12.9380    99.0550     0.0370     2.5140     0.2900
 1617.5000   -49.0840     7.6400     8.6050     7.6190    12.9420    98.0770     0.0260     2.4950     0.2940
 1618.0000   -49.2190     7.7040     8.5820     7.6650    12.9460    97.0140     0.0160     2.4870     0.2990
 1618.5000   -49.3530     7.7680     8.6070     7.7100    12.9500    93.1800     0.0170     2.4950     0.2990
 1619.0000   -49.4230     7.8320     8.6410     7.7550    12.9550    91.5090     0.0190     2.5050     0.2980
 1619.5000   -49.4520     7.8960     8.6760     7.8010    12.9770    91.4450     0.0240     2.5140     0.2960
 1620.0000   -49.4810     7.9600     8.7100     7.8460    13.0000    92.1230     0.0290     2.5190     0.2930
 1620.5000   -49.5100     8.0440     8.7420     7.8960    13.0220    92.9510     0.0350     2.5290     0.2950
 1621.0000   -49.5390     8.0270     8.7000     7.8790    13.0450    93.7930     0.0460     2.5430     0.3000
 1621.5000   -49.5680     8.0020     8.6620     7.8530    13.0680    94.5700     0.0580     2.5570     0.3010
 1622.0000   -49.5980     7.9780     8.6240     7.8270    13.0980    93.1730     0.0690     2.5620     0.3030
 1622.5000   -49.5810     7.8390     8.5850     7.6740    13.1420    90.3890     0.0690     2.5590     0.3050
 1623.0000   -49.5510     7.6410     8.5470     7.5000    13.1610    88.9050     0.0570     2.5490     0.3130
 1623.5000   -49.5210     7.5980     8.5090     7.4010    13.1730    89.5610     0.0430     2.5390     0.3230
 1624.0000   -49.4910     7.5800     8.4450     7.4010    13.1850    91.3000     0.0280     2.5280     0.3280
 1624.5000   -49.4610     7.5610     8.3750     7.4010    13.2000    92.8610     0.0180     2.5140     0.3130
 1625.0000   -49.4300     7.5430     8.3060     7.4010    13.2280    94.0430     0.0220     2.5140     0.2960
 1625.5000   -49.4000     7.5050     8.2360     7.4010    13.2560    94.7870     0.0300     2.5280     0.2890
 1626.0000   -49.3700     7.4470     8.1930     7.3620    13.2840    94.6400     0.0470     2.5430     0.2920
 1626.5000   -49.3400     7.2660     8.1890     7.2600    13.3090    93.3340     0.0620     2.5390     0.2960
 1627.0000   -49.3090     7.2810     8.1850     7.1320    13.3360    93.0960     0.0710     2.5280     0.3000
 1627.5000   -49.2790     7.3090     8.1810     7.1460    13.3630    95.4980     0.0740     2.5160     0.3100
 1628.0000   -49.2490     7.3330     8.1760     7.1630    13.3420    98.5810     0.0480     2.5040     0.3190
 1628.5000   -49.2170     7.3330     8.1720     7.1800    13.3010    98.5440     0.0560     2.4990     0.3140
 1629.0000   -49.2830     7.3330     8.1680     7.1980    13.2100    95.7200     0.0700     2.5210     0.3130
 1629.5000   -49.3980     7.3330     8.1640     7.2150    13.1370    91.7540     0.0880     2.5380     0.3240
 1630.0000   -49.5120     7.4150     8.1600     7.2320    13.0750    89.6130     0.0730     2.5250     0.3370
 1630.5000   -49.6070     7.5060     8.1560     7.2500    13.0810    90.6400     0.0480     2.4950     0.3380
 1631.0000   -49.6040     7.5960     8.1510     7.2660    13.0880    92.2230     0.0230     2.4880     0.3250
 1631.5000   -49.6040     7.7380     8.1470     7.2250    13.0860    91.7880     0.0200     2.4990     0.3130
 1632.0000   -49.6040     7.6500     8.1430     7.1880    13.0480    89.7590     0.0300     2.5160     0.3010
 1632.5000   -49.6060     7.3930     8.1390     7.1510    13.0100    90.3810     0.0540     2.5320     0.2970
 1633.0000   -49.5230     7.2740     8.1350     7.1130    13.0000    92.9230     0.0770     2.5490     0.2960
 1633.5000   -49.4200     7.1830     8.1310     7.0760    13.0150    95.6710     0.0820     2.5570     0.2970
 1634.0000   -49.3160     7.0920     8.1270     7.0390    13.0310    93.5420     0.0730     2.5500     0.2990
 1634.5000   -49.2120     7.0020     8.1220     7.0020    13.0220    91.8600     0.0460     2.5390     0.3030
 1635.0000   -49.2350     7.0380     8.1180     7.0490    13.0070    92.7200     0.0270     2.5360     0.3080
 1635.5000   -49.2660     7.1100     8.1030     7.0950    12.9910    94.7170     0.0330     2.5470     0.3130
 1636.0000   -49.2960     7.3340     8.0880     7.1420    12.9750    95.2540     0.0440     2.5600     0.3210
 1636.5000   -49.3260     7.6090     8.0730     7.1990    12.9940    95.8190     0.0560     2.5620     0.3170
 1637.0000   -49.3560     7.5490     8.0580     7.1740    13.0150    97.1140     0.0680     2.5470     0.3080
 1637.5000   -49.3830     7.4410     8.0430     7.1410    13.0370    97.8430     0.0910     2.5400     0.3010
 1638.0000   -49.3420     7.3340     8.0280     7.1090    13.0580    96.2670     0.1170     2.5370     0.2990
 1638.5000   -49.0800     7.2270     8.0130     7.0760    13.0580    94.1210     0.1190     2.5320     0.3030
 1639.0000   -49.0120     7.1420     7.9980     7.0440    12.9940    94.3470     0.1080     2.5280     0.3100
 1639.5000   -49.0090     7.2200     7.9830     7.0020    12.9320    94.9090     0.1000     2.5230     0.3160
 1640.0000   -49.0100     7.2980     7.9700     7.0400    12.8760    95.4260     0.0990     2.5120     0.3180
 1640.5000   -49.0100     7.4010     7.9130     7.0940    12.8750    94.6570     0.0990     2.5010     0.3200
 1641.0000   -49.0100     7.3090     7.8610     7.1320    12.8750    93.7510     0.0980     2.4980     0.3280
 1641.5000   -49.0100     7.2220     7.8220     7.1060    12.8750    92.8920     0.0890     2.4920     0.3400
 1642.0000   -49.0100     7.1360     7.8150     7.0860    12.8750    92.2440     0.0770     2.4860     0.3460
 1642.5000   -49.0100     7.0020     7.8090     7.0670    12.8740    91.5890     0.0650     2.4850     0.3390
 1643.0000   -49.0100     7.0340     7.8030     7.0550    12.8780    90.9240     0.0570     2.4920     0.3280
 1643.5000   -49.0100     7.1280     7.7960     7.0440    12.9970    90.8840     0.0530     2.5020     0.3170
 1644.0000   -49.0100     7.1120     7.7900     7.0330    13.0800    91.5580     0.0490     2.5140     0.3040
 1644.5000   -49.0100     7.0800     7.7840     7.0220    13.1200    93.3830     0.0600     2.5330     0.3050
 1645.0000   -49.0100     7.0470     7.7770     7.0110    13.1730    94.5420     0.0950     2.5530     0.3120
 1645.5000   -48.9950     7.0150     7.7710     6.9860    13.2810    95.4960     0.1290     2.5480     0.3250
 1646.0000   -48.9540     6.9450     7.7640     6.9020    13.3570    95.6110     0.1150     2.5150     0.3400
 1646.5000   -48.9130     6.8480     7.7580     6.8180    13.2620    95.7600     0.0740     2.4760     0.3300
 1647.0000   -48.8720     6.7470     7.7510     6.7470    13.0730    95.3360     0.0310     2.4660     0.3120
 1647.5000   -48.8310     6.8480     7.6790     6.7930    12.8850    94.4540     0.0380     2.4960     0.3080
