~VERSION INFORMATION
 VERS.                2.0:   CWLS LOG ASCII STANDARD - VERSION 2.0
 WRAP.                 NO:   ONE LINE PER DEPTH STEP
~WELL INFORMATION
#MNEM.UNIT      DATA TYPE    INFORMATION
#----------   ------------   ------------------------------
 STRT.F            0.0000:   START DEPTH
 STOP.F         5673.0000:   STOP DEPTH
 STEP.F            0.5000:   STEP LENGTH
 NULL.          -999.2500:   NO VALUE
 COMP.       FLUOR DANIEL:   COMPANY
 WELL.   FLUOR "X" #63-10:   WELL
 FLD .             NPR #3:   FIELD
 LOC .      S10 T38N R78W:   LOCATION
 CNTY.            NATRONA:   COUNTY
 STAT.            WYOMING:   STATE
 CTRY. UNITED STATES OF AMERICA:   COUNTRY
 SRVC.      WESTERN ATLAS:   SERVICE COMPANY
 DATE.        02-MAR-1996:   LOGDATE
 API .     49025227690000:   API NUMBER
~CURVE INFORMATION
#MNEM.UNIT       API CODE    CURVE DESCRIPTION
#----------   ------------   ------------------------------
 DEPT.F                  :   
 GRD .GAPI   45 310 01 00:   GAMMA RAY FROM DENSITY LOG
 TEND.LBS    45 635 01 00:   TENSION FROM DENSITY LOG
 CALD.IN     45 280 60 00:   CALIPER FROM DENSITY LOG
 ZCOR.G/C3   45 356 01 00:   DENSITY CORRECTION
 ZDEN.G/C3   45 350 01 00:   BULK DENSITY
 CNC .DEC    42 890 03 00:   COMPENSATED NEUTRON POROSITY SANDSTONE
 SPR .MV     11 010 01 00:   SPONTANEOUS POTENTIAL FROM RESISTIVITY
 RD  .OHMM   11 220 10 00:   RESISTIVITY DEEP
 RS  .OHMM   11 220 09 00:   RESISTIVITY SHALLOW
~PARAMETER INFORMATION
#MNEM.UNIT          VALUE    DESCRIPTION
#----------   ------------   ------------------------------
 EKB .F         5196.0000:   Kelly bushing
 EGL .F         5186.0000:   Ground level
 EDF .F         5195.0000:   Drilling floor
 TD  .F         5674.0000:   Total depth
 CLNT.            A2DTECH:   Client Code
 SL  . 1688' FNL & 1730' FEL:   Surface Location
 PD  .                 GL:   Permanent Datum
 EPD .F              5186:   Elevation Permanent Datum
 LMF .                 KB:   Log Measured From
 DMF .                 KB:   Drilling Measured From
 DAPD.F                10:   Feet Above Permanent Datum
 DATE.        02-MAR-1996:   Date Logged [DD-MMM-YYYY]
 DD  .F              5674:   Depth driller
 DL  .F              5674:   Depth logger
 BLI .F              5663:   Bottom log interval
 CS1 .IN            9.625:   Casing size
 CBD1.      9.625" @ 448':   Casing driller 1
 CBL1.F               448:   Casing logger 1
 BS1 .IN             8.75:   Bit size
 BSD1.F              5674:   Depth drilled with bit1
 DFT .               CHEM:   Type fluid in hole
 DFD .                9.7:   Density
 DFV .                 53:   Viscosity
 DFPH.                9.0:   pH
 DFL .                9.2:   Fluid loss
 MSS .           FLOWLINE:   Source of sample
 RMS .OHMM          0.628:   Rm
 MST .F                71:   Rm Meas. temp.
 RMF .OHMM          0.477:   Rmf
 MFST.F                71:   Rmf Meas. temp.
 MFSS.               MEAS:   Source Rmf.
 RMC .OHMM          0.779:   Rmc
 MCST.F                71:   Rmc Meas. temp.
 MCSS.               MEAS:   Source Rmc.
 RMB .OHMM          0.251:   Rm. at BHT
 BHT .F               178:   BHT.
 TCS .F               4.5:   Time Circ. stopped
 MRT .HRS             178:   Maximum recorded temp.
 LUN .            HL-6530:   Logging unit number
 LUL .             CASPER:   Logging unit location
 ENGI.      PAT RASMUSSEN:   Recorded By
 ORIG.           5" PRINT:   Origin of data
 UWI .     49025227690000:   Unique Well ID
 WITN.         LAFRENIERE:   Witnessed by
 DICO.   A2D TECHNOLOGIES:   Digitizing Company
~OTHER INFORMATION
~A  DEPTH      GRD       TEND       CALD       ZCOR       ZDEN        CNC        SPR         RD         RS
# ...
 3212.0000   116.7101     8.7435     9.4540     0.0409     2.5483     0.2107   -84.5240     9.3799     7.4876
 3212.5000   115.8136   -36.3744     9.4691     0.0470     2.5430     0.2119   -84.6764     9.2450     7.4307
 3213.0000   113.4046   -59.0035     9.4691     0.0529     2.5370     0.2170   -84.7661     9.1132     7.2810
 3213.5000   112.5117   -66.9859     9.4842     0.0559     2.5362     0.2209   -84.8298     8.7380     7.1305
 3214.0000   114.9284   -81.8080     9.4992     0.0544     2.5415     0.2260   -85.0031     8.3097     6.9349
 3214.5000   118.8497   -89.4446     9.5294     0.0439     2.5505     0.2320   -85.3253     7.8130     6.7865
 3215.0000   120.9839   -89.5849     9.5445     0.0559     2.5512     0.2344   -85.7380     7.8090     6.6510
 3215.5000   122.7781   -98.2884     9.5747     0.0724     2.5407     0.2337   -86.1913     7.8591     6.7428
 3216.0000   123.9886  -112.3894     9.5747     0.0934     2.5400     0.2346   -86.4942     7.9703     6.7887
 3216.5000   124.8979  -112.5297     9.5897     0.0754     2.5399     0.2376   -86.6462     8.0702     6.8414
 3217.0000   124.3011  -105.1724     9.6350     0.0724     2.5399     0.2382   -86.4967     8.0660     6.8815
 3217.5000   125.5130   -67.8680     9.6501     0.0829     2.5272     0.2358   -86.3479     7.9510     6.8804
 3218.0000   127.6271   -38.0233     9.6652     0.0951     2.5030     0.2355   -86.1987     7.8919     6.8795
 3218.5000   129.7412   -38.1637     9.6802     0.1204     2.4791     0.2352   -85.8992     7.9427     6.8310
 3219.0000   131.2787   -38.3059     9.6953     0.1009     2.4843     0.2394   -85.4488     7.9376     6.7830
 3219.5000   132.4648   -38.4794     9.7104     0.0799     2.5023     0.2502   -84.9775     7.7168     6.7821
 3220.0000   133.9765   -38.6197     9.7104     0.0784     2.5181     0.2535   -84.5484     7.5023     6.6419
 3220.5000   136.3918   -38.7601     9.7104     0.1039     2.5091     0.2532   -84.7004     7.3943     6.4595
 3221.0000   139.1762   -46.4318     9.7104     0.1339     2.4880     0.2523   -84.8524     7.1392     6.3699
 3221.5000   141.2238   -46.5721     9.7104     0.1519     2.4828     0.2562   -85.0048     7.0374     6.5478
 3222.0000   140.0246   -54.2086     9.7104     0.1489     2.5263     0.2643   -85.0062     7.2456     6.7775
 3222.5000   139.1265   -54.3490     9.7255     0.1369     2.5714     0.2691   -84.8567     7.7442     7.0636
 3223.0000   138.1864   -46.9931     9.7406     0.1219     2.5992     0.2664   -84.7078     8.0126     7.1614
 3223.5000   136.4286   -39.6372     9.7406     0.1099     2.5744     0.2587   -84.5590     8.0642     7.2102
 3224.0000   132.8198   -39.8126     9.7406     0.1309     2.5008     0.2523   -84.5604     8.2861     7.1593
 3224.5000   129.5122   -32.4567     9.7557     0.1594     2.4707     0.2532   -84.4112     8.2807     7.1581
 3225.0000   131.6277    -2.6471     9.7557     0.1909     2.4850     0.2544   -84.2620     8.1063     7.2071
 3225.5000   135.5490    19.7364     9.7557     0.1868     2.5159     0.2543   -84.1129     8.3295     7.3571
 3226.0000   136.4569    34.5577     9.7557     0.1204     2.5518     0.2432   -83.9637     8.6781     7.4072
 3226.5000   133.7531    41.9095     9.7406     0.1039     2.5225     0.2330   -83.9654     8.2624     7.2539
 3227.0000   131.0479    34.2378     9.7406     0.1339     2.4849     0.2318   -83.8163     7.9773     7.1039
 3227.5000   132.2598    34.0974     9.7406     0.1909     2.4406     0.2439   -83.3662     7.8093     6.9570
 3228.0000   134.0727    33.9571     9.7406     0.2239     2.4151     0.2576   -83.0661     7.8042     6.9082
 3228.5000   134.6808    33.7817     9.7406     0.2449     2.3632     0.2741   -83.3690     7.9099     6.8121
 3229.0000   134.3852    26.1451     9.7406     0.2659     2.3241     0.2762   -83.6836     7.9607     6.7643
 3229.5000   134.3923    18.5085     9.7557     0.2809     2.2866     0.2768   -84.1252     7.4751     6.7167
 3230.0000   135.9040    18.3658     9.7557     0.2884     2.3294     0.2804   -84.2772     7.4188     6.5779
 3230.5000   139.2229    10.6965     9.7707     0.2509     2.4037     0.2816   -84.1280     7.4674     6.5768
 3231.0000   140.7360    10.5561     9.7858     0.1712     2.4488     0.2690   -84.1114     7.4625     6.5760
 3231.5000   141.3441    17.9121     9.7858     0.1624     2.4668     0.2615   -83.9803     7.4586     6.3956
 3232.0000   141.6509    47.7216     9.7858     0.1984     2.3654     0.2600   -83.8311     7.4538     6.2593
 3232.5000   142.5652    62.6089     9.7858     0.2584     2.3166     0.2684   -83.6822     7.5547     6.3058
 3233.0000   143.7721    62.4335     9.7858     0.2869     2.3044     0.2840   -83.3825     7.5498     6.3929
 3233.5000   144.3802    54.7969     9.7858     0.3065     2.3098     0.2906   -83.3842     7.5458     6.4811
 3234.0000   143.7834    39.6290     9.7858     0.2809     2.3353     0.2883   -83.3857     7.5409     6.5761
 3234.5000   141.3795    31.9924     9.8009     0.2719     2.3654     0.2759   -83.2364     7.5370     6.7076
 3235.0000   140.7827    31.8520     9.8311     0.2689     2.3908     0.2668   -83.0876     7.7445     6.7533
 3235.5000   140.1874    39.2080     9.8612     0.2674     2.4322     0.2578   -83.0890     8.0130     6.7991
 3236.0000   137.7834    31.5363     9.9065     0.2644     2.4953     0.2500   -82.7889     8.0644     6.8523
 3236.5000   135.6806    31.3959     9.9668     0.2234     2.5622     0.2476   -82.4895     8.1151     6.9396
 3237.0000   134.1817    23.7594    10.0121     0.1849     2.6027     0.2563   -81.8888     8.1683     6.9869
 3237.5000   131.1753     8.5914    10.0422     0.1744     2.5922     0.2593   -82.0408     8.0508     7.0834
 3238.0000   122.4460     0.9549    10.0875     0.1774     2.5081     0.2569   -82.7953     7.3027     6.7473
 3238.5000   120.3432    -6.6817    10.1176     0.1806     2.4795     0.2713   -83.3991     6.9538     6.1235
 3239.0000   126.3744   -21.8145    10.1327     0.1924     2.4585     0.2845   -83.7021     6.6215     5.8737
 3239.5000   136.0186   -29.4862    10.1478     0.2059     2.4449     0.2920   -83.8541     6.6180     5.8325
 3240.0000   139.0363   -29.6265    10.1629     0.2299     2.4254     0.2965   -84.0061     6.7525     5.8315
 3240.5000   139.3432   -14.7744    10.1629     0.2539     2.3983     0.2938   -84.0163     6.6562     5.7506
 3241.0000   132.4226     0.0778    10.1629     0.2629     2.3412     0.2887   -84.1599     6.5161     5.5929
 3241.5000   132.1256    -7.5939    10.1780     0.2719     2.3345     0.2863   -84.1613     6.3325     5.5153
 3242.0000   132.4339    -7.7343    10.2081     0.2749     2.3465     0.2929   -84.1627     6.1579     5.5529
 3242.5000   132.4409    -0.3783    10.2232     0.2764     2.3717     0.2921   -84.1792     6.6415     5.6685
 3243.0000   132.1454     6.9776    10.2534     0.2779     2.4066     0.2812   -84.3163     7.1136     5.7866
 3243.5000   130.6451     6.8022    10.2685     0.2809     2.4058     0.2706   -84.3179     7.2610     5.9482
 3244.0000   129.1447    -0.8344    10.2836     0.2917     2.3720     0.2598   -84.3193     7.3057     6.1996
 3244.5000   130.0554    14.0178    10.2986     0.3005     2.3376     0.2529   -84.1701     6.9077     5.9878
 3245.0000   131.2659    28.8582    10.3137     0.2974     2.2998     0.2589   -83.7200     6.7157     5.7435
 3245.5000   132.7775    21.1865    10.3288     0.2854     2.2863     0.2646   -83.5708     6.3436     5.5475
 3246.0000   134.2892    -8.9388    10.3288     0.2674     2.2826     0.2700   -84.1750     5.9222     5.3952
 3246.5000   135.5011   -16.5753    10.3288     0.2644     2.2878     0.2806   -84.6282     5.7179     5.2110
 3247.0000   136.4104   -24.2129    10.3288     0.2614     2.2953     0.2954   -84.7802     5.5205     4.9984
 3247.5000   133.4040   -24.3874    10.3439     0.2584     2.2930     0.3024   -84.6310     5.2519     4.8261
 3248.0000   132.5060   -39.5202    10.3590     0.2584     2.2779     0.3108   -84.4822     5.0049     4.5988
