~VERSION INFORMATION
 VERS.                2.0:   CWLS LOG ASCII STANDARD - VERSION 2.0
 WRAP.                 NO:   ONE LINE PER DEPTH STEP
~WELL INFORMATION
#MNEM.UNIT      DATA TYPE    INFORMATION
#----------   ------------   ------------------------------
 STRT.F          224.0000:   START DEPTH
 STOP.F         2912.0000:   STOP DEPTH
 STEP.F            0.5000:   STEP LENGTH
 NULL.          -999.2500:   NO VALUE
 COMP.    FENIX & SCISSON:   COMPANY
 WELL. FENIX & SCISSON NPR 34 "A" #3-21:   WELL
 FLD .             NPR #3:   FIELD
 LOC .      S21 T39N R78W:   LOCATION
 CNTY.            NATRONA:   COUNTY
 STAT.            WYOMING:   STATE
 CTRY. UNITED STATES OF AMERICA:   COUNTRY
 SRVC.              WELEX:   SERVICE COMPANY
 DATE.        15-JUL-1977:   LOGDATE
 API .     49025103970000:   API NUMBER
~CURVE INFORMATION
#MNEM.UNIT       API CODE    CURVE DESCRIPTION
#----------   ------------   ------------------------------
 DEPT.F                  :   
 CALD.IN     45 280 60 00:   CALIPER FROM DENSITY LOG
 CORR.G/C3   45 356 01 00:   DENSITY CORRECTION
 RHOB.G/C3   45 350 01 00:   BULK DENSITY
 GRD .GAPI   45 310 01 00:   GAMMA RAY FROM DENSITY LOG
 SPR .MV     07 010 01 00:   SPONTANEOUS POTENTIAL
 ILD .OHMM   07 120 46 00:   DEEP INDUCTION RESISTIVITY
 ILM .OHMM   07 120 44 00:   INDUCTION LOG MEDIUM RESISTIVITY
 SGRD.OHMM   07 220 05 00:   SHALLOW SHORT GUARD RESISTIVITY
~PARAMETER INFORMATION
#MNEM.UNIT          VALUE    DESCRIPTION
#----------   ------------   ------------------------------
 EKB .F         4921.0000:   Kelly bushing
 EGL .F         4911.0000:   Ground level
 TD  .F         2914.0000:   Total depth
 CLNT.            A2DTECH:   Client Code
 SL  . 2310' FNL & 1650' FWL:   Surface Location
 DATE.        15-JUL-1977:   Date Logged [DD-MMM-YYYY]
 DD  .F              2900:   Depth driller
 DL  .F              2914:   Depth logger
 BLI .F              2912:   Bottom log interval
 TLI .F               218:   Top log interval
 CS1 .              8.625:   Casing size
 CBD1.      8.625" @ 230':   Casing driller 1
 CBL1.IN              226:   Casing logger 1
 BS1 .IN            7.875:   Bit size
 BSD1.F              2900:   Depth drilled with bit1
 DFT .                KCL:   Type fluid in hole
 DFD .                8.9:   Density
 DFV .               1.42:   Viscosity
 DFPH.                7.5:   pH
 DFL .               19.6:   Fluid loss
 MSS .            MUD PIT:   Source of sample
 RMS .OHMM           3.75:   Rm
 MST .F                83:   Rm Meas. temp.
 RMF .OHMM           3.40:   Rmf
 MFST.F                83:   Rmf Meas. temp.
 MFSS.           MEASURED:   Source Rmf.
 RMC .OHMM            9.0:   Rmc
 MCST.F                83:   Rmc Meas. temp.
 MCSS.           MEASURED:   Source Rmc.
 RMB .OHMM           2.80:   Rm. at BHT
 BHT .F               111:   BHT.
 TCS .HRS               3:   Time Circ. stopped
 MRT .F               111:   Maximum recorded temp.
 LUN .               8766:   Logging unit number
 LUL .             CASPER:   Logging unit location
 ENGI.          T. JOYNER:   Recorded By
 WITN.     MR. PETTINGILL:   Witnessed by
 ORIG.           5" PRINT:   Origin of data
 UWI .     49025103970000:   Unique Well ID
 DICO. A2D TECHNOLOGIES, INC.:   Digitizing Company
 PD  .                 GL:   Permanent Datum
 EPD .F              4911:   Elevation Permanent Datum
 LMF .                 KB:   Log Measured From
 DMF .                 KB:   Drilling Measured From
 DAPD.F                10:   Feet Above Permanent Datum
~OTHER INFORMATION
~A   DEPT      CALD        CORR       RHOB       GRD       SPR        ILD        ILM       SGRD   
# ...
 1641.5000     8.4417     0.0249     2.4386   136.9379   -60.9249     6.1458     6.1854     7.8190
 1642.0000     8.4448     0.0250     2.4267   137.5704   -60.9072     6.0637     6.1453     7.7157
 1642.5000     8.4473     0.0251     2.4141   139.6888   -60.7410     5.9834     6.1495     7.7189
 1643.0000     8.4498     0.0238     2.4321   142.4015   -60.8718     5.9030     6.1097     7.7221
 1643.5000     8.4523     0.0254     2.4404   143.9357   -60.8541     5.8248     6.1138     7.7252
 1644.0000     8.4548     0.0255     2.4330   145.1924   -60.8364     5.7864     6.0742     7.6744
 1644.5000     8.4573     0.0257     2.4294   146.0832   -60.6702     5.7489     6.0357     7.7851
 1645.0000     8.4598     0.0258     2.4272   144.8837   -60.3553     5.7116     5.9159     7.8423
 1645.5000     8.4623     0.0274     2.4295   143.7810   -60.1890     5.7145     5.8776     7.8455
 1646.0000     8.4499     0.0260     2.4210   144.7202   -60.1713     5.7169     5.8001     7.8487
 1646.5000     8.4525     0.0261     2.4177   147.4330   -60.0050     5.7192     5.8041     7.8519
 1647.0000     8.4555     0.0247     2.4148   146.8768   -59.8387     5.7215     5.8073     7.8010
 1647.5000     8.4425     0.0249     2.4052   144.8251   -59.8210     5.7636     5.8507     7.6972
 1648.0000     8.4456     0.0250     2.3970   147.8446   -59.8033     5.8060     5.8539     7.5425
 1648.5000     8.4481     0.0251     2.3933   145.2082   -59.7856     5.8487     5.8977     7.4937
 1649.0000     8.4351     0.0252     2.3942   145.8407   -59.6193     5.8918     5.9419     7.3438
 1649.5000     8.4382     0.0253     2.4025   147.3647   -59.6017     5.7662     5.9863     7.5561
 1650.0000     8.4405     0.0180     2.4082   147.1057   -59.5840     5.8121     5.9896     7.2609
 1650.5000     8.4429     0.0091     2.4034   146.5400   -59.5662     5.8574     5.8924     7.1697
 1651.0000     8.4451     0.0047     2.3869   145.3894   -59.6969     5.9449     5.8519     7.1286
 1651.5000     8.4473     0.0018     2.3797   145.4314   -59.8280     5.9497     5.8519     6.9906
 1652.0000     8.4495     0.0095     2.3883   144.2691   -59.8089     5.9549     5.8519     6.9986
 1652.5000     8.4518     0.0186     2.3963   142.8274   -59.9412     5.9610     5.8116     6.8619
 1653.0000     8.4540     0.0172     2.3888   141.9624   -59.9227     5.9251     5.7319     6.8225
 1653.5000     8.4562     0.0053     2.3875   143.7897   -60.0544     5.8481     5.6533     6.6471
 1654.0000     8.4733     0.0069     2.3986   144.4105   -59.8837     5.8130     5.5374     6.5172
 1654.5000     8.4755     0.0205     2.4167   141.4829   -59.8660     5.6604     5.4993     6.3036
 1655.0000     8.4628     0.0267     2.4339   139.4292   -59.8483     5.5102     5.3495     6.0146
 1655.5000     8.4651     0.0386     2.4465   141.8508   -59.8306     5.2194     5.0971     5.6984
 1656.0000     8.4673     0.0402     2.4470   142.1833   -59.8129     4.9440     4.8232     5.3627
 1656.5000     8.4695     0.0403     2.4257   141.6243   -59.9482     4.5864     4.6919     4.9767
 1657.0000     8.4718     0.0404     2.4274   139.8765   -59.9261     4.4340     4.5327     4.8127
 1657.5000     8.4740     0.0390     2.4122   138.7232   -60.2576     4.8554     4.4092     5.0923
 1658.0000     8.4762     0.0376     2.3981   138.1635   -60.4006     4.8255     4.2596     5.6927
 1658.5000     8.4784     0.0347     2.3929   139.0910   -60.5433     4.6031     4.1722     6.0223
 1659.0000     8.4806     0.0300     2.3879   140.9094   -60.6859     4.4502     4.0586     5.9069
 1659.5000     8.4829     0.0178     2.3947   143.6377   -60.8285     4.3321     4.1435     5.7133
 1660.0000     8.4851     0.0006     2.3985   145.7753   -60.9712     4.2476     4.4397     5.4504
 1660.5000     8.4874     0.0159     2.3680   147.9129   -61.1133     4.2221     4.7901     5.6092
 1661.0000     8.4896     0.0236     2.3606   147.8455   -61.4100     4.2557     4.9242     6.0580
 1661.5000     8.4918     0.0279     2.3548   146.7325   -61.5526     4.3492     4.9583     6.4531
 1662.0000     8.4941     0.0205     2.3504   147.9653   -61.8447     4.4135     4.9583     6.6858
 1662.5000     8.4963     0.0086     2.3609   149.4866   -61.9896     4.5098     4.9583     6.4234
 1663.0000     8.4837     0.0042     2.3916   150.7106   -62.1299     4.6402     4.9583     6.2979
 1663.5000     8.4711     0.0103     2.4014   150.7459   -62.1208     4.8073     4.9583     6.2630
 1664.0000     8.4733     0.0149     2.4105   151.0785   -62.1117     4.8784     5.0382     6.2283
 1664.5000     8.4606     0.0165     2.4166   152.8969   -62.1025     4.8834     5.0429     6.1488
 1665.0000     8.4628     0.0136     2.4137   153.5266   -62.0934     4.8877     5.0110     6.1135
 1665.5000     8.4651     0.0122     2.4235   151.7788   -61.9325     4.8919     5.0164     6.0808
 1666.0000     8.4673     0.0228     2.4400   150.3283   -61.7717     4.8957     5.0198     5.9620
 1666.5000     8.4695     0.0409     2.4528   148.5806   -61.6108     4.8661     4.9217     5.8477
 1667.0000     8.4717     0.0515     2.4604   147.4184   -61.4499     4.8035     4.9257     5.7742
 1667.5000     8.4739     0.0591     2.4649   148.0569   -61.1373     4.7747     4.8957     5.6388
 1668.0000     8.4762     0.0621     2.4449   148.9837   -60.9764     4.6500     4.9004     5.5145
 1668.5000     8.4784     0.0473     2.4338   148.7219   -60.9673     4.5580     4.8028     5.2620
 1669.0000     8.4807     0.0414     2.4271   146.6770   -60.8064     4.4384     4.7422     5.0895
 1669.5000     8.4829     0.0400     2.4220   145.2265   -60.6455     4.3212     4.6483     4.8553
 1670.0000     8.4851     0.0461     2.4266   143.1815   -60.3329     4.1783     4.5256     4.6961
 1670.5000     8.4724     0.0507     2.4388   140.8395   -60.1721     4.0674     4.4061     4.4800
 1671.0000     8.4747     0.0523     2.4178   139.0918   -60.0112     3.9601     4.2032     4.2444
 1671.5000     8.4769     0.0494     2.3888   138.5319   -60.0021     3.8556     4.0923     4.1053
 1672.0000     8.4796     0.0465     2.3687   139.7568   -59.9929     3.7549     3.9837     4.0251
 1672.5000     8.4669     0.0407     2.3494   140.6837   -59.9838     3.6812     3.9875     4.5009
 1673.0000     8.4692     0.0348     2.3316   139.8215   -60.1287     3.6585     3.9907     5.1377
 1673.5000     8.4714     0.0244     2.3205   138.3607   -60.1173     3.5866     4.0773     5.2853
 1674.0000     8.4582     0.0095     2.3534   137.1965   -60.2599     3.5908     4.0806     5.1474
 1674.5000     8.4609     0.0426     2.3849   136.0327   -60.2508     3.5939     4.1127     5.0488
 1675.0000     8.4632     0.0606     2.4022   134.8687   -60.3957     3.5967     4.0867     4.9180
 1675.5000     8.4500     0.0727     2.4023   134.6550   -60.5383     3.5749     4.0063     4.6274
 1676.0000     8.4527     0.0833     2.3888   136.7794   -60.6809     3.5540     3.9825     4.2952
 1676.5000     8.4395     0.0909     2.3694   139.7865   -60.8235     3.5078     3.9042     4.1816
 1677.0000     8.4423     0.0970     2.3406   141.3077   -60.9639     3.4877     3.9079     4.3648
 1677.5000     8.4296     0.0881     2.2989   140.1543   -61.1088     3.4907     3.9111     4.8794
 1678.0000     8.4319     0.0583     2.2706   138.9921   -61.2514     3.4938     3.9147     5.4546
 1678.5000     8.4341     0.0419     2.3170   140.8194   -61.2400     3.5211     3.9722     5.6524
 1679.0000     8.4363     0.0405     2.3791   142.3406   -61.2308     3.5241     4.0029     5.6210
 1679.5000     8.4231     0.0452     2.3948   143.8618   -61.3757     3.6010     4.0898     5.3994
 1680.0000     8.4259     0.0543     2.4106   144.4915   -61.5184     3.6297     4.1499     5.5185
 1680.5000     8.4281     0.0618     2.4324   143.9325   -61.5070     3.7346     4.2400     5.8381
 1681.0000     8.4150     0.0649     2.4452   141.5904   -61.6519     3.8425     4.3625     6.3052
 1681.5000     8.4176     0.0618     2.4535   142.5173   -61.7945     4.0085     4.5191     6.4889
