~VERSION INFORMATION
 VERS.                2.0:   CWLS LOG ASCII STANDARD - VERSION 2.0
 WRAP.                 NO:   ONE LINE PER DEPTH STEP
~WELL INFORMATION
#MNEM.UNIT      DATA TYPE    INFORMATION
#----------   ------------   ------------------------------
 STRT.F           14.0000:   START DEPTH
 STOP.F         3246.0000:   STOP DEPTH
 STEP.F            0.5000:   STEP LENGTH
 NULL.          -999.2500:   NO VALUE
 COMP.   LAWRENCE ALLISON:   COMPANY
 WELL. LAWRENCE "34X" #11:   WELL
 FLD .             N.P.R.:   FIELD
 LOC .      S34 T38N R78W:   LOCATION
 CNTY.            NATRONA:   COUNTY
 STAT.            WYOMING:   STATE
 CTRY. UNITED STATES OF AMERICA:   COUNTRY
 SRVC.      DRESSER ATLAS:   SERVICE COMPANY
 DATE.        02-MAY-1985:   LOGDATE
 API .     49025110530001:   API NUMBER
~CURVE INFORMATION
#MNEM.UNIT       API CODE    CURVE DESCRIPTION
#----------   ------------   ------------------------------
 DEPT.F                  :   
 CNC .DEC    42 890 03 00:   NEUTRON POROSITY
 CALD.IN     45 280 60 00:   CALIPER FROM DENSITY LOG
 CORR.G/C3   45 356 01 00:   DENSITY CORRECTION
 RHOB.G/C3   45 350 01 00:   BULK DENSITY
 GRR .GAPI   07 310 01 00:   GAMMA RAY FROM RESISTIVITY
 SPR .MV     07 010 01 00:   SPONTANEOUS POTENTIAL FROM RES.
 TENR.LBS    06 635 01 00:   TENSION FROM RESISTIVITY
 RILD.OHMM   07 120 46 00:   DEEP INDUCTION RESISTIVITY
 RILM.OHMM   07 120 44 00:   INDUCTION LOG MEDIUM RESISTIVITY
 RFOC.OHMM   07 220 04 00:   RESISTIVITY FOCUSED LOG RES.
~PARAMETER INFORMATION
#MNEM.UNIT          VALUE    DESCRIPTION
#----------   ------------   ------------------------------
 EKB .F         5099.0000:   Kelly bushing
 TD  .F         3239.0000:   Total depth
 CLNT.            A2DTECH:   Client Code
 PD  .                 GL:   Permanent Datum
 EPD .F              5087:   Elevation Permanent Datum
 LMF .                 KB:   Log Measured From
 DMF .                 KB:   Drilling Measured From
 DAPD.F                12:   Feet Above Permanent Datum
 DATE.        02-MAY-1985:   Date Logged [DD-MMM-YYYY]
 DD  .F              3239:   Depth driller
 DL  .F              3242:   Depth logger
 BLI .F              3294:   Bottom log interval
 CS1 .IN            8.625:   Casing size
 CBD1.      8.625" @ 487':   Casing driller 1
 CBL1.F               487:   Casing logger 1
 BS1 .IN            7.875:   Bit size
 BSD1.F              3239:   Depth drilled with bit1
 DFT .            KCL GEL:   Type fluid in hole
 DFD .                9.1:   Density
 DFV .                 35:   Viscosity
 DFPH.                  8:   pH
 DFL .                9.8:   Fluid loss
 MSS .           FLOWLINE:   Source of sample
 RMS .OHMM           0.27:   Rm
 MST .F                68:   Rm Meas. temp.
 RMF .OHMM           0.20:   Rmf
 MFST.F                68:   Rmf Meas. temp.
 MFSS.               MEAS:   Source Rmf.
 RMC .OHMM           0.34:   Rmc
 MCST.F                68:   Rmc Meas. temp.
 MCSS.               CALC:   Source Rmc.
 RMB .OHMM           0.15:   Rm. at BHT
 BHT .F               126:   BHT.
 TCS .HRS               3:   Time Circ. stopped
 MRT .F               126:   Maximum recorded temp.
 LUN .               6274:   Logging unit number
 LUL .               GLTE:   Logging unit location
 ENGI.       MACK/EDWARDS:   Recorded By
 WITN.             STRONG:   Witnessed by
 ORIG.           5" PRINT:   Origin of data
 UWI .     49025110260000:   Unique Well ID
 DICO. A2D TECHNOLOGIES, INC.:   Digitizing Company
~OTHER INFORMATION
~A   DEPT      CNC       CALD       CORR       RHOB        GRR        SPR       TENR       RILD       RILM       RFOC   
# ...
 3029.0000     0.2129     8.8864     0.0024     2.4904    73.1870   -47.6148   -56.6348     5.8588     5.8104     5.7078
 3029.5000     0.2140     8.8886     0.0040     2.4869    73.8967   -47.6000   -50.3880     5.7456     5.6245     5.4815
 3030.0000     0.2167     8.8905    -0.0032     2.4833    74.1480   -47.5821   -44.1412     5.6723     5.4766     5.3376
 3030.5000     0.2220     8.8921    -0.0165     2.4826    74.1859   -47.5627   -45.7886     5.5228     5.4070     5.2335
 3031.0000     0.2274     8.8938    -0.0282     2.4813    74.4415   -47.5453   -39.2126     5.3731     5.3014     5.2030
 3031.5000     0.2321     8.8812    -0.0310     2.4776    74.9214   -47.5284   -40.8593     5.2008     5.1620     5.0677
 3032.0000     0.2354     8.8737    -0.0230     2.4725    75.4012   -47.5104   -42.1332     5.0637     5.0263     4.7340
 3032.5000     0.2369     8.8702    -0.0067     2.4681    77.8990   -47.4925   -43.4949     4.9633     5.0316     4.5451
 3033.0000     0.2328     8.8721     0.0010     2.4659    79.9525   -47.4714   -44.8563     4.9000     5.0380     4.5512
 3033.5000     0.2171     8.8595     0.0042     2.4646    80.9840   -47.3047   -46.4591     4.9749     5.0782     4.6516
 3034.0000     0.2067     8.8614     0.0044     2.4655    83.6064   -47.2896   -47.7773     5.0497     5.1543     4.9216
 3034.5000     0.2022     8.8633     0.0016     2.4709    88.1221   -47.2716   -49.0948     5.1613     5.1955     5.5250
 3035.0000     0.2010     8.8499    -0.0042     2.4807    87.9293   -47.4062   -42.5188     5.2039     5.2370     6.2421
 3035.5000     0.2039     8.8521    -0.0204     2.4861    84.3732   -47.3844   -36.2720     5.2455     5.2062     5.8715
 3036.0000     0.2090     8.8392    -0.0492     2.4862    80.3688   -47.3670   -30.3331     5.1786     5.0694     5.2983
 3036.5000     0.2110     8.8411    -0.0694     2.4787    79.7275   -47.4989   -24.1083     5.0422     4.9034     4.9493
 3037.0000     0.2155     8.8430    -0.0662     2.4655    82.1702   -47.6308   -25.4916     4.6122     4.6121     4.6555
 3037.5000     0.2253     8.8300    -0.0391     2.4611    87.1973   -47.9076   -27.0731     4.3678     4.1617     4.4709
 3038.0000     0.2417     8.8323    -0.0164     2.4605    92.6098   -48.0394   -28.3906     4.1914     3.9966     4.2612
 3038.5000     0.2465     8.8342    -0.0087     2.4651    92.1928   -48.1756   -29.7081     4.1131     3.9721     4.1521
 3039.0000     0.2417     8.8361    -0.0041     2.4749    91.7758   -48.1539   -31.0256     4.0879     3.9772     4.1279
 3039.5000     0.2308     8.8380     0.0066     2.4863    91.1345   -48.2901   -32.2996     4.0932     3.9814     4.1621
 3040.0000     0.2203     8.8398     0.0281     2.4946    83.5426   -48.1890   -33.6613     4.0974     3.9865     4.2835
 3040.5000     0.2149     8.8417     0.0385     2.5001    81.9422   -48.2510   -35.0227     4.0723     3.9621     4.4699
 3041.0000     0.2142     8.8436     0.0237     2.5016    80.9227   -48.2328   -28.7320     4.0776     3.9389     4.6002
 3041.5000     0.2254     8.8459     0.0044     2.4995    81.1783   -48.2119   -30.3794     3.9953     3.8888     4.6371
 3042.0000     0.2477     8.8478    -0.0014     2.4951    82.5550   -48.3481   -31.6969     3.8665     3.7875     4.2733
 3042.5000     0.2614     8.8496    -0.0056     2.4862    85.2770   -48.4756   -25.1209     3.7637     3.6879     3.9099
 3043.0000     0.2617     8.8515    -0.0114     2.4722    86.8779   -48.6118   -26.7676     3.6150     3.5910     3.5773
 3043.5000     0.2568     8.8533    -0.0217     2.4521    87.5819   -48.7393   -28.0857     3.5433     3.4975     3.7589
 3044.0000     0.2520     8.8552    -0.0366     2.4371    86.8219   -48.8716   -21.8389     3.4981     3.4521     3.9771
 3044.5000     0.2502     8.8423    -0.0547     2.4277    83.3925   -49.0030   -31.0499     3.4784     3.4090     3.9539
 3045.0000     0.2489     8.8442    -0.0659     2.4255    81.8544   -49.2189   -32.3681     3.4580     3.4126     3.8479
 3045.5000     0.2492     8.8461    -0.0642     2.4256    80.5405   -49.4338   -33.5097     3.4148     3.4161     3.7760
 3046.0000     0.2531     8.8484    -0.0401     2.4280    79.8914   -49.6971   -35.0031     3.3938     3.4196     3.7540
 3046.5000     0.2548     8.8502    -0.0145     2.4311    79.6694   -49.8247   -43.8849     3.3982     3.4232     3.7580
 3047.0000     0.2511     8.8519     0.0022     2.4365    80.8589   -50.0299   -45.2030     3.4017     3.4269     3.7881
 3047.5000     0.2508     8.8539     0.0128     2.4418    81.7871   -50.0927   -46.5205     3.4053     3.4312     3.8450
 3048.0000     0.2540     8.8558     0.0100     2.4482    80.7053   -50.2203   -47.8819     3.4325     3.4111     3.9299
 3048.5000     0.2588     8.8726    -0.0051     2.4570    80.9609   -50.2757   -49.4854     3.4362     3.3910     3.9890
 3049.0000     0.2545     8.8745    -0.0135     2.4639    81.8892   -50.4836   -50.8029     3.4159     3.3470     3.9122
 3049.5000     0.2422     8.8768    -0.0028     2.4737    84.6112   -50.7608   -52.1204     3.4195     3.3514     3.8615
 3050.0000     0.2368     8.8787     0.0183     2.4843    85.5394   -50.7434   -45.5444     3.3993     3.3317     3.9478
 3050.5000     0.2372     8.8805     0.0215     2.4941    85.3464   -50.7260   -47.1918     3.4038     3.3353     4.0912
 3051.0000     0.2454     8.8671     0.0202     2.4987    85.6295   -50.5593   -48.5093     3.3829     3.3627     4.1240
 3051.5000     0.2558     8.8546     0.0294     2.4981    87.2110   -50.3927   -37.3117     3.4108     3.3662     3.9060
 3052.0000     0.2615     8.8416     0.0431     2.4945    87.4666   -50.0768   -35.9061     3.4382     3.4166     3.6220
 3052.5000     0.2618     8.8287     0.0554     2.4931    87.9464   -49.6117   -37.5528     3.5150     3.5162     3.5041
 3053.0000     0.2565     8.8147     0.0584     2.4903    88.8747   -49.1382   -30.9768     3.6176     3.6437     3.6073
 3053.5000     0.2437     8.7735     0.0258     2.4866    89.3545   -48.7118   -40.1884     3.7753     3.8021     3.8432
 3054.0000     0.2254     8.7457    -0.0010     2.4845    87.5922   -48.3706   -41.5279     4.0226     4.0051     4.0946
 3054.5000     0.2143     8.7179    -0.0023     2.4899    83.4663   -48.0294   -43.1533     4.4374     4.3165     4.2727
 3055.0000     0.2076     8.7045    -0.0036     2.4975    77.7974   -47.6882   -44.4708     4.8275     4.5986     4.5207
 3055.5000     0.2049     8.6767    -0.0019     2.5053    76.9240   -47.2820   -45.7883     5.1502     5.0717     5.0638
 3056.0000     0.2060     8.6637    -0.0032     2.5127    76.7312   -46.9672   -47.1058     5.5974     5.5548     5.8136
 3056.5000     0.2084     8.6512    -0.0046     2.5143    76.0900   -46.6494   -48.4240     5.8820     5.7963     6.2801
 3057.0000     0.2075     8.6531    -0.0132     2.5002    75.6808   -46.6358   -49.7415     6.1383     6.0483     6.5081
 3057.5000     0.2068     8.6402    -0.0190     2.4944    75.2635   -46.4702   -51.0589     6.1874     6.0128     6.4702
 3058.0000     0.2104     8.6573    -0.0233     2.4860    75.2960   -46.4527   -44.8121     5.9827     5.9364     6.0860
 3058.5000     0.2169     8.6589    -0.0201     2.4786    75.3344   -46.4369   -46.4595     5.7448     5.7023     5.6852
 3059.0000     0.2229     8.6610    -0.0154     2.4756    75.5900   -46.5703   -39.8835     5.5126     5.3636     5.4959
 3059.5000     0.2261     8.6629    -0.0137     2.4727    76.2941   -46.5505   -41.5302     5.2971     5.2226     5.4280
 3060.0000     0.2264     8.6647    -0.0195     2.4714    79.4645   -46.8371   -50.4127     5.1575     5.1548     5.5492
 3060.5000     0.2237     8.6667    -0.0284     2.4798    79.9443   -47.1198   -51.7302     5.0578     5.0554     5.6326
 3061.0000     0.2227     8.6685    -0.0206     2.4874    79.7515   -47.4025   -53.0477     4.9921     5.0204     5.5611
 3061.5000     0.2255     8.6705    -0.0054     2.4905    79.1103   -47.6852   -54.3871     4.8943     4.8949     5.3777
 3062.0000     0.2334     8.6727     0.0008     2.4883    78.4690   -47.9642   -63.5768     4.8332     4.8314     5.2004
