~VERSION INFORMATION
 VERS.                2.0:   CWLS LOG ASCII STANDARD - VERSION 2.0
 WRAP.                 NO:   ONE LINE PER DEPTH STEP
~WELL INFORMATION
#MNEM.UNIT      DATA TYPE    INFORMATION
#----------   ------------   ------------------------------
 STRT.F          216.0000:   START DEPTH
 STOP.F         3241.0000:   STOP DEPTH
 STEP.F            0.5000:   STEP LENGTH
 NULL.          -999.2500:   NO VALUE
 COMP.    FENIX & SCISSON:   COMPANY
 WELL.    FENIX "A" #72-4:   WELL
 FLD .             NPR #3:   FIELD
 LOC .       S4 T38N R78W:   LOCATION
 CNTY.            NATRONA:   COUNTY
 STAT.            WYOMING:   STATE
 CTRY. UNITED STATES OF AMERICA:   COUNTRY
 SRVC.              WELEX:   SERVICE COMPANY
 DATE.        09-JUL-1977:   LOGDATE
 API .     49025103900000:   API NUMBER
~CURVE INFORMATION
#MNEM.UNIT       API CODE    CURVE DESCRIPTION
#----------   ------------   ------------------------------
 DEPT.F                  :   
 CORR.G/C3   45 356 01 00:   DENSITY CORRECTION
 GRD .GAPI   45 310 01 00:   GAMMA RAY FROM DENSITY LOG
 RHOB.G/C3   45 350 01 00:   BULK DENSITY
 CALD.IN     45 280 60 00:   CALIPER FROM DENSITY LOG
 SPR .MV     07 010 01 00:   SPONTANEOUS POTENTIAL
 ILD .OHMM   07 120 46 00:   DEEP INDUCTION RESISTIVITY
 ILM .OHMM   07 120 44 00:   INDUCTION LOG MEDIUM RESISTIVITY
 SGRD.OHMM   07 220 05 00:   SHALLOW SHORT GUARD RESISTIVITY
~PARAMETER INFORMATION
#MNEM.UNIT          VALUE    DESCRIPTION
#----------   ------------   ------------------------------
 EKB .F         5192.0000:   Kelly bushing
 EGL .F         5182.0000:   Ground level
 TD  .F         3243.0000:   Total depth
 CLNT.            A2DTECH:   Client Code
 SL  . 990' FNL & 990' FEL:   Surface Location
 PD  .                 GL:   Permanent Datum
 EPD .F              5182:   Elevation Permanent Datum
 LMF .                 KB:   Log Measured From
 DMF .                 KB:   Drilling Measured From
 DAPD.F                10:   Feet Above Permanent Datum
 DATE.        09-JUL-1977:   Date Logged [DD-MMM-YYYY]
 DD  .F              3230:   Depth driller
 DL  .F              3243:   Depth logger
 BLI .F              3241:   Bottom log interval
 TLI .F               224:   Top log interval
 CS1 .IN            8.625:   Casing size
 CBD1.      8.625" @ 221':   Casing driller 1
 CBL1.F               224:   Casing logger 1
 BS1 .IN            7.875:   Bit size
 BSD1.F              3230:   Depth drilled with bit1
 DFT .                KCL:   Type fluid in hole
 DFD .                8.9:   Density
 DFV .                 44:   Viscosity
 DFPH.                7.5:   pH
 DFL .                5.8:   Fluid loss
 MSS .            MUD PIT:   Source of sample
 RMS .OHMM           0.24:   Rm
 MST .F                68:   Rm Meas. temp.
 RMF .OHMM           0.20:   Rmf
 MFST.F                68:   Rmf Meas. temp.
 MFSS.               MEAS:   Source Rmf.
 RMC .OHMM           0.31:   Rmc
 MCST.F                68:   Rmc Meas. temp.
 MCSS.               MEAS:   Source Rmc.
 RMB .OHMM           0.13:   Rm. at BHT
 BHT .F               117:   BHT.
 TCS .HRS               3:   Time Circ. stopped
 MRT .F               117:   Maximum recorded temp.
 LUN .               8766:   Logging unit number
 LUL .             CASPER:   Logging unit location
 ENGI.          T. JOYNER:   Recorded By
 WITN.         HARRINGTON:   Witnessed by
 ORIG.           5" PRINT:   Origin of data
 UWI .     49025103900000:   Unique Well ID
 DICO. A2D TECHNOLOGIES, INC.:   Digitizing Company
~OTHER INFORMATION
~A   DEPT     CORR         GRD        RHOB     CALD        SPR        ILD        ILM       SGRD   
# ...
 2808.0000     0.0227    91.3383     2.4920    10.5562   -57.1115    16.5562    36.7957    18.0870
 2808.5000     0.0235    92.5574     2.4890    10.5577   -57.3843    16.5675    30.3008    17.7187
 2809.0000     0.0235    93.7765     2.4944    10.5290   -57.6571    16.3457    27.0963    16.7672
 2809.5000     0.0236    92.9140     2.5067    10.5003   -57.9299    15.6897    23.3565    15.8668
 2810.0000     0.0237    94.7287     2.5133    10.4418   -58.2027    14.9537    23.0472    15.0011
 2810.5000     0.0237    96.2453     2.5104    10.3832   -58.4755    14.2523    23.7141    14.2921
 2811.0000     0.0245    95.9669     2.5044    10.3546   -58.7483    13.6784    22.1437    14.0158
 2811.5000     0.0253    97.1920     2.4993    10.3262   -59.0211    13.3110    18.5100    14.0194
 2812.0000     0.0261    99.9008     2.4986    10.3273   -59.2939    12.9537    14.3386    14.1197
 2812.5000     0.0277   102.0136     2.5009    10.3136   -59.5667    12.7821    11.4190    14.1226
 2813.0000     0.0293   101.7407     2.5034    10.2846   -59.8395    12.5114    15.7096    14.1254
 2813.5000     0.0293   100.8739     2.5063    10.2708   -60.1124    12.1065    20.1674    13.4598
 2814.0000     0.0271   100.9002     2.5079    10.2422   -60.3852    12.0277    20.4887    13.3689
 2814.5000     0.0256   101.8212     2.5072    10.2436   -60.6580    11.8699    15.1014    13.4652
 2815.0000     0.0235   101.8480     2.5017    10.2448   -60.9308    11.7926    12.7879    13.2827
 2815.5000     0.0258   100.9855     2.4947    10.2460   -61.2035    11.6364    13.7082    13.0123
 2816.0000     0.0281   103.0983     2.4993    10.2356   -61.4766    11.4822    23.4049    13.1151
 2816.5000     0.0304   104.3168     2.5083    10.2185   -61.7503    11.3316    23.9121    13.6648
 2817.0000     0.0320   105.2373     2.5174    10.2155   -62.0211    11.2594    19.3085    14.6476
 2817.5000     0.0335   105.5616     2.5250    10.1909   -62.2681    11.0334    13.0240    14.7517
 2818.0000     0.0299   105.5879     2.5296    10.1775   -62.3152    10.8872    10.0176    13.0262
 2818.5000     0.0262   105.9122     2.5237    10.1637   -62.3698    10.5827    13.7840    12.0732
 2819.0000     0.0262   106.2366     2.5147    10.1303   -62.4253    10.2986    13.9832    11.5842
 2819.5000     0.0278   105.3687     2.5118    10.1061   -62.4801    10.0349    10.2503    11.4266
 2820.0000     0.0278   105.0969     2.5158    10.1075   -62.5369     9.7654    10.1492    11.6694
 2820.5000     0.0264   106.3658     2.5227    10.0937   -62.5969     9.5032    10.6335    12.1670
 2821.0000     0.0227   107.5350     2.5241    10.0800   -62.6122     9.2468     9.6402    12.4249
 2821.5000     0.0183   107.5668     2.5152    10.0812   -62.4490     8.9997     8.3793    11.9996
 2822.0000     0.0146   106.4008     2.4943    10.0835   -62.2668     8.8792     7.2280    11.4950
 2822.5000     0.0132   106.4271     2.4876    10.1137   -62.4446     8.7616     6.8434    10.8251
 2823.0000     0.0147   107.9437     2.4832    10.1148   -62.4438     8.6465     6.7527    10.5315
 2823.5000     0.0148   107.6719     2.4817    10.1158   -62.3212     8.4145     6.7585    10.3887
 2824.0000     0.0149   107.0955     2.4758    10.1172   -62.1793     8.2456     6.8573    10.3908
 2824.5000     0.0134   109.5128     2.4752    10.1182   -62.0369     8.0755     7.2025    10.4652
 2825.0000     0.0127   111.3758     2.4798    10.1194   -61.8956     7.8631     7.4611    10.6133
 2825.5000     0.0113   110.7571     2.4859    10.1000   -61.7568     7.7589     7.3636    10.8383
 2826.0000     0.0105   109.2936     2.4934    10.0919   -61.6386     7.7105     7.2673    11.1450
 2826.5000     0.0122   108.7237     2.4980    10.0782   -61.3404     7.6084     6.6928    10.9180
 2827.0000     0.0152   110.3402     2.5011    10.0645   -61.0482     7.4556     5.7119    10.6199
 2827.5000     0.0190   112.0616     2.5042    10.0657   -60.7585     7.3060     5.5189    10.0306
 2828.0000     0.0213   112.6840     2.5087    10.0671   -60.4693     7.2092     5.4492     9.3814
 2828.5000     0.0236   111.2199     2.5103    10.0683   -60.1799     7.1622     5.4538     9.1269
 2829.0000     0.0259   110.0540     2.5134    10.0545   -59.8906     7.2673     5.6107     9.1288
 2829.5000     0.0267   108.5899     2.5172    10.0405   -59.6013     7.4759     6.5377     9.1306
 2830.0000     0.0260   107.7220     2.5181    10.0418   -59.3119     7.7981     7.6179     9.4542
 2830.5000     0.0254   106.5560     2.5166    10.0431   -59.0226     8.2527     8.0570    10.3470
 2831.0000     0.0232   106.5823     2.5152    10.0442   -58.7332     8.7441     8.5214    12.0522
 2831.5000     0.0225   108.6950     2.5123    10.0454   -58.4437     9.4876     8.9504    13.7498
 2832.0000     0.0211   110.5097     2.5049    10.0466   -58.1544    10.1750     9.5982    14.4357
 2832.5000     0.0204   108.1021     2.4958    10.0478   -57.8655    10.6874    10.0814    14.0442
 2833.0000     0.0197   106.9855     2.4817    10.0191   -57.5733    11.2256    10.5159    13.4706
 2833.5000     0.0190   106.4156     2.4752     9.9969   -57.5594    11.6283    10.9731    13.6928
 2834.0000     0.0190   105.5543     2.4715     9.9769   -57.6517    11.7972    11.4506    13.9565
 2834.5000     0.0206   104.0837     2.4664     9.9632   -57.8675    11.8859    11.7730    13.7666
 2835.0000     0.0207   106.2030     2.4545     9.9644   -57.8639    11.9752    11.8628    13.4870
 2835.5000     0.0222   108.0176     2.4508     9.9354   -57.8720    11.8987    11.8708    13.3967
 2836.0000     0.0230   107.7393     2.4531     9.9216   -57.9889    11.9053    11.9614    13.2151
 2836.5000     0.0238   107.1694     2.4577     9.8932   -58.1086    11.8226    12.7387    13.4021
 2837.0000     0.0254   107.7984     2.4630     9.8646   -58.2263    11.7406    13.3777    13.7813
 2837.5000     0.0263   109.0169     2.4691     9.8359   -58.3422    11.5982    11.8210    13.5945
 2838.0000     0.0270   109.3413     2.4793     9.8221   -58.4976    11.5258    14.0631    13.1346
 2838.5000     0.0286   108.4734     2.4933     9.8084   -58.6577    11.4349    14.7711    13.1372
 2839.0000     0.0301   108.5995     2.5001     9.7946   -58.7290    11.2991    14.9871    13.2313
 2839.5000     0.0309   109.7247     2.5054     9.7958   -58.8813    11.1509    13.8022    13.2340
 2840.0000     0.0317   109.4530     2.5092     9.7972   -59.0902    11.0016    12.3530    13.0552
 2840.5000     0.0303   106.7967     2.5108     9.7683   -59.2957    10.8559    12.9777    12.7011
 2841.0000     0.0289   105.6241     2.5094     9.7697   -59.4241    10.7133    15.2398    12.7037
 2841.5000     0.0274   107.4454     2.5042     9.7560   -59.6976    10.6451    16.1182    12.7946
 2842.0000     0.0260   108.0678     2.5066     9.7571   -59.8266    10.5773    15.7978    12.9756
 2842.5000     0.0246   108.3921     2.5067     9.7583   -60.0862    10.7311    13.0240    13.0685
 2843.0000     0.0246   108.4672     2.5060     9.7442   -60.0620    10.7371    11.0385    12.9803
 2843.5000     0.0239   107.2524     2.5083     9.7457   -60.2986    10.5946    10.6686    12.8050
 2844.0000     0.0217   106.0864     2.5099     9.7469   -60.4231    10.3833    12.2625    12.5442
 2844.5000     0.0188   106.7343     2.5055     9.7630   -61.0986    10.1735    13.5191    12.1198
 2845.0000     0.0174   107.6304     2.5010     9.7642   -61.2420    10.0387    14.1018    11.9446
 2845.5000     0.0165   106.7680     2.5011     9.7656   -61.5141     9.9071    14.3080    11.7935
 2846.0000     0.0160   105.3039     2.5050     9.7516   -61.7542     9.7745    14.3178    11.8784
 2846.5000     0.0161   105.3302     2.5013     9.7530   -61.9848     9.7811    13.7348    12.0466
 2847.0000     0.0176   105.0584     2.4984     9.7242   -62.2111     9.7865    12.9258    11.9659
 2847.5000     0.0199   103.8924     2.5007     9.7255   -62.4376     9.7918    12.8432    11.7222
 2848.0000     0.0222   103.0180     2.5046     9.7267   -62.6646    10.0032    13.7751    11.4043
