~VERSION INFORMATION
 VERS.                2.0:   CWLS LOG ASCII STANDARD - VERSION 2.0
 WRAP.                 NO:   ONE LINE PER DEPTH STEP
~WELL INFORMATION
#MNEM.UNIT      DATA TYPE    INFORMATION
#----------   ------------   ------------------------------
 STRT.F           11.0000:   START DEPTH
 STOP.F         3368.0000:   STOP DEPTH
 STEP.F            0.5000:   STEP LENGTH
 NULL.          -999.2500:   NO VALUE
 COMP. LAWRENCE ALLISON AND ASSOC.:   COMPANY
 WELL. LAWRENCE NPR "AX" #3-11:   WELL
 FLD .                NPR:   FIELD
 LOC .      S11 T38N R78W:   LOCATION
 CNTY.            NATRONA:   COUNTY
 STAT.            WYOMING:   STATE
 CTRY. UNITED STATES OF AMERICA:   COUNTRY
 SRVC.      DRESSER ATLAS:   SERVICE COMPANY
 DATE.        17-JAN-1986:   LOGDATE
 API .     49025110540000:   API NUMBER
~CURVE INFORMATION
#MNEM.UNIT       API CODE    CURVE DESCRIPTION
#----------   ------------   ------------------------------
 DEPT.F                  :   
 TEND.LBS    45 635 01 00:   TENSION FROM DENSITY LOG
 DEN .G/C3   45 350 01 00:   BULK DENSITY
 CORR.G/C3   45 356 01 00:   DENSITY CORRECTION
 CNC .DEC    42 890 03 00:   NEUTRON PORISITY SANDSTONE
 TENR.LBS    07 635 01 00:   TENSION FROM RESISTIVITY
 CALR.IN     07 280 01 00:   CALIPER FROM RESISTIVITY
 SPR .MV     07 010 01 00:   SPONTANEOUS POTENTIAL
 GRR .GAPI   07 310 01 00:   GAMMA RAY FROM RESISTIVITY
 RFOC.OHMM   07 220 04 00:   RESISTIVITY FOCUSED LOG RES.
 RILD.OHMM   07 120 46 00:   INDUCTION LOG DEEP RESISTIVITY
 RILM.OHMM   07 120 44 00:   INDUCTION LOG MEDIUM RESISTIVITY
 TENS.LBS    60 635 01 00:   TENSION FROM SONIC
 AC  .US/F   60 250 00 00:   ACCOUSTIC
~PARAMETER INFORMATION
#MNEM.UNIT          VALUE    DESCRIPTION
#----------   ------------   ------------------------------
 EKB .F         5195.5000:   Kelly bushing
 EGL .F         5183.2000:   Ground level
 EDF .F         5194.5000:   Drilling floor
 TD  .F         3360.0000:   Total depth
 DATE.        17-JAN-1986:   Date logged
 CLNT.            A2DTECH:   Client Code
 SL  . 2389' FSL & 461'FWL:   Surface Location
 PD  .                 GL:   Permanent Datum
 EPD .F            5183.2:   Elevation Permanent Datum
 LMF .                 KB:   Log Measured From
 DMF .                 KB:   Drilling Measured From
 DAPD.F              12.3:   Feet Above Permanent Datum
 DD  .F              3360:   Depth driller
 DL  .F              3358:   Depth logger
 BLI .F              3356:   Bottom log interval
 TLI .F               575:   Top log interval
 CS1 .IN            8.625:   Casing size
 CBD1.      8.625" @ 575':   Casing driller 1
 CBL1.F               575:   Casing logger 1
 BS1 .IN            7.875:   Bit size
 BSD1.F              3360:   Depth drilled with bit1
 DFT .        POLYMER-KCL:   Type fluid in hole
 DFD .                  9:   Density
 DFV .                 36:   Viscosity
 DFPH.                  9:   pH
 DFL .                9.5:   Fluid loss
 MSS .           FLOWLINE:   Source of sample
 RMS .OHMM           .633:   Rm
 MST .F                68:   Rm Meas. temp.
 RMF .OHMM           .475:   Rmf
 MFST.F                68:   Rmf Meas. temp.
 RMC .OHMM           .791:   Rmc
 MCST.F                68:   Rmc Meas. temp.
 RMB .OHMM            .44:   Rm. at BHT
 BHT .F                98:   BHT.
 TCS .HRS               4:   Time Circ. stopped
 MRT .F                98:   Maximum recorded temp.
 LUN .               6264:   Logging unit number
 LUL .               GLTE:   Logging unit location
 ENGI.             MILLER:   Recorded By
 WITN.             STRONG:   Witnessed by
 ORIG.        2" 5" PRINT:   Origin of data
 UWI .     49025110540000:   Unique Well ID
 DICO. A2D TECHNOLOGIES, INC.:   Digitizing Company
~OTHER INFORMATION
~A   DEPT     TEND        DEN       CORR        CNC       TENR       CALR        SPR         GRR      RFOC       RILD       RILM       TENS         AC   
# ...
 2793.0000   -74.2970     2.5080     0.0210     0.1930   -60.4330     8.3210   -56.0510    84.6740    12.1240    10.8630    10.2310   -55.9490    72.7480
 2793.5000   -74.2970     2.5090     0.0200     0.1900   -58.7710     8.3260   -55.6230    81.4220    12.4340    10.5940    10.1540   -48.8700    72.6480
 2794.0000   -74.2970     2.5100     0.0010     0.1820   -70.1020     8.3310   -55.1850    79.6950    12.3280    10.3260    10.0780   -46.2960    72.1470
 2794.5000   -74.2970     2.5120    -0.0180     0.1760   -81.4320     8.3310   -54.7450    87.6490    12.2170    10.0580    10.0010   -49.8360    71.7450
 2795.0000   -74.2970     2.5130    -0.0230     0.1760   -82.4770     8.3300   -54.2830    90.6020    12.0950     9.7230     9.8510   -53.3750    71.7450
 2795.5000   -74.2970     2.5150    -0.0230     0.1800   -79.4090     8.3290   -53.7570    90.8930    12.2440     9.2340     9.6310   -49.4360    71.8770
 2796.0000   -74.2970     2.5180    -0.0050     0.1850   -76.3400     8.3290   -53.1970    91.1450    12.4100     8.7450     9.2540   -40.4270    72.0430
 2796.5000   -74.2970     2.5220     0.0010     0.1910   -76.8540     8.3280   -52.9890    93.0340    11.7410     8.1590     8.6990   -34.7850    72.2470
 2797.0000   -74.2970     2.5340     0.0200     0.1990   -81.7640     8.3270   -53.2330    97.9930    10.9330     7.5570     8.1430   -46.3960    72.6910
 2797.5000   -76.1550     2.5440     0.0400     0.2070   -86.6730     8.3270   -53.4730   106.3210    10.1240     6.9540     7.5880   -54.8050    73.9060
 2798.0000   -81.1040     2.5510     0.0530     0.2150   -91.5830     8.3260   -53.7140   116.4490     9.3160     6.3390     7.0330   -62.9560    75.6290
 2798.5000   -83.6650     2.5550     0.0650     0.2250   -95.2920     8.3250   -53.9580   126.7020     8.5080     6.0870     6.4770   -70.0340    77.3520
 2799.0000   -81.7270     2.5550     0.0740     0.2390   -96.9310     8.3250   -54.0660   135.1060     7.6990     5.7610     5.8880   -70.8210    78.8670
 2799.5000   -79.7880     2.5520     0.0690     0.2440   -98.5710     8.3240   -54.0680   142.4970     6.8250     5.5620     5.7610   -58.4330    80.4220
 2800.0000   -77.8500     2.5400     0.0510     0.2430  -100.2110     8.3230   -54.0060   137.0140     6.5780     5.4080     5.6250   -61.7570    81.5460
 2800.5000   -75.9110     2.5270     0.0300     0.2440  -101.8500     8.3230   -53.9220   130.3260     6.8640     5.1740     5.4190   -71.5900    82.5780
 2801.0000   -73.9730     2.5230     0.0100     0.2480  -103.4900     8.3220   -53.8370   124.7610     7.1830     5.2960     5.4420   -81.4230    82.2770
 2801.5000   -72.0340     2.5260     0.0170     0.2480  -100.5010     8.3220   -53.7520   124.5710     7.4850     5.5510     5.6090   -64.8150    81.5750
 2802.0000   -70.0960     2.5300     0.0240     0.2410   -84.0680     8.3210   -53.6780   131.9860     7.3330     5.8070     5.9120   -57.9750    80.4710
 2802.5000   -68.1580     2.5260     0.0310     0.2300   -67.6350     8.3200   -53.8140   138.6640     7.1890     6.0630     6.2160   -49.8000    80.2710
 2803.0000   -66.2190     2.5180     0.0310     0.2200   -65.6620     8.3200   -53.9530   133.9590     7.0160     6.3220     6.5510   -44.7950    80.0700
 2803.5000   -64.2570     2.5150     0.0120     0.2090   -66.9260     8.3190   -54.0540   118.9920     8.2070     6.6680     7.0050   -44.7950    78.9670
 2804.0000   -65.5080     2.5170    -0.0040     0.1970   -68.1900     8.3180   -53.9550   105.7150     9.6940     7.0140     7.4580   -45.7960    77.3900
 2804.5000   -66.7750     2.5260     0.0070     0.1910   -69.4540     8.3180   -53.8600    96.1010    11.5490     7.3610     7.9120   -48.6810    75.3010
 2805.0000   -68.0410     2.5350     0.0170     0.1940   -70.7180     8.3170   -53.7660    90.8220    11.2500     7.7070     8.3170   -51.5660    73.5010
 2805.5000   -69.3080     2.5450     0.0260     0.2020   -71.9820     8.3160   -53.6710    91.2120    10.8530     8.0530     8.6330   -54.8050    72.4470
 2806.0000   -70.5750     2.5480     0.0360     0.2100   -73.2460     8.3160   -53.5780    96.2690    10.4560     8.4390     8.9490   -50.2740    72.6770
 2806.5000   -71.8410     2.5500     0.0390     0.2180   -74.5110     8.3150   -53.4800    99.7020    10.0580     8.4390     9.4270   -45.1110    73.3500
 2807.0000   -73.1080     2.5490     0.0340     0.2170   -75.9790     8.3140   -53.0370    98.3620     9.6920     8.4390     9.3040   -39.9480    73.9520
 2807.5000   -74.2970     2.5480     0.0300     0.2170   -77.4730     8.3140   -52.5470    96.9870     9.9810     8.4100     9.0510   -34.7850    74.3100
 2808.0000   -73.2890     2.5480     0.0260     0.2140   -78.9670     8.3130   -52.1090    95.5900    10.2490     8.3680     8.7980   -42.5290    74.2420
 2808.5000   -72.3390     2.5540     0.0220     0.2080   -80.4610     8.3120   -52.4800    97.1020    10.5170     8.2790     8.5440   -50.2740    73.8840
 2809.0000   -71.3890     2.5580     0.0190     0.2030   -81.9550     8.3120   -52.8670    99.0390    10.8270     8.0900     8.2910   -58.0190    73.6080
 2809.5000   -70.4390     2.5620     0.0160     0.1950   -83.4490     8.3120   -53.2510   101.0130    10.6420     7.9010     8.0370   -64.8150    73.4850
 2810.0000   -69.4890     2.5600     0.0180     0.1970   -81.4870     8.3130   -53.6340   104.8530    10.4290     7.7120     7.7840   -68.1510    73.5670
 2810.5000   -68.5400     2.5530     0.0220     0.2030   -64.0870     8.3150   -54.0190   111.9490     9.8680     7.5540     7.6420   -46.3520    73.8520
 2811.0000   -67.5900     2.5400     0.0260     0.2110   -46.6870     8.3160   -54.3610   118.1140     9.0480     7.6120     7.8260   -24.5520    75.1080
 2811.5000   -66.6400     2.5270     0.0310     0.2190   -29.2880     8.3170   -54.6600   123.2970     7.8380     7.6610     7.9840    -2.7530    76.4590
 2812.0000   -65.6900     2.5260     0.0350     0.2250   -37.7650     8.3180   -54.8650   119.5050     8.2410     7.6950     7.8210     5.2550    77.1640
 2812.5000   -64.7400     2.5270     0.0370     0.2260   -55.9280     8.3200   -54.8610   112.6230     9.0100     7.5100     7.6450   -18.7690    77.5630
 2813.0000   -64.9930     2.5280     0.0270     0.2210   -74.0900     8.3210   -54.8590   109.1840     9.7790     7.4160     7.4850   -48.1980    76.9220
 2813.5000   -66.4900     2.5330     0.0220     0.2150   -92.2530     8.3220   -54.6620   109.4290    10.3380     7.4570     7.5840   -84.8350    76.1580
 2814.0000   -67.9870     2.5400     0.0240     0.2130   -86.0930     8.3230   -54.4380   109.1550    10.0390     7.5070     7.6750   -84.8350    75.5570
 2814.5000   -69.4840     2.5480     0.0250     0.2200   -73.1200     8.3250   -54.2470   107.9130     9.7590     7.5940     7.7660   -53.3030    75.8580
 2815.0000   -70.9810     2.5440     0.0220     0.2280   -60.1470     8.3260   -54.1850   107.7790     9.4780     7.6810     7.8570   -25.7130    76.5200
 2815.5000   -72.4780     2.5350     0.0200     0.2300   -47.1730     8.3270   -54.1200   109.2090     9.0850     7.7670     7.9480     5.2550    77.0610
 2816.0000   -73.9750     2.5280     0.0170     0.2290   -53.7000     8.3280   -54.0130   109.0210     9.2380     7.8540     8.0320     5.2550    77.3800
 2816.5000   -75.1580     2.5260     0.0150     0.2300   -65.0760     8.3300   -53.7260   107.2530     9.4930     7.9410     8.1130   -13.6330    77.6630
 2817.0000   -76.2560     2.5350     0.0140     0.2280   -76.4530     8.3310   -53.4350   105.6410     9.7480     8.0280     8.1940   -28.5610    77.3620
 2817.5000   -77.3540     2.5450     0.0180     0.2180   -87.8300     8.3200   -53.1410   105.5220    10.0040     8.1150     8.2740   -43.4890    76.8610
 2818.0000   -78.4520     2.5530     0.0210     0.1980   -99.2060     8.3330   -52.7440   107.0600    10.2590     8.2080     8.3610   -58.4170    76.4590
 2818.5000   -79.5490     2.5530     0.0240     0.2010   -96.8780     8.3300   -52.1290   109.5020    10.4340     8.1920     8.3880   -62.6590    75.4560
