~VERSION INFORMATION
 VERS.                2.0:   CWLS LOG ASCII STANDARD - VERSION 2.0
 WRAP.                 NO:   ONE LINE PER DEPTH STEP
~WELL INFORMATION
#MNEM.UNIT      DATA TYPE    INFORMATION
#----------   ------------   ------------------------------
 STRT.F          210.5000:   START DEPTH
 STOP.F         3234.0000:   STOP DEPTH
 STEP.F            0.5000:   STEP LENGTH
 NULL.          -999.2500:   NO VALUE
 COMP.    FENIX & SCISSON:   COMPANY
 WELL.   FENIX "A" #21-10:   WELL
 FLD .              NPR-3:   FIELD
 LOC .      S10 T38N R78W:   LOCATION
 CNTY.            NATRONA:   COUNTY
 STAT.            WYOMING:   STATE
 CTRY. UNITED STATES OF AMERICA:   COUNTRY
 SRVC.      DRESSER ATLAS:   SERVICE COMPANY
 DATE.        31-AUG-1977:   LOGDATE
 API .     49025104260000:   API NUMBER
~CURVE INFORMATION
#MNEM.UNIT       API CODE    CURVE DESCRIPTION
#----------   ------------   ------------------------------
 DEPT.F                  :   
 GRD .GAPI   45 310 01 00:   GAMMA RAY FROM DENSITY LOG
 CALD.IN     45 280 60 00:   CALIPER FROM DENSITY LOG
 RHOB.G/C3   45 350 01 00:   BULK DENSITY
 CORR.G/C3   45 356 01 00:   DENSITY CORRECTION
 SPR .MV     11 010 01 00:   SPONTANEOUS POTENTIAL
 LLS .OHMM   11 220 09 00:   LATEROLOG SHALLOW
 LLD .OHMM   11 220 10 00:   LATEROLOG DEEP
 TEND.LBS    45 635 01 00:   TENSION FROM DENSITY LOG
 TENR.LBS    07 635 01 00:   TENSION
~PARAMETER INFORMATION
#MNEM.UNIT          VALUE    DESCRIPTION
#----------   ------------   ------------------------------
 EKB .F         5258.0000:   Kelly bushing
 EGL .F         5248.0000:   Ground level
 EDF .F            0.0000:   Drilling floor
 TD  .F         3222.0000:   Total depth
 DATE.        31-AUG-1977:   Date logged
 CLNT.            A2DTECH:   Client Code
 SL  . 330' FNL & 990' FWL:   Surface Location
 PD  .                 GL:   Permanent Datum
 EPD .F              5248:   Elevation Permanent Datum
 LMF .                 KB:   Log Measured From
 DMF .                 KB:   Drilling Measured From
 DAPD.F                10:   Feet Above Permanent Datum
 DD  .F              3222:   Depth driller
 DL  .F              3219:   Depth logger
 BLI .F              3218:   Bottom log interval
 TLI .F               221:   Top log interval
 CS1 .IN             8.75:   Casing size
 CBD1.       8.75" @ 219':   Casing driller 1
 CBL1.F               221:   Casing logger 1
 BS1 .IN            7.875:   Bit size
 BSD1.F              3222:   Depth drilled with bit1
 DFT .                KCL:   Type fluid in hole
 DFD .                9.1:   Density
 DFV .                 36:   Viscosity
 DFPH.                 11:   pH
 DFL .                  8:   Fluid loss
 MSS .           FLOWLINE:   Source of sample
 RMS .OHMM           0.14:   Rm
 MST .F                72:   Rm Meas. temp.
 RMF .OHMM           0.08:   Rmf
 MFST.F                72:   Rmf Meas. temp.
 RMC .OHMM           0.20:   Rmc
 MCST.F                72:   Rmc Meas. temp.
 MFSS.               CALC:   Source Rmf.
 MCSS.               CALC:   Source Rmc.
 RMB .OHMM           0.08:   Rm. at BHT
 BHT .F               125:   BHT.
 TCS .HRS               3:   Time Circ. stopped
 MRT .F               125:   Maximum recorded temp.
 LUN .               6080:   Logging unit number
 LUL .              WLSTN:   Logging unit location
 ENGI.               RALL:   Recorded By
 WITN.         PETTINGILL:   Witnessed by
 ORIG.           5" PRINT:   Origin of data
 UWI .     49025104260000:   Unique Well ID
 DICO. A2D TECHNOLOGIES, INC.:   Digitizing Company
~OTHER INFORMATION
~A   DEPT      GRD       CALD       RHOB       CORR        SPR        LLS        LLD       TEND        TENR  
# ...
 2218.0000   119.1480     8.0740     2.4740     0.0110   -80.6160    13.3400    13.7150   373.1800   486.5940
 2218.5000   118.7060     8.0710     2.4750     0.0110   -80.8120    13.5330    13.8820   372.9990   486.5940
 2219.0000   116.3120     8.0680     2.4770     0.0110   -81.1530    13.7460    14.1280   372.8190   486.5940
 2219.5000   112.9350     8.0660     2.4790     0.0120   -81.4960    14.2570    14.5730   372.6390   486.5940
 2220.0000   109.7950     8.0630     2.4800     0.0120   -81.8430    14.6550    14.9770   372.4590   486.5940
 2220.5000   109.1510     8.0600     2.4810     0.0120   -82.1920    14.5900    15.3400   372.2790   486.5940
 2221.0000   108.5750     8.0580     2.4790     0.0130   -82.2080    14.3730    14.9900   372.0990   486.5940
 2221.5000   107.6030     8.0550     2.4770     0.0130   -82.0860    14.1570    14.6720   371.9190   486.5940
 2222.0000   105.6500     8.0520     2.4760     0.0140   -81.8620    13.9410    14.3540   371.7390   486.5940
 2222.5000   108.1040     8.0500     2.4750     0.0140   -81.6370    13.7460    14.1280   371.5590   486.5940
 2223.0000   111.2300     8.0470     2.4760     0.0140   -81.4120    13.6210    14.1280   371.3790   486.5940
 2223.5000   114.4720     8.0440     2.4780     0.0140   -81.2140    13.7890    14.2580   371.1990   486.5940
 2224.0000   115.0340     8.0420     2.4790     0.0140   -81.2120    13.9770    14.3990   371.0190   486.5940
 2224.5000   115.2680     8.0470     2.4800     0.0130   -81.2470    14.1640    14.5550   370.8390   486.5940
 2225.0000   116.4750     8.0520     2.4760     0.0120   -81.5510    14.3890    14.7110   370.6590   486.5940
 2225.5000   116.1160     8.0580     2.4700     0.0120   -81.8590    14.3890    14.7890   370.4790   486.5940
 2226.0000   114.5300     8.0630     2.4650     0.0110   -82.1670    13.9740    14.6840   370.2990   486.5940
 2226.5000   114.8160     8.0690     2.4660     0.0110   -82.4740    13.3800    14.1970   370.1190   486.5940
 2227.0000   115.2180     8.0740     2.4710     0.0100   -82.7790    12.7870    13.5420   369.9380   486.5940
 2227.5000   113.2170     8.0800     2.4750     0.0100   -83.0070    12.1930    12.8880   369.7580   486.5940
 2228.0000   111.3060     8.0850     2.4790     0.0090   -83.0080    11.6590    12.4300   369.5780   486.5940
 2228.5000   109.3970     8.0910     2.4780     0.0090   -82.7540    12.2680    12.7390   369.3980   487.0210
 2229.0000   107.4500     8.0960     2.4770     0.0080   -82.3690    12.8210    13.3570   369.2180   487.4950
 2229.5000   106.3950     8.1020     2.4760     0.0080   -82.0770    13.3740    13.9750   369.0380   487.9690
 2230.0000   105.6290     8.1070     2.4720     0.0070   -81.4920    13.8720    14.6550   368.8580   488.4440
 2230.5000   102.9560     8.1130     2.4680     0.0060   -80.9280    14.0000    14.4820   368.6780   488.9180
 2231.0000   100.9620     8.1180     2.4680     0.0060   -80.6220    13.8450    14.2360   368.4980   489.3920
 2231.5000    99.3040     8.1240     2.4710     0.0060   -80.7490    13.5370    13.9900   368.3180   489.8670
 2232.0000    98.9430     8.1290     2.4710     0.0060   -81.3320    13.2280    13.7440   368.1380   490.3410
 2232.5000   101.5140     8.1350     2.4700     0.0060   -81.9040    12.9530    13.6210   367.9580   490.8150
 2233.0000   105.6010     8.1400     2.4690     0.0060   -82.4720    12.8930    13.6470   367.7780   491.2900
 2233.5000   110.0720     8.1460     2.4680     0.0060   -82.8010    13.0770    13.6990   367.5980   491.7640
 2234.0000   113.0910     8.1510     2.4660     0.0060   -82.8010    13.2180    13.7520   367.4180   492.2380
 2234.5000   116.0490     8.1570     2.4660     0.0060   -82.8020    13.3740    13.8040   367.2380   492.7130
 2235.0000   118.5090     8.1610     2.4660     0.0050   -82.7500    13.1900    13.8720   367.0580   493.1870
 2235.5000   116.9600     8.1600     2.4690     0.0040   -82.4850    12.8220    13.5680   366.8780   493.6610
 2236.0000   113.8560     8.1590     2.4720     0.0030   -82.2260    12.4540    13.1340   366.6970   494.1360
 2236.5000   111.2640     8.1570     2.4750     0.0020   -81.9680    12.0860    12.7000   366.5170   494.6100
 2237.0000   111.4940     8.1560     2.4720     0.0010   -81.8050    11.7190    12.2650   366.3370   495.0840
 2237.5000   109.5810     8.1550     2.4690    -0.0010   -81.9610    11.3510    11.8740   364.7520   495.5590
 2238.0000   107.0710     8.1540     2.4660    -0.0020   -82.1430    11.1560    11.7660   362.7640   496.0330
 2238.5000   107.9350     8.1520     2.4630    -0.0030   -82.3270    11.0370    11.8740   360.7760   496.5070
 2239.0000   107.7600     8.1510     2.4600    -0.0040   -82.4070    11.7790    12.3530   358.7880   496.9810
 2239.5000   106.0430     8.1500     2.4570    -0.0060   -82.1780    12.4540    13.0910   356.8000   497.4560
 2240.0000   105.1350     8.1490     2.4560    -0.0070   -81.8820    13.1290    13.8290   354.8120   497.9300
 2240.5000   108.0920     8.1470     2.4550    -0.0080   -81.5530    13.8720    14.7890   352.8240   498.4040
 2241.0000   111.3080     8.1460     2.4530    -0.0090   -81.4140    14.0000    14.6550   350.8360   498.8790
 2241.5000   114.9050     8.1450     2.4530    -0.0120   -81.5170    13.8150    14.2700   348.8480   499.3530
 2242.0000   116.8750     8.1440     2.4530    -0.0110   -81.6940    13.5510    13.9120   346.8590   499.8270
 2242.5000   112.3990     8.1430     2.4530    -0.0110   -81.8110    13.2870    13.5530   344.8710   500.3020
 2243.0000   108.0740     8.1410     2.4560    -0.0100   -81.8070    13.0230    13.2520   342.8830   500.7760
 2243.5000   103.8100     8.1400     2.4590    -0.0090   -81.6730    12.7590    12.9690   340.8950   501.2500
 2244.0000   100.6670     8.1390     2.4620    -0.0090   -81.2730    12.4950    12.7130   338.9070   501.7250
 2244.5000   101.5110     8.1380     2.4650    -0.0080   -81.0060    12.2050    12.4300   336.9190   502.1990
 2245.0000   104.8880     8.1360     2.4680    -0.0080   -81.0550    12.4000    12.4300   334.9310   502.6730
 2245.5000   108.3490     8.1350     2.4700    -0.0070   -81.4590    12.6780    12.8720   332.9430   503.1480
 2246.0000   110.3870     8.1340     2.4730    -0.0070   -81.9320    12.9560    13.3620   330.9540   503.6220
 2246.5000   111.9910     8.1330     2.4760    -0.0060   -82.3960    13.3740    14.0000   328.9660   504.0960
 2247.0000   113.5670     8.1310     2.4740    -0.0050   -82.8020    13.2210    13.8200   326.9780   504.5710
 2247.5000   112.8400     8.1300     2.4720    -0.0030   -82.8040    12.9170    13.4610   327.1310   505.0450
 2248.0000   111.4970     8.1290     2.4700    -0.0030   -82.8330    12.6120    13.1020   327.9650   505.5190
 2248.5000   109.7940     8.1280     2.4700    -0.0030   -82.8740    12.3080    12.7430   328.8000   505.9940
 2249.0000   106.8600     8.1260     2.4690    -0.0030   -82.9150    12.0030    12.3840   329.6340   506.4680
 2249.5000   105.6320     8.1250     2.4690    -0.0030   -82.9570    11.6990    12.1490   330.4680   506.9420
 2250.0000   106.5740     8.1240     2.4690    -0.0030   -83.0000    11.3940    11.9630   331.3020   507.4170
 2250.5000   107.3440     8.1230     2.4690    -0.0030   -83.0020    11.1380    11.7770   332.1360   507.8910
 2251.0000   105.4390     8.1210     2.4720    -0.0020   -83.0010    11.0120    11.5910   332.9700   508.3650
 2251.5000   103.3020     8.1200     2.4740    -0.0020   -83.0090    10.9600    11.4060   333.8040   508.8400
 2252.0000   101.3290     8.1190     2.4770    -0.0020   -83.1650    10.9080    11.3390   334.6380   509.3140
 2252.5000   100.9680     8.1180     2.4790    -0.0020   -83.3180    10.8570    11.3220   335.4720   509.7880
 2253.0000   102.5330     8.1170     2.4810    -0.0020   -83.4710    10.8050    11.3050   336.3060   510.2620
 2253.5000   104.6360     8.1150     2.4810    -0.0020   -83.6240    10.7530    11.2880   337.1400   510.7370
 2254.0000   106.7530     8.1140     2.4800    -0.0020   -83.7650    10.7020    11.2710   337.9740   511.2110
