~VERSION INFORMATION
 VERS.                2.0:   CWLS LOG ASCII STANDARD - VERSION 2.0
 WRAP.                 NO:   ONE LINE PER DEPTH STEP
~WELL INFORMATION
#MNEM.UNIT      DATA TYPE    INFORMATION
#----------   ------------   ------------------------------
 STRT.F            0.0000:   START DEPTH
 STOP.F         3040.0000:   STOP DEPTH
 STEP.F            0.5000:   STEP LENGTH
 NULL.          -999.2500:   NO VALUE
 COMP.    FENIX & SCISSON:   COMPANY
 WELL.  FENIX "AX" #43-28:   WELL
 FLD .             TEAPOT:   FIELD
 LOC .      S28 T39N R78W:   LOCATION
 CNTY.            NATRONA:   COUNTY
 STAT.            WYOMING:   STATE
 CTRY. UNITED STATES OF AMERICA:   COUNTRY
 SRVC.              WELEX:   SERVICE COMPANY
 DATE.        20-JUL-1980:   LOGDATE
 API .     49025108450000:   API NUMBER
~CURVE INFORMATION
#MNEM.UNIT       API CODE    CURVE DESCRIPTION
#----------   ------------   ------------------------------
 DEPT.F                  :   
 GRD .GAPI   45 310 01 00:   GAMMA RAY FROM DENSITY LOG
 CALD.IN     45 280 60 00:   CALIPER FROM DENSITY LOG
 RHOB.G/C3   45 350 01 00:   BULK DENSITY
 CORR.G/C3   45 356 01 00:   DENSITY CORRECTION
 SPR .MV     07 010 01 00:   SPONTANEOUS POTENTIAL
 ILD .OHMM   07 120 46 00:   DEEP INDUCTION RESISTIVITY
 ILM .OHMM   07 120 44 00:   INDUCTION LOG MEDIUM RESISTIVITY
 SGRD.OHMM   07 220 05 00:   SHALLOW SHORT GUARD RESISTIVITY
 NEUT.CPS    35 330 30 00:   NEUTRON
~PARAMETER INFORMATION
#MNEM.UNIT          VALUE    DESCRIPTION
#----------   ------------   ------------------------------
 EKB .F         5042.0000:   Kelly bushing
 EGL .F         5032.0000:   Ground level
 EDF .F            0.0000:   Drilling floor
 TD  .F         3038.0000:   Total depth
 DATE.        20-JUL-1980:   Date logged
 CLNT.            A2DTECH:   Client Code
 SL  . 1500' FNL & 2500' FWL:   Surface Location
 PD  .                 GL:   Permanent Datum
 EPD .F              5032:   Elevation Permanent Datum
 LMF .                 KB:   Log Measured From
 DMF .                 KB:   Drilling Measured From
 DD  .F              3000:   Depth driller
 DL  .F              3038:   Depth logger
 BLI .F              3036:   Bottom log interval
 TLI .F               432:   Top log interval
 CS1 .IN            8.625:   Casing size
 CBD1.      8.625" @ 443':   Casing driller 1
 CBL1.F               432:   Casing logger 1
 BS1 .IN            7.875:   Bit size
 BSD1.F              3000:   Depth drilled with bit1
 DFT .     WATER BASE MUD:   Type fluid in hole
 DFD .                9.3:   Density
 DFV .                 45:   Viscosity
 DFPH.                  9:   pH
 DFL .                  8:   Fluid loss
 MSS .                PIT:   Source of sample
 RMS .OHMM           0.85:   Rm
 MST .F                75:   Rm Meas. temp.
 RMF .OHMM           0.68:   Rmf
 MFST.F                75:   Rmf Meas. temp.
 RMC .OHMM           1.02:   Rmc
 MCST.F                75:   Rmc Meas. temp.
 MFSS.               MEAS:   Source Rmf.
 MCSS.               MEAS:   Source Rmc.
 RMB .OHMM           0.57:   Rm. at BHT
 BHT .F               112:   BHT.
 TCS .HRS               3:   Time Circ. stopped
 MRT .F               112:   Maximum recorded temp.
 LUN .               9865:   Logging unit number
 LUL .             CASPER:   Logging unit location
 ENGI.            TOTHILL:   Recorded By
 WITN.           DINSMORE:   Witnessed by
 ORIG.     2.5", 5" PRINT:   Origin of data
 UWI .     49025108450000:   Unique Well ID
 DICO. A2D TECHNOLOGIES, INC.:   Digitizing Company
~OTHER INFORMATION
~A    DEPT     GRD       CALD       RHOB       CORR        SPR        ILD        ILM       SGRD        NEUT  
# ...
 1460.0000    75.2420     8.9820     2.5320     0.0020   -21.9330     8.3780     8.7680     8.9750   282.7230
 1460.5000    75.1490     8.9820     2.5280    -0.0010   -21.9290     8.3600     8.7560     8.9750   268.5140
 1461.0000    75.1470     8.9820     2.5260    -0.0020   -21.6820     8.3390     8.7430     8.9750   285.6620
 1461.5000    75.1480     8.9820     2.5240    -0.0040   -21.3710     8.3380     8.7310     8.9740   264.4170
 1462.0000    75.1480     8.9820     2.5210    -0.0050   -21.0590     8.3370     8.7180     8.9740   279.6470
 1462.5000    75.1480     8.9820     2.5190    -0.0060   -20.7510     8.3380     8.7050     8.9730   272.0260
 1463.0000    75.1480     8.9820     2.5230    -0.0030   -20.4440     8.3370     8.6930     8.9750   255.4360
 1463.5000    75.1480     8.9820     2.5270     0.0010   -20.1290     8.3370     8.6810     8.9730   268.7720
 1464.0000    75.1480     8.9820     2.5280     0.0050   -19.8240     8.3370     8.6670     8.9780   279.9320
 1464.5000    75.1460     8.9820     2.5280     0.0070   -19.5770     8.3370     8.6520     8.9660   295.8590
 1465.0000    75.0950     8.9820     2.5300     0.0070   -19.8290     8.3370     8.6700     9.1220   292.0090
 1465.5000    74.8530     8.9790     2.5320     0.0060   -20.1750     8.3370     8.7090     9.3980   283.1440
 1466.0000    74.6150     8.9750     2.5350     0.0050   -20.5250     8.3370     8.7450    10.7900   285.7720
 1466.5000    74.3780     8.9710     2.5390     0.0040   -20.8650     8.3370     8.7820    10.1850   264.9040
 1467.0000    74.1390     8.9670     2.5420     0.0040   -21.2200     8.3370     8.8110     8.9750   287.3320
 1467.5000    73.9000     8.9640     2.5410     0.0050   -21.5540     8.3370     8.8110     9.0310   299.4290
 1468.0000    73.6860     8.9600     2.5410     0.0070   -21.9100     8.3370     8.8110     9.1000   269.2260
 1468.5000    73.9570     8.9560     2.5420     0.0090   -21.9330     8.3380     8.8110     9.1420   245.3370
 1469.0000    74.2410     8.9520     2.5440     0.0120   -21.9410     8.3310     8.8110     9.1420   307.9560
 1469.5000    74.5210     8.9480     2.5470     0.0150   -21.9340     8.3190     8.8110     9.1420   289.8970
 1470.0000    74.7880     8.9440     2.5450     0.0110   -21.9360     8.3070     8.8110     9.1420   271.7200
 1470.5000    75.3250     8.9390     2.5400     0.0070   -21.9370     8.2960     8.8110     9.1420   251.9660
 1471.0000    75.8940     8.9330     2.5420     0.0030   -21.9360     8.2840     8.8110     9.1420   257.6330
 1471.5000    76.4680     8.9270     2.5470     0.0050   -21.9330     8.2720     8.8110     9.1420   269.5390
 1472.0000    77.0410     8.9230     2.5530     0.0150   -21.9520     8.2610     8.8110     9.1650   281.4560
 1472.5000    77.6140     8.9230     2.5560     0.0200   -21.7620     8.2490     8.8110     9.1880   293.3570
 1473.0000    78.1860     8.9240     2.5570     0.0210   -21.3270     8.2380     8.8110     9.2110   306.9260
 1473.5000    78.7630     8.9070     2.5570     0.0190   -20.9140     8.2260     8.8110     9.2340   286.6680
 1474.0000    78.9830     8.8860     2.5560     0.0170   -20.6380     8.2140     8.8110     9.2580   271.1200
 1474.5000    78.9870     8.9400     2.5540     0.0150   -20.4700     8.2030     8.8110     9.2810   281.5470
 1475.0000    78.9770     9.0100     2.5560     0.0130   -20.2740     8.1910     8.8110     9.3040   271.5380
 1475.5000    78.6660     8.9680     2.5570     0.0140   -20.1120     8.1800     8.8110     9.3270   249.9060
 1476.0000    78.3420     8.9060     2.5590     0.0150   -20.0300     8.1680     8.8110     9.3500   260.5240
 1476.5000    78.0190     8.9220     2.5570     0.0150   -20.8630     8.1560     8.8110     9.3740   279.9100
 1477.0000    77.6970     8.9540     2.5520     0.0100   -21.5430     8.1450     8.8110     9.3970   297.2640
 1477.5000    77.3740     8.9940     2.5470     0.0050   -22.2990     8.1330     8.8110     9.4200   279.9330
 1478.0000    77.0500     8.9930     2.5470     0.0010   -22.4680     8.1220     8.8110     9.4430   318.1140
 1478.5000    76.8070     8.9700     2.5460     0.0010   -22.6330     8.1100     8.8130     9.4660   312.3900
 1479.0000    76.6190     8.9470     2.5410     0.0010   -22.7770     8.0990     8.7930     9.4850   289.0190
 1479.5000    76.4310     8.9240     2.5350    -0.0030   -22.9220     8.0870     8.7580     9.4850   273.1010
 1480.0000    76.2420     8.9230     2.5300    -0.0080   -23.0830     8.0750     8.7230     9.4850   279.3100
 1480.5000    76.0530     8.9230     2.5300    -0.0070   -22.8200     8.0650     8.6920     9.0360   269.9990
 1481.0000    75.8640     8.9230     2.5300    -0.0060   -22.4140     8.0530     8.6520     8.8110   272.4200
 1481.5000    75.6750     8.9260     2.5280    -0.0040   -21.9640     8.0360     8.6950     8.8110   284.1920
 1482.0000    75.4790     8.9420     2.5290    -0.0030   -21.9280     8.1070     8.7480     8.7110   282.9720
 1482.5000    75.5710     8.9590     2.5320    -0.0010   -21.9960     8.2250     8.8010     8.6500   274.8430
 1483.0000    75.7330     8.9800     2.5320     0.0010   -21.1940     8.3430     8.8540     8.9810   292.8670
 1483.5000    75.8960     9.0000     2.5320     0.0030   -19.9480     8.4610     8.9080     9.3120   286.9370
 1484.0000    76.0390     8.9550     2.5350     0.0050   -19.9820     8.6500     8.9720     9.2920   304.7190
 1484.5000    76.0940     8.9060     2.5390     0.0050   -19.9560     8.6260     8.9230     9.2730   318.6750
 1485.0000    76.1980     8.8930     2.5400     0.0050   -19.9590     8.5660     8.8630     9.2540   289.8670
 1485.5000    76.3030     8.9170     2.5380     0.0030   -19.9670     8.5060     8.8000     9.2340   291.1600
 1486.0000    76.4090     8.9420     2.5360     0.0000   -19.9500     8.4460     8.7380     9.2150   266.0330
 1486.5000    76.5160     8.9660     2.5340    -0.0020   -20.1310     8.3860     8.6500     9.1960   273.0630
 1487.0000    76.6140     8.9810     2.5330    -0.0040   -20.5070     8.3370     8.6990     9.1770   281.0100
 1487.5000    76.3430     8.9760     2.5350    -0.0020   -20.8120     8.3770     8.7810     9.1570   271.8980
 1488.0000    76.0530     8.9720     2.5390     0.0000   -21.5990     8.4760     8.8630     9.1420   284.7350
 1488.5000    75.7540     8.9680     2.5410     0.0020   -22.3270     8.5740     8.9450     9.1420   297.9500
 1489.0000    75.3900     8.9640     2.5430     0.0040   -22.7680     8.6730     9.0270     9.4090   310.7910
 1489.5000    75.0210     8.9460     2.5480     0.0060   -22.7140     8.8110     9.1090     9.8540   324.3410
 1490.0000    74.6500     8.9230     2.5530     0.0080   -22.7280     8.7520     9.1420    10.2100   309.9560
 1490.5000    74.2780     8.9000     2.5590     0.0140   -22.7250     8.6530     9.0430     9.6810   293.2570
 1491.0000    74.3450     8.8780     2.5600     0.0150   -22.7370     8.5550     8.9620     9.2400   304.5070
 1491.5000    74.4410     8.8550     2.5550     0.0130   -22.5900     8.4560     8.8800     8.9750   301.2380
 1492.0000    74.5370     8.8450     2.5480     0.0070   -22.2910     8.3370     8.7980     8.9830   274.1760
 1492.5000    74.7660     8.8450     2.5420     0.0020   -22.0160     8.3370     8.7160     8.9960   297.4410
 1493.0000    75.1520     8.8460     2.5350    -0.0030   -21.7350     8.3370     8.6500     9.0090   319.3280
 1493.5000    75.5390     8.8540     2.5300    -0.0030   -21.4570     8.3240     8.6310     9.0220   345.5240
 1494.0000    75.9370     8.8620     2.5330     0.0000   -21.1560     8.3080     8.6140     9.0350   290.5400
 1494.5000    76.0870     8.8700     2.5380     0.0020   -20.8570     8.2910     8.5980     9.0480   296.0260
 1495.0000    76.1950     8.8780     2.5430     0.0020   -20.5270     8.2750     8.5810     9.0610   312.1000
 1495.5000    76.2990     8.8840     2.5450     0.0030   -20.1970     8.2580     8.5650     9.0740   286.7500
 1496.0000    76.4040     8.8840     2.5440     0.0040   -19.9550     8.2410     8.5480     9.0870   309.9960
