~VERSION INFORMATION
 VERS.                2.0:   CWLS LOG ASCII STANDARD - VERSION 2.0
 WRAP.                 NO:   ONE LINE PER DEPTH STEP
~WELL INFORMATION
#MNEM.UNIT      DATA TYPE    INFORMATION
#----------   ------------   ------------------------------
 STRT.F          172.0000:   START DEPTH
 STOP.F         3376.0000:   STOP DEPTH
 STEP.F            0.5000:   STEP LENGTH
 NULL.          -999.2500:   NO VALUE
 COMP.    FENIX & SCISSON:   COMPANY
 WELL. FENIX NPR 3 "AX" #23-2:   WELL
 FLD .                NPR:   FIELD
 LOC .       S2 T38N R78W:   LOCATION
 CNTY.            NATRONA:   COUNTY
 STAT.            WYOMING:   STATE
 CTRY. UNITED STATES OF AMERICA:   COUNTRY
 SRVC.              WELEX:   SERVICE COMPANY
 DATE.        02-DEC-1980:   LOGDATE
 API .     49025108740000:   API NUMBER
~CURVE INFORMATION
#MNEM.UNIT       API CODE    CURVE DESCRIPTION
#----------   ------------   ------------------------------
 DEPT.F                  :   
 CALD.IN     45 280 60 00:   CALIPER FROM DENSITY LOG
 CORR.G/C3   45 356 01 00:   DENSITY CORRECTION
 GRD .GAPI   45 310 01 00:   GAMMA RAY FROM DENSITY LOG
 RHOB.G/C3   45 350 01 00:   BULK DENSITY
 TENR.LBS    07 635 01 00:   TENSION
 SPR .MV     07 010 01 00:   SPONTANEOUS POTENTIAL
 SGRD.OHMM   07 220 05 00:   SHALLOW GUARD
 ILD .OHMM   07 120 46 00:   INDUCTION LOG DEEP RESISTIVITY
 ILM .OHMM   07 120 44 00:   INDUCTION LOG MEDIUM RESISTIVITY
~PARAMETER INFORMATION
#MNEM.UNIT          VALUE    DESCRIPTION
#----------   ------------   ------------------------------
 EKB .F         5133.0000:   Kelly bushing
 EGL .F         5123.0000:   Ground level
 EDF .F            0.0000:   Drilling floor
 TD  .F         3375.0000:   Total depth
 DATE.        02-DEC-1980:   Date logged
 CLNT.            A2DTECH:   Client Code
 SL  . 3800' FSL & 827' FWL:   Surface Location
 PD  .                 GL:   Permanent Datum
 EPD .F              5123:   Elevation Permanent Datum
 LMF .                 KB:   Log Measured From
 DMF .                 KB:   Drilling Measured From
 DAPD.F                10:   Feet Above Permanent Datum
 DD  .F              3375:   Depth driller
 DL  .F              3373:   Depth logger
 BLI .F              3371:   Bottom log interval
 TLI .F               181:   Top log interval
 CS1 .IN            8.625:   Casing size
 CBD1.      8.625" @ 181':   Casing driller 1
 CBL1.F               181:   Casing logger 1
 BS1 .IN            7.875:   Bit size
 BSD1.F              3375:   Depth drilled with bit1
 DFT .           CHEM/GEL:   Type fluid in hole
 DFD .                8.8:   Density
 DFV .                 45:   Viscosity
 DFPH.                  9:   pH
 DFL .                 16:   Fluid loss
 MSS .           FLOWLINE:   Source of sample
 RMS .OHMM           1.25:   Rm
 MST .F                64:   Rm Meas. temp.
 RMF .OHMM           1.17:   Rmf
 MFST.F                64:   Rmf Meas. temp.
 RMC .OHMM            1.1:   Rmc
 MCST.F                64:   Rmc Meas. temp.
 MFSS.               MEAS:   Source Rmf.
 MCSS.               MEAS:   Source Rmc.
 RMB .OHMM            .67:   Rm. at BHT
 BHT .F               120:   BHT.
 TCS .HRS               2:   Time Circ. stopped
 MRT .F               120:   Maximum recorded temp.
 LUN .               1892:   Logging unit number
 LUL .             CASPER:   Logging unit location
 ENGI.  PFRIMMER/MONNAHAN:   Recorded By
 WITN.              FIVAS:   Witnessed by
 ORIG.           5" PRINT:   Origin of data
 UWI .     49025108740000:   Unique Well ID
 DICO. A2D TECHNOLOGIES, INC.:   Digitizing Company
~OTHER INFORMATION
~A   DEPT     CALD       CORR         GRD      RHOB       TENR        SPR       SGRD        ILD        ILM   
# ...
 3347.5000     8.1520     0.0420   131.2460     2.5350   -97.1430   -18.7770     5.1240     4.5720     4.7650
 3348.0000     8.1540     0.0410   128.7920     2.5290   -96.9610   -18.6870     5.4580     4.6090     4.8260
 3348.5000     8.1560     0.0410   126.3440     2.5210   -96.7790   -18.5980     5.4580     4.6450     4.8870
 3349.0000     8.1580     0.0400   124.3280     2.5140   -96.5980   -18.5070     5.4580     4.6820     4.9470
 3349.5000     8.1600     0.0390   123.4930     2.5070   -96.4160   -18.4180     5.4580     4.7180     5.0080
 3350.0000     8.1620     0.0380   123.3970     2.5060   -96.2350   -18.3320     5.4850     4.7550     5.0690
 3350.5000     8.1630     0.0380  -999.2500     2.5070   -96.0530   -18.2280     5.5120     4.7910     5.1300
 3351.0000     8.1650     0.0370  -999.2500     2.5070   -95.8720   -18.2910     5.5390     4.8280     5.1910
 3351.5000     8.1670     0.0360  -999.2500     2.5080   -95.6900   -18.4900     5.5650     4.8640     5.2520
 3352.0000     8.1700     0.0350  -999.2500     2.5090   -95.5090   -18.6710     5.5920     4.9010     5.3130
 3352.5000     8.1480     0.0350  -999.2500     2.5100   -95.3270   -18.8510     5.6190     4.9370     5.3740
 3353.0000     8.1200     0.0340  -999.2500     2.5110   -95.1450   -19.0390     5.6460     4.9730     5.4350
 3353.5000     8.0910     0.0330  -999.2500     2.5120   -94.9640   -19.2190     5.7050     5.0100     5.4960
 3354.0000     8.0620     0.0330  -999.2500     2.5110   -94.7820   -19.3870     5.8200     5.0460     5.5570
 3354.5000     8.0330     0.0320  -999.2500     2.5100   -94.6010   -19.4360     5.9360     5.0830     5.6180
 3355.0000     8.0450     0.0310  -999.2500     2.5080   -94.4190   -19.5150     6.0510     5.1190     5.6790
 3355.5000     8.0780     0.0300  -999.2500     2.5070   -94.2380   -19.5800     6.1670     5.1560     5.7400
 3356.0000     8.1110     0.0300  -999.2500     2.5060   -94.0560   -19.6530     6.2820     5.1920     5.8010
 3356.5000     8.1440     0.0290  -999.2500     2.5040   -93.8750   -19.7200     6.3980     5.2290     5.8620
 3357.0000     8.1770     0.0280  -999.2500     2.5030   -93.6930   -19.7950     6.5130     5.2610     5.9230
 3357.5000     8.2100     0.0280  -999.2500     2.5020   -93.5110   -19.8000     6.6290     5.2690     5.9840
 3358.0000     8.2320     0.0280  -999.2500     2.5000   -93.3300   -19.7980     6.7440     5.2780     6.0450
 3358.5000     8.2430     0.0270  -999.2500     2.4990   -93.1480   -19.8070     6.8600     5.2860     6.1060
 3359.0000     8.2550     0.0270  -999.2500     2.4980   -92.9670   -19.7190     6.9750     5.2940     6.2090
 3359.5000     8.2660     0.0270  -999.2500     2.4980   -92.7850   -19.5580     7.0910     5.3020     6.1980
 3360.0000     8.2770     0.0270  -999.2500     2.5020   -92.6040   -19.4090     7.1950     5.3100     6.1590
 3360.5000     8.2880     0.0270  -999.2500     2.5060   -92.4220   -19.2600     7.1950     5.3180     6.1210
 3361.0000     8.2980     0.0270  -999.2500     2.5090   -92.2410   -19.1080     7.0980     5.3260     6.0830
 3361.5000     8.3060     0.0280  -999.2500     2.5130   -92.0590   -18.9640     6.9880     5.3340     6.0450
 3362.0000     8.3520     0.0280  -999.2500     2.5170   -91.8770   -18.8340     6.8790     5.3430     6.0060
 3362.5000     8.3620     0.0280  -999.2500     2.5200   -91.6960   -18.7030     6.7700     5.3510     5.9680
 3363.0000     8.3850     0.0280  -999.2500     2.5240   -91.5140   -18.5750     6.6600     5.3580     5.9300
 3363.5000     8.4070     0.0290  -999.2500     2.5280   -91.3330   -18.4410     6.5510     5.3580     5.8920
 3364.0000     8.4300     0.0300  -999.2500     2.5310   -91.1510   -18.3140     6.4410     5.3340     5.8540
 3364.5000     8.4520     0.0310  -999.2500     2.5340   -90.9700   -18.2140     6.3320     5.3060     5.8150
 3365.0000     8.4750     0.0320  -999.2500     2.5370   -90.7880   -18.3430     6.2230     5.2770     5.7770
 3365.5000     8.4950     0.0330  -999.2500     2.5400   -90.6070   -18.4580     6.1130     5.2490     5.7390
 3366.0000     8.4950     0.0340  -999.2500     2.5420   -90.4250   -18.5840     6.0040     5.2200     5.7010
 3366.5000  -999.2500  -999.2500  -999.2500  -999.2500   -90.2430   -18.7050     5.8750     5.1920     5.6620
 3367.0000  -999.2500  -999.2500  -999.2500  -999.2500   -90.0620   -18.8260     5.7700     5.1630     5.6240
 3367.5000  -999.2500  -999.2500  -999.2500  -999.2500   -89.8800   -18.9500     5.6420     5.1350     5.5860
 3368.0000  -999.2500  -999.2500  -999.2500  -999.2500   -89.6990   -19.0700     5.5150     5.1070     5.5480
 3368.5000  -999.2500  -999.2500  -999.2500  -999.2500   -89.5170   -19.1910     5.3870     5.0780     5.5100
 3369.0000  -999.2500  -999.2500  -999.2500  -999.2500   -89.3360   -19.3270     5.2600     5.0500     5.4710
 3369.5000  -999.2500  -999.2500  -999.2500  -999.2500   -89.1540   -19.3800     5.1320     5.0210     5.4330
 3370.0000  -999.2500  -999.2500  -999.2500  -999.2500   -88.9730   -19.2810     5.0040     4.9930     5.3950
 3370.5000  -999.2500  -999.2500  -999.2500  -999.2500   -88.7910   -19.1940     4.8770     4.9650     5.3570
 3371.0000  -999.2500  -999.2500  -999.2500  -999.2500   -88.6090   -19.1090     4.7980     4.9360     5.3180
 3371.5000  -999.2500  -999.2500  -999.2500  -999.2500   -88.4280   -19.0080     4.7980     4.9080     5.2800
 3372.0000  -999.2500  -999.2500  -999.2500  -999.2500   -88.2460   -19.0010     4.8620     4.8790     5.2420
 3372.5000  -999.2500  -999.2500  -999.2500  -999.2500   -88.0650   -18.9990     4.9170     4.8510     5.2040
 3373.0000  -999.2500  -999.2500  -999.2500  -999.2500   -87.8830   -19.0010     4.9720     4.8220     5.1660
 3373.5000  -999.2500  -999.2500  -999.2500  -999.2500   -87.7020   -19.0000     5.0260     4.7940     5.1270
 3374.0000  -999.2500  -999.2500  -999.2500  -999.2500   -87.5200   -19.0000     5.0810     4.7660     5.0890
 3374.5000  -999.2500  -999.2500  -999.2500  -999.2500   -87.3390   -19.0000     5.1360     4.7370     5.0510
 3375.0000  -999.2500  -999.2500  -999.2500  -999.2500   -87.1570   -19.0000     5.1910     4.7090     5.0130
 3375.5000  -999.2500  -999.2500  -999.2500  -999.2500   -86.9750   -19.0000     5.2490     4.6810     4.9740
 3376.0000  -999.2500  -999.2500  -999.2500  -999.2500   -86.7940   -19.0000     5.2230     4.6520     4.9360
