~VERSION INFORMATION
 VERS.                2.0:   CWLS LOG ASCII STANDARD - VERSION 2.0
 WRAP.                 NO:   ONE LINE PER DEPTH STEP
~WELL INFORMATION
#MNEM.UNIT      DATA TYPE    INFORMATION
#----------   ------------   ------------------------------
 STRT.F          150.0000:   START DEPTH
 STOP.F         2929.0000:   STOP DEPTH
 STEP.F            0.5000:   STEP LENGTH
 NULL.          -999.2500:   NO VALUE
 COMP.    FENIX & SCISSON:   COMPANY
 WELL.    FENIX AX #12-28:   WELL
 FLD .        TEAPOT DOME:   FIELD
 LOC .      S28 T39N R78W:   LOCATION
 CNTY.            NATRONA:   COUNTY
 STAT.            WYOMING:   STATE
 CTRY. UNITED STATES OF AMERICA:   COUNTRY
 SRVC.           BIRDWELL:   SERVICE COMPANY
 DATE.        06-JUN-1978:   LOGDATE
 API .     49025106420000:   API NUMBER
~CURVE INFORMATION
#MNEM.UNIT       API CODE    CURVE DESCRIPTION
#----------   ------------   ------------------------------
 DEPT.F                  :   
 SPR .MV     05 010 01 00:   SPONTANEOUS POTENTIAL
 SN  .OHMM   05 040 16 00:   SHORT NORMAL 16"
 ILD .OHMM   05 120 46 00:   INDUCTION LOG DEEP RESISTIVITY
 RHOB.G/C3   45 350 01 00:   BULK DENSITY
 CORR.G/C3   45 356 01 00:   DENSITY CORRECTION
 GRD .GAPI   45 310 01 00:   GAMMA RAY FROM DENSITY LOG
 CALD.IN     45 280 60 00:   CALIPER FROM DENSITY LOG
~PARAMETER INFORMATION
#MNEM.UNIT          VALUE    DESCRIPTION
#----------   ------------   ------------------------------
 EKB .F         5000.0000:   Kelly bushing
 EGL .F         4990.0000:   Ground level
 EDF .F            0.0000:   Drilling floor
 EPD .F         5005.0000:   Permanent datum
 TD  .F         2911.0000:   Total depth
 DATE.        06-JUN-1978:   Date logged
 CLNT.            A2DTECH:   Client Code
 SL  . 1250' FNL & 225' FWL:   Surface Location
 PD  .                 GL:   Permanent Datum
 LMF .                 KB:   Log Measured From
 DMF .                 KB:   Drilling Measured From
 DAPD.F                10:   Feet Above Permanent Datum
 DD  .F              2911:   Depth driller
 DL  .F              2912:   Depth logger
 BLI .F              2906:   Bottom log interval
 TLI .F               200:   Top log interval
 CS1 .IN            8.625:   Casing size
 CBD1.      8.625" @ 225':   Casing driller 1
 CBL1.F               225:   Casing logger 1
 BS1 .IN            7.875:   Bit size
 BSD1.F              2911:   Depth drilled with bit1
 DFT .       OIL BASE MUD:   Type fluid in hole
 DFD .                9.2:   Density
 DFV .                 35:   Viscosity
 DFPH.               10.5:   pH
 DFL .                  2:   Fluid loss
 TCS .HRS             3.5:   Time Circ. stopped
 LUN .               2958:   Logging unit number
 LUL .               CASP:   Logging unit location
 ENGI.            POINTER:   Recorded By
 WITN.           MCGINLEY:   Witnessed by
 ORIG.           5" PRINT:   Origin of data
 UWI .     49025106420000:   Unique Well ID
 DICO. A2D TECHNOLOGIES, INC.:   Digitizing Company
~OTHER INFORMATION
~A   DEPT      SPR         SN        ILD       RHOB       CORR         GRD      CALD   
# ...
 1469.5000   -30.1510     6.9230     5.6770     2.5460     0.0150    90.2290     9.9200
 1470.0000   -30.2540     6.9340     5.6370     2.5450     0.0160    90.4970     9.8840
 1470.5000   -30.0600     6.9520     5.5990     2.5450     0.0180    90.7650     9.8490
 1471.0000   -29.8670     6.8560     5.5600     2.5500     0.0300    91.0360     9.8140
 1471.5000   -29.6730     6.6560     5.5210     2.5560     0.0380    91.3220     9.7810
 1472.0000   -29.8560     6.5180     5.4830     2.5590     0.0400    90.7100     9.7620
 1472.5000   -30.0730     6.5180     5.4620     2.5560     0.0410    89.8880     9.7410
 1473.0000   -30.2030     6.5180     5.4490     2.5560     0.0430    90.4220     9.7200
 1473.5000   -29.8130     6.5180     5.4350     2.5610     0.0520    91.0530     9.6990
 1474.0000   -29.4210     6.5780     5.4210     2.5650     0.0610    91.0430     9.6890
 1474.5000   -29.0280     6.5780     5.4080     2.5680     0.0600    90.1350     9.7540
 1475.0000   -29.0160     6.5790     5.3940     2.5670     0.0600    89.6670     9.8180
 1475.5000   -29.2520     6.5780     5.3810     2.5630     0.0590    90.2410     9.8820
 1476.0000   -29.4880     6.5780     5.3720     2.5580     0.0580    90.4130     9.9180
 1476.5000   -29.7240     6.5780     5.3720     2.5520     0.0570    89.6970     9.9190
 1477.0000   -29.6530     6.5790     5.3720     2.5470     0.0570    89.0040     9.9200
 1477.5000   -29.2000     6.5470     5.3720     2.5450     0.0560    88.3020     9.9200
 1478.0000   -28.9550     6.5180     5.3720     2.5450     0.0550    88.0230     9.9210
 1478.5000   -29.3440     6.4890     5.3720     2.5450     0.0560    89.1560     9.9220
 1479.0000   -29.7140     6.4590     5.3720     2.5470     0.0570    90.3310     9.9230
 1479.5000   -30.0840     6.4300     5.3720     2.5500     0.0590    90.5190     9.9240
 1480.0000   -30.2570     6.3990     5.3720     2.5500     0.0550    90.6640     9.9240
 1480.5000   -30.2580     6.3900     5.3700     2.5470     0.0510    90.8130     9.9250
 1481.0000   -30.2580     6.3800     5.3630     2.5440     0.0400    90.9640     9.9260
 1481.5000   -30.2580     6.3700     5.3560     2.5360     0.0290    91.1280     9.9270
 1482.0000   -30.2580     6.3600     5.3490     2.5270     0.0220    90.6720     9.9280
 1482.5000   -30.2670     6.3500     5.3420     2.5290     0.0290    90.0140     9.9280
 1483.0000   -30.0120     6.3390     5.3360     2.5320     0.0300    90.6580     9.9290
 1483.5000   -29.7120     6.3290     5.3290     2.5330     0.0320    92.0970     9.9300
 1484.0000   -29.4080     6.3190     5.3220     2.5340     0.0370    93.5500     9.9310
 1484.5000   -29.1070     6.3090     5.3150     2.5350     0.0460    94.2150     9.9320
 1485.0000   -29.1640     6.2990     5.3080     2.5470     0.0560    94.0080     9.9330
 1485.5000   -29.2760     6.2890     5.3010     2.5560     0.0460    93.8110     9.9330
 1486.0000   -29.3860     6.2830     5.2940     2.5390     0.0330    93.1510     9.9340
 1486.5000   -29.3900     6.3900     5.2880     2.5320     0.0320    92.1360     9.9350
 1487.0000   -29.1100     6.4720     5.2810     2.5410     0.0400    91.1100     9.9360
 1487.5000   -28.8440     6.5540     5.2740     2.5500     0.0460    90.2540     9.9370
 1488.0000   -28.7500     6.6390     5.2670     2.5590     0.0470    91.9750     9.9370
 1488.5000   -28.9930     6.6060     5.2600     2.5610     0.0480    93.7320     9.9510
 1489.0000   -29.2320     6.5730     5.2530     2.5560     0.0520    95.4890     9.9660
 1489.5000   -29.4540     6.5390     5.2460     2.5500     0.0560    96.0770     9.9820
 1490.0000   -29.3110     6.5050     5.2390     2.5480     0.0600    95.1160     9.9970
 1490.5000   -29.1550     6.4710     5.2330     2.5580     0.0590    92.9900    10.0120
 1491.0000   -29.0750     6.4370     5.2260     2.5480     0.0460    91.2930    10.0280
 1491.5000   -28.9490     6.4020     5.2400     2.5290     0.0400    91.2170    10.0320
 1492.0000   -29.3380     6.4180     5.2530     2.5460     0.0370    90.8850    10.0220
 1492.5000   -29.9340     6.4390     5.2670     2.5420     0.0350    89.7130    10.0120
 1493.0000   -30.0930     6.4580     5.2800     2.5400     0.0340    89.8150    10.0020
 1493.5000   -30.2440     6.4880     5.2930     2.5420     0.0380    90.9850     9.9920
 1494.0000   -29.6060     6.5210     5.3060     2.5460     0.0490    91.4130     9.9820
 1494.5000   -28.9020     6.5530     5.3200     2.5500     0.0590    90.4780     9.9720
 1495.0000   -29.2570     6.5860     5.3560     2.5540     0.0690    89.5600     9.9630
 1495.5000   -29.6840     6.6350     5.4010     2.5600     0.0770    88.6540     9.9630
 1496.0000   -29.7310     6.6000     5.4450     2.5670     0.0710    88.3400     9.9760
 1496.5000   -29.5200     6.4730     5.4840     2.5600     0.0570    89.8960     9.9880
 1497.0000   -29.3210     6.5280     5.5150     2.5540     0.0430    91.3920    10.0010
 1497.5000   -28.6360     6.5540     5.5450     2.5470     0.0380    93.6520    10.0160
 1498.0000   -28.1260     6.5800     5.5740     2.5410     0.0390    97.3430     9.9110
 1498.5000   -28.7500     6.6050     5.5150     2.5340     0.0400   100.3020     9.7830
 1499.0000   -28.9200     6.6390     5.4450     2.5300     0.0410    99.3500     9.7810
 1499.5000   -29.0720     6.5820     5.3590     2.5230     0.0440    97.7750     9.7830
 1500.0000   -29.2220     6.4990     5.2740     2.5080     0.0470    96.1980     9.7860
 1500.5000   -29.3730     6.4150     5.2940     2.4940     0.0530    94.5960     9.7880
 1501.0000   -29.5240     6.3310     5.3170     2.4790     0.0650    93.7970     9.7900
 1501.5000   -29.6750     6.2470     5.3390     2.4590     0.0770    94.6620     9.7920
 1502.0000   -29.8290     6.1640     5.3610     2.4360     0.1000    95.4560     9.7940
 1502.5000   -29.8610     6.1200     5.3840     2.4160     0.1410    93.3220     9.7960
 1503.0000   -29.8610     6.2060     5.4060     2.4020     0.1840    93.4780     9.7960
 1503.5000   -29.8580     6.2750     5.4280     2.3930     0.2270    92.4080     9.7900
 1504.0000   -29.4300     6.3440     5.4510     2.4590     0.2870    94.3530     9.9620
 1504.5000   -29.1380     6.4120     5.4720     2.5560     0.2270    96.1280    10.3560
 1505.0000   -29.2410     6.4810     5.5300     2.5380     0.0980    95.8310     9.8880
 1505.5000   -29.3480     6.5840     5.5860     2.5260     0.0350    95.5140     9.9740
 1506.0000   -29.4500     6.7240     5.6250     2.5350     0.0310    95.1940    10.0250
 1506.5000   -29.1880     6.8650     5.6190     2.5400     0.0300    94.8910     9.8550
 1507.0000   -28.8790     7.0160     5.6150     2.5360     0.0170    94.5980     9.8570
 1507.5000   -28.6890     6.9970     5.6100     2.5380     0.0160    94.3010     9.8550
 1508.0000   -28.7700     6.9770     5.6060     2.5430     0.0150    93.7890     9.8540
 1508.5000   -28.8450     6.9560     5.6010     2.5410     0.0140    93.0460     9.8530
 1509.0000   -28.9200     6.9520     5.5960     2.5390     0.0140    92.2920     9.8510
 1509.5000   -28.9980     6.9520     5.5920     2.5440     0.0180    91.5430     9.8500
 1510.0000   -29.0640     6.9520     5.5870     2.5520     0.0210    91.0810     9.8480
 1510.5000   -28.8280     6.9520     5.5830     2.5590     0.0230    91.8490     9.8470
 1511.0000   -28.9460     6.9520     5.5780     2.5580     0.0220    92.5800     9.8460
 1511.5000   -29.2540     6.9520     5.5740     2.5550     0.0210    92.9590     9.8440
 1512.0000   -29.5780     6.9520     5.5650     2.5510     0.0190    92.1450     9.8430
 1512.5000   -29.8410     6.9520     5.5570     2.5480     0.0180    91.9440     9.8410
 1513.0000   -29.4220     6.9520     5.5490     2.5470     0.0170    92.3570     9.8400
 1513.5000   -29.0150     6.9520     5.5410     2.5450     0.0160    92.7660     9.8390
 1514.0000   -28.7240     6.9520     5.5330     2.5460     0.0150    93.1770     9.8400
 1514.5000   -29.1020     6.9520     5.5230     2.5470     0.0170    93.5320     9.8410
