~VERSION INFORMATION
 VERS.                2.0:   CWLS LOG ASCII STANDARD - VERSION 2.0
 WRAP.                 NO:   ONE LINE PER DEPTH STEP
~WELL INFORMATION
#MNEM.UNIT      DATA TYPE    INFORMATION
#----------   ------------   ------------------------------
 STRT.F          200.0000:   START DEPTH
 STOP.F         3142.0000:   STOP DEPTH
 STEP.F            0.5000:   STEP LENGTH
 NULL.          -999.2500:   NO VALUE
 COMP.    FENIX & SCISSON:   COMPANY
 WELL.  FENIX "AX" #37-10:   WELL
 FLD .              NPR-3:   FIELD
 LOC .      S10 T38N R78W:   LOCATION
 CNTY.            NATRONA:   COUNTY
 STAT.            WYOMING:   STATE
 CTRY. UNITED STATES OF AMERICA:   COUNTRY
 SRVC.              WELEX:   SERVICE COMPANY
 DATE.        19-SEP-1977:   LOGDATE
 API .     49025104190000:   API NUMBER
~CURVE INFORMATION
#MNEM.UNIT       API CODE    CURVE DESCRIPTION
#----------   ------------   ------------------------------
 DEPT.F                  :   
 CALD.IN     45 280 60 00:   CALIPER FROM DENSITY LOG
 GRD .GAPI   45 310 01 00:   GAMMA RAY FROM DENSITY LOG
 RHOB.G/C3   45 350 01 00:   BULK DENSITY
 CORR.G/C3   45 356 01 00:   DENSITY CORRECTION
 NPHI.DEC    42 890 03 00:   NEUTRON POROSITY SANDSTONE
 SPR .MV     07 010 01 00:   SPONTANEOUS POTENTIAL
 SGRD.OHMM   07 220 05 00:   SHALLOW GUARD RESISTIVITY
 ILD .OHMM   07 120 46 00:   INDUCTION LOG DEEP RESISTIVITY
 ILM .OHMM   07 120 44 00:   INDUCTION LOG MEDIUM RESISTIVITY
 TENR.LBS    07 635 01 00:   TENSION FROM RESISTIVITY
~PARAMETER INFORMATION
#MNEM.UNIT          VALUE    DESCRIPTION
#----------   ------------   ------------------------------
 EKB .F         5221.0000:   Kelly bushing
 EGL .F         5211.0000:   Ground level
 EDF .F            0.0000:   Drilling floor
 TD  .F         3150.0000:   Total depth
 DATE.        19-SEP-1977:   Date logged
 CLNT.            A2DTECH:   Client Code
 SL  . 1190' FSL & 1750' FWL:   Surface Location
 PD  .                 GL:   Permanent Datum
 DD  .F              3150:   Depth driller
 DL  .F              3146:   Depth logger
 BLI .F              3144:   Bottom log interval
 CS1 .IN            8.625:   Casing size
 CBD1.      8.625" @ 215':   Casing driller 1
 BS1 .IN            7.875:   Bit size
 DFT .            KCL/MUD:   Type fluid in hole
 DFD .                8.9:   Density
 TCS .HRS               2:   Time Circ. stopped
 MRT .F               116:   Maximum recorded temp.
 ENGI.            C. DOAK:   Recorded By
 WITN.      B. HARRINGTON:   Witnessed by
 ORIG.           5" PRINT:   Origin of data
 UWI .     49025104190000:   Unique Well ID
 DICO. A2D TECHNOLOGIES, INC.:   Digitizing Company
 DAPD.F                10:   Feet Above Permanent Datum
 BSD1.F              3150:   Depth drilled with bit1
 EPD .F              5211:   Elevation Permanent Datum
 LMF .                 KB:   Log Measured From
 DMF .                 KB:   Drilling Measured From
 TLI .F               200:   Top log interval
 CBL1.                213:   Casing logger 1
 DFV .                 37:   Viscosity
 DFPH.                 11:   pH
 DFL .                5.8:   Fluid loss
 MSS .           MEASURED:   Source of sample
 RMS .               2.82:   Rm
 MST .                 94:   Rm Meas. temp.
 RMF .               1.61:   Rmf
 MFST.                 94:   Rmf Meas. temp.
 MFSS.               MEAS:   Source Rmf.
 RMC .               3.12:   Rmc
 MCST.                 94:   Rmc Meas. temp.
 MCSS.               MEAS:   Source Rmc.
 RMB .               2.28:   Rm. at BHT
 BHT .                116:   BHT.
 LUN .               8611:   Logging unit number
 LUL .             CASPER:   Logging unit location
~OTHER INFORMATION
~A   DEPT       CALD       GRD        RHOB      CORR      NPHI        SPR       SGRD        ILD        ILM       TENR   
# ...
 2712.5000     9.4489    42.8075     2.4524     0.0045     0.1213   -34.9610    28.6390    15.2030    13.5082  1948.8436
 2713.0000     9.4292    43.2050     2.4465     0.0025     0.1309   -35.5538    21.9487    15.2051    13.2636  1948.5519
 2713.5000     9.4293    43.6026     2.4405     0.0025     0.1426   -36.1465    20.7760    14.9302    13.2648  1948.2603
 2714.0000     9.4295    44.1983     2.4425     0.0026     0.1462   -36.9376    22.1572    14.6597    12.9057  1947.9686
 2714.5000     9.4296    44.7940     2.4485     0.0026     0.1506   -37.7287    22.3636    14.2634    12.1027  1947.6769
 2715.0000     9.4297    45.5877     2.4605     0.0006     0.1514   -38.5189    19.6696    13.7508    11.4545  1947.3853
 2715.5000     9.4102    46.5796     2.4605     0.0026     0.1518   -39.5092    17.1415    13.5022    11.3509  1947.0935
 2716.0000     9.4104    47.5715     2.4565    -0.0013     0.1502   -40.4986    16.5255    13.1373    11.7774  1966.7660
 2716.5000     9.4303    48.5650     2.4545    -0.0013     0.1405   -40.6946    23.2124    13.0184    11.9974  1966.4744
 2717.0000     9.4304    49.1608     2.4545    -0.0033     0.1368   -41.4846    23.2140    13.0196    12.7969  1946.2185
 2717.5000     9.4108    49.3604     2.4585    -0.0013     0.1308   -42.2766    23.6468    13.0223    15.2204  1965.8912
 2718.0000     9.4109    49.7580     2.4645     0.0007     0.1368   -43.2660    25.2185    13.2641    15.5042  1945.6351
 2718.5000     9.4110    49.9576     2.4765     0.0027     0.1432   -43.8581    30.3046    13.2656    15.5059  1965.3080
 2719.0000     9.4310    50.1572     2.4785     0.0048     0.1468   -44.4507    25.6917    13.3895    15.3660  1945.0518
 2719.5000     9.4311    49.9584     2.4785     0.0048     0.1355   -44.8449    24.7684    13.5145    15.5095  1964.7249
 2720.0000     9.4313    49.7621     2.4785     0.0028     0.1299   -45.6359    26.1738    13.5160    15.9440  1964.4332
 2720.5000     9.4314    49.3674     2.4785     0.0048     0.1246   -45.8317    26.6619    13.6422    17.3203  1944.1765
 2721.0000     9.4314    48.7745     2.4765     0.0028     0.1230   -46.2260    26.9109    13.6438    16.8510  1943.8848
 2721.5000     9.4314    48.1817     2.4765     0.0009     0.1205   -46.6202    26.9141    13.6453    16.6993  1943.6514
 2722.0000     9.4118    47.5888     2.4745    -0.0011     0.1197   -47.2127    26.9172    13.6469    17.1671  1943.3597
 2722.5000     9.3920    47.5922     2.4726    -0.0031     0.1172   -47.4086    26.1891    13.7743    17.6485  1943.0680
 2723.0000     9.3922    48.1880     2.4706    -0.0031     0.1156   -48.0011    25.7157    13.9029    18.1425  1942.7762
 2723.5000     9.3725    48.7838     2.4646    -0.0070     0.1124   -47.9986    26.1953    14.1621    18.4812  1942.4845
 2724.0000     9.3330    48.3878     2.4626    -0.0090     0.1099   -48.7890    27.4288    14.2943    19.1746  1942.1927
 2724.5000     9.3134    47.9921     2.4547    -0.0070     0.1075   -49.1836    29.2526    14.5608    19.8941  1961.8669
 2725.0000     9.2937    47.2938     2.4507    -0.0169     0.1123   -49.1811    30.0729    14.5625    19.7146  1961.5753
 2725.5000     9.2542    46.4109     2.4407    -0.0189     0.1187   -49.3770    36.8091    14.6985    20.0822  1941.3176
 2726.0000     9.2345    46.4118     2.4338    -0.0189     0.1364   -49.5728    36.1420    14.7001    19.9010  1941.0259
 2726.5000     9.2346    46.6114     2.4358    -0.0208     0.1530   -49.7691    25.0376    14.5675    19.9033  1960.7003
 2727.0000     9.2349    47.2073     2.4428    -0.0188     0.1550   -50.1628    26.4585    14.5691    20.2744  1960.4087
 2727.5000     9.2349    47.6050     2.4468    -0.0188     0.1461   -50.1608    28.2178    14.3057    19.9079  1960.1169
 2728.0000     9.2350    47.6065     2.4498    -0.0188     0.1449   -50.3566    30.0934    14.0471    18.8432  1959.8254
 2728.5000     9.2549    47.2117     2.4577    -0.0168     0.1385   -50.3541    29.5494    13.7931    18.1655  1939.5671
 2729.0000     9.2551    46.6187     2.4826    -0.0068     0.1368   -50.3516    24.8233    13.4199    17.8370  1939.2753
 2729.5000     9.2624    46.2239     2.4936    -0.0028     0.1348   -50.5474    25.5194    13.1773    17.3557  1938.9836
 2730.0000     9.2696    45.6309     2.5076    -0.0008     0.1312   -50.7432    27.7200    12.8208    17.3569  1938.6918
 2730.5000     9.2769    44.0472     2.5185     0.0032     0.1275   -50.7407    27.4706    12.8222    16.7330  1938.4000
 2731.0000     9.2842    41.8690     2.5225     0.0032     0.1306   -50.9365    26.0008    12.4753    16.4301  1958.0754
 2731.5000     9.2915    37.3157     2.5086     0.0052     0.1314   -52.1237    19.7442    12.3627    15.5517  1957.7837
 2732.0000     9.2987    38.3073     2.5066     0.0073     0.1345   -53.1127    19.3872    12.2511    15.5535  1957.4919
 2732.5000     9.3060    40.0917     2.5166     0.0133     0.1376   -53.5068    19.7487    12.0296    15.4131  1957.2003
 2733.0000     9.3133    42.6691     2.5126     0.0113     0.1406   -54.4957    19.5705    11.8121    15.4149  1956.9087
 2733.5000     9.3206    44.6521     2.5086     0.0033     0.1437   -55.6824    20.1193    11.4925    15.5588  1956.6169
 2734.0000     9.3279    47.2296     2.4947     0.0014     0.1474   -57.0679    21.0668    11.2847    16.7468  1956.3253
 2734.5000     9.3359    49.4108     2.4927    -0.0006     0.1474   -57.4619    22.2614    10.5835    16.7480  1956.0336
 2735.0000     9.3360    50.9973     2.5007    -0.0006     0.1458   -58.2524    20.1263    10.3921    15.8526  1955.7419
 2735.5000     9.3361    51.1970     2.5047     0.0014     0.1417   -59.2413    19.7624    10.2042    13.1955  1955.5085
 2736.0000     9.3362    51.0003     2.5047     0.0014     0.1409   -59.8335    19.4051     9.7474    13.0758  1975.1849
 2736.5000     9.3363    51.3982     2.5047    -0.0005     0.1401   -60.2275    19.5859    10.0207    12.6058  1974.8933
 2737.0000     9.3365    51.5978     2.5007    -0.0025     0.1401   -60.6214    19.4091     9.8395    12.3778  1954.6334
 2737.5000     9.3366    51.7975     2.4968    -0.0025     0.1385   -61.2137    18.5409     9.5733    12.2661  1954.3417
 2738.0000     9.3368    51.9972     2.4928    -0.0005     0.1312   -62.2024    19.2362     9.5744    12.2675  1954.0500
 2738.5000     9.3569    51.9987     2.4888    -0.0044     0.1304   -62.5963    18.7158     9.5754    12.1567  1953.7583
 2739.0000     9.3569    52.5954     2.4809    -0.0144     0.1336   -63.1885    18.3774     9.5763    12.0470  1973.4353
 2739.5000     9.3570    52.5963     2.4689    -0.0203     0.1360   -63.5824    18.3795     9.1479    11.8291  1973.1436
 2740.0000     9.3571    52.5975     2.4490    -0.0263     0.1335   -64.1746    18.7222     9.4042    11.6152  1972.8521
 2740.5000     9.3374    52.4011     2.4460    -0.0263     0.1271   -64.5685    17.8843     9.3193    11.3007  1972.5604
 2741.0000     9.2781    52.2045     2.4440    -0.0282     0.1230   -64.9623    17.8863     9.2351    11.1979  1952.1830
 2741.5000     9.2584    52.2060     2.4450    -0.0282     0.1230   -65.3562    18.3879     9.2361    10.9962  1952.0079
 2742.0000     9.2189    52.2072     2.4471    -0.0260     0.1262   -65.9483    19.0780     9.2372    10.8966  1971.6855
 2742.5000     9.1794    51.4162     2.4510    -0.0242     0.1254   -66.3422    18.2241     9.2380    10.7988  1951.4244
 2743.0000     9.1399    51.4177     2.4540    -0.0242     0.1181   -66.7360    18.0596     9.2390    10.8000  1971.1022
 2743.5000     9.1202    51.2210     2.4590    -0.0222     0.1157   -67.1299    18.2283     9.0715    10.5077  1970.8105
 2744.0000     9.1005    51.4207     2.4710    -0.0222     0.1173   -67.7220    18.3985     9.0732    10.5089  1950.5492
 2744.5000     9.0610    51.8187     2.4780    -0.0142     0.1189   -68.3140    18.4006     8.9091    10.9033  1970.2273
 2745.0000     9.0413    51.8202     2.4870    -0.0122     0.1197   -68.9061    18.2350     8.9101    10.5113  1969.9355
 2745.5000     9.0414    51.4253     2.4870    -0.0102     0.1189   -69.1016    17.2592     8.9110    10.4164  1969.6439
