~VERSION INFORMATION
 VERS.                2.0:   CWLS LOG ASCII STANDARD - VERSION 2.0
 WRAP.                 NO:   ONE LINE PER DEPTH STEP
~WELL INFORMATION
#MNEM.UNIT      DATA TYPE    INFORMATION
#----------   ------------   ------------------------------
 STRT.F          494.0000:   START DEPTH
 STOP.F         4999.5000:   STOP DEPTH
 STEP.F            0.5000:   STEP LENGTH
 NULL.          -999.2500:   NO VALUE
 COMP.    FENIX & SCISSON:   COMPANY
 WELL.  FENIX "LX" #26-23:   WELL
 FLD . MPR #3 (TEAPOT DOME):   FIELD
 LOC .      S23 T38N R78W:   LOCATION
 CNTY.            NATRONA:   COUNTY
 STAT.            WYOMING:   STATE
 CTRY. UNITED STATES OF AMERICA:   COUNTRY
 SRVC.       SCHLUMBERGER:   SERVICE COMPANY
 DATE.        11-AUG-1978:   LOGDATE
 API .     49025107340000:   API NUMBER
~CURVE INFORMATION
#MNEM.UNIT       API CODE    CURVE DESCRIPTION
#----------   ------------   ------------------------------
 DEPT.F                  :   
 NPHI.DEC    42 890 03 00:   NEUTRON POROSITY SANDSTONE
 TEND.LBS    45 635 01 00:   TENSION FORM DENSITY LOG
 GRD .GAPI   45 310 01 00:   GAMMA RAY FROM DENSITY LOG
 CALD.IN     45 280 60 00:   CALIPER FROM DENSITY LOG
 DRHO.G/C3   45 356 01 00:   DENSITY CORRECTION
 RHOB.G/C3   45 350 01 00:   BULK DENSITY
 SPR .MV     07 010 01 00:   SPONTANEOUS POTENTIAL
 TENR.LBS    07 635 01 00:   TENSION FROM RESISTIVITY LOG
 ILD .OHMM   07 120 46 00:   INDUCTION LOG DEEP RESISTIVITY
 ILM .OHMM   07 120 44 00:   INDUCTION LOG MEDIUM RESISTIVITY
 SFL .OHMM   07 220 01 00:   SPHERICALLY FOCUSED LOG RESISITIVITY
~PARAMETER INFORMATION
#MNEM.UNIT          VALUE    DESCRIPTION
#----------   ------------   ------------------------------
 EKB .F         5335.0000:   Kelly bushing
 EGL .F         5325.0000:   Ground level
 EDF .F            0.0000:   Drilling floor
 EPD .F         5325.0000:   Permanent datum
 TD  .F         5000.0000:   Total depth
 CLNT.            A2DTECH:   Client Code
 SL  . 1600' FSL & 903' FWL:   Surface Location
 PD  .                 GL:   Permanent Datum
 LMF .                 KB:   Log Measured From
 DMF .                 KB:   Drilling Measured From
 DAPD.F                10:   Feet Above Permanent Datum
 DATE.        11-AUG-1978:   Date Logged [DD-MMM-YYYY]
 DD  .F              5000:   Depth driller
 DL  .F              4998:   Depth logger
 BLI .F              4992:   Bottom log interval
 TLI .F               525:   Top log interval
 CS1 .IN            9.625:   Casing size
 CBD1.      9.625" @ 521':   Casing driller 1
 CBL1.F               521:   Casing logger 1
 BS1 .IN             8.75:   Bit size
 BSD1.F              5000:   Depth drilled with bit1
 DFD .                9.1:   Density
 MSS .            MUD PIT:   Source of sample
 RMS .OHMM          0.897:   Rm
 MST .F                64:   Rm Meas. temp.
 RMF .OHMM          0.821:   Rmf
 MFST.F                64:   Rmf Meas. temp.
 MFSS.               MEAS:   Source Rmf.
 BHT .F               135:   BHT.
 TCS .HRS              03:   00:   Time Circ. stopped
 TLAB.HRS              09:   00:   Time logger at bottom
 MRT .F               135:   Maximum recorded temp.
 LUL .               CSPR:   Logging unit location
 ENGI.              CRAIG:   Recorded By
 ORIG.           5" PRINT:   Origin of data
 UWI .     49025107340000:   Unique Well ID
 DICO. A2D TECHNOLOGIES, INC.:   Digitizing Company
 DFV .                 40:   Viscosity
 DFPH.                 12:   pH
 DFL .                  4:   Fluid loss
~OTHER INFORMATION
~A  DEPTH     NPHI       TEND        GRD       CALD       DRHO       RHOB        SPR       TENR        ILD        ILM        SFL
# ...
 2019.0000     0.3205  1413.5338    91.8320    12.8182     0.2078     2.5359   -28.1881  1069.7675     6.7018     6.4568     6.4539
 2019.5000     0.3278  1413.5338    93.6909    12.8788     0.1942     2.5110   -28.1829  1069.7675     6.7471     6.5509     6.5425
 2020.0000     0.3600  1413.5338    97.4176    12.9545     0.1511     2.5005   -28.1786  1069.7675     6.8409     6.6942     6.5415
 2020.5000     0.3663  1413.5338    99.9000    12.9697     0.1102     2.4786   -27.8758  1069.7675     6.8872     6.7918     6.6316
 2021.0000     0.3564  1413.5338   101.7604    12.9697     0.0884     2.4643   -27.7223  1069.7675     6.9345     6.8416     6.7229
 2021.5000     0.3271  1413.5338   104.2414    12.9394     0.0792     2.5110   -27.4194  1085.2714     7.0309     6.6972     6.8152
 2022.0000     0.2978  1413.5338   103.6134    12.8939     0.0723     2.5253   -27.5645  1085.2714     7.1293     6.6501     6.9090
 2022.5000     0.2975  1413.5338    98.0088    12.8333     0.0678     2.5268   -27.4099  1085.2714     7.2291     6.6512     6.9559
 2023.0000     0.3068  1413.5338    93.6484    12.8030     0.0670     2.5170   -27.4057  1085.2714     7.3304     6.7022     7.0517
 2023.5000     0.3068  1413.5338    94.0690    12.7879     0.0647     2.5187   -27.2521  1069.7675     7.3800     6.8468     7.0502
 2024.0000     0.3023  1413.5338    97.3676    12.7879     0.0670     2.5222   -27.2637  1068.1154     7.4826     6.9466     7.0491
 2024.5000     0.2980  1413.5338    98.2949    12.7879     0.0768     2.5237   -27.3929  1054.2635     7.5332     7.0754     7.0479
 2025.0000     0.2971  1413.5338    97.6669    12.7576     0.1002     2.5320   -27.5378  1085.2714     7.5842     7.1506     7.0465
 2025.5000     0.3134  1413.5338    93.5518    12.6667     0.1464     2.5519   -27.6828  1085.2714     7.6356     7.2548     7.0943
 2026.0000     0.3198  1413.5338    90.4998    12.5606     0.1645     2.5598   -27.8269  1085.2714     7.6873     7.3608     7.0932
 2026.5000     0.3204  1413.5338    93.9153    12.4848     0.1637     2.5388   -28.1210  1085.2714     7.7386     7.4148     7.1413
 2027.0000     0.3137  1415.1362    97.9530    12.3788     0.1017     2.4981   -28.4142  1085.2714     7.7352     7.4691     7.2393
 2027.5000     0.3037  1413.5338    99.5024    12.4242     0.0767     2.4808   -28.5591  1069.7675     7.7877     7.4701     7.2887
 2028.0000     0.2880  1413.5338    95.7625    12.4848     0.0956     2.5131   -28.4056  1069.7675     7.8404     7.4712     7.2872
 2028.5000     0.2874  1413.5338    92.9573    12.5303     0.1258     2.5365   -27.9536  1085.2714     7.8364     7.4724     7.2857
 2029.0000     0.2955  1413.5338    91.7072    12.5606     0.1349     2.5387   -27.6397  1085.2714     7.8332     7.5272     7.2847
 2029.5000     0.3044  1413.5338    90.7682    12.5000     0.1395     2.5297   -27.1977  1085.2714     7.8863     7.4742     7.2835
 2030.0000     0.3248  1413.5338    91.3830    12.4394     0.1341     2.5126   -27.1935  1085.2714     7.9397     7.3165     7.2822
 2030.5000     0.3393  1413.5338    93.2433    12.4091     0.1228     2.4950   -27.4877  1085.2714     8.0500     7.2133     7.3313
 2031.0000     0.3375  1428.5714    93.5500    12.4242     0.1205     2.4890   -27.7821  1085.2714     8.1627     7.4244     7.3301
 2031.5000     0.3308  1428.5714    93.5426    12.4545     0.1235     2.4845   -27.9269  1085.2714     8.1012     7.5326     7.3801
 2032.0000     0.3215  1428.5714    94.5151    12.4848     0.1325     2.4806   -27.7723  1085.2714     8.1560     7.6974     7.4298
 2032.5000     0.3139  1443.6090    95.3971    12.3030     0.1333     2.4491   -27.4696  1085.2714     8.1519     7.7538     7.4802
 2033.0000     0.3042  1443.6090    97.2561    12.0606     0.1242     2.4182   -27.3160  1085.2714     8.1485     7.6995     7.5309
 2033.5000     0.2938  1458.6466    98.4943    11.6061     0.0916     2.4159   -27.1625  1069.7675     8.2626     7.6458     7.5817
 2034.0000     0.2761  1473.6842   100.0725    11.0303     0.0803     2.4347   -27.1582  1069.7675     8.4385     7.6469     7.6861
 2034.5000     0.2647  1473.6842   101.9026    10.5152     0.0788     2.4746   -27.1529  1069.7675     8.6181     7.7029     7.8457
 2035.0000     0.2574  1488.7218   103.4519    10.4545     0.0803     2.4995   -27.1486  1054.2635     8.7378     7.7040     7.8992
 2035.5000     0.2535  1488.7218   105.9344    10.4545     0.0825     2.5093   -27.2936  1054.2635     8.7343     7.8163     8.0077
 2036.0000     0.2532  1488.7218   105.9162    10.4848     0.0841     2.5123   -27.4397  1054.2635     8.7307     7.9875     8.1180
 2036.5000     0.2710  1488.7218   102.8108    10.5455     0.0848     2.5106   -27.5836  1054.2635     8.7271     8.1623     8.1727
 2037.0000     0.2791  1488.7218   102.1828    10.6061     0.0749     2.4979   -27.7393  1069.7675     8.7527     8.4008     8.2284
 2037.5000     0.2685  1488.7218   101.8659    10.7424     0.0628     2.4881   -28.0218  1085.2714     8.8742     8.4624     8.2839
 2038.0000     0.2607  1488.7218   101.8600    11.1515     0.0521     2.4814   -28.3164  1085.2714     8.8736     8.4031     8.2251
 2038.5000     0.2579  1488.7218   101.8527    11.5303     0.0461     2.4898   -28.6102  1085.2714     8.8730     8.2762     8.1671
 2039.0000     0.2640  1488.7218   101.8468    11.7727     0.0431     2.5235   -28.9045  1085.2714     8.9341     8.1098     8.2228
 2039.5000     0.2691  1488.7218   102.1534    11.9394     0.0431     2.5393   -29.1977  1085.2714     9.1211     8.2327     8.3395
 2040.0000     0.2733  1473.6842   103.3904    11.9242     0.0438     2.5514   -29.4930  1085.2714     9.1841     8.4627     8.6274
 2040.5000     0.2733  1473.6842   104.6271    11.8939     0.0574     2.5619   -29.6380  1069.7675     9.3764     8.6994     8.9297
 2041.0000     0.2755  1473.6842   102.1329    11.8788     0.0687     2.5687   -29.4834  1069.7675     9.5726     9.0050     9.3067
 2041.5000     0.2778  1488.7218    97.4614    11.8485     0.0725     2.5679   -29.3295  1069.7675     9.7084     9.3923     9.5841
 2042.0000     0.2766  1488.7218    89.9905    11.8182     0.0740     2.5430   -28.8767  1054.2635     9.9775     9.7830     9.8333
 2042.5000     0.2739  1488.7218    84.6967    11.8333     0.0203     2.5069   -28.8731  1054.2635    10.1866    10.0566     9.9687
 2043.0000     0.2711  1488.7218    86.2448    11.8333     0.0097     2.4963   -28.7190  1069.7675    10.4721    10.2669    10.1056
 2043.5000     0.2675  1488.7218    89.6604    11.8182     0.0074     2.5091   -28.5654  1069.7675    10.6914    10.5538    10.1741
 2044.0000     0.2615  1503.7594    92.7649    11.8182     0.0111     2.5121   -28.5612  1069.7675    10.9233    10.4794    10.1720
 2044.5000     0.2566  1503.7594    92.4283    11.8182     0.0103     2.5099   -28.4066  1069.7675    11.1687    10.3335    10.3837
 2045.0000     0.2572  1503.7594    92.1311    11.8939     0.0066     2.4977   -28.2531  1069.7675    11.3773    10.3322    10.5267
 2045.5000     0.2636  1503.7594    93.3679    11.9091     0.0035     2.5008   -27.8010  1054.2635    11.5351    10.4750    10.6717
 2046.0000     0.2684  1503.7594    95.2283    11.8788     0.0126     2.5166   -27.4983  1054.2635    11.6533    10.5465    10.8186
 2046.5000     0.2690  1503.7594    97.0951    11.8485     0.0179     2.5226   -27.1955  1054.2635    11.6945    10.8415    10.9672
 2047.0000     0.2611  1488.7218    98.0159    11.8182     0.0171     2.5219   -27.0418  1069.7675    11.6936    11.1444    10.9654
 2047.5000     0.2505  1488.7218    96.1423    11.8182     0.0163     2.5279   -27.0366  1085.2714    11.7743    11.2204    10.9632
 2048.0000     0.2394  1488.7218    93.3371    11.8333     0.0277     2.5414   -27.0324  1085.2714    11.7734    11.2189    10.9614
 2048.5000     0.2345  1488.7218    91.7760    11.8333     0.0337     2.5595   -27.1776  1085.2714    11.8545    11.1400    10.9596
 2049.0000     0.2342  1488.7218    88.9693    11.8333     0.0352     2.5557   -27.3224  1069.7675    11.9359    11.0612    10.8822
