~VERSION INFORMATION
 VERS.                2.0:   CWLS LOG ASCII STANDARD - VERSION 2.0
 WRAP.                 NO:   ONE LINE PER DEPTH STEP
~WELL INFORMATION
#MNEM.UNIT      DATA TYPE    INFORMATION
#----------   ------------   ------------------------------
 STRT.F           12.0000:   START DEPTH
 STOP.F          900.0000:   STOP DEPTH
 STEP.F            0.5000:   STEP LENGTH
 NULL.          -999.2500:   NO VALUE
 COMP. FLUOR DANIEL - NPSOR:   COMPANY
 WELL. FLUOR NPR "X" #82-34:   WELL
 FLD .              NPR 3:   FIELD
 LOC .      S34 T39N R78W:   LOCATION
 CNTY.            NATRONA:   COUNTY
 STAT.            WYOMING:   STATE
 CTRY. UNITED STATES OF AMERICA:   COUNTRY
 SRVC.      WESTERN ATLAS:   SERVICE COMPANY
 DATE.        06-SEP-1994:   LOGDATE
 API .     49025226350000:   API NUMBER
~CURVE INFORMATION
#MNEM.UNIT       API CODE    CURVE DESCRIPTION
#----------   ------------   ------------------------------
 DEPT.F                  :   
 RILD.OHMM   07 120 46 00:   INDUCTION LOG DEEP RESISTIVITY
 TENR.LBS    07 635 01 00:   TENSION
 RILM.OHMM   07 120 44 00:   INDUCTION LOG MEDIUM RESISTIVITY
 GRR .GAPI   07 310 01 00:   GAMMA RAY FROM RESISTIVITY
~PARAMETER INFORMATION
#MNEM.UNIT          VALUE    DESCRIPTION
#----------   ------------   ------------------------------
 EKB .F         5084.0000:   Kelly bushing
 EGL .F         5074.0000:   Ground level
 EDF .F         5083.0000:   Drilling floor
 EPD .F            0.0000:   Permanent datum
 TD  .F          918.0000:   Total depth
 DATE.        06-SEP-1994:   Date logged
 CLNT.            A2DTECH:   Client Code
 SL  . 990' FNL & 330' FEL:   Surface Location
 PD  .                 GL:   Permanent Datum
 DAPD.F                10:   Feet Above Permanent Datum
 DD  .F               918:   Depth driller
 DL  .F               807:   Depth logger
 BLI .F               889:   Bottom log interval
 CS1 .IN            9.625:   Casing size
 CBD1.       9.625" @ 54':   Casing driller 1
 CBL1.F                54:   Casing logger 1
 BS1 .IN             8.75:   Bit size
 BSD1.F               918:   Depth drilled with bit1
 DFT .                AIR:   Type fluid in hole
 LUN .            HL-6321:   Logging unit number
 LUL .       ROCK SPRINGS:   Logging unit location
 ENGI.           VERCIMAK:   Recorded By
 WITN.          G. STRONG:   Witnessed by
 ORIG.           5" PRINT:   Origin of data
 UWI .     49025226350000:   Unique Well ID
 DICO. A2D TECHNOLOGIES, INC.:   Digitizing Company
~OTHER INFORMATION
~A   DEPT     RILD       TENR       RILM         GRR  
# ...
  231.0000     4.7170   -65.8910     5.1050   115.8280
  231.5000     4.7530   -65.8910     5.1050   112.9670
  232.0000     4.7340   -65.8910     4.9780   112.1120
  232.5000     4.6920   -65.8910     4.6980   113.9070
  233.0000     4.5150   -65.8910     4.4180   115.8790
  233.5000     4.1800   -65.8910     4.1380   117.7990
  234.0000     3.8450   -65.8910     3.8590   119.8360
  234.5000     3.5100   -66.0170     3.5790   119.5300
  235.0000     3.1760   -66.1340     3.2990   118.9930
  235.5000     2.8840   -66.2510     3.1530   118.5270
  236.0000     2.8920   -66.3680     3.0420   123.8600
  236.5000     2.9080   -66.4850     3.0420   126.3030
  237.0000     2.9240   -66.6020     3.0420   125.0960
  237.5000     2.9880   -66.7190     3.0970   123.6350
  238.0000     3.0420   -66.8360     3.2970   122.2240
  238.5000     3.1690   -66.9530     3.5200   119.3500
  239.0000     3.4020   -67.0700     3.7420   116.7140
  239.5000     3.6360   -67.1870     3.9640   113.9430
  240.0000     3.8700   -67.3040     4.1870   117.4180
  240.5000     4.1210   -67.4210     4.4260   120.5830
  241.0000     4.1950   -67.5380     4.5060   119.6400
  241.5000     4.1710   -67.6550     4.5060   118.4470
  242.0000     4.1490   -67.7720     4.5060   117.1870
  242.5000     4.1270   -67.8890     4.4050   116.6420
  243.0000     4.1050   -68.0060     4.3170   116.4130
  243.5000     4.0840   -68.1230     4.2280   116.2450
  244.0000     4.0620   -68.2400     4.1400   116.1410
  244.5000     3.9790   -68.3570     4.0480   119.7240
  245.0000     3.7850   -68.4740     3.9040   121.5260
  245.5000     3.5910   -68.5910     3.7530   120.1960
  246.0000     3.3970   -68.7080     3.6020   119.1160
  246.5000     3.2020   -68.8260     3.4520   117.9880
  247.0000     3.0420   -68.9430     3.3010   116.8710
  247.5000     2.9830   -69.0600     3.2100   115.7160
  248.0000     2.9690   -69.1770     3.1800   114.9800
  248.5000     2.9550   -69.2940     3.1500   114.7370
  249.0000     2.9410   -69.4110     3.1200   112.8960
  249.5000     2.9280   -69.5280     3.0900   109.7830
  250.0000     2.9140   -69.6450     3.0600   106.6230
  250.5000     2.9000   -69.7620     3.0420   104.8400
  251.0000     2.8840   -69.8790     2.9880   104.7320
  251.5000     2.8330   -69.9960     2.9160   104.2040
  252.0000     2.6920   -70.1130     2.7560   105.9930
  252.5000     2.5590   -70.2300     2.5950   108.9080
  253.0000     2.4260   -70.3470     2.4350   111.8490
  253.5000     2.2940   -70.4640     2.2750   109.9930
  254.0000     2.1610   -70.5810     2.1140   107.7080
  254.5000     2.0280   -70.6980     1.9820   106.4630
  255.0000     1.9130   -70.8150     1.9130   107.9360
  255.5000     1.8460   -70.9320     1.9520   112.0190
  256.0000     1.8460   -71.0490     2.1320   111.6690
  256.5000     1.9300   -71.1660     2.3120   109.8070
  257.0000     2.1300   -71.2830     2.4920   109.6530
  257.5000     2.3300   -71.4000     2.6730   111.8420
  258.0000     2.5300   -71.5170     2.8530   113.7930
  258.5000     2.7300   -71.6340     3.0330   115.2040
  259.0000     2.9300   -71.7510     3.2130   113.6580
  259.5000     3.1300   -71.8680     3.3840   112.1320
  260.0000     3.3300   -71.9850     3.5090   110.9700
  260.5000     3.4470   -72.1020     3.4990   117.5430
  261.0000     3.4470   -72.2190     3.4900   120.7140
  261.5000     3.4470   -72.3360     3.4810   122.1130
  262.0000     3.3830   -72.4530     3.4720   120.6660
  262.5000     3.3220   -72.5700     3.4640   118.9210
  263.0000     3.2620   -72.6870     3.4550   119.1030
  263.5000     3.2100   -72.8040     3.4470   120.7960
  264.0000     3.0340   -72.9210     3.3130   121.0430
  264.5000     2.8800   -73.0380     3.1050   120.1140
  265.0000     2.7260   -73.1550     2.8970   123.1380
  265.5000     2.5450   -73.2720     2.6850   126.0680
  266.0000     2.5000   -73.3900     2.6370   129.0520
  266.5000     2.4560   -73.5070     2.6370   131.9640
  267.0000     2.5000   -73.6240     2.6850   135.9210
  267.5000     2.5910   -73.7410     2.8140   133.9640
  268.0000     2.6850   -73.8580     3.0880   128.5890
  268.5000     2.9520   -73.9750     3.3630   123.6870
  269.0000     3.2540   -74.0920     3.6370   118.7000
  269.5000     3.5550   -74.2090     3.9120   116.0780
  270.0000     3.8570   -74.3260     4.1860   115.2070
  270.5000     4.1580   -74.4430     4.3550   114.1670
  271.0000     4.2710   -74.5600     4.3730   113.1970
  271.5000     4.2710   -74.6770     4.3910   112.2120
  272.0000     4.2710   -74.7940     4.4090   112.0540
  272.5000     4.3470   -74.9110     4.4260   115.8840
  273.0000     4.5460   -75.0280     4.6160   119.1570
  273.5000     4.7270   -75.1450     4.8860   120.2140
  274.0000     4.9080   -75.2620     5.1550   121.6220
  274.5000     5.0890   -75.3790     5.5820   121.7980
  275.0000     5.2700   -75.4960     5.5800   119.8860
  275.5000     5.4830   -75.6130     5.5750   120.1370
  276.0000     5.4700   -75.7300     5.5690   121.9480
  276.5000     5.4550   -75.8470     5.5640   120.3840
  277.0000     5.4390   -75.9640     5.5590   118.9490
  277.5000     5.4240   -76.0810     5.5540   117.6060
  278.0000     5.4080   -76.1980     5.5490   117.2370
  278.5000     5.3930   -76.3150     5.5440   116.8660
  279.0000     5.3770   -76.4320     5.5390   117.9800
  279.5000     5.3620   -76.5490     5.5330   119.6160
  280.0000     5.3460   -76.6660     5.5280   122.1110
  280.5000     5.3310   -76.7830     5.5230   126.4120
  281.0000     5.3150   -76.9000     5.5180   127.8200
  281.5000     5.3000   -77.0170     5.5130   125.0730
  282.0000     5.2840   -77.1340     5.5070   122.8020
  282.5000     5.2690   -77.2510     5.5020   119.9320
  283.0000     5.2530   -77.3680     5.4970   119.9780
  283.5000     5.2380   -77.4850     5.4910   122.2770
  284.0000     5.2220   -77.6020     5.4880   124.4450
  284.5000     5.2060   -77.7190     5.4830   126.5200
  285.0000     5.1970   -77.8360     5.6260   128.6660
  285.5000     5.3590   -77.9540     5.8080   127.1090
  286.0000     5.5210   -78.0710     5.9900   122.9020
  286.5000     5.6830   -78.1880     6.1720   118.5340
  287.0000     5.8450   -78.3050     6.3540   116.1360
  287.5000     6.0060   -78.4220     6.5540   115.4070
  288.0000     6.1680   -78.5390     6.5400   114.0390
  288.5000     6.3250   -78.6560     6.5120   111.5900
  289.0000     6.3060   -78.7730     6.4840   109.3710
  289.5000     6.2730   -78.8900     6.4560   107.4670
  290.0000     6.2400   -79.0070     6.4290   107.4470
  290.5000     6.2060   -79.1240     6.4010   107.3830
  291.0000     6.1730   -79.2410     6.3730   108.4170
  291.5000     6.1400   -79.3580     6.3450   109.7690
  292.0000     6.1030   -79.4750     6.1750   111.1490
  292.5000     5.5660   -79.5920     5.6310   109.1040
  293.0000     4.9580   -79.7090     5.0860   107.0720
  293.5000     4.3500   -79.8260     4.5420   104.7520
  294.0000     3.7410   -79.9430     3.9970   104.5020
  294.5000     3.1330   -80.0600     3.4530   109.1720
  295.0000     2.5250   -80.1770     2.9080   117.0720
  295.5000     2.2060   -80.2940     2.3640   124.4910
  296.0000     2.0490   -80.4110     2.0180   131.9290
  296.5000     1.9820   -80.5280     2.4590   137.3610
  297.0000     2.0180   -80.6450     3.1410   138.5700
  297.5000     2.3940   -80.7620     3.8240   137.1700
  298.0000     2.7430   -80.8790     4.5060   134.8340
  298.5000     3.0920   -80.9960     5.1880   122.1620
  299.0000     3.3860   -81.1130     5.8700   110.2940
  299.5000     4.6480   -81.2300     6.5520   101.9020
  300.0000     5.7390   -81.3470     7.2340    99.9270
  300.5000     6.8300   -81.4640     7.9160    97.3600
  301.0000     8.1200   -81.5810     8.5990    94.2950
  301.5000     8.6770   -81.6980     9.5350    94.7720
  302.0000     9.0990   -81.8150     9.3440    95.5260
  302.5000     8.6580   -81.9320     9.0390    95.1370
  303.0000     8.2180   -82.0490     8.7340    94.4470
  303.5000     7.6190   -82.1660     8.2040    93.8390
