~VERSION INFORMATION
 VERS.                2.0:   CWLS LOG ASCII STANDARD - VERSION 2.0
 WRAP.                 NO:   ONE LINE PER DEPTH STEP
~WELL INFORMATION
#MNEM.UNIT      DATA TYPE    INFORMATION
#----------   ------------   ------------------------------
 STRT.F            0.0000:   START DEPTH
 STOP.F         4134.5000:   STOP DEPTH
 STEP.F            0.5000:   STEP LENGTH
 NULL.          -999.2500:   NO VALUE
 COMP. LAWRENCE ALLISON & ASSOCIATES:   COMPANY
 WELL. LAWRENCE NPR 3 "X" #72-10:   WELL
 FLD .            WILDCAT:   FIELD
 LOC .      S10 T38N R78W:   LOCATION
 CNTY.            NATRONA:   COUNTY
 STAT.            WYOMING:   STATE
 CTRY. UNITED STATES OF AMERICA:   COUNTRY
 SRVC.      DRESSER ATLAS:   SERVICE COMPANY
 DATE.        29-JUL-1983:   LOGDATE
 API .     49025109390000:   API NUMBER
~CURVE INFORMATION
#MNEM.UNIT       API CODE    CURVE DESCRIPTION
#----------   ------------   ------------------------------
 DEPT.F                  :   
 CALD.IN     45 280 60 00:   CALIPER FROM DENSITY LOG
 DEN .G/C3   45 350 01 00:   BULK DENSITY
 CORR.G/C3   45 356 01 00:   DENSITY CORRECTION
 TEND.LBS    45 635 01 00:   TENSION FROM DENSITY LOG
 NPHI.DEC    42 890 03 00:   NEUTRON POROSITY SANDSTONE
 GRD .GAPI   45 310 01 00:   GAMMA RAY FROM DENSITY LOG
 SPR .MV     07 010 01 00:   SPONTANEOUS POTENTIAL
 RILD.OHMM   07 120 46 00:   DEEP INDUCTION RESISTIVITY
 RILM.OHMM   07 120 44 00:   INDUCTION LOG MEDIUM RESISTIVITY
 RFOC.OHMM   07 220 04 00:   RESISTIVITY FOCUSED LOG RES.
 TENR.LBS    07 635 01 00:   TENSION FROM RESISTIVITY
 AC  .US/F   60 250 00 00:   ACCOUSTIC
 TENS.LBS    60 635 01 00:   TENSION FROM SONIC
 GRR .GAPI   07 310 01 00:   GAMMA RAY FROM RESISTIVITY
~PARAMETER INFORMATION
#MNEM.UNIT          VALUE    DESCRIPTION
#----------   ------------   ------------------------------
 EKB .F         5182.0000:   Kelly bushing
 EGL .F         5172.0000:   Ground level
 EDF .F            0.0000:   Drilling floor
 TD  .F         4139.0000:   Total depth
 DATE.        29-JUL-1983:   Date logged
 CLNT.            A2DTECH:   Client Code
 SL  . 900' FNL & 900' FEL:   Surface Location
 PD  .                 GL:   Permanent Datum
 EPD .F              5172:   Elevation Permanent Datum
 LMF .                 KB:   Log Measured From
 DMF .                 KB:   Drilling Measured From
 DAPD.F                10:   Feet Above Permanent Datum
 DD  .F              4139:   Depth driller
 DL  .F              4134:   Depth logger
 BLI .F              4132:   Bottom log interval
 CS1 .IN            9.625:   Casing size
 CBD1.      9.625" @ 476':   Casing driller 1
 BS1 .IN            7.875:   Bit size
 BSD1.F              4139:   Depth drilled with bit1
 DFT .               LSND:   Type fluid in hole
 DFD .                6.6:   Density
 DFV .                 41:   Viscosity
 DFPH.                8.5:   pH
 DFL .                 10:   Fluid loss
 MSS .           FLOWLINE:   Source of sample
 RMS .OHMM            .27:   Rm
 MST .F                91:   Rm Meas. temp.
 RMF .OHMM            .19:   Rmf
 MFST.F                87:   Rmf Meas. temp.
 RMC .OHMM            .34:   Rmc
 MCST.F                87:   Rmc Meas. temp.
 MFSS.               MEAS:   Source Rmf.
 MCSS.               CALC:   Source Rmc.
 RMB .OHMM            .19:   Rm. at BHT
 BHT .F               130:   BHT.
 TCS .HRS               3:   Time Circ. stopped
 MRT .F               130:   Maximum recorded temp.
 LUN .               6274:   Logging unit number
 LUL .               GLTF:   Logging unit location
 ENGI.             RAUTIC:   Recorded By
 WITN.             STRONG:   Witnessed by
 ORIG.           5" PRINT:   Origin of data
 UWI .     49025109390000:   Unique Well ID
 DICO. A2D TECHNOLOGIES, INC.:   Digitizing Company
~OTHER INFORMATION
~A    DEPT    CALD        DEN       CORR       TEND       NPHI        GRD        SPR       RILD       RILM       RFOC       TENR         AC       TENS         GRR  
# ...
  465.5000  -999.2500  -999.2500  -999.2500  -999.2500     0.2850    53.3840  -999.2500  -999.2500  -999.2500  -999.2500   -87.8240  -999.2500  -999.2500    56.1980
  466.0000  -999.2500  -999.2500  -999.2500  -999.2500     0.2900    54.6640  -999.2500  -999.2500  -999.2500  -999.2500   -87.8240  -999.2500  -999.2500    57.1780
  466.5000  -999.2500  -999.2500  -999.2500  -999.2500     0.2900    55.8600  -999.2500  -999.2500  -999.2500  -999.2500   -87.8240  -999.2500  -999.2500    60.1720
  467.0000  -999.2500  -999.2500  -999.2500  -999.2500     0.2880    57.3070  -999.2500  -999.2500  -999.2500  -999.2500   -87.8240  -999.2500  -999.2500    63.2970
  467.5000  -999.2500  -999.2500  -999.2500   -56.1900     0.2790    59.1290  -999.2500  -999.2500  -999.2500  -999.2500   -87.8240  -999.2500  -999.2500    65.8030
  468.0000  -999.2500  -999.2500  -999.2500   -55.1350     0.2710    59.5780  -999.2500  -999.2500  -999.2500  -999.2500   -87.8240  -999.2500  -999.2500    63.5880
  468.5000  -999.2500  -999.2500  -999.2500   -54.0800     0.2910    60.0590  -999.2500  -999.2500  -999.2500  -999.2500   -87.8240  -999.2500  -999.2500    59.5120
  469.0000  -999.2500     2.2260  -999.2500   -53.2880     0.3080    58.9890  -118.9740  -999.2500  -999.2500  -999.2500   -87.8240  -999.2500  -999.2500    56.9520
  469.5000  -999.2500     2.2260  -999.2500   -52.6970     0.3250    56.9410  -119.5700  -999.2500  -999.2500  -999.2500   -87.8240  -999.2500  -999.2500    59.0400
  470.0000  -999.2500     2.2680  -999.2500   -47.0240     0.3480    52.1400  -120.1660  -999.2500  -999.2500  -999.2500   -87.8240  -999.2500  -999.2500    61.8200
  470.5000     9.7450     2.3490  -999.2500   -41.5980     0.3460    49.1840  -120.2580  -999.2500  -999.2500  -999.2500   -87.8240  -999.2500  -999.2500    63.1590
  471.0000     9.8150     2.4110  -999.2500   -36.1710     0.3410    57.7030  -120.5680  -999.2500  -999.2500  -999.2500   -87.8240  -999.2500  -999.2500    62.3950
  471.5000     9.9380     2.4930  -999.2500   -30.7440     0.3220    68.0470  -120.0150  -999.2500  -999.2500  -999.2500   -87.8240  -999.2500  -999.2500    64.1650
  472.0000    10.0860     2.5480    -0.0170   -25.3180     0.3120    78.5990  -116.7660  -999.2500  -999.2500     0.3040   -87.8240  -999.2500  -999.2500    71.4390
  472.5000    10.1980     2.5280     0.2320   -25.7820     0.3200    82.0360  -110.7000  -999.2500  -999.2500     0.3840   -87.8240  -999.2500  -999.2500    81.2540
  473.0000    10.3460     2.5120     0.3410   -31.6260     0.3260    80.7170  -104.0140  -999.2500  -999.2500     1.8370   -87.8240  -999.2500  -999.2500    81.7710
  473.5000    10.4940     2.4930     0.3330   -37.4700     0.3140    84.8520   -99.2580    46.4300    14.5770     3.0470   -87.8240  -999.2500  -999.2500    82.0400
  474.0000    10.5720     2.4630     0.2970   -43.3140     0.3010    88.7120   -91.7860     2.5400     3.4090     4.6620   -87.8240  -999.2500  -999.2500    83.0780
  474.5000    10.5390     2.4320     0.2610   -49.1590     0.2860    91.8860   -84.6490     2.0000     3.2550     5.6170   -87.8240  -999.2500  -999.2500    84.9250
  475.0000    10.4020     2.4180     0.2250   -51.2700     0.2700    91.2980   -81.0410     2.0260     3.4270     5.8640   -87.8240  -999.2500  -999.2500    86.4700
  475.5000    10.2680     2.4050     0.1660   -47.6520     0.2680    90.2550   -76.8410     2.4050     3.9710     6.1120   -87.8240  -999.2500  -999.2500    84.8410
  476.0000    10.1320     2.4280     0.1010   -44.0350     0.2690    90.5060   -73.4910     3.4720     5.0600     6.3600   -87.8240  -999.2500  -999.2500    83.2760
  476.5000     9.9860     2.4640     0.0040   -40.4170     0.2630    94.2660   -72.3110     5.5130     6.1490     6.7520   -87.8240  -999.2500  -999.2500    82.8500
  477.0000     9.9770     2.4870     0.0070   -36.7990     0.2590    97.8540   -71.4900     8.6250     7.2380     7.0890   -87.8240  -999.2500  -999.2500    85.3710
  477.5000     9.9780     2.4960     0.0090   -33.1810     0.2620    99.7400   -70.6070     8.5330     7.7960     7.2430   -87.8240  -999.2500  -999.2500    87.4560
  478.0000     9.9780     2.5040     0.0180   -35.6610     0.2850    98.2570   -71.2650     8.2750     7.6580     7.1490   -87.8240  -999.2500  -999.2500    88.3880
  478.5000     9.9780     2.5120     0.0260   -39.0380     0.3000    96.8180   -72.3570     8.0140     7.5140     7.1000   -87.8240  -999.2500  -999.2500    87.7770
  479.0000     9.9780     2.5220     0.0340   -42.7070     0.3000    96.8830   -74.4630     8.0140     7.7960     7.0500   -87.8240  -999.2500  -999.2500    87.2070
  479.5000     9.9780     2.5210     0.0370   -43.8250     0.2920    97.9380   -76.8650     8.1850     8.2380     7.0010   -87.8240  -999.2500  -999.2500    87.1200
  480.0000     9.9780     2.5120     0.0260   -45.9810     0.2810    98.9630   -79.4480     8.4250     8.0880     6.9520   -87.8240  -999.2500  -999.2500    86.9640
  480.5000     9.9780     2.5000     0.0270   -48.1360     0.2810    98.8790   -80.5710     8.7850     7.5840     6.9030   -87.8240  -999.2500  -999.2500    84.6210
  481.0000     9.9780     2.4920     0.0330   -50.2910     0.2830    94.3490   -81.9700     9.9000     7.1110     6.8540   -87.8240  -999.2500  -999.2500    83.8430
  481.5000     9.9780     2.4850     0.0400   -52.4460     0.2840    89.9250   -82.6140     9.6460     6.9810     6.8040   -87.8240  -999.2500  -999.2500    85.7710
  482.0000     9.9780     2.4820     0.0250   -54.6020     0.2830    87.9750   -83.3030     9.0820     6.9810     6.7290   -87.8240  -999.2500  -999.2500    87.6450
  482.5000     9.9780     2.4800     0.0030   -56.7570     0.2670    92.2180   -82.7670     8.4680     6.9320     6.7380   -87.8240  -999.2500  -999.2500    86.1770
  483.0000     9.9780     2.4830     0.0030   -58.9120     0.2540    98.4870   -80.3970     7.9980     6.8580     6.7550   -87.8240  -999.2500  -999.2500    85.0310
  483.5000     9.9780     2.4870     0.0070   -61.0680     0.2640   102.6270   -78.0410     7.5620     6.7920     6.7730   -87.8240  -999.2500  -999.2500    88.2420
  484.0000     9.9780     2.4920     0.0230   -62.3730     0.2860   100.5910   -75.8180     7.1770     6.5460     6.7920   -87.8240  -999.2500  -999.2500    91.5000
  484.5000     9.9780     2.4870     0.0390   -61.1060     0.3080    98.5700   -75.2620     6.9180     6.0870     6.5580   -87.8240  -999.2500  -999.2500    94.4210
  485.0000     9.9780     2.4560     0.0570   -59.8400     0.3240    98.6100   -75.0290     6.7700     5.5490     6.3040   -87.8240  -999.2500  -999.2500    92.3670
  485.5000     9.9780     2.4350     0.0770   -58.5740     0.3330    98.3610   -75.6160     6.4860     5.0100     6.0600   -87.8240  -999.2500  -999.2500    86.5640
  486.0000     9.9780     2.4170     0.0980   -58.2230     0.3330    96.7720   -76.2580     6.2080     4.8780     5.7290   -87.8240  -999.2500  -999.2500    83.8940
  486.5000     9.9780     2.4060     0.1170   -59.9690     0.3200    95.8610   -76.9680     6.0270     5.1190     5.2060   -87.8240  -999.2500  -999.2500    84.6380
  487.0000     9.9690     2.4190     0.1170   -61.7160     0.2960    98.7440   -78.0390     5.9710     5.5230     4.6840   -87.8240  -999.2500  -999.2500    84.5300
  487.5000     9.9150     2.4360     0.0800   -63.4620     0.2690   101.5350   -79.2600     6.1210     5.9270     4.5740   -87.8240  -999.2500  -999.2500    85.6680
  488.0000     9.8620     2.4540     0.0380   -65.2090     0.2610   103.4440   -80.4930     6.3680     6.3310     6.2580   -87.8240  -999.2500  -999.2500    89.1100
  488.5000     9.8090     2.4720     0.0360   -66.9550     0.2610   101.3530   -82.3280     6.9270     6.6680     6.8280   -87.8240  -999.2500  -999.2500    93.2540
  489.0000     9.7970     2.4890     0.0430   -66.0400     0.2620    99.3710   -84.1510     7.5460     7.1770     7.3770   -87.8240  -999.2500  -999.2500    95.2520
  489.5000     9.7930     2.4960     0.0520   -63.2260     0.2630    99.4730   -85.9810     8.1650     7.5130     7.5110   -87.8240  -999.2500  -999.2500    90.9330
