~VERSION INFORMATION
 VERS.                2.0:   CWLS LOG ASCII STANDARD - VERSION 2.0
 WRAP.                 NO:   ONE LINE PER DEPTH STEP
~WELL INFORMATION
#MNEM.UNIT      DATA TYPE    INFORMATION
#----------   ------------   ------------------------------
 STRT.F           15.0000:   START DEPTH
 STOP.F         2952.5000:   STOP DEPTH
 STEP.F            0.5000:   STEP LENGTH
 NULL.          -999.2500:   NO VALUE
 COMP.    FENIX & SCISSON:   COMPANY
 WELL.  FENIX "AX" #64-29:   WELL
 FLD .  TEAPOT DOME NPR-3:   FIELD
 LOC .      S29 T39N R78W:   LOCATION
 CNTY.            NATRONA:   COUNTY
 STAT.            WYOMING:   STATE
 CTRY. UNITED STATES OF AMERICA:   COUNTRY
 SRVC.           BIRDWELL:   SERVICE COMPANY
 DATE.        02-MAY-1978:   LOGDATE
 API .     49025106460000:   API NUMBER
~CURVE INFORMATION
#MNEM.UNIT       API CODE    CURVE DESCRIPTION
#----------   ------------   ------------------------------
 DEPT.F                  :   
 SPR .MV     05 010 01 00:   SPONTANEOUS POTENTIAL
 IL  .OHMM   05 120 00 00:   INDUCTION RESISTIVITY
 SN  .OHMM   05 040 16 00:   SHORT NORMAL 16"
 CALD.IN     45 280 60 00:   CALIPER FROM DENSITY LOG
 GRD .GAPI   45 310 01 00:   GAMMA RAY FROM DENSITY LOG
 CORR.G/C3   45 356 01 00:   DENSITY CORRECTION
 RHOB.G/C3   45 350 01 00:   BULK DENSITY
~PARAMETER INFORMATION
#MNEM.UNIT          VALUE    DESCRIPTION
#----------   ------------   ------------------------------
 EKB .F         4993.0000:   Kelly bushing
 EGL .F         4983.0000:   Ground level
 EDF .F            0.0000:   Drilling floor
 TD  .F         2952.0000:   Total depth
 DATE.        02-MAY-1978:   Date logged
 CLNT.            A2DTECH:   Client Code
 SL  . 2150' FNL & 1560' FEL:   Surface Location
 PD  .                 GL:   Permanent Datum
 DD  .F              2950:   Depth driller
 DL  .F              2952:   Depth logger
 BLI .F              2947:   Bottom log interval
 CBL1.F               150:   Casing logger 1
 BS1 .IN            7.875:   Bit size
 DFT .                GEL:   Type fluid in hole
 DFD .                8.7:   Density
 DFV .                 30:   Viscosity
 DFPH.                 10:   pH
 DFL .                7.6:   Fluid loss
 MSS .            MUD PIT:   Source of sample
 RMS .OHMM            1.3:   Rm
 MST .F                62:   Rm Meas. temp.
 RMF .OHMM            .95:   Rmf
 MFST.F                64:   Rmf Meas. temp.
 RMC .OHMM              1:   Rmc
 MCST.F                64:   Rmc Meas. temp.
 MFSS.               MEAS:   Source Rmf.
 RMB .OHMM            .73:   Rm. at BHT
 BHT .F               110:   BHT.
 TCS .HRS               3:   Time Circ. stopped
 MRT .F               110:   Maximum recorded temp.
 LUN .               2958:   Logging unit number
 LUL .               CASP:   Logging unit location
 ENGI.             MILLER:   Recorded By
 WITN.           MCGINLEY:   Witnessed by
 ORIG.         2.5" PRINT:   Origin of data
 UWI .     49025106460000:   Unique Well ID
 DICO. A2D TECHNOLOGIES, INC.:   Digitizing Company
 DAPD.                 10:   Feet Above Permanent Datum
 BSD1.F              2950:   Depth drilled with bit1
 EPD .F              4983:   Elevation Permanent Datum
 LMF .                 KB:   Log Measured From
 DMF .                 KB:   Drilling Measured From
 TLI .F               150:   Top log interval
~OTHER INFORMATION
~A   DEPT      SPR         IL         SN       CALD        GRD       CORR       RHOB   
# ...
 1061.5000   -69.9200     9.1300     7.9780    10.4560    74.2150     0.1140     2.4830
 1062.0000   -69.9200     9.1610     7.9780    10.4550    72.6580     0.1220     2.4710
 1062.5000   -69.9200     9.1930     7.9770    10.4530    72.2910     0.1280     2.4600
 1063.0000   -69.9200     9.2240     7.9770    10.4520    74.4900     0.1350     2.4510
 1063.5000   -69.9200     9.2410     7.9770    10.4510    76.6990     0.1370     2.4600
 1064.0000   -69.9200     9.1340     7.9770    10.4490    78.8480     0.1280     2.4670
 1064.5000   -69.9200     8.8090     7.6290    10.4480    80.3270     0.1180     2.4750
 1065.0000   -69.9200     8.6040     7.2760    10.4470    77.3200     0.1070     2.4820
 1065.5000   -69.9200     8.4280     7.2640    10.4450    76.5880     0.0910     2.4910
 1066.0000   -69.9200     8.2760     7.2520    10.4440    76.7800     0.0840     2.4840
 1066.5000   -69.9200     8.2120     7.2400    10.4430    77.0890     0.0770     2.4620
 1067.0000   -69.9200     8.1560     7.2280    10.4420    77.3920     0.0670     2.4400
 1067.5000   -69.9200     8.1010     7.2160    10.4400    77.6940     0.0680     2.4230
 1068.0000   -69.9200     8.0450     7.2040    10.4370    78.0320     0.0680     2.4070
 1068.5000   -69.9200     7.9890     7.1920    10.4610    79.3190     0.0690     2.3840
 1069.0000   -69.9200     7.9740     7.1800    10.5220    81.1440     0.0690     2.3890
 1069.5000   -69.9200     7.9710     7.1680    10.5820    81.5170     0.0700     2.4180
 1070.0000   -69.9200     7.9670     7.1560    10.5940    81.9070     0.0710     2.4140
 1070.5000   -69.9200     7.9640     7.1440    10.5860    82.3550     0.0870     2.4260
 1071.0000   -69.9200     7.9600     7.1440    10.5790    80.8660     0.0950     2.4530
 1071.5000   -69.9200     7.9570     7.1440    10.5720    76.6610     0.1020     2.4710
 1072.0000   -69.9200     7.9530     7.1440    10.5650    72.3550     0.1090     2.4660
 1072.5000   -69.9200     7.9500     7.1440    10.5580    70.4410     0.1170     2.4590
 1073.0000   -69.9200     7.9460     7.1440    10.5520    72.7750     0.1420     2.4470
 1073.5000   -69.9200     7.9430     7.1440    10.5440    72.7870     0.1790     2.4440
 1074.0000   -69.9200     7.9390     7.1440    10.5370    72.7180     0.2070     2.4540
 1074.5000   -69.9200     7.9360     7.1440    10.5310    72.6240     0.2190     2.4630
 1075.0000   -69.9200     7.9320     7.1440    10.5210    72.3950     0.2150     2.4720
 1075.5000   -69.9200     7.9290     7.1440    10.5140    73.7550     0.2040     2.4810
 1076.0000   -69.9200     7.9250     7.1440    10.3720    76.2450     0.1940     2.4920
 1076.5000   -69.9200     7.9220     7.1440    10.2090    79.4330     0.1830     2.4600
 1077.0000   -69.9200     7.9180     7.1440    10.0440    78.4210     0.1750     2.4320
 1077.5000   -69.9200     7.9150     7.1440    10.2080    75.7990     0.1730     2.4260
 1078.0000   -69.9200     7.9110     7.1440    10.4920    75.3360     0.1710     2.4180
 1078.5000   -69.9200     7.9080     7.1440    10.9270    74.7280     0.1700     2.4080
 1079.0000   -69.9200     7.9040     7.1440    10.8050    74.2140     0.1680     2.4100
 1079.5000   -69.9200     7.9010     7.1440    10.5800    73.4310     0.1670     2.4380
 1080.0000   -69.9200     7.8970     7.1440    10.6180    74.6730     0.1320     2.4250
 1080.5000   -69.9200     7.8940     7.1440    10.6240    80.0490     0.1220     2.3940
 1081.0000   -69.9200     7.8900     7.1440    10.6340    78.9770     0.1300     2.3880
 1081.5000   -69.9200     7.8870     7.1440    10.4950    75.1180     0.1370     2.3840
 1082.0000   -69.9200     7.8830     7.1440    10.4740    71.3970     0.1460     2.3710
 1082.5000   -69.9200     7.8800     7.1440    10.4510    70.0230     0.1620     2.3140
 1083.0000   -69.9200     7.8760     7.1440    10.4420    71.4430     0.1780     2.3300
 1083.5000   -69.9200     7.8730     7.1440    10.4260    72.5810     0.1940     2.3510
 1084.0000   -69.9200     7.8690     7.1440    10.4110    75.7700     0.2110     2.3730
 1084.5000   -69.9200     7.8660     7.1440    10.3970    77.5770     0.2120     2.5500
 1085.0000   -69.9200     7.8620     7.1440    10.3820    77.8000     0.1650     2.5270
 1085.5000   -69.9200     7.8590     7.1440    10.3680    78.6210     0.1350     2.5200
 1086.0000   -69.9200     7.8550     7.1440    10.3530    80.6790     0.1320     2.5130
 1086.5000   -69.9200     7.8520     7.1440    10.3390    80.9210     0.1250     2.5160
 1087.0000   -69.9200     7.8480     7.1440    10.3240    78.1360     0.1200     2.4980
 1087.5000   -69.9200     7.8450     7.1440    10.3100    75.4990     0.1170     2.4700
 1088.0000   -69.9200     7.8410     7.1440    10.2950    66.5360     0.1540     2.4440
 1088.5000   -69.9200     7.8380     7.1440    10.2830    60.5230     0.1910     2.4510
 1089.0000   -69.9200     7.8340     7.1440    10.2630    62.5860     0.2140     2.4620
 1089.5000   -69.9200     7.8320     7.1440    10.2520    65.9880     0.2150     2.4570
 1090.0000   -69.9200     7.8310     7.1440    10.2550    69.7320     0.2180     2.4870
 1090.5000   -69.9200     7.8320     7.1440    10.3640    73.2490     0.2110     2.5060
 1091.0000   -69.9200     7.8240     7.1440    10.5020    74.9640     0.2050     2.5140
 1091.5000   -69.9200     7.8060     7.1440    10.1830    70.1320     0.1980     2.5190
 1092.0000   -69.9200     7.7890     7.1440    10.2100    65.1120     0.1910     2.5180
 1092.5000   -69.9200     7.7720     7.1440    10.2290    63.0900     0.1840     2.5310
 1093.0000   -69.9200     7.7550     7.1440    10.2760    64.1200     0.1650     2.5430
 1093.5000   -69.9200     7.7380     7.1440    10.3170    64.9080     0.1400     2.5610
 1094.0000   -69.9200     7.7210     7.1440    10.3030    65.6130     0.1140     2.5320
 1094.5000   -69.9200     7.7040     7.1440    10.2740    66.4300     0.1090     2.5050
 1095.0000   -69.9200     7.6900     7.1440    10.2420    67.2850     0.1150     2.4870
 1095.5000   -69.9200     7.6890     7.1440    10.2060    67.1520     0.1190     2.4810
 1096.0000   -69.9200     7.6890     7.1490    10.2390    65.5080     0.1230     2.4790
 1096.5000   -69.9200     7.6890     7.1550    10.3190    63.8780     0.1260     2.4830
 1097.0000   -69.9200     7.6110     7.1610    10.3920    62.5900     0.1170     2.4810
 1097.5000   -69.9200     7.5490     7.1670    10.4640    62.2820     0.1090     2.4750
 1098.0000   -69.9200     7.2760     7.1730    10.5400    61.9720     0.1080     2.4700
 1098.5000   -69.9200     7.1440     7.1780    10.6120    65.9990     0.1100     2.4720
 1099.0000   -69.9200     7.1440     7.1840    10.6730    70.0870     0.1070     2.4740
 1099.5000   -69.9200     7.1440     7.1900    10.6470    72.1070     0.0980     2.4640
 1100.0000   -69.9200     7.1440     7.1960    10.6240    73.0640     0.0900     2.4510
 1100.5000   -69.9200     7.1440     7.2020    10.5960    74.1540     0.0800     2.4370
 1101.0000   -69.9200     7.1440     7.2080    10.5700    75.1230     0.0870     2.4230
 1101.5000   -69.9200     7.1440     7.2130    10.5590    75.8850     0.1000     2.4110
 1102.0000   -69.9200     7.5980     7.2190    10.6020    70.8210     0.1270     2.3970
 1102.5000   -69.9200     8.0190     7.2250    10.6380    61.9800     0.1510     2.4300
 1103.0000   -69.9200     8.1490     7.2310    10.6770    61.5750     0.1760     2.4320
 1103.5000   -69.9200     8.1810     7.2370    10.7160    61.8140     0.2020     2.4360
 1104.0000   -69.9200     8.2130     7.2420    10.7540    62.5550     0.2140     2.4350
 1104.5000   -69.9200     8.2460     7.2480    10.7930    62.8890     0.2270     2.4650
 1105.0000   -69.9200     8.2760     7.2540    10.8320    65.8510     0.2300     2.4670
 1105.5000   -69.9200     8.2160     7.2600    10.8700    65.6920     0.2340     2.4690
 1106.0000   -69.9200     8.1620     7.2660    10.9080    65.3990     0.2240     2.4700
 1106.5000   -69.9200     8.1070     7.2710    10.9490    64.9180     0.2160     2.4960
