~VERSION INFORMATION
 VERS.                2.0:   CWLS LOG ASCII STANDARD - VERSION 2.0
 WRAP.                 NO:   ONE LINE PER DEPTH STEP
~WELL INFORMATION
#MNEM.UNIT      DATA TYPE    INFORMATION
#----------   ------------   ------------------------------
 STRT.F          211.0000:   START DEPTH
 STOP.F         3244.0000:   STOP DEPTH
 STEP.F            0.5000:   STEP LENGTH
 NULL.          -999.2500:   NO VALUE
 COMP.    FENIX & SCISSON:   COMPANY
 WELL.  FENIX "AX" #84-15:   WELL
 FLD .  TEAPOT DOME NPR-3:   FIELD
 LOC .      S15 T38N R78W:   LOCATION
 CNTY.            NATRONA:   COUNTY
 STAT.            WYOMING:   STATE
 CTRY. UNITED STATES OF AMERICA:   COUNTRY
 SRVC.           BIRDWELL:   SERVICE COMPANY
 DATE.        17-MAR-1978:   LOGDATE
 API .     49025106050000:   API NUMBER
~CURVE INFORMATION
#MNEM.UNIT       API CODE    CURVE DESCRIPTION
#----------   ------------   ------------------------------
 DEPT.F                  :   
 SPR .MV     05 010 01 00:   SPONTANEOUS POTENTIAL
 SN  .OHMM   05 040 16 00:   SHORT NORMAL
 ILD .OHMM   05 120 46 00:   INDUCTION LOG DEEP
 CALD.IN     45 280 60 00:   CALIPER FROM DENSITY LOG
 GRD .GAPI   45 310 01 00:   GAMMA RAY FROM DENSITY LOG
 RHOB.G/C3   45 350 01 00:   BULK DENSITY
 CORR.G/C3   45 356 01 00:   DENSITY CORRECTION
~PARAMETER INFORMATION
#MNEM.UNIT          VALUE    DESCRIPTION
#----------   ------------   ------------------------------
 EKB .F         5251.0000:   Kelly bushing
 EGL .F         5241.0000:   Ground level
 TD  .F         3250.0000:   Total depth
 CLNT.            A2DTECH:   Client Code
 SL  . 359' FEL & 2310' FNL:   Surface Location
 PD  .                 GL:   Permanent Datum
 LMF .                 KB:   Log Measured From
 DMF .                 KB:   Drilling Measured From
 DATE.        17-MAR-1978:   Date Logged [DD-MMM-YYYY]
 DD  .F              3250:   Depth driller
 DL  .F              3250:   Depth logger
 BLI .F              3244:   Bottom log interval
 TLI .F               224:   Top log interval
 CS1 .IN            8.625:   Casing size
 CBD1.             8.625":   Casing driller 1
 CBL1.F               224:   Casing logger 1
 BS1 .IN            7.875:   Bit size
 BSD1.F              3250:   Depth drilled with bit1
 MSS .           FLOWLINE:   Source of sample
 RMS .OHMM            1.3:   Rm
 MST .F                70:   Rm Meas. temp.
 RMF .OHMM            1.1:   Rmf
 MFST.F                70:   Rmf Meas. temp.
 MFSS.               MEAS:   Source Rmf.
 RMC .OHMM            1.4:   Rmc
 MCST.F                70:   Rmc Meas. temp.
 RMB .OHMM           0.77:   Rm. at BHT
 BHT .F               118:   BHT.
 TCS .HRS               6:   Time Circ. stopped
 MRT .F               118:   Maximum recorded temp.
 LUN .               2958:   Logging unit number
 LUL .               CASP:   Logging unit location
 ENGI.             MILLER:   Recorded By
 WITN.           MCGINLEY:   Witnessed by
 ORIG.           5" PRINT:   Origin of data
 UWI .     49025106050000:   Unique Well ID
 DICO. A2D TECHNOLOGIES, INC.:   Digitizing Company
~OTHER INFORMATION
~A   DEPT      SPR         SN        ILD       CALD         GRD      RHOB       CORR   
# ...
 2622.5000   -29.9936     7.1546     6.6240    10.2943   107.4775     2.5309    -0.0003
 2623.0000   -30.1327     7.1585     6.6279    10.2952   104.9432     2.5341    -0.0002
 2623.5000   -30.1222     7.2626     6.6310    10.3108   102.2583     2.5371     0.0013
 2624.0000   -30.2616     7.4197     6.6342    10.3264   102.4344     2.5394     0.0014
 2624.5000   -30.4047     7.4238     6.6837    10.3271   102.7448     2.5402     0.0015
 2625.0000   -30.3917     7.4278     6.7332    10.3279   103.2382     2.5341     0.0015
 2625.5000   -30.6833     7.4319     6.7368    10.3286   105.3368     2.5372     0.0031
 2626.0000   -30.8235     7.4359     6.8344    10.3294   110.9071     2.5410     0.0047
 2626.5000   -30.9640     7.3883     6.8854    10.3301   111.2252     2.5516     0.0123
 2627.0000   -30.8024     7.3162     6.9360    10.3309   110.6159     2.5614     0.0199
 2627.5000   -30.6390     7.2439     6.8442    10.3316   108.4894     2.5554     0.0185
 2628.0000   -30.3270     7.2479     6.7529    10.3323   105.3712     2.5584     0.0155
 2628.5000   -30.3167     7.2527     6.6149    10.3331   104.9900     2.5637     0.0156
 2629.0000   -30.1555     7.2057     6.5689    10.3340   104.5617     2.5562     0.0156
 2629.5000   -30.1451     7.2098     6.4861    10.3346   103.5284     2.5478     0.0172
 2630.0000   -30.2866     7.2143     6.4900    10.3353   102.9412     2.5448     0.0188
 2630.5000   -30.2752     7.2182     6.4931    10.3361   107.3177     2.5441     0.0188
 2631.0000   -30.2649     7.1712     6.4962    10.3369   108.0862     2.5441     0.0204
 2631.5000   -30.2545     7.1254     6.4993    10.3295   108.8548     2.5441     0.0220
 2632.0000   -30.2442     7.0308     6.4574    10.3233   110.8245     2.5466     0.0236
 2632.5000   -30.2338     6.9868     6.4149    10.3246   111.4428     2.5570     0.0236
 2633.0000   -30.2232     6.8941     6.3735    10.3263   111.7609     2.5699     0.0192
 2633.5000   -30.0618     6.8027     6.3323    10.3280   112.2291     2.5631     0.0147
 2634.0000   -30.0493     6.7076     6.2485    10.3297   114.6493     2.5335     0.0072
 2634.5000   -30.0390     6.5328     6.1651    10.3314   115.5680     2.5259     0.0057
 2635.0000   -30.1810     6.4453     6.0815    10.3330   116.3365     2.5305     0.0073
 2635.5000   -30.1691     6.4050     5.9601    10.3347   118.6280     2.5388     0.0104
 2636.0000   -30.3122     6.4085     5.9216    10.3364   119.9760     2.5411     0.0135
 2636.5000   -30.4527     6.4567     5.8834    10.3381   119.0315     2.5479     0.0135
 2637.0000   -30.4397     6.5507     5.8454    10.3398   114.9090     2.5540     0.0136
 2637.5000   -30.5828     6.7390     5.8489    10.3415   112.6701     2.5540     0.0136
 2638.0000   -30.5698     6.8371     5.8517    10.3432   112.6923     2.5540     0.0137
 2638.5000   -30.5595     6.8885     5.8953    10.3449   111.0584     2.5540     0.0138
 2639.0000   -30.5490     6.8923     5.9808    10.3466   110.9260     2.5532     0.0123
 2639.5000   -30.3876     6.8961     6.0254    10.3483   110.6435     2.5480     0.0109
 2640.0000   -30.2242     6.8520     6.1128    10.3504   110.2108     2.5472     0.0094
 2640.5000   -30.0630     6.8559     6.0311    10.2915   110.0668     2.5465     0.0079
 2641.0000   -30.0526     6.8120     5.9922    10.2771   112.9490     2.5435     0.0050
 2641.5000   -30.0437     6.7685     5.9535    10.2780   112.6271     2.5480     0.0067
 2642.0000   -30.0319     6.7731     5.9565    10.2788   110.0901     2.5624     0.0142
 2642.5000   -30.0216     6.7289     5.9105    10.2795   109.8492     2.5617     0.0188
 2643.0000   -30.0112     6.6869     5.8797    10.2652   111.6732     2.5617     0.0204
 2643.5000   -30.0009     6.6905     5.8417    10.2512   111.2405     2.5624     0.0204
 2644.0000   -29.9909     6.7409     5.8452    10.1476   110.9580     2.5632     0.0129
 2644.5000   -29.9804     6.8100     5.8480    10.0589   110.9757     2.5465     0.0039
 2645.0000   -29.9689     6.8904     5.8916    10.1043   111.4440     2.5412    -0.0006
 2645.5000   -29.9593     6.8942     5.9487    10.0600   114.6149     2.5405     0.0010
 2646.0000   -29.9487     6.9945     6.0637     9.8811   122.1402     2.5405     0.0086
 2646.5000   -30.0896     7.0525     6.2378     9.8234   118.8546     2.5480     0.0117
 2647.0000   -30.0784     7.1507     6.5067     9.8690   113.4670     2.5625     0.0148
 2647.5000   -30.0663     7.3563     6.6935     9.8844   107.6304     2.5671     0.0148
 2648.0000   -30.2093     7.7273     6.9351     9.7363   104.3404     2.5663     0.0119
 2648.5000   -30.3498     7.9495     7.0886     9.7071   104.2080     2.5610     0.0089
 2649.0000   -30.4903     8.1781     7.2869     9.7080   104.2302     2.5587     0.0075
 2649.5000   -30.4774     8.1825     7.4448     9.7236   104.0934     2.5572     0.0060
 2650.0000   -30.4670     8.1870     7.6055     9.7244   104.5660     2.5544     0.0030
 2650.5000   -30.2738     8.1347     7.7696     9.7100   105.1800     2.5513     0.0031
 2651.0000   -29.9938     8.0594     7.9372     9.6974   103.7007     2.5481     0.0016
 2651.5000   -29.8326     7.9754     8.0522     9.7012   102.0668     2.5444     0.0002
 2652.0000   -29.8220     7.9246     8.0561     9.7051   101.3333     2.5414     0.0002
 2652.5000   -29.6606     7.8195     8.0599     9.7089   104.6549     2.5330    -0.0012
 2653.0000   -29.8016     7.8239     7.9524     9.7128   106.1742     2.5300    -0.0011
 2653.5000   -29.7886     7.8291     7.9562     9.7166   106.8213     2.5330    -0.0026
 2654.0000   -29.9614     7.8333     7.9600     9.7205   109.1537     2.5171    -0.0025
 2654.5000   -30.0722     7.8376     7.9638     9.7243   110.4324     2.5224    -0.0010
 2655.0000   -30.2100     7.8419     7.9677     9.7282   110.7542     2.5361     0.0022
 2655.5000   -30.1997     7.8462     7.9716     9.7320   111.3725     2.5429     0.0052
 2656.0000   -30.1893     7.8504     7.9199     9.7359   111.6906     2.5482     0.0068
 2656.5000   -30.3298     7.8547     7.8688     9.7397   110.6573     2.5498     0.0069
 2657.0000   -30.1686     7.9138     7.6574     9.7436   109.1736     2.5414     0.0069
 2657.5000   -30.1583     7.8942     7.2464     9.7474   105.6890     2.5354     0.0070
 2658.0000   -30.1478     7.8675     7.0992     9.7513   108.8606     2.5438     0.0086
 2658.5000   -30.2884     7.8719     7.1035     9.7552   110.2268     2.5422     0.0116
 2659.0000   -30.2755     7.8763     7.1565     9.7590   110.3918     2.5392     0.0147
 2659.5000   -30.5693     7.8815     7.1599     9.7629   110.4066     2.5437     0.0163
 2660.0000   -30.8606     7.8858     7.1633     9.7667   110.2676     2.5521     0.0179
 2660.5000   -30.8477     7.8901     7.1668     9.7706   110.2861     2.5566     0.0119
 2661.0000   -30.6865     7.8387     7.1205     9.7744   108.1988     2.5392     0.0044
 2661.5000   -30.2237     7.8440     7.1240     9.7783   107.6126     2.5271    -0.0001
 2662.0000   -29.9117     7.8483     7.1282     9.7821   108.2284     2.5188    -0.0016
 2662.5000   -29.7505     7.8385     7.1492     9.7860   109.1441     2.5210    -0.0015
 2663.0000   -29.7401     7.8277     7.1702     9.7884   109.9179     2.5264     0.0034
 2663.5000   -29.8808     7.8168     7.1913     9.7891   110.0911     2.5385     0.0092
 2664.0000   -29.9447     7.8060     7.2123     9.7899   110.0661     2.5476     0.0108
 2664.5000   -30.0106     7.7951     7.2333     9.7906   106.6546     2.5484     0.0109
 2665.0000   -30.0004     7.7950     7.2543     9.8064   106.3691     2.5446     0.0079
 2665.5000   -30.1409     7.8530     7.2754     9.8220   105.9334     2.5438     0.0049
 2666.0000   -30.1279     7.8566     7.2903     9.8228   108.9513     2.5499     0.0050
 2666.5000   -30.1176     7.9155     7.3954     9.8235   109.5667     2.5567     0.0035
 2667.0000   -30.1072     7.9452     7.5021     9.8241   108.6806     2.5537     0.0020
 2667.5000   -30.0968     7.9774     7.5778     9.8222   102.6907     2.5416    -0.0009
