~VERSION INFORMATION
 VERS.                2.0:   CWLS LOG ASCII STANDARD - VERSION 2.0
 WRAP.                 NO:   ONE LINE PER DEPTH STEP
~WELL INFORMATION
#MNEM.UNIT      DATA TYPE    INFORMATION
#----------   ------------   ------------------------------
 STRT.F           60.0000:   START DEPTH
 STOP.F         5768.0000:   STOP DEPTH
 STEP.F            0.5000:   STEP LENGTH
 NULL.          -999.2500:   NO VALUE
 COMP.              RMOTC:   COMPANY
 WELL. RMOTC NPR-3 61 "X" #2-15:   WELL
 FLD .            N P R-3:   FIELD
 LOC .      S15 T38N R78W:   LOCATION
 CNTY.            NATRONA:   COUNTY
 STAT.            WYOMING:   STATE
 CTRY. UNITED STATES OF AMERICA:   COUNTRY
 SRVC.       SCHLUMBERGER:   SERVICE COMPANY
 DATE.        07-JAN-2002:   LOGDATE
 API .     49025230310000:   API NUMBER
~CURVE INFORMATION
#MNEM.UNIT       API CODE    CURVE DESCRIPTION
#----------   ------------   ------------------------------
 DEPT.F                  :   
 CALD.IN     45 280 60 00:   CALIPER FROM DENSITY LOG
 TEND.LBS    45 635 01 00:   TENSION FROM DENSITY LOG
 PEFZ.B/E    45 358 01 00:   HILT PHOTOELECTRIC FACTOR
 RHOZ.G/C3   45 350 01 00:   HILT BULK DENSITY
 NPOR.DEC    42 890 03 00:   ALPHA PROCESSED NEUTRON POROSITY
 HDRA.G/C3   45 356 01 00:   DELTA RHO HIP TOOL
 GRS .GAPI   60 310 01 00:   GAMMA RAY FROM SONIC LOG
 DTSM.US/F   61 523 00 00:   SHEAR-WAVE INTERVAL TRANSIT TIME DELTA-T
 GRR .GAPI   07 310 01 00:   GAMMA RAY FROM RESISTIVITY
 TENR.LBS    01 635 01 00:   TENSION FROM RES.
 SPR .MV     07 010 01 00:   SPONTANEOUS POTENTIAL
 HLLD.OHMM   11 220 10 00:   LATEROLOG DEEP RES.
 HLLS.OHMM   11 220 09 00:   LATEROLOG SHALLOW RES.
 HRLD.OHMM   11 220 10 00:   HIGH RESOLUTION DEEP RESISTIVITY
~PARAMETER INFORMATION
#MNEM.UNIT          VALUE    DESCRIPTION
#----------   ------------   ------------------------------
 EKB .F         5244.0000:   Kelly bushing
 EGL .F         5227.0000:   Ground level
 EDF .F         5243.0000:   Drilling floor
 EPD .F            0.0000:   Permanent datum
 TD  .F         5756.0000:   Total depth
 DATE.        07-JAN-2002:   Date logged
 CLNT.            A2DTECH:   Client Code
 SL  . 189' FNL & 1895' FEL:   Surface Location
 PD  .                 GL:   Permanent Datum
 DD  .F              5750:   Depth driller
 DL  .F              5756:   Depth logger
 BLI .F              5748:   Bottom log interval
 CS1 .IN             3054:   Casing size
 CBD1.     9.625" @ 3052':   Casing driller 1
 CBL1.F              3054:   Casing logger 1
 BS1 .IN            8.750:   Bit size
 DFT .             3% KCL:   Type fluid in hole
 DFD .                9.3:   Density
 DFV .                 42:   Viscosity
 DFPH.                  8:   pH
 DFL .                 28:   Fluid loss
 MSS .           FLOWLINE:   Source of sample
 RMS .OHMM          0.413:   Rm
 MST .F                74:   Rm Meas. temp.
 RMF .OHMM          0.305:   Rmf
 MFST.F                74:   Rmf Meas. temp.
 RMC .OHMM          0.637:   Rmc
 MCST.F                74:   Rmc Meas. temp.
 MFSS.               CALC:   Source Rmf.
 RMB .OHMM          0.187:   Rm. at BHT
 BHT .F               172:   BHT.
 TCS .HRS            0800:   Time Circ. stopped
 MRT .F               172:   Maximum recorded temp.
 LUN .               2211:   Logging unit number
 LUL .             CASPER:   Logging unit location
 ENGI.        J.L. FLORES:   Recorded By
 WITN.      MARK MILLIKEN:   Witnessed by
 ORIG.           5" PRINT:   Origin of data
 UWI .     49025230310000:   Unique Well ID
 DICO. A2D TECHNOLOGIES, INC.:   Digitizing Company
 DAPD.                 17:   Feet Above Permanent Datum
 BSD1.               5750:   Depth drilled with bit1
 MCSS.               CALC:   Source Rmc.
 LMF .                 KB:   Log Measured From
 DMF .                 KB:   Drilling Measured From
 TLI .               3054:   Top log interval
~OTHER INFORMATION
~A   DEPT     CALD       TEND       PEFZ       RHOZ       NPOR       HDRA        GRS       DTSM         GRR      TENR        SPR       HLLD       HLLS       HRLD   
# ...
 4470.0000     9.0320  2475.1489     5.0560     2.3250     0.2030    -0.0510    28.2700   143.9630    29.8470  2492.5520   -36.1420     9.3610     1.2220    42.3400
 4470.5000     9.0000  2464.3030     5.1410     2.3270     0.2110    -0.0430    29.3260   144.5060    31.6450  2468.2781   -36.5780    13.4970     2.2180    43.5230
 4471.0000     8.9760  2435.3879     5.0850     2.3280     0.2210    -0.0340    30.3850   144.8220    33.5550  2456.8020   -37.0050     9.7100     7.2660    62.9850
 4471.5000     8.9760  2454.9199     4.8900     2.3260     0.2300    -0.0250    31.4350   143.4860    34.7920  2470.0430   -37.5240     9.6600     4.9110    90.2250
 4472.0000     8.9760  2479.8210     4.5520     2.3230     0.2390    -0.0160    32.4080   141.8470    36.1110  2483.2839   -37.5350     8.5810     2.0990   112.6800
 4472.5000     8.9760  2473.4319     4.1160     2.3350     0.2390    -0.0110    35.6760   140.2080    37.1290  2492.5520   -37.5160     5.4570     1.5880    24.7960
 4473.0000     8.9750  2464.3770     3.6870     2.3640     0.2150    -0.0090    36.9760   139.2390    37.1490  2492.5520   -38.5390     7.4520     2.5090    28.0400
 4473.5000     8.9950  2455.2681     3.4370     2.3890     0.1920    -0.0140    37.2520   139.2390    37.1330  2492.5520   -38.9110     9.4470     4.4100    64.1100
 4474.0000     9.0170  2470.5000     3.6000     2.3620     0.1810    -0.0290    34.2320   139.8430    35.6280  2512.4131   -38.0200    13.3590     3.8560    48.4740
 4474.5000     9.0360  2485.8240     4.0360     2.3240     0.2170    -0.0440    30.1660   142.7920    33.0760  2520.1370   -37.0300     9.9240     4.2550    12.9960
 4475.0000     9.0300  2495.0300     4.4700     2.2920     0.2370    -0.0590    28.4870   143.8070    30.5290  2532.2739   -35.9530     6.1460     5.1690     6.7970
 4475.5000     9.0260  2490.8799     4.7830     2.3020     0.2350    -0.0620    30.6290   141.2180    30.2470  2532.2739   -36.4990     6.1500     5.3810    14.9420
 4476.0000     9.0210  2486.7300     4.8690     2.3180     0.2320    -0.0530    32.3760   136.8970    32.5320  2532.2739   -36.3530     6.7350     5.4570    28.3120
 4476.5000     9.0170  2482.5801     5.1080     2.3340     0.2230    -0.0420    33.7190   132.5760    35.5470  2516.1370   -36.5870     6.0490     6.7040    30.6950
 4477.0000     9.0360  2478.4290     4.7670     2.3620     0.2160    -0.0310    34.4720   128.5790    37.5240  2528.5500   -37.8420     5.1660     4.9800    18.3070
 4477.5000     9.0560  2475.1489     4.3340     2.4120     0.1990    -0.0200    35.1420   128.5790    37.0950  2532.2739   -38.5070     6.9160     8.5190    14.0050
 4478.0000     9.0750  2455.2681     3.8960     2.4370     0.1830    -0.0150    33.3090   128.0710    36.6030  2526.4810   -36.7190     8.5080     9.4730    52.4070
 4478.5000     9.0700  2455.2681     3.6980     2.4480     0.1800    -0.0140    31.3560   128.0710    36.1880  2518.2061   -35.7550    10.2580    11.7660     9.4470
 4479.0000     9.0640  2463.4331     3.9500     2.4220     0.1850    -0.0230    29.7870   130.5690    35.6880  2512.4131   -36.3850    10.1650     9.9070    10.8670
 4479.5000     9.0570  2476.7129     4.2100     2.4100     0.1910    -0.0320    28.8880   133.1020    34.7330  2512.4131   -36.9700     8.2360     7.4820    12.1570
 4480.0000     9.0490  2489.9929     4.4580     2.4050     0.1900    -0.0340    28.2010   135.3070    33.3510  2512.4131   -37.0300     8.1610     7.3130     8.7010
 4480.5000     9.0320  2488.5759     4.5660     2.4010     0.1890    -0.0340    28.8050   137.2770    32.3540  2505.0959   -36.3070     8.0320     5.8720    11.2760
 4481.0000     9.0160  2473.2529     4.6630     2.3850     0.2040    -0.0340    29.3950   139.0190    32.3120  2494.6431   -35.5920     6.4930     3.0950    16.2080
 4481.5000     9.0010  2457.9290     4.7600     2.3580     0.2190    -0.0330    28.8550   141.1290    31.5960  2484.1899   -36.0220     5.6100     2.3430    24.7700
 4482.0000     8.9760  2441.9331     4.8750     2.3500     0.2180    -0.0350    27.5260   143.2400    29.5720  2472.6909   -37.3250     5.7630     2.7060    20.3690
 4482.5000     8.9760  2457.2561     5.0040     2.3500     0.2170    -0.0380    26.2060   145.3510    26.7220  2485.3301   -36.9480     7.1800     3.9030    21.1280
 4483.0000     8.9760  2472.5801     5.1540     2.3550     0.2190    -0.0410    25.0410   147.2300    26.7010  2503.3850   -36.3430     7.5460     4.9800    20.4970
 4483.5000     8.9760  2467.9399     5.2950     2.3610     0.2160    -0.0430    25.1060   148.3760    28.9430  2512.4131   -36.1240     8.2360     5.0160    20.1840
 4484.0000     8.9760  2459.2791     5.2690     2.3690     0.2080    -0.0460    26.1930   148.3760    31.1110  2507.0659   -36.1270     8.8150     4.5770   757.9680
 4484.5000     8.9760  2450.6179     5.2000     2.3780     0.2030    -0.0460    27.3790   144.1350    31.9200  2499.4270   -35.6140    11.7670     3.9810  1972.7480
 4485.0000     8.9760  2441.9570     5.1320     2.3870     0.2010    -0.0420    27.0730   139.7360    31.4420  2492.5520   -34.8320    10.0690     3.7190   641.2890
 4485.5000     8.9740  2437.7930     5.0780     2.4000     0.1970    -0.0380    26.3820   135.3360    30.6240  2472.6909   -34.0250     9.2730     3.2790    42.3440
 4486.0000     9.0120  2447.7529     5.0950     2.4030     0.2010    -0.0340    25.6830   131.4260    29.8810  2491.8430   -33.1270    10.4180     2.2640    57.1220
 4486.5000     9.0840  2475.1489     5.0630     2.4020     0.2070    -0.0340    25.0600   130.3650    29.0450  2513.1221   -33.5070    11.4480     1.2520    53.7610
 4487.0000     9.1550  2475.1489     4.9790     2.3870     0.2140    -0.0330    25.1020   128.7820    28.3530  2532.2739   -34.1450     7.3720     1.2850    30.8830
 4487.5000     9.2250  2475.1489     4.8980     2.3900     0.2040    -0.0320    25.9720   128.0710    29.4130  2529.5659   -34.7120     8.7810     1.5070    16.8100
 4488.0000     9.2730  2455.2681     4.8860     2.3990     0.1930    -0.0210    26.3690   128.0710    30.5510  2520.5381   -34.0700     7.5700     1.4110    22.6780
 4488.5000     9.2970  2461.6179     4.8960     2.4090     0.1880    -0.0120    25.5350   128.6250    31.4970  2512.4131   -33.7140     6.0900     0.9090    39.3530
 4489.0000     9.3020  2467.6550     4.8980     2.4140     0.1830    -0.0090    24.7480   130.8030    30.6920  2506.8960   -34.1090     5.8000     1.9590    17.6290
 4489.5000     9.3070  2473.6909     4.8280     2.4170     0.1760    -0.0130    24.1510   133.9520    29.7840  2495.8621   -34.5200     5.5070     3.3460    16.7700
 4490.0000     9.3130  2479.7280     4.7580     2.4180     0.1730    -0.0250    24.7100   137.1010    27.9160  2504.1379   -34.0400     6.7620     2.6600    17.5500
 4490.5000     9.3180  2485.7639     4.5920     2.4050     0.1810    -0.0360    25.2780   140.2500    25.4800  2520.6890   -33.5210     7.3130     3.3610    29.1000
 4491.0000     9.2350  2491.8010     4.1530     2.3800     0.1980    -0.0390    25.8400   143.3990    24.3500  2532.2739   -34.5950     6.4380     2.9740    31.8870
 4491.5000     9.1140  2491.1699     3.6100     2.3510     0.2130    -0.0240    26.6860   146.5480    25.1380  2526.8120   -35.8630     6.3230     2.8960    37.9390
 4492.0000     8.9880  2482.8689     3.1180     2.3350     0.2220    -0.0110    27.9620   149.6980    26.6950  2521.8469   -35.3920     6.7660     3.6360   940.9630
 4492.5000     8.9570  2475.1489     2.9960     2.3220     0.2300    -0.0160    30.4760   152.4370    28.3160  2516.8821   -32.9950     6.8280     4.3220    11.2400
 4493.0000     8.9600  2475.1489     3.3170     2.3160     0.2380    -0.0270    32.6110   154.1070    30.1170  2502.4829   -32.9120     7.7960     3.9620    24.5140
 4493.5000     8.9650  2475.1489     3.9480     2.3030     0.2460    -0.0380    32.1240   155.2580    31.7220  2492.5520   -35.4770     7.5400     1.2290    32.1800
 4494.0000     8.9700  2475.1489     4.9050     2.2970     0.2520    -0.0390    31.6090   156.4970    33.1850  2505.1909   -37.1410     6.6870     1.1850    16.6570
