~VERSION INFORMATION
 VERS.                2.0:   CWLS LOG ASCII STANDARD - VERSION 2.0
 WRAP.                 NO:   ONE LINE PER DEPTH STEP
~WELL INFORMATION
#MNEM.UNIT      DATA TYPE    INFORMATION
#----------   ------------   ------------------------------
 STRT.F          705.5000:   START DEPTH
 STOP.F         3212.0000:   STOP DEPTH
 STEP.F            0.5000:   STEP LENGTH
 NULL.          -999.2500:   NO VALUE
 COMP.    FENIX & SCISSON:   COMPANY
 WELL. FENIX 41 "AX" #1-15:   WELL
 FLD .             NPR #3:   FIELD
 LOC .      S15 T38N R78W:   LOCATION
 CNTY.            NATRONA:   COUNTY
 STAT.            WYOMING:   STATE
 CTRY. UNITED STATES OF AMERICA:   COUNTRY
 SRVC.              WELEX:   SERVICE COMPANY
 DATE.        18-NOV-1980:   LOGDATE
 API .     49025108530000:   API NUMBER
~CURVE INFORMATION
#MNEM.UNIT       API CODE    CURVE DESCRIPTION
#----------   ------------   ------------------------------
 DEPT.F                  :   
 SPR .MV     07 010 01 00:   SPONTANEOUS POTENTIAL
 ILD .OHMM   07 120 46 00:   INDUCTION LOG DEEP RESISTIVITY
 ILM .OHMM   07 120 44 00:   INDUCTION LOG MEDIUM RESISTIVITY
 SGRD.OHMM   07 220 05 00:   SHORT GUARD RESISTIVITY
 GRD .GAPI   45 310 01 00:   GAMMA RAY FROM DENSITY LOG
 CALD.IN     45 280 60 00:   CALIPER FROM DENSITY LOG
 RHOB.G/C3   45 350 01 00:   BULK DENSITY
 NPHI.DEC    42 890 03 00:   NEUTRON POROSITY SANDSTONE
~PARAMETER INFORMATION
#MNEM.UNIT          VALUE    DESCRIPTION
#----------   ------------   ------------------------------
 EKB .F         5252.0000:   Kelly bushing
 EGL .F         5242.0000:   Ground level
 EDF .F            0.0000:   Drilling floor
 TD  .F         3214.0000:   Total depth
 CLNT.            A2DTECH:   Client Code
 SL  . 2150' FWL & 550' FNL:   Surface Location
 PD  .                 GL:   Permanent Datum
 EPD .F              5242:   Elevation Permanent Datum
 LMF .                 KB:   Log Measured From
 DMF .                 KB:   Drilling Measured From
 DATE.        18-NOV-1980:   Date Logged [DD-MMM-YYYY]
 DD  .F              3210:   Depth driller
 DL  .F              3214:   Depth logger
 BLI .F              3212:   Bottom log interval
 TLI .F               734:   Top log interval
 CS1 .IN            8.625:   Casing size
 CBD1.      8.625" @ 709':   Casing driller 1
 CBL1.F               734:   Casing logger 1
 BS1 .IN            7.875:   Bit size
 BSD1.F              3210:   Depth drilled with bit1
 DFT .          FRESH MUD:   Type fluid in hole
 DFD .                8.8:   Density
 DFV .                 45:   Viscosity
 DFPH.               10.5:   pH
 DFL .                 12:   Fluid loss
 MSS .           FLOWLINE:   Source of sample
 RMS .OHMM           1.25:   Rm
 MST .F                70:   Rm Meas. temp.
 RMF .OHMM           1.25:   Rmf
 MFST.F                70:   Rmf Meas. temp.
 MFSS.               MEAS:   Source Rmf.
 RMB .OHMM           0.78:   Rm. at BHT
 BHT .F               112:   BHT.
 TCS .HRS               7:   Time Circ. stopped
 MRT .F               112:   Maximum recorded temp.
 LUN .               1892:   Logging unit number
 LUL .             CASPER:   Logging unit location
 ENGI.               REIN:   Recorded By
 WITN.              SCOTT:   Witnessed by
 ORIG.      2.5" 5" PRINT:   Origin of data
 UWI .     49025108530000:   Unique Well ID
 DICO. A2D TECHNOLOGIES, INC.:   Digitizing Company
 DAPD.                 10:   Feet Above Permanent Datum
~OTHER INFORMATION
~A   DEPT      SPR        ILD        ILM       SGRD         GRD      CALD       RHOB       NPHI   
# ...
 1029.5000   -40.4676     7.5481     7.5259     7.3830    79.6119     9.2608     2.5413     0.2651
 1030.0000   -40.4706     7.4435     7.4213     7.2806    79.3664     9.2451     2.5366     0.2636
 1030.5000   -40.4735     7.3403     7.4199     7.2791    79.7826     9.2296     2.5335     0.2643
 1031.0000   -40.4765     7.3388     7.4184     7.2776    80.4195     9.2141     2.5326     0.2694
 1031.5000   -40.4794     7.2371     7.4169     7.2761    80.6151     9.2133     2.5424     0.2732
 1032.0000   -40.1888     7.1366     7.4154     7.2746    80.8046     9.2123     2.5598     0.2691
 1032.5000   -40.1916     7.1352     7.4138     7.2731    80.5588     9.2115     2.5680     0.2663
 1033.0000   -40.1945     7.1337     7.3108     7.2315    79.8661     9.2108     2.5733     0.2664
 1033.5000   -40.1973     7.1323     7.2849     7.1707    78.7382     9.2247     2.5792     0.2614
 1034.0000   -40.2002     7.0335     7.2077     7.1176    77.8309     9.2238     2.5837     0.2549
 1034.5000   -40.2031     6.9361     7.2062     7.0694    77.8060     9.2228     2.5904     0.2556
 1035.0000   -40.2059     6.9347     7.2047     7.0680    80.2013     9.2369     2.6017     0.2594
 1035.5000   -40.2088     6.9333     7.2032     7.0666    81.7205     9.2359     2.6159     0.2646
 1036.0000   -40.2118     6.9319     7.2017     7.0652    81.9224     9.2351     2.6282     0.2686
 1036.5000   -40.2643     6.9304     7.1014     7.0637    80.7855     9.2490     2.6052     0.2655
 1037.0000   -40.5118     6.9290     7.1000     7.0623    79.6542     9.2480     2.5968     0.2693
 1037.5000   -40.5147     6.9276     7.0985     7.0609    81.8351     9.2472     2.5952     0.2782
 1038.0000   -40.5176     6.9262     7.0971     7.0595    84.4572     9.2318     2.6042     0.2826
 1038.5000   -40.5206     6.9247     6.9985     7.0580    86.1970     9.2163     2.6102     0.2788
 1039.0000   -40.5235     6.9233     6.9971     7.0566    87.7100     9.2302     2.6146     0.2745
 1039.5000   -40.2324     6.9216     6.9957     7.0551    86.1409     9.2441     2.6176     0.2711
 1040.0000   -40.5300     6.9202     7.0914     7.0537    83.4689     9.2724     2.6129     0.2721
 1040.5000   -40.5328     6.9188     7.0899     7.0522    81.2381     9.3010     2.5566     0.2715
 1041.0000   -40.5357     6.9175     7.0884     7.0507    79.2216     9.3149     2.5527     0.2697
 1041.5000   -40.5385     6.9161     7.0870     7.0493    78.5350     9.2992     2.5541     0.2697
 1042.0000   -40.5414     6.9147     7.0855     7.0478    77.6277     9.2984     2.5631     0.2785
 1042.5000   -40.2501     6.9133     7.0840     7.0464    77.1616     9.2976     2.5714     0.2717
 1043.0000   -40.2530     6.9119     7.0826     7.0447    75.8069     9.2968     2.5819     0.2708
 1043.5000   -40.2559     6.9105     7.0811     7.0433    74.6790     9.2958     2.5902     0.2661
 1044.0000   -40.2588     6.9090     7.0797     7.0418    74.8809     9.2950     2.5939     0.2743
 1044.5000   -40.2618     6.9076     6.9810     7.0404    76.1732     9.2942     2.5930     0.2750
 1045.0000   -40.2647     6.9062     6.9796     7.0390    79.4509     9.2934     2.5891     0.2741
 1045.5000   -40.2676     6.9048     6.9782     7.0376    81.4113     9.2926     2.5830     0.2720
 1046.0000   -40.2706     6.9033     6.8813     7.0356    82.4955     9.3065     2.5791     0.2691
 1046.5000   -40.2735     6.9019     6.7857     6.9321    82.2437     9.3349     2.5782     0.2658
 1047.0000   -40.2765     6.9002     6.7843     6.8423    81.3302     9.3490     2.5793     0.2630
 1047.5000   -40.2794     6.8989     6.7830     6.8409    79.9818     9.3627     2.5848     0.2602
 1048.0000   -40.2824     6.8975     6.7816     6.8394    79.0745     9.3766     2.5940     0.2726
 1048.5000   -40.2858     6.8019     6.7802     6.8380    78.6084     9.4049     2.6044     0.2757
 1049.0000   -40.2887     6.7077     6.7788     6.8366    80.3419     9.4042     2.6073     0.2773
 1049.5000   -40.2915     6.7064     6.7523     6.7942    82.0817     9.4182     2.6065     0.2796
 1050.0000   -40.2944     6.7051     6.6527     6.7404    82.5019     9.4172     2.5935     0.2793
 1050.5000   -40.2972     6.7037     6.5903     6.6872    82.0322     9.4311     2.5858     0.2796
 1051.0000   -40.3001     6.6108     6.5889     6.6452    81.7888     9.4301     2.5955     0.2780
 1051.5000   -40.3029     6.6094     6.5876     6.6439    81.1042     9.4000     2.5992     0.2738
 1052.0000   -40.3059     6.5179     6.5862     6.6425    79.9583     9.3845     2.5969     0.2703
 1052.5000   -40.3088     6.5165     6.5846     6.5504    79.7350     9.3543     2.5497     0.2729
 1053.0000   -40.3118     6.5152     6.5835     6.4595    81.0357     9.3533     2.5458     0.2713
 1053.5000   -40.3147     6.3840     6.5820     6.4583    81.8953     9.3674     2.5467     0.2707
 1054.0000   -40.3176     6.3359     6.5806     6.4570    78.3373     9.3517     2.5562     0.2764
 1054.5000   -40.0259     6.3343     6.5793     6.3674    79.6523     9.3509     2.5630     0.2752
 1055.0000   -40.0294     6.3330     6.5780     6.2790    81.8154     9.3648     2.5705     0.2721
 1055.5000   -40.0324     6.3318     6.5767     6.2932    81.3514     9.3492     2.5598     0.2699
 1056.0000   -40.0353     6.3305     6.5753     6.3636    79.5639     9.3632     2.5419     0.2672
 1056.5000   -40.0388     6.3293     6.5740     6.4505    79.9880     9.3622     2.5292     0.2662
 1057.0000   -40.0416     6.3280     6.5726     6.4490    80.8419     9.3614     2.5116     0.2697
 1057.5000   -40.0445     6.3267     6.5712     6.4476    81.7013     9.3605     2.4971     0.2712
 1058.0000   -40.0473     6.3254     6.5699     6.4463    81.4522     9.3597     2.5092     0.2665
 1058.5000   -40.0502     6.3358     6.5685     6.4450    80.9882     9.3589     2.5451     0.2642
 1059.0000   -40.0530     6.4105     6.5672     6.4434    80.7448     9.3581     2.5143     0.2689
 1059.5000   -40.0559     6.4090     6.5658     6.4421    80.5014     9.3425     2.4952     0.2702
 1060.0000   -40.0588     6.4966     6.5642     6.4408    79.5710     9.3270     2.5088     0.2643
 1060.5000   -40.0618     6.4950     6.6540     6.5289    78.4648     9.3262     2.5346     0.2603
 1061.0000   -40.0647     6.5147     6.7450     6.6180    78.0008     9.2960     2.5505     0.2634
 1061.5000   -40.0676     6.5822     6.7436     6.6166    78.1985     9.2803     2.5610     0.2663
 1062.0000   -40.0706     6.6720     6.8359     6.8000    78.6169     9.2795     2.5692     0.2682
 1062.5000   -40.0735     6.6704     6.9295     6.7986    78.8147     9.2787     2.5767     0.2692
 1063.0000   -40.0765     6.8549     7.0242     6.8915    78.3450     9.2779     2.5615     0.2664
 1063.5000   -40.0794     6.9484     7.1203     6.9856    78.1015     9.2771     2.5553     0.2642
 1064.0000   -40.0824     7.0433     7.1294     7.1031    77.8581     9.2762     2.5947     0.2621
 1064.5000   -40.0858     7.0418     7.3165     7.1778    78.7177     9.2754     2.6015     0.2605
 1065.0000   -40.0887     7.1378     7.4165     7.2758    80.2390     9.2746     2.5907     0.2584
 1065.5000   -40.0915     7.2352     7.5180     7.3752    81.7546     9.2738     2.5762     0.2559
 1066.0000   -40.0944     7.3473     7.5538     7.3734    82.1786     9.2877     2.5449     0.2597
 1066.5000   -40.0972     7.4339     7.7248     7.4265    81.2677     9.2867     2.5471     0.2691
 1067.0000   -40.1001     7.5630     7.7232     7.5758    80.5832     9.3005     2.5630     0.2651
 1067.5000   -40.1030     7.6381     7.8288     7.5743    81.8839     9.2998     2.5834     0.2708
 1068.0000   -40.1059     7.6785     7.9358     7.6777    82.5228     9.3136     2.5970     0.2711
 1068.5000   -40.1088     7.7404     7.9342     7.6762    80.7296     9.3126     2.5924     0.2674
 1069.0000   -40.1118     7.8459     7.9324     7.7812    78.5009     9.3118     2.5543     0.2640
 1069.5000   -40.1147     7.8440     8.0410     7.7795    77.8163     9.3111     2.5306     0.2602
