~VERSION INFORMATION
 VERS.                2.0:   CWLS LOG ASCII STANDARD - VERSION 2.0
 WRAP.                 NO:   ONE LINE PER DEPTH STEP
~WELL INFORMATION
#MNEM.UNIT      DATA TYPE    INFORMATION
#----------   ------------   ------------------------------
 STRT.F         3500.0000:   START DEPTH
 STOP.F         6855.0000:   STOP DEPTH
 STEP.F            0.5000:   STEP LENGTH
 NULL.          -999.2500:   NO VALUE
 COMP.          U.S. NAVY:   COMPANY
 WELL.  US NAVY "G" #1-10:   WELL
 FLD . TEAPOT NAVAL RESERVE:   FIELD
 LOC .      S10 T38N R78W:   LOCATION
 CNTY.            NATRONA:   COUNTY
 STAT.            WYOMING:   STATE
 CTRY. UNITED STATES OF AMERICA:   COUNTRY
 SRVC.         LANE WELLS:   SERVICE COMPANY
 DATE.        23-MAR-1952:   LOGDATE
 API .     49025063380000:   API NUMBER
~CURVE INFORMATION
#MNEM.UNIT       API CODE    CURVE DESCRIPTION
#----------   ------------   ------------------------------
 DEPT.F                  :   
 GRN .GAPI   35 310 01 00:   GAMMA RAY
 NEUT.NAPI   35 330 01 00:   NEUTRON
~PARAMETER INFORMATION
#MNEM.UNIT          VALUE    DESCRIPTION
#----------   ------------   ------------------------------
 EKB .F         5195.0000:   Kelly bushing
 EGL .F         5184.0000:   Ground level
 EDF .F         5195.0000:   Drilling floor
 EPD .F            0.0000:   Permanent datum
 TD  .F         6861.0000:   Total depth
 CLNT.            A2DTECH:   Client Code
 PD  .                 GL:   Permanent Datum
 DATE.        23-MAR-1952:   Date Logged [DD-MMM-YYYY]
 DD  .F              6861:   Depth driller
 DL  .F              6861:   Depth logger
 BLI .F              6855:   Bottom log interval
 TLI .F              3500:   Top log interval
 BSD1.F              6861:   Depth drilled with bit1
 DFT .                MUD:   Type fluid in hole
 ENGI.            GAMBERG:   Recorded By
 WITN.           GRIBBENS:   Witnessed by
 ORIG.         2.5" PRINT:   Origin of data
 UWI .     49025063380000:   Unique Well ID
 DICO. A2D TECHNOLOGIES, INC.:   Digitizing Company
~OTHER INFORMATION
~A  DEPT       GRN        NEUT  
# ...
 6294.5000     9.5721   773.5548
 6295.0000     9.6803   790.7892
 6295.5000     9.8248   803.1096
 6296.0000     9.5844   803.1450
 6296.5000     9.5891   779.2261
 6297.0000     9.5930   668.9693
 6297.5000     9.8414   582.7808
 6298.0000    11.5569   544.5015
 6298.5000    11.5711   526.1033
 6299.0000    10.5784   536.7588
 6299.5000     9.8571   649.3724
 6300.0000    10.8317   754.3057
 6300.5000    11.5687   823.1371
 6301.0000    10.8387   862.4846
 6301.5000    10.5903   948.5150
 6302.0000    10.1123   990.3194
 6302.5000    10.1161   979.9140
 6303.0000    10.4370   970.7341
 6303.5000    10.9513   976.9164
 6304.0000    11.8262   983.0959
 6304.5000    12.8502   977.6044
 6305.0000    13.3988   959.8280
 6305.5000    11.1166   935.7044
 6306.0000     9.8976   919.3671
 6306.5000     8.9231   916.9410
 6307.0000     8.6821   912.0668
 6307.5000     8.9962   833.4781
 6308.0000    10.8211   730.3194
 6308.5000    12.4914   677.9402
 6309.0000    13.6741   660.3685
 6309.5000    14.5685   665.3195
 6310.0000    13.8217   707.5349
 6310.5000    12.6205   824.4840
 6311.0000    11.6460   891.4742
 6311.5000    11.4050   936.1466
 6312.0000    11.6530  1000.8845
 6312.5000    12.6345  1047.6096
 6313.0000    13.3715  1082.0430
 6313.5000    12.5671  1077.1644
 6314.0000    11.8536  1028.0597
 6314.5000    11.6706   987.6115
 6315.0000    12.9582   916.7885
 6315.5000    14.2495   858.9860
 6316.0000    16.5728   794.7980
 6316.5000    17.5544   777.6344
 6317.0000    18.5359   770.2988
 6317.5000    17.5614   767.8747
 6318.0000    17.0759   817.0526
 6318.5000    16.8349   874.6982
 6319.0000    17.1439  1001.4045
 6319.5000    18.1686  1009.2364
 6320.0000    19.8296  1136.6165
 6320.5000    21.1009  1276.7010
 6321.0000    21.4988  1345.5325
 6321.5000    21.5024  1382.4229
 6322.0000    21.9957  1402.1144
 6322.5000    23.2217  1409.5208
 6323.0000    24.2032  1349.3112
 6323.5000    24.4512  1273.1411
 6324.0000    24.9468  1205.5404
 6324.5000    25.9722  1113.9440
 6325.0000    27.2863  1059.9918
 6325.5000    29.1322   976.9321
 6326.0000    31.1118   842.2128
 6326.5000    34.2845   822.5922
 6327.0000    39.4630   814.8785
 6327.5000    40.7092   790.9645
 6328.0000    40.3770   737.6784
 6328.5000    40.1357   679.6641
 6329.0000    40.6286   630.5510
 6329.5000    42.0991   562.8604
 6330.0000    46.1105   474.5850
 6330.5000    49.2936   397.8318
 6331.0000    52.1869   368.3831
 6331.5000    54.9903   346.3056
 6332.0000    52.6837   358.6260
 6332.5000    47.8528   368.4894
 6333.0000    44.5704   370.9828
 6333.5000    43.3514   373.4767
 6334.0000    43.1100   377.0492
 6334.5000    45.0699   392.9667
 6335.0000    48.9854   401.5531
 6335.5000    53.1833   407.8423
 6336.0000    54.1269   420.8034
 6336.5000    45.6607   462.1565
 6337.0000    44.6209   540.8160
 6337.5000    43.4331   614.5615
 6338.0000    43.8539   658.8229
 6338.5000    47.1907   676.0573
 6339.0000    51.2158   711.5701
 6339.5000    52.1973   764.1528
 6340.0000    52.6898   796.5602
 6340.5000    53.9158   782.6341
 6341.0000    58.1007   748.8450
 6341.5000    63.1402   733.3281
 6342.0000    66.1820   720.4107
 6342.5000    69.8018   710.7563
 6343.0000    73.3153   597.7697
 6343.5000    78.1814   531.4660
 6344.0000    84.0945   524.1304
 6344.5000    85.7305   521.7087
 6345.0000    88.6680   506.7628
 6345.5000    89.1605   470.0045
 6346.0000    88.4305   426.6906
 6346.5000    83.2995   401.9863
 6347.0000    73.2518   396.5787
 6347.5000    65.1970   412.0378
 6348.0000    58.4380   474.3986
 6348.5000    54.7847   666.9729
 6349.0000    49.6529   787.4014
 6349.5000    43.6579   885.7170
 6350.0000    36.6266   984.0325
 6350.5000    35.6521  1148.6870
 6351.0000    36.1447  1188.0344
 6351.5000    43.4831  1195.4409
 6352.0000    52.5331  1064.3441
 6352.5000    58.4945   973.8539
 6353.0000    63.9571   753.2985
 6353.5000    69.4059   610.8277
 6354.0000    77.2226   475.7280
 6354.5000    83.9831   404.5103
 6355.0000    88.3360   407.0027
 6355.5000    95.6953   438.2848
 6356.0000   103.9077   485.4306
 6356.5000   109.0457   508.4145
 6357.0000   116.8731   505.6098
 6357.5000   123.4781   491.8035
 6358.0000   131.5711   454.4659
 6358.5000   133.5098   430.1975
 6359.0000   133.0241   434.3308
 6359.5000   133.4091   463.8502
 6360.0000   134.4988   473.7136
 6360.5000   134.1467   473.7491
 6361.0000   134.6605   471.3268
 6361.5000   136.4664   471.4735
 6362.0000   135.7364   484.9240
 6362.5000   132.3170   496.5168
 6363.0000   130.1200   490.7507
 6363.5000   127.9230   472.1403
 6364.0000   125.4279   467.7476
 6364.5000   123.8607   475.3552
 6365.0000   122.4333   454.4294
 6365.5000   121.7424   375.8408
 6366.0000   122.8034   356.2201
 6366.5000   126.5079   361.1695
 6367.0000   131.1278   368.5759
 6367.5000   133.8208   378.4394
 6368.0000   137.2473   368.6468
 6368.5000   141.4073   380.8154
 6369.0000   144.8338   412.2193
 6369.5000   147.3592   505.8370
 6370.0000   148.2638   544.5616
 6370.5000   147.5338   511.1992
 6371.0000   149.4008   506.4619
 6371.5000   149.0585   528.6175
 6372.0000   148.1597   563.0510
 6372.5000   147.7934   516.4033
 6373.0000   149.5092   501.6967
 6373.5000   149.7572   496.8082
 6374.0000   149.7607   500.1710
 6374.5000   150.9867   527.6494
 6375.0000   153.2027   575.5528
 6375.5000   152.8722   612.4147
 6376.0000   151.1472   645.4363
 6376.5000   150.7562   631.0159
 6377.0000   152.6790   575.8800
 6377.5000   155.4794   509.4041
 6378.0000   157.7933   499.6115
 6378.5000   162.2635   497.1867
 6379.0000   164.9565   497.2253
 6379.5000   166.9160   507.0887
 6380.0000   169.1200   522.0321
 6380.5000   171.5685   524.7257
 6381.0000   173.5835   546.8756
 6381.5000   174.8351   566.2039
 6382.0000   175.5533   545.2364
 6382.5000   176.6477   522.1714
 6383.0000   178.1539   517.1745
 6383.5000   178.5542   536.8737
 6384.0000   175.2623   563.9362
 6384.5000   172.3318   590.9986
 6385.0000   168.6679   595.9480
 6385.5000   166.7154   576.3274
 6386.0000   163.0514   561.2770
 6386.5000   161.3091   553.6570
 6387.0000   160.0913   557.4406
 6387.5000   159.6390   593.7931
 6388.0000   160.5921   632.7025
 6388.5000   162.0917   638.4124
 6389.0000   162.4554   605.1699
 6389.5000   165.1847   559.4294
 6390.0000   168.9492   537.3517
 6390.5000   168.2193   502.9891
 6391.0000   167.9780   495.6535
 6391.5000   169.6933   490.7749
 6392.0000   173.8733   488.3533
 6392.5000   176.9229   515.9570
 6393.0000   178.0168   522.8222
 6393.5000   177.0423   512.3652
 6394.0000   177.8713   508.1510
 6394.5000   178.3854   525.8226
 6395.0000   178.2763   542.6290
 6395.5000   179.0141   545.1300
 6396.0000   184.1521   547.6224
 6396.5000   184.6446   574.6848
 6397.0000   184.6481   584.5482
 6397.5000   185.3851   569.8416
 6398.0000   187.6282   542.7603
 6398.5000   188.6123   520.3445
 6399.0000   189.1883   513.0253
 6399.5000   189.5556   510.4042
 6400.0000   187.4253   506.1366
 6400.5000   185.8851   513.7302
 6401.0000   185.6553   529.5477
 6401.5000   185.9040   534.6984
 6402.0000   186.6410   577.5491
 6402.5000   185.6665   589.8694
 6403.0000   184.6920   590.7706
 6403.5000   184.2065   555.5422
 6404.0000   186.7206   494.0583
 6404.5000   190.7176   464.5979
 6405.0000   194.0512   454.7935
 6405.5000   200.2008   479.3872
 6406.0000   202.8797   513.8088
 6406.5000   207.4886   543.5167
 6407.0000   205.7153   553.1695
 6407.5000   204.5632   529.5810
 6408.0000   205.5466   463.4781
 6408.5000   205.2919   441.7942
 6409.0000   199.9326   436.7050
 6409.5000   198.1408   420.4145
 6410.0000   196.7624   405.8968
 6410.5000   197.2520   418.2102
 6411.0000   198.0273   435.4328
 6411.5000   199.2231   445.2844
 6412.0000   199.7166   455.1360
 6412.5000   198.9875   462.5307
 6413.0000   196.7915   465.0123
 6413.5000   194.5955   465.8259
 6414.0000   192.1204   474.8894
 6414.5000   189.1226   469.2110
 6415.0000   187.3850   463.1430
 6415.5000   185.2502   460.2211
