~VERSION INFORMATION
 VERS.                2.0:   CWLS LOG ASCII STANDARD - VERSION 2.0
 WRAP.                 NO:   ONE LINE PER DEPTH STEP
~WELL INFORMATION
#MNEM.UNIT      DATA TYPE    INFORMATION
#----------   ------------   ------------------------------
 STRT.F           50.0000:   START DEPTH
 STOP.F         2832.5000:   STOP DEPTH
 STEP.F            0.5000:   STEP LENGTH
 NULL.          -999.2500:   NO VALUE
 COMP.    FENIX & SCISSON:   COMPANY
 WELL. FENIX NPR 3 "AX" #87-20:   WELL
 FLD .              N P R:   FIELD
 LOC .      S20 T39N R78W:   LOCATION
 CNTY.            NATRONA:   COUNTY
 STAT.            WYOMING:   STATE
 CTRY. UNITED STATES OF AMERICA:   COUNTRY
 SRVC.           BIRDWELL:   SERVICE COMPANY
 DATE.        01-AUG-1978:   LOGDATE
 API .     49025106780000:   API NUMBER
~CURVE INFORMATION
#MNEM.UNIT       API CODE    CURVE DESCRIPTION
#----------   ------------   ------------------------------
 DEPT.F                  :   
 CALD.IN     45 280 60 00:   CALIPER FROM DENSITY LOG
 CORR.G/C3   45 356 01 00:   DENSITY CORRECTION
 GRD .GAPI   45 310 01 00:   GAMMA RAY FROM DENSITY LOG
 RHOB.G/C3   45 350 01 00:   BULK DENSITY
 SPR .MV     05 010 01 00:   SPONTANEOUS POTENTIAL
 ILD .OHMM   05 120 46 00:   DEEP INDUCTION RESISTIVITY
 SN  .OHMM   05 040 00 00:   SHORT NORMAL
~PARAMETER INFORMATION
#MNEM.UNIT          VALUE    DESCRIPTION
#----------   ------------   ------------------------------
 EKB .F         5007.0000:   Kelly bushing
 EGL .F         4997.0000:   Ground level
 EDF .F            0.0000:   Drilling floor
 EPD .F            0.0000:   Permanent datum
 TD  .F         2832.0000:   Total depth
 DATE.        01-AUG-1978:   Date logged
 CLNT.            A2DTECH:   Client Code
 SL  . 940' FSL & 200' FEL:   Surface Location
 PD  .                 GL:   Permanent Datum
 DD  .F              2825:   Depth driller
 DL  .F              2832:   Depth logger
 BLI .F              2826:   Bottom log interval
 CS1 .IN            8.625:   Casing size
 CBD1.      8.625" @ 140':   Casing driller 1
 CBL1.F               240:   Casing logger 1
 BS1 .IN            7.875:   Bit size
 DFT .            KCL/GEL:   Type fluid in hole
 DFD .                  9:   Density
 DFV .                 34:   Viscosity
 DFL .                  8:   Fluid loss
 MSS .           FLOWLINE:   Source of sample
 RMS .OHMM            1.5:   Rm
 MST .F                70:   Rm Meas. temp.
 RMF .OHMM            .70:   Rmf
 MFST.F                72:   Rmf Meas. temp.
 RMC .OHMM            2.2:   Rmc
 MCST.F                75:   Rmc Meas. temp.
 MFSS.               MEAS:   Source Rmf.
 TCS .HRS               6:   Time Circ. stopped
 LUN .               3007:   Logging unit number
 LUL .               CASP:   Logging unit location
 ENGI.            POINTER:   Recorded By
 WITN.              AMEND:   Witnessed by
 ORIG.           5" PRINT:   Origin of data
 UWI .     49025106780000:   Unique Well ID
 DICO. A2D TECHNOLOGIES, INC.:   Digitizing Company
 DAPD.                 10:   Feet Above Permanent Datum
 BSD1.F              2825:   Depth drilled with bit1
 LMF .                 KB:   Log Measured From
 DMF .                 KB:   Drilling Measured From
 TLI .F               140:   Top log interval
~OTHER INFORMATION
~A   DEPT     CALD       CORR         GRD      RHOB        SPR        ILD         SN   
# ...
 2234.0000     8.3620     0.0660   113.6570     2.5970   -19.9590     6.8060     7.2030
 2234.5000     8.3620     0.0630   115.5070     2.5900   -19.9700     7.0030     7.4420
 2235.0000     8.3620     0.0670   116.4020     2.5800   -19.9810     7.2000     7.6820
 2235.5000     8.3620     0.0680   115.7290     2.5770   -19.9920     7.3120     7.9210
 2236.0000     8.3730     0.0670   123.9070     2.5910   -20.0030     7.3990     8.1610
 2236.5000     8.4240     0.0660   130.7380     2.5930   -20.0130     7.4850     8.1610
 2237.0000     8.4750     0.0650   132.1290     2.5920   -20.0240     7.5710     8.0550
 2237.5000     8.5000     0.0640   128.1700     2.5990   -20.0350     7.5850     7.9670
 2238.0000     8.5000     0.0630   127.0710     2.6020   -20.0460     7.5850     7.8790
 2238.5000     8.5000     0.0650   123.4350     2.5930   -20.0570     7.5850     7.8590
 2239.0000     8.5000     0.0710   122.2940     2.5940   -20.0680     7.5850     7.8270
 2239.5000     8.5000     0.0720   119.0170     2.5990   -20.0790     7.5240     7.7950
 2240.0000     8.5000     0.0710   119.6450     2.5960   -20.0890     7.4390     7.7630
 2240.5000     8.5000     0.0740   117.2130     2.5910   -20.0990     7.3530     7.7320
 2241.0000     8.4980     0.0780   118.9100     2.5860   -20.0990     7.2670     7.7000
 2241.5000     8.4840     0.0850   115.7080     2.5820   -20.0990     7.1800     7.6680
 2242.0000     8.4710     0.0930   120.5950     2.5880   -20.0990     7.1650     7.6550
 2242.5000     8.4580     0.0930   114.7090     2.6000   -20.0990     7.1500     7.5230
 2243.0000     8.4450     0.0870   116.7460     2.6070   -20.0990     7.1350     7.4230
 2243.5000     8.4410     0.0810   114.1900     2.6070   -20.0990     7.1200     7.3230
 2244.0000     8.4340     0.0810   113.0630     2.5760   -20.0990     7.0560     7.2220
 2244.5000     8.4260     0.0810   111.1030     2.5650   -20.0990     6.9310     7.1220
 2245.0000     8.4170     0.0960   102.8300     2.5590   -20.0990     6.8070     7.0220
 2245.5000     8.4090     0.1130    96.7220     2.5660   -20.0990     6.6830     6.9210
 2246.0000     8.4010     0.1250   100.3150     2.5840   -20.0990     6.5530     6.7970
 2246.5000     8.4000     0.1260   106.5950     2.5930   -20.0990     6.5700     6.8120
 2247.0000     8.4340     0.1270   109.4570     2.5940   -20.0990     6.5930     6.8380
 2247.5000     8.4750     0.1280   109.6050     2.5880   -20.0990     6.6160     6.8640
 2248.0000     8.5160     0.1320   110.6150     2.5840   -20.0990     6.6380     6.8900
 2248.5000     8.5570     0.1340   113.3280     2.5870   -20.0990     6.6610     6.9160
 2249.0000     8.5730     0.1340   120.6190     2.5870   -20.0990     6.7460     6.9420
 2249.5000     8.5470     0.1340   127.7900     2.5810   -20.1070     6.7870     6.9680
 2250.0000     8.5220     0.1380   130.6690     2.5760   -20.1180     6.8280     6.9860
 2250.5000     8.4990     0.1440   132.9750     2.5780   -20.1300     6.8700     6.9650
 2251.0000     8.4980     0.1440   135.3750     2.5910   -20.1420     6.9220     6.9340
 2251.5000     8.4240     0.1440   136.7750     2.5950   -20.1540     6.8680     6.9040
 2252.0000     8.2430     0.1410   135.1440     2.5990   -20.1650     6.7930     6.8740
 2252.5000     8.5270     0.1330   132.0590     2.6080   -20.1770     6.7180     6.8440
 2253.0000     8.5410     0.1330   126.2450     2.6030   -20.1890     6.6430     6.8140
 2253.5000     8.5450     0.1340   121.8030     2.5760   -20.2000     6.5680     6.7830
 2254.0000     8.5500     0.1360   124.4640     2.5720   -20.2120     6.4930     6.7530
 2254.5000     8.5550     0.1420   129.3720     2.5710   -20.2240     6.4930     6.7350
 2255.0000     8.5590     0.1450   134.0790     2.5690   -20.2350     6.4930     6.7350
 2255.5000     8.5580     0.1450   137.5680     2.5720   -20.2470     6.4930     6.7350
 2256.0000     8.5510     0.1460   140.1970     2.5700   -20.2590     6.4690     6.7350
 2256.5000     8.5440     0.1510   142.2740     2.5640   -20.2700     6.3670     6.6760
 2257.0000     8.5370     0.1600   129.2980     2.5640   -20.2820     6.2650     6.5850
 2257.5000     8.5300     0.1700   129.4520     2.5670   -20.2960     6.1630     6.4940
 2258.0000     8.5230     0.1740   133.4950     2.5740   -20.2170     6.0640     6.4030
 2258.5000     8.5160     0.1710   136.2640     2.5920   -20.1060     5.9730     6.3120
 2259.0000     8.5100     0.1550   142.0160     2.6010   -19.9940     5.8820     6.2210
 2259.5000     8.5030     0.1470   147.1540     2.5960   -19.8830     5.7910     6.1300
 2260.0000     8.5000     0.1390   143.4350     2.5710   -19.7720     5.7130     6.0390
 2260.5000     8.4950     0.1370   143.7260     2.5700   -19.7790     5.7130     5.9260
 2261.0000     8.4880     0.1360   146.2290     2.5720   -19.9820     5.7130     5.9410
 2261.5000     8.4820     0.1350   142.4900     2.5730   -20.1800     5.7130     5.9670
 2262.0000     8.4520     0.1350   143.9860     2.5740   -20.2960     5.7130     5.9940
 2262.5000     8.4380     0.1360   128.5830     2.5750   -20.2960     5.7130     6.0210
 2263.0000     8.4310     0.1370   126.3820     2.5730   -20.2970     5.7130     6.0480
 2263.5000     8.4250     0.1380   124.6870     2.5700   -20.2970     5.7130     6.0750
 2264.0000     8.4080     0.1380   121.3740     2.5720   -20.2970     5.7570     6.0900
 2264.5000     8.3830     0.1360   128.1210     2.5880   -20.2970     5.8620     6.1010
 2265.0000     8.3940     0.1350   123.2580     2.6000   -20.2970     5.9740     6.1170
 2265.5000     8.3850     0.1330   122.8340     2.6040   -20.2970     5.9370     6.1340
 2266.0000     8.3430     0.1250   119.9960     2.6110   -20.2970     5.8870     6.1500
 2266.5000     8.3450     0.1120   117.9240     2.6170   -20.2970     5.8370     6.1670
 2267.0000     8.3490     0.1000   117.1950     2.6170   -20.2970     5.7870     6.1830
 2267.5000     8.3540     0.0860   117.9070     2.5990   -20.2970     5.7360     6.2000
 2268.0000     8.3580     0.0890   120.4630     2.5770   -20.2970     5.7130     6.2160
 2268.5000     8.3610     0.0980   125.6320     2.5590   -20.2970     5.7590     6.2330
 2269.0000     8.3810     0.0970   123.6500     2.5860   -20.2970     5.7930     6.2490
 2269.5000     8.4020     0.0940   126.7170     2.5890   -20.2970     5.8280     6.3170
 2270.0000     8.4210     0.0910   122.2360     2.5990   -20.2970     5.8630     6.3170
 2270.5000     8.4210     0.0890   124.0460     2.5930   -20.2970     5.8970     6.3170
 2271.0000     8.4210     0.0860   125.9840     2.5880   -20.2970     5.9320     6.3170
 2271.5000     8.4210     0.0860   128.1110     2.5890   -20.2970     5.9670     6.4580
 2272.0000     8.4210     0.0900   128.7820     2.5910   -20.2970     6.1650     6.7990
 2272.5000     8.4210     0.0950   130.6920     2.5850   -20.2970     6.4630     7.1400
 2273.0000     8.4210     0.1010   137.0370     2.5860   -20.2970     6.7610     7.4810
 2273.5000     8.4210     0.1030   137.2110     2.5970   -20.2970     6.9660     7.8680
 2274.0000     8.4070     0.0980   131.3280     2.6040   -20.2970     7.1320     7.8540
 2274.5000     8.3770     0.0970   122.9340     2.6050   -20.2970     7.2980     7.8240
 2275.0000     8.3730     0.0970   119.0960     2.6140   -20.2970     7.4480     7.7940
 2275.5000     8.3950     0.0930   120.1690     2.6270   -20.2970     7.4050     7.7640
 2276.0000     8.4170     0.0780   118.3380     2.6220   -20.2970     7.3670     7.7340
 2276.5000     8.4400     0.0660   117.5220     2.6040   -20.2970     7.3280     7.7040
 2277.0000     8.4620     0.0640   121.5710     2.5830   -20.2970     7.2890     7.6740
 2277.5000     8.4810     0.0700   122.8320     2.5650   -20.2970     7.2510     7.5850
 2278.0000     8.4790     0.0790   124.0430     2.5610   -20.2970     7.2120     7.5310
 2278.5000     8.4300     0.0890   127.3140     2.5600   -20.2970     7.1720     7.4740
 2279.0000     8.3800     0.0960   128.2910     2.5630   -20.2970     7.1270     7.4170
