~VERSION INFORMATION
 VERS.                2.0:   CWLS LOG ASCII STANDARD - VERSION 2.0
 WRAP.                 NO:   ONE LINE PER DEPTH STEP
~WELL INFORMATION
#MNEM.UNIT      DATA TYPE    INFORMATION
#----------   ------------   ------------------------------
 STRT.F            0.0000:   START DEPTH
 STOP.F         1077.0000:   STOP DEPTH
 STEP.F            0.5000:   STEP LENGTH
 NULL.          -999.2500:   NO VALUE
 COMP.         JOHN BROWN:   COMPANY
 WELL.       JOHN X #66-2:   WELL
 FLD .                NPR:   FIELD
 LOC .       S2 T38N R78W:   LOCATION
 CNTY.            NATRONA:   COUNTY
 STAT.            WYOMING:   STATE
 CTRY. UNITED STATES OF AMERICA:   COUNTRY
 SRVC.     ATLAS WIRELINE:   SERVICE COMPANY
 DATE.        04-DEC-1991:   LOGDATE
 API .     49025224820000:   API NUMBER
~CURVE INFORMATION
#MNEM.UNIT       API CODE    CURVE DESCRIPTION
#----------   ------------   ------------------------------
 DEPT.F                  :   
 TENR.LBS    07 635 01 00:   TENSION
 RILD.OHMM   07 120 46 00:   INDUCTION LOG DEEP RESISTIVITY
 RILM.OHMM   07 120 44 00:   INDUCTION LOG MEDIUM RESISTIVITY
 GRR .GAPI   07 310 01 00:   GAMMA RAY FROM RESISTIVITY
~PARAMETER INFORMATION
#MNEM.UNIT          VALUE    DESCRIPTION
#----------   ------------   ------------------------------
 EKB .F         5189.0000:   Kelly bushing
 EGL .F         5179.0000:   Ground level
 EDF .F         5188.0000:   Drilling floor
 EPD .F         5179.0000:   Permanent datum
 TD  .F         1072.0000:   Total depth
 DATE.        04-DEC-1991:   Date logged
 CLNT.            A2DTECH:   Client Code
 SL  . 1893' FSL & 1937' FEL:   Surface Location
 PD  .                 GL:   Permanent Datum
 LMF .                 KB:   Log Measured From
 DMF .                 KB:   Drilling Measured From
 DAPD.F                10:   Feet Above Permanent Datum
 DD  .F              1072:   Depth driller
 DL  .F              1073:   Depth logger
 BLI .F              1071:   Bottom log interval
 CS1 .IN            9.625:   Casing size
 CBD1.       9.625" @ 40':   Casing driller 1
 CBL1.F                50:   Casing logger 1
 BS1 .IN            7.875:   Bit size
 BSD1.F              1072:   Depth drilled with bit1
 DFT .                AIR:   Type fluid in hole
 LUN .            HL 6387:   Logging unit number
 LUL .             CASPER:   Logging unit location
 WITN.        GARY STRONG:   Witnessed by
 ORIG.         2.5" PRINT:   Origin of data
 UWI .     49025224820000:   Unique Well ID
 DICO. A2D TECHNOLOGIES, INC.:   Digitizing Company
~OTHER INFORMATION
~A    DEPT    TENR       RILD       RILM         GRR  
# ...
  511.0000   -52.9320     7.0310     6.7380   136.6570
  511.5000   -52.8870     7.0790     6.7860   136.5880
  512.0000   -52.8410     7.1280     6.8340   135.3150
  512.5000   -52.7960     7.1800     6.8820   135.3780
  513.0000   -52.7500     7.1000     6.9250   137.6910
  513.5000   -52.7050     7.0110     6.8830   140.0860
  514.0000   -52.6590     6.9220     6.8460   140.2710
  514.5000   -52.6140     6.8330     6.8090   138.3850
  515.0000   -52.5680     6.7430     6.7720   136.7930
  515.5000   -52.5230     6.6540     6.7350   136.8470
  516.0000   -52.4770     6.5650     6.6980   137.6530
  516.5000   -52.4320     6.4760     6.6610   135.3980
  517.0000   -52.3860     6.4400     6.6240   131.8290
  517.5000   -52.3410     6.4560     6.5870   130.2370
  518.0000   -52.2950     6.4690     6.5660   131.6280
  518.5000   -52.2490     6.4820     6.6040   131.0320
  519.0000   -52.2040     6.4950     6.6410   132.9650
  519.5000   -52.1580     6.5080     6.6780   134.8420
  520.0000   -52.1130     6.5210     6.7150   137.6300
  520.5000   -52.0670     6.5340     6.7520   142.7180
  521.0000   -52.0220     6.5470     6.7890   144.1880
  521.5000   -51.9760     6.5580     6.8270   143.7910
  522.0000   -51.9310     6.5840     6.8640   139.3530
  522.5000   -51.8850     6.6190     6.9020   135.3510
  523.0000   -51.8400     6.6550     6.9270   130.9900
  523.5000   -51.7940     6.6910     6.9230   129.1760
  524.0000   -51.7490     6.7260     6.9220   127.2590
  524.5000   -51.7030     6.7620     6.9270   130.7520
  525.0000   -51.6580     6.7980     6.9320   139.1110
  525.5000   -51.6120     6.8330     6.9130   141.7410
  526.0000   -51.5670     6.8690     7.0650   139.5470
  526.5000   -51.5210     6.9250     7.0450   135.7520
  527.0000   -51.4760     6.8800     7.0480   134.0770
  527.5000   -51.4300     6.7780     7.0550   135.4380
  528.0000   -51.3850     6.6770     7.0630   137.8290
  528.5000   -51.3390     6.5750     6.9190   140.1700
  529.0000   -51.2940     6.4740     6.9300   142.5990
  529.5000   -51.2480     6.3730     6.6780   144.3070
  530.0000   -51.2030     6.2710     6.5580   145.4270
  530.5000   -51.1570     6.1700     6.3250   142.5460
  531.0000   -51.1120     6.0680     6.3250   139.8920
  531.5000   -51.0660     5.9670     6.2110   137.0110
  532.0000   -51.0210     5.8820     6.2110   134.9260
  532.5000   -50.9750     5.8820     6.0990   135.7050
  533.0000   -50.9300     5.8820     5.9900   138.2400
  533.5000   -50.8840     5.8820     5.7760   141.0290
  534.0000   -50.8380     5.8820     5.7760   143.8000
  534.5000   -50.7930     5.8820     5.7460   146.4330
  535.0000   -50.7470     5.8830     5.7090   146.6710
  535.5000   -50.7020     5.8830     5.6720   144.4910
  536.0000   -50.6560     5.8820     5.6340   142.0640
  536.5000   -50.6110     5.8810     5.5790   141.2650
  537.0000   -50.5650     5.8810     5.6100   142.2300
  537.5000   -50.5200     5.9270     5.7490   142.4620
  538.0000   -50.4740     6.0200     5.8880   140.3300
  538.5000   -50.4290     6.1140     6.0270   138.4960
  539.0000   -50.3830     6.2070     6.1650   136.4210
  539.5000   -50.3380     6.3000     6.3040   135.9480
  540.0000   -50.2920     6.3930     6.4430   135.4480
  540.5000   -50.2470     6.4860     6.5580   135.0330
  541.0000   -50.2010     6.5780     6.5300   134.5890
  541.5000   -50.1560     6.6710     6.5050   133.6000
  542.0000   -50.1100     6.8000     6.4810   132.0050
  542.5000   -50.0650     6.7490     6.4560   126.2950
  543.0000   -50.0190     6.6660     6.4320   122.5630
  543.5000   -49.9740     6.5840     6.4080   129.9670
  544.0000   -49.9280     6.5010     6.3830   137.2870
  544.5000   -49.8830     6.4180     6.3590   138.3540
  545.0000   -49.8370     6.3350     6.3340   138.0290
  545.5000   -49.7920     6.2520     6.3100   140.3320
  546.0000   -49.7460     6.1690     6.2860   143.5910
  546.5000   -49.7010     6.0860     6.2610   147.9730
  547.0000   -49.6550     6.0030     6.2370   148.7970
  547.5000   -49.6100     5.8820     6.2110   146.5620
  548.0000   -49.5640     5.9640     6.3390   144.8040
  548.5000   -49.5180     6.1130     6.4740   143.1220
  549.0000   -49.4730     6.2620     6.6100   142.0610
  549.5000   -49.4270     6.4110     6.7460   144.8100
  550.0000   -49.3820     6.5610     6.8820   145.5030
  550.5000   -49.3360     6.7100     7.0180   144.0150
  551.0000   -49.2910     6.8590     7.1540   138.7080
  551.5000   -49.2450     7.0090     7.2890   135.8020
  552.0000   -49.2000     7.1800     7.4460   135.2920
  552.5000   -49.1540     7.2270     7.3170   133.9070
  553.0000   -49.1090     7.3120     7.1670   131.8460
  553.5000   -49.0630     7.2180     7.0160   130.3520
  554.0000   -49.0180     7.0210     6.8650   131.1580
  554.5000   -48.9720     6.8240     6.7140   134.7680
  555.0000   -48.9270     6.6270     6.5630   138.4270
  555.5000   -48.8810     6.4310     6.4120   139.2110
  556.0000   -48.8360     6.2340     6.2620   140.0770
  556.5000   -48.7900     6.0370     6.1110   139.3290
  557.0000   -48.7450     5.9310     5.9600   136.9520
  557.5000   -48.6990     5.8540     5.8080   135.8410
  558.0000   -48.6540     5.7760     5.8650   135.8330
  558.5000   -48.6080     5.8640     5.9770   144.7640
  559.0000   -48.5630     5.9530     6.0900   144.4900
  559.5000   -48.5170     6.0410     6.2020   144.5590
  560.0000   -48.4720     6.1290     6.3150   146.5230
  560.5000   -48.4260     6.2180     6.4280   149.9260
  561.0000   -48.3810     6.3060     6.5400   147.9850
  561.5000   -48.3350     6.3940     6.6530   142.6270
  562.0000   -48.2900     6.4400     6.7660   136.1650
  562.5000   -48.2440     6.4820     6.8100   129.8900
  563.0000   -48.1990     6.5190     6.8450   130.8000
  563.5000   -48.1530     6.5570     6.8790   133.7230
  564.0000   -48.1070     6.5950     6.9130   139.4890
  564.5000   -48.0620     6.6330     6.9480   141.7900
  565.0000   -48.0160     6.6710     6.9820   141.6340
  565.5000   -47.9710     6.7090     7.0170   140.1750
  566.0000   -47.9250     6.7470     7.0510   137.0960
  566.5000   -47.8800     6.8000     7.0850   132.8940
  567.0000   -47.8340     6.7750     7.1200   128.3830
  567.5000   -47.7890     6.7340     7.1710   130.1140
  568.0000   -47.7430     6.6920     7.1600   133.9290
  568.5000   -47.6980     6.6510     7.0690   141.1000
  569.0000   -47.6520     6.6090     6.9780   143.3840
  569.5000   -47.6070     6.5680     6.8870   140.8400
  570.0000   -47.5610     6.5260     6.7960   138.1830
  570.5000   -47.5160     6.4850     6.7060   138.9530
  571.0000   -47.4700     6.4430     6.6700   139.9500
  571.5000   -47.4250     6.4020     6.6570   138.9100
  572.0000   -47.3790     6.3600     6.6450   137.4330
  572.5000   -47.3340     6.3250     6.6330   140.0000
  573.0000   -47.2880     6.3350     6.6210   138.7780
  573.5000   -47.2430     6.3440     6.6090   138.1000
  574.0000   -47.1970     6.3530     6.5970   139.2970
  574.5000   -47.1520     6.3620     6.5850   140.1600
  575.0000   -47.1060     6.3720     6.5720   140.2160
  575.5000   -47.0610     6.3810     6.5580   139.5720
  576.0000   -47.0150     6.3900     6.5690   138.0060
  576.5000   -46.9700     6.3990     6.5830   133.4910
  577.0000   -46.9240     6.4080     6.5970   132.9910
  577.5000   -46.8790     6.4170     6.6110   132.5530
  578.0000   -46.8330     6.4260     6.6240   132.3660
  578.5000   -46.7870     6.4350     6.6390   133.2680
  579.0000   -46.7420     6.4590     6.6520   136.8640
  579.5000   -46.6960     6.4970     6.6670   141.4270
  580.0000   -46.6510     6.5350     6.6780   141.8070
  580.5000   -46.6050     6.5740     6.7360   141.8330
  581.0000   -46.5600     6.6120     6.7880   141.5290
  581.5000   -46.5140     6.6500     6.8400   139.7260
  582.0000   -46.4690     6.6890     6.8920   136.0490
  582.5000   -46.4230     6.7270     6.9250   132.9480
  583.0000   -46.3780     6.7650     6.9960   137.3200
  583.5000   -46.3320     6.8040     7.0680   143.2820
