~VERSION INFORMATION
 VERS.                2.0:   CWLS LOG ASCII STANDARD - VERSION 2.0
 WRAP.                 NO:   ONE LINE PER DEPTH STEP
~WELL INFORMATION
#MNEM.UNIT      DATA TYPE    INFORMATION
#----------   ------------   ------------------------------
 STRT.F           60.0000:   START DEPTH
 STOP.F         5768.0000:   STOP DEPTH
 STEP.F            0.5000:   STEP LENGTH
 NULL.          -999.2500:   NO VALUE
 COMP.              RMOTC:   COMPANY
 WELL. RMOTC NPR-3 61 "X" #2-15:   WELL
 FLD .            N P R-3:   FIELD
 LOC .      S15 T38N R78W:   LOCATION
 CNTY.            NATRONA:   COUNTY
 STAT.            WYOMING:   STATE
 CTRY. UNITED STATES OF AMERICA:   COUNTRY
 SRVC.       SCHLUMBERGER:   SERVICE COMPANY
 DATE.        07-JAN-2002:   LOGDATE
 API .     49025230310000:   API NUMBER
~CURVE INFORMATION
#MNEM.UNIT       API CODE    CURVE DESCRIPTION
#----------   ------------   ------------------------------
 DEPT.F                  :   
 CALD.IN     45 280 60 00:   CALIPER FROM DENSITY LOG
 TEND.LBS    45 635 01 00:   TENSION FROM DENSITY LOG
 PEFZ.B/E    45 358 01 00:   HILT PHOTOELECTRIC FACTOR
 RHOZ.G/C3   45 350 01 00:   HILT BULK DENSITY
 NPOR.DEC    42 890 03 00:   ALPHA PROCESSED NEUTRON POROSITY
 HDRA.G/C3   45 356 01 00:   DELTA RHO HIP TOOL
 GRS .GAPI   60 310 01 00:   GAMMA RAY FROM SONIC LOG
 DTSM.US/F   61 523 00 00:   SHEAR-WAVE INTERVAL TRANSIT TIME DELTA-T
 GRR .GAPI   07 310 01 00:   GAMMA RAY FROM RESISTIVITY
 TENR.LBS    01 635 01 00:   TENSION FROM RES.
 SPR .MV     07 010 01 00:   SPONTANEOUS POTENTIAL
 HLLD.OHMM   11 220 10 00:   LATEROLOG DEEP RES.
 HLLS.OHMM   11 220 09 00:   LATEROLOG SHALLOW RES.
 HRLD.OHMM   11 220 10 00:   HIGH RESOLUTION DEEP RESISTIVITY
~PARAMETER INFORMATION
#MNEM.UNIT          VALUE    DESCRIPTION
#----------   ------------   ------------------------------
 EKB .F         5244.0000:   Kelly bushing
 EGL .F         5227.0000:   Ground level
 EDF .F         5243.0000:   Drilling floor
 EPD .F            0.0000:   Permanent datum
 TD  .F         5756.0000:   Total depth
 DATE.        07-JAN-2002:   Date logged
 CLNT.            A2DTECH:   Client Code
 SL  . 189' FNL & 1895' FEL:   Surface Location
 PD  .                 GL:   Permanent Datum
 DD  .F              5750:   Depth driller
 DL  .F              5756:   Depth logger
 BLI .F              5748:   Bottom log interval
 CS1 .IN             3054:   Casing size
 CBD1.     9.625" @ 3052':   Casing driller 1
 CBL1.F              3054:   Casing logger 1
 BS1 .IN            8.750:   Bit size
 DFT .             3% KCL:   Type fluid in hole
 DFD .                9.3:   Density
 DFV .                 42:   Viscosity
 DFPH.                  8:   pH
 DFL .                 28:   Fluid loss
 MSS .           FLOWLINE:   Source of sample
 RMS .OHMM          0.413:   Rm
 MST .F                74:   Rm Meas. temp.
 RMF .OHMM          0.305:   Rmf
 MFST.F                74:   Rmf Meas. temp.
 RMC .OHMM          0.637:   Rmc
 MCST.F                74:   Rmc Meas. temp.
 MFSS.               CALC:   Source Rmf.
 RMB .OHMM          0.187:   Rm. at BHT
 BHT .F               172:   BHT.
 TCS .HRS            0800:   Time Circ. stopped
 MRT .F               172:   Maximum recorded temp.
 LUN .               2211:   Logging unit number
 LUL .             CASPER:   Logging unit location
 ENGI.        J.L. FLORES:   Recorded By
 WITN.      MARK MILLIKEN:   Witnessed by
 ORIG.           5" PRINT:   Origin of data
 UWI .     49025230310000:   Unique Well ID
 DICO. A2D TECHNOLOGIES, INC.:   Digitizing Company
 DAPD.                 17:   Feet Above Permanent Datum
 BSD1.               5750:   Depth drilled with bit1
 MCSS.               CALC:   Source Rmc.
 LMF .                 KB:   Log Measured From
 DMF .                 KB:   Drilling Measured From
 TLI .               3054:   Top log interval
~OTHER INFORMATION
~A   DEPT     CALD       TEND       PEFZ       RHOZ       NPOR       HDRA        GRS       DTSM         GRR      TENR        SPR       HLLD       HLLS       HRLD   
# ...
 3759.5000    14.6060  2316.1030     3.1890     2.4980     0.3330     0.1820   115.3410  -999.2500   130.4180  2295.5359   -36.1530     3.1170     3.8220     3.0940
 3760.0000    14.6220  2316.1030     3.1700     2.5190     0.3240     0.1590   117.4110  -999.2500   126.5490  2297.6990   -35.6040     3.2400     3.9180     3.3300
 3760.5000    14.6340  2316.1030     3.1710     2.5280     0.3360     0.1350   119.2500  -999.2500   119.6020  2299.8621   -35.3330     3.2070     3.9620     3.2190
 3761.0000    14.6470  2316.1030     3.1820     2.4980     0.3500     0.1560   117.7850  -999.2500   118.4430  2302.0249   -35.3850     3.1230     3.8300     3.1010
 3761.5000    14.6260  2316.1030     3.2320     2.4670     0.3650     0.2020   117.1480  -999.2500   123.7150  2304.1880   -35.4250     3.0390     3.6900     2.9830
 3762.0000    14.5940  2316.1030     3.2820     2.4330     0.3680     0.2440   116.6440  -999.2500   127.6790  2306.3511   -35.4730     3.0120     3.5490     2.9520
 3762.5000    14.5050  2316.1030     3.3320     2.3990     0.3490     0.2450   112.3560  -999.2500   127.0420  2308.5139   -35.5240     3.0120     3.4860     2.9930
 3763.0000    14.3490  2316.1030     3.4920     2.4330     0.3250     0.2190   108.0810  -999.2500   124.2160  2310.6770   -34.8430     3.0120     3.5690     3.0330
 3763.5000    14.1390  2316.1030     3.6480     2.5040     0.2990     0.2020   105.6250  -999.2500   119.2970  2312.8411   -34.1020     3.1460     3.6490     3.0670
 3764.0000    14.0550  2316.1030     3.6620     2.5570     0.2930     0.2060   109.3850  -999.2500   113.8590  2312.3110   -34.0530     3.4490     3.9340     4.1810
 3764.5000    14.1050  2316.1030     3.5170     2.5320     0.3200     0.2140   114.7460  -999.2500   113.1030  2309.6221   -35.2210     3.6160     4.1860     4.3370
 3765.0000    14.1650  2316.1030     3.3740     2.4830     0.3610     0.2120   117.0520  -999.2500   116.2410  2306.9331   -36.3370     3.5480     3.5830     2.9840
 3765.5000    14.2780  2316.1030     3.2660     2.4770     0.3730     0.2090   117.7530  -999.2500   121.4630  2304.2429   -36.4050     3.4770     3.5980     3.0830
 3766.0000    14.3250  2316.1030     3.3630     2.4820     0.3920     0.1970   115.1900  -999.2500   123.0920  2301.5540   -35.2860     3.4060     3.6490     3.2100
 3766.5000    14.2290  2316.1030     3.4950     2.5150     0.3830     0.1600   109.6020  -999.2500   119.6790  2298.8650   -34.1430     3.3820     3.9230     3.3370
 3767.0000    14.0170  2316.1030     3.6050     2.5800     0.3610     0.1350    98.7990  -999.2500   114.7340  2296.1750   -34.9980     3.4540     4.0730     3.3610
 3767.5000    13.8810  2316.1030     3.4860     2.7020     0.2980     0.1090    96.0000  -999.2500   106.8680  2293.9419   -36.0490     4.6180     5.7560     5.4440
 3768.0000    13.7870  2316.1030     3.2470     2.7060     0.2660     0.0760    99.8530  -999.2500   101.0440  2293.9419   -37.1020     5.8720     6.2140     6.5530
 3768.5000    13.7780  2316.1030     3.0070     2.6300     0.2700     0.0400   105.9840  -999.2500   102.9940  2293.9419   -36.7180     5.3520     5.7790     5.3500
 3769.0000    13.7730  2316.1030     2.8940     2.5700     0.2770     0.0160   109.6280  -999.2500   108.3680  2293.9419   -36.0560     4.9090     5.3430     4.4630
 3769.5000    13.7000  2316.1030     2.9390     2.5520     0.2920     0.0330   107.7600  -999.2500   112.6240  2297.8049   -35.5420     4.4650     5.0260     4.0730
 3770.0000    13.6650  2316.1030     2.9890     2.5420     0.3130     0.0880   107.9440  -999.2500   114.1380  2302.7810   -36.0760     4.0220     4.6980     3.6500
 3770.5000    13.7220  2316.1030     3.1070     2.5370     0.3200     0.1480   108.2250  -999.2500   115.3120  2307.7561   -36.7400     3.5780     4.2110     3.3290
 3771.0000    13.7810  2316.1030     3.2270     2.5330     0.3370     0.2090   108.4850  -999.2500   117.1660  2313.8030   -37.3460     3.0390     3.7170     3.0820
 3771.5000    13.8380  2316.1030     3.2930     2.5310     0.3370     0.2320   108.5580  -999.2500   118.9840  2311.5081   -37.9350     3.0120     3.6160     2.9030
 3772.0000    13.8870  2316.1030     3.2970     2.5350     0.3320     0.2340   107.8570  -999.2500   119.0320  2308.5811   -37.5320     3.1810     3.8080     3.0660
 3772.5000    13.8740  2316.1030     3.3050     2.5380     0.3250     0.2180   106.8210  -999.2500   117.3620  2305.6550   -37.1890     3.1810     3.9260     3.1810
 3773.0000    13.8640  2316.1030     3.3110     2.4730     0.3290     0.1870   105.3980  -999.2500   113.7220  2302.7280   -36.8310     3.1040     3.8570     3.0390
 3773.5000    13.8480  2316.1030     3.3850     2.3870     0.3380     0.1500    99.7690  -999.2500   109.7710  2299.8010   -36.9020     3.0120     3.7510     3.0120
 3774.0000    13.6330  2316.1030     3.5090     2.3850     0.3470     0.1120    95.7340  -999.2500   103.4820  2296.8750   -37.1270     3.0120     3.7170     3.0120
 3774.5000    13.2820  2316.1030     3.6360     2.4890     0.3010     0.0980    91.7680  -999.2500    96.1630  2293.9419   -36.7940     3.0670     4.5890     3.0120
 3775.0000    13.2310  2316.1030     3.5410     2.5970     0.2590     0.0850    91.1470  -999.2500    89.8770  2289.6250   -36.4980     5.5770     5.9920     6.8040
 3775.5000    13.1600  2316.1030     3.3050     2.6280     0.2360     0.0800    95.6670  -999.2500    92.7150  2285.2991   -36.1940     7.5850     6.9860     8.7010
 3776.0000    13.1710  2316.1030     3.0740     2.5820     0.2360     0.0870   104.0440  -999.2500   101.4960  2280.9719   -35.9270     5.7460     6.0470     4.4630
 3776.5000    13.1830  2316.1030     3.0540     2.5490     0.2820     0.1000   112.4560  -999.2500   114.5770  2276.6460   -36.1690     4.2240     5.2650     4.2140
 3777.0000    13.1950  2316.1030     3.1180     2.5550     0.3110     0.0910   120.6030  -999.2500   119.6290  2274.0811   -36.3920     4.1480     4.8010     3.9660
 3777.5000    13.2050  2316.1030     3.1940     2.5580     0.3580     0.0680   120.6560  -999.2500   122.2120  2279.4441   -36.6150     4.1100     4.8460     3.8910
 3778.0000    13.1910  2316.1030     3.2940     2.5840     0.3360     0.0450   112.5050  -999.2500   119.5400  2286.0769   -36.6260     4.7650     5.0720     4.7140
 3778.5000    13.1740  2316.1030     3.3890     2.6140     0.2380     0.0340   102.7360  -999.2500   108.0820  2293.9419   -36.2940     5.4080     6.0790     5.1420
 3779.0000    13.1740  2316.1030     3.3930     2.6370     0.1930     0.0250    96.0560  -999.2500    99.0810  2290.4189   -35.9570     5.7650     7.0500     5.7650
 3779.5000    13.1970  2314.5471     3.2280     2.6280     0.2100     0.0190    97.9980  -999.2500    95.0820  2286.0930   -35.7860     5.9800     7.5850     5.8750
 3780.0000    13.2210  2311.0991     3.0620     2.6200     0.2430     0.0110   101.3620  -999.2500    93.8510  2281.7671   -35.9750     5.7880     7.6550     5.9800
 3780.5000    13.2470  2307.6509     2.9980     2.6290     0.2740     0.0030   105.2110  -999.2500    99.0270  2277.4409   -36.1760     5.5530     7.1580     5.7580
 3781.0000    13.3020  2304.2019     3.0720     2.6320     0.2930     0.0010   107.7160  -999.2500   104.6740  2274.0811   -36.3630     5.3180     6.7500     5.4210
 3781.5000    13.3460  2300.7539     2.9590     2.5810     0.3060     0.0010   107.6770  -999.2500   111.1320  2274.0811   -36.5660     5.0830     6.3750     5.0830
 3782.0000    13.3350  2297.3059     2.8520     2.5360     0.3150     0.0020   107.2590  -999.2500   118.2690  2274.0811   -36.7530     4.8480     6.2120     4.8010
 3782.5000    13.3110  2296.2229     2.7430     2.5120     0.3160     0.0020   104.6790  -999.2500   123.8820  2274.0811   -36.9550     4.7140     5.9800     4.6870
 3783.0000    13.2870  2296.2229     2.7010     2.5150     0.3110     0.0030   104.3380  -999.2500   125.0820  2274.0811   -37.1220     4.7560     5.9260     4.7090
 3783.5000    13.2650  2296.2229     2.6800     2.5370     0.2950     0.0030   104.5570  -999.2500   121.0830  2274.0811   -36.8000     4.7890     6.0900     4.7960
