~VERSION INFORMATION
 VERS.                2.0:   CWLS LOG ASCII STANDARD - VERSION 2.0
 WRAP.                 NO:   ONE LINE PER DEPTH STEP
~WELL INFORMATION
#MNEM.UNIT      DATA TYPE    INFORMATION
#----------   ------------   ------------------------------
 STRT.F          186.0000:   START DEPTH
 STOP.F         3060.0000:   STOP DEPTH
 STEP.F            0.5000:   STEP LENGTH
 NULL.          -999.2500:   NO VALUE
 COMP.    FENIX & SCISSON:   COMPANY
 WELL. FENIX NPR 3 "AX" #63-29:   WELL
 FLD .              N P R:   FIELD
 LOC .      S29 T39N R78W:   LOCATION
 CNTY.            NATRONA:   COUNTY
 STAT.            WYOMING:   STATE
 CTRY. UNITED STATES OF AMERICA:   COUNTRY
 SRVC.           BIRDWELL:   SERVICE COMPANY
 DATE.        28-FEB-1978:   LOGDATE
 API .     49025105960000:   API NUMBER
~CURVE INFORMATION
#MNEM.UNIT       API CODE    CURVE DESCRIPTION
#----------   ------------   ------------------------------
 DEPT.F                  :   
 CALD.IN     45 280 60 00:   CALIPER FROM DENSITY LOG
 GRD .GAPI   45 310 01 00:   GAMMA RAY FROM DENSITY LOG
 DEN .LBS    07 635 01 00:   
 CORR.G/C3   45 356 01 00:   DENSITY CORRECTION
 SPR .MV     05 010 01 00:   SPONTANEOUS POTENTIAL
 SN  .OHMM   05 040 00 00:   SHORT NORMAL
 ILD .OHMM   05 120 46 00:   DEEP INDUCTION RESISTIVITY
~PARAMETER INFORMATION
#MNEM.UNIT          VALUE    DESCRIPTION
#----------   ------------   ------------------------------
 EKB .F         4993.0000:   Kelly bushing
 EGL .F         4983.0000:   Ground level
 EDF .F            0.0000:   Drilling floor
 TD  .F         3060.0000:   Total depth
 DATE.        28-FEB-1978:   Date logged
 CLNT.            A2DTECH:   Client Code
 SL  . 1300' FNL & 1050' FEL:   Surface Location
 PD  .                 GL:   Permanent Datum
 DD  .F              3060:   Depth driller
 DL  .F              3056:   Depth logger
 BLI .F              5050:   Bottom log interval
 CS1 .IN            8.625:   Casing size
 CBD1.      8.625" @ 214':   Casing driller 1
 CBL1.F               218:   Casing logger 1
 BS1 .IN            7.875:   Bit size
 DFT .     LIGNOSULFONATE:   Type fluid in hole
 DFD .                  9:   Density
 DFV .                 34:   Viscosity
 DFPH.               10.5:   pH
 DFL .                  9:   Fluid loss
 MSS .           FLOWLINE:   Source of sample
 RMS .OHMM            1.8:   Rm
 MST .F                58:   Rm Meas. temp.
 RMF .OHMM             .9:   Rmf
 MFST.F                65:   Rmf Meas. temp.
 RMC .OHMM            2.5:   Rmc
 MCST.F                70:   Rmc Meas. temp.
 MFSS.               MEAS:   Source Rmf.
 RMB .OHMM             88:   Rm. at BHT
 BHT .F               118:   BHT.
 TCS .HRS               8:   Time Circ. stopped
 MRT .F               118:   Maximum recorded temp.
 LUN .               2959:   Logging unit number
 LUL .               CASP:   Logging unit location
 ENGI.             MILLER:   Recorded By
 WITN.         HARRINGTON:   Witnessed by
 ORIG.           5" PRINT:   Origin of data
 UWI .     49025105960000:   Unique Well ID
 DICO. A2D TECHNOLOGIES, INC.:   Digitizing Company
 BSD1.F              3060:   Depth drilled with bit1
 EPD .F              4983:   Elevation Permanent Datum
 LMF .                 KB:   Log Measured From
 DMF .                 KB:   Drilling Measured From
 TLI .F               800:   Top log interval
~OTHER INFORMATION
~A   DEPT     CALD         GRD       DEN       CORR        SPR         SN        ILD   
# ...
 2279.0000     9.9430    98.7290     2.5370     0.0340   -30.7300     8.8130     6.8200
 2279.5000     9.9410   104.3110     2.5370     0.0380   -30.7330     9.1420     7.1520
 2280.0000     9.9400   102.3180     2.5370     0.0380   -30.7420     8.9750     7.5490
 2280.5000     9.9390    98.8380     2.5420     0.0380   -30.7480     8.9290     7.6890
 2281.0000     9.9370    94.2630     2.5480     0.0390   -30.7540     8.8900     7.6570
 2281.5000     9.9360    96.3430     2.5450     0.0600   -30.7610     8.8510     7.5380
 2282.0000     9.9350   103.8580     2.5400     0.0580   -30.7680     8.8110     7.4190
 2282.5000     9.9340   108.4610     2.5350     0.0370   -30.7740     8.7310     7.3000
 2283.0000     9.9320   101.7910     2.5370     0.0160   -30.7810     8.6490     7.1810
 2283.5000     9.9310    93.8810     2.5400     0.0000   -30.7870     8.5660     7.0620
 2284.0000     9.9300    86.2720     2.5330    -0.0020   -30.7940     8.4920     6.9440
 2284.5000     9.9280    84.8500     2.5270     0.0030   -30.8000     8.4700     6.8250
 2285.0000     9.9270    85.5480     2.5210     0.0080   -30.8070     8.4390     6.6370
 2285.5000     9.9260    87.6060     2.5190     0.0120   -30.8130     8.4080     6.6900
 2286.0000     9.9250    89.4680     2.5170     0.0170   -30.8200     8.3770     6.8140
 2286.5000     9.9230    91.3380     2.5180     0.0220   -30.8260     8.3460     6.9380
 2287.0000     9.9220    93.2860     2.5210     0.0270   -30.8330     8.3370     7.0630
 2287.5000     9.9210    95.1550     2.5230     0.0320   -30.8390     8.7470     7.1870
 2288.0000     9.9170    97.1120     2.5180     0.0370   -30.8460     9.3860     7.3110
 2288.5000     9.9120    98.4130     2.5160     0.0420   -30.8530     9.3120     7.4350
 2289.0000     9.9080    99.7280     2.5290     0.0470   -30.8590     9.2950     7.5600
 2289.5000     9.9030   101.0190     2.5370     0.0500   -30.8660     9.2600     7.6890
 2290.0000     9.8990   101.4550     2.5340     0.0460   -30.8720     9.2260     7.6540
 2290.5000     9.8940   101.7200     2.5350     0.0420   -30.8790     9.1920     7.5940
 2291.0000     9.8890   100.1210     2.5400     0.0350   -30.8850     9.1580     7.5340
 2291.5000     9.8850    97.3560     2.5450     0.0340   -30.8920     9.1230     7.4740
 2292.0000     9.8800    94.4860     2.5500     0.0340   -30.8980     9.0890     7.4110
 2292.5000     9.8750    93.9500     2.5480     0.0340   -30.9050     9.0550     7.4110
 2293.0000     9.8710    93.6420     2.5390     0.0340   -30.9110     9.0210     7.3940
 2293.5000     9.8660    93.4950     2.5300     0.0310   -30.9180     8.9860     7.3790
 2294.0000     9.8620    92.9950     2.5250     0.0240   -30.9240     8.9520     7.3650
 2294.5000     9.8570    94.9720     2.5350     0.0170   -30.9310     8.9180     7.3500
 2295.0000     9.8520    98.2990     2.5420     0.0140   -30.9370     8.8840     7.3350
 2295.5000     9.8480   100.5260     2.5390     0.0190   -30.9440     8.8490     7.3210
 2296.0000     9.8430    99.6820     2.5350     0.0250   -30.9500     8.8110     7.3060
 2296.5000     9.8410    99.1390     2.5350     0.0300   -30.9570     8.7310     7.2910
 2297.0000     9.8480    99.5920     2.5350     0.0300   -30.9630     8.6410     7.2760
 2297.5000     9.8540   100.2190     2.5350     0.0300   -30.9700     8.5500     7.1380
 2298.0000     9.8610    99.3240     2.5350     0.0310   -30.9760     8.4600     7.0060
 2298.5000     9.8670    97.9800     2.5350     0.0310   -30.9830     8.3700     6.8790
 2299.0000     9.8740    96.7990     2.5410     0.0320   -30.9890     8.2790     6.8920
 2299.5000     9.8800    96.7480     2.5400     0.0320   -30.9960     8.1850     6.8890
 2300.0000     9.8870    96.4560     2.5360     0.0330   -31.0020     8.1850     6.8860
 2300.5000     9.8930    96.1570     2.5310     0.0330   -31.0090     8.3610     6.8870
 2301.0000     9.9000    93.0270     2.5330     0.0340   -31.0150     8.5080     6.8860
 2301.5000     9.9060    91.3640     2.5370     0.0340   -31.0220     8.6560     6.8860
 2302.0000     9.9120    93.4900     2.5410     0.0240   -31.0290     8.8110     6.8860
 2302.5000     9.9190    95.7460     2.5450     0.0170   -31.0350     8.7620     6.8860
 2303.0000     9.9250    95.5250     2.5490     0.0200   -31.0420     8.6740     6.8860
 2303.5000     9.9320    95.2410     2.5490     0.0260   -31.0480     8.5870     6.8860
 2304.0000     9.9380    96.1480     2.5410     0.0260   -31.0550     8.4990     6.8860
 2304.5000     9.9450    96.7820     2.5320     0.0220   -31.0610     8.4110     6.8860
 2305.0000     9.9510    96.5270     2.5310     0.0180   -31.0680     8.3370     6.8300
 2305.5000     9.9580    96.4810     2.5280     0.0140   -31.0740     8.2910     6.7700
 2306.0000     9.9640    98.8020     2.5210     0.0110   -31.0810     8.2510     6.7110
 2306.5000     9.9710   100.7700     2.5150     0.0070   -31.0870     8.2110     6.6510
 2307.0000     9.9770   102.5130     2.5130     0.0060   -31.0940     8.1710     6.5920
 2307.5000     9.9840   104.0540     2.5070     0.0110   -31.1000     8.1310     6.5320
 2308.0000     9.9900   105.6260     2.4950     0.0160   -31.1070     8.0910     6.5050
 2308.5000     9.9970   106.7570     2.4910     0.0210   -31.1130     8.0510     6.4740
 2309.0000    10.0030   106.7210     2.4910     0.0260   -31.1200     8.0110     6.4440
 2309.5000    10.0100   107.1030     2.4890     0.0200   -31.1190     7.9710     6.4130
 2310.0000    10.0160   108.5830     2.4980     0.0150   -31.0960     7.9310     6.3980
 2310.5000    10.0230   106.8790     2.5030     0.0190   -31.0740     7.8890     6.3160
 2311.0000    10.0290   101.7240     2.5040     0.0270   -31.0520     7.7820     6.2040
 2311.5000    10.0360    99.2890     2.5050     0.0340   -31.0300     7.6710     6.0920
 2312.0000    10.0440    99.3140     2.5070     0.0330   -31.0080     7.5590     5.9800
 2312.5000    10.0550    99.3030     2.5210     0.0280   -30.9860     7.4470     5.8420
 2313.0000    10.0660    99.6720     2.5360     0.0230   -30.9640     7.3290     5.8580
 2313.5000    10.0770    98.9100     2.5470     0.0220   -30.9410     7.3330     5.8900
 2314.0000    10.0880    97.5130     2.5340     0.0220   -30.9190     7.3400     5.9220
 2314.5000    10.0990    93.0670     2.5260     0.0210   -30.8970     7.3480     5.9540
 2315.0000    10.1100    97.9430     2.5250     0.0210   -30.8750     7.3550     5.9850
 2315.5000    10.1210   101.6660     2.5240     0.0210   -30.8530     7.3630     6.0170
 2316.0000    10.1330   100.4200     2.5230     0.0210   -30.8310     7.3700     6.0490
 2316.5000    10.1440    98.6490     2.5250     0.0200   -30.8090     7.3780     6.0810
 2317.0000    10.1550    96.7950     2.5300     0.0200   -30.7860     7.3850     6.1120
 2317.5000    10.1600    96.6980     2.5350     0.0200   -30.7640     7.3930     6.1440
 2318.0000    10.1590   100.7570     2.5350     0.0200   -30.7420     7.4000     6.1670
 2318.5000    10.1590   104.5510     2.5350     0.0200   -30.7230     7.4080     6.1670
 2319.0000    10.1590   105.5460     2.5350     0.0190   -30.7230     7.4150     6.1570
 2319.5000    10.1590   103.4850     2.5350     0.0190   -30.7230     7.4230     6.1450
 2320.0000    10.1590   102.7370     2.5350     0.0190   -30.7230     7.4300     6.1320
 2320.5000    10.1590   107.7100     2.5350     0.0190   -30.7230     7.4380     6.1190
 2321.0000    10.1590   109.7100     2.5350     0.0180   -30.7230     7.4460     6.1070
 2321.5000    10.1590   106.0560     2.5350     0.0180   -30.7230     7.4530     6.0940
 2322.0000    10.1590    99.7580     2.5350     0.0190   -30.7230     7.4610     6.0810
 2322.5000    10.1590    92.4510     2.5350     0.0220   -30.7230     7.4650     6.0690
 2323.0000    10.1590    91.5360     2.5350     0.0250   -30.7230     7.7090     6.0540
 2323.5000    10.1590    92.7660     2.5350     0.0280   -30.7230     7.9480     6.1560
 2324.0000    10.1590    95.2480     2.5360     0.0310   -30.7230     8.1870     6.3720
