~VERSION INFORMATION
 VERS.                2.0:   CWLS LOG ASCII STANDARD - VERSION 2.0
 WRAP.                 NO:   ONE LINE PER DEPTH STEP
~WELL INFORMATION
#MNEM.UNIT      DATA TYPE    INFORMATION
#----------   ------------   ------------------------------
 STRT.F            0.0000:   START DEPTH
 STOP.F         5670.0000:   STOP DEPTH
 STEP.F            0.5000:   STEP LENGTH
 NULL.          -999.2500:   NO VALUE
 COMP.          INTEX OIL:   COMPANY
 WELL.    INTEX TP #71-15:   WELL
 FLD .             TEAPOT:   FIELD
 LOC .      S15 T38N R78W:   LOCATION
 CNTY.            NATRONA:   COUNTY
 STAT.            WYOMING:   STATE
 CTRY. UNITED STATES OF AMERICA:   COUNTRY
 SRVC.       SCHLUMBERGER:   SERVICE COMPANY
 DATE.        05-AUG-1966:   LOGDATE
 API .     49025097110000:   API NUMBER
~CURVE INFORMATION
#MNEM.UNIT       API CODE    CURVE DESCRIPTION
#----------   ------------   ------------------------------
 DEPT.F                  :   
 GRD .GAPI   45 310 01 00:   GAMMA RAY FROM DENSITY LOG
 CALD.IN     45 280 60 00:   CALIPER FROM DENSITY LOG
 CORR.G/C3   45 356 01 00:   DENSITY CORRECTION
 RHOB.G/C3   45 350 01 00:   BULK DENSITY
 SPR .MV     05 010 01 00:   SPONTANEOUS POTENTIAL FROM RES.
 ASN .OHMM   05 041 16 00:   AMPLIFIED SHORT NORMAL 16"
 ILD .OHMM   05 120 46 00:   INDUCTION LOG DEEP RESISTIVITY
~PARAMETER INFORMATION
#MNEM.UNIT          VALUE    DESCRIPTION
#----------   ------------   ------------------------------
 EKB .F         5247.5500:   Kelly bushing
 EGL .F         5236.1000:   Ground level
 EDF .F            0.0000:   Drilling floor
 EPD .F         5236.1000:   Permanent datum
 TD  .F         5670.0000:   Total depth
 CLNT.            A2DTECH:   Client Code
 SL  . 610' FNL & 710' FEL:   Surface Location
 PD  .                 GL:   Permanent Datum
 LMF .                 KB:   Log Measured From
 DMF .                 KB:   Drilling Measured From
 DAPD.F             11.45:   Feet Above Permanent Datum
 DATE.        05-AUG-1966:   Date Logged [DD-MMM-YYYY]
 DD  .F              5665:   Depth driller
 DL  .F              5670:   Depth logger
 BLI .F              5669:   Bottom log interval
 TLI .F              5551:   Top log interval
 CS1 .IN            10.75:   Casing size
 CBD1.    10.75" @ 567.9':   Casing driller 1
 CBL1.F               569:   Casing logger 1
 BS1 .IN           8.9375:   Bit size
 BSD1.F              5665:   Depth drilled with bit1
 DFT .            DEXTRID:   Type fluid in hole
 DFD .                9.4:   Density
 DFV .                 59:   Viscosity
 DFPH.                7.5:   pH
 DFL .                8.2:   Fluid loss
 MSS .           FLOWLINE:   Source of sample
 RMS .OHMM           1.80:   Rm
 MST .F                72:   Rm Meas. temp.
 RMF .OHMM           1.00:   Rmf
 MFST.F                82:   Rmf Meas. temp.
 MFSS.               MEAS:   Source Rmf.
 BHT .F               163:   BHT.
 TCS .HRS               3:   Time Circ. stopped
 MRT .F               163:   Maximum recorded temp.
 LUN .               4507:   Logging unit number
 LUL .               CSPR:   Logging unit location
 ENGI.            MANGOLD:   Recorded By
 ORIG.      2.5" 5" PRINT:   Origin of data
 UWI .     49025097110000:   Unique Well ID
 DICO. A2D TECHNOLOGIES, INC.:   Digitizing Company
~OTHER INFORMATION
~A    DEPT      GRD      CALD       CORR       RHOB        SPR        ASN        ILD   
# ...
 2957.5000   102.8443    11.0045     0.1866     2.5436   -53.7799     7.5522     6.3223
 2958.0000   102.8443    10.9453     0.1766     2.4874   -53.7682     7.7386     6.4714
 2958.5000   103.7425    10.8861     0.1322     2.5024   -53.6070     7.9373     6.4779
 2959.0000   104.6407    10.8268     0.0606     2.5386   -53.5964     8.1257     6.4080
 2959.5000   102.3952    10.7973     0.0311     2.5502   -53.5836     8.0829     6.3397
 2960.0000   100.5988    10.7976     0.0266     2.5402   -53.5719     7.9207     6.1234
 2960.5000    99.2515    10.8277     0.0271     2.5384   -53.5602     7.6241     5.7557
 2961.0000    99.3266    10.9173     0.0361     2.5499   -53.5485     7.1634     5.1635
 2961.5000   100.7107    11.0069     0.0757     2.5530   -53.5366     6.7325     4.4216
 2962.0000   102.4700    11.0369     0.1495     2.5421   -53.5247     6.5553     3.8294
 2962.5000   102.3016    11.0372     0.1795     2.4968   -53.6600     6.1394     3.4557
 2963.0000   101.0479    11.0375     0.1878     2.4432   -53.6483     5.7234     3.3054
 2963.5000   102.7874    11.0676     0.1836     2.4298   -53.6366     5.2268     3.1022
 2964.0000   106.2867    11.1869     0.1663     2.4059   -53.7773     4.7512     3.1088
 2964.5000   114.4672    11.3366     0.1574     2.3208   -53.9151     4.0133     3.0389
 2965.0000   126.0857    11.4256     0.1574     2.1937   -54.0529     3.8660     3.0471
 2965.5000   135.0511    11.3945     0.2465     2.1310   -54.1877     3.9426     3.1285
 2966.0000   140.5689    11.3048     0.1521     2.1340   -54.1760     4.1535     3.4345
 2966.5000   138.9031    11.2151     0.1155     2.1669   -54.1643     4.9017     3.8902
 2967.0000   126.0861    11.1552     0.0890     2.3478   -54.3021     5.6499     4.5704
 2967.5000   101.4970    11.0952     0.0693     2.4943   -54.1405     6.5175     5.2582
 2968.0000    88.0239    11.0405     0.0401     2.5168   -54.1285     6.9971     5.7924
 2968.5000    81.7365    11.0408     0.0347     2.5289   -54.1146     7.2826     6.2385
 2969.0000    79.4910    11.0411     0.0434     2.5365   -54.1029     7.3897     6.4696
 2969.5000    79.0419    11.0711     0.0494     2.5423   -54.0912     7.4209     6.4762
 2970.0000    80.8383    11.1091     0.0539     2.5381   -53.9312     7.3636     6.4063
 2970.5000    83.0838    11.1610     0.0598     2.5157   -53.7689     7.2760     6.2648
 2971.0000    86.2275    11.1613     0.0688     2.5125   -53.6077     7.1436     6.1949
 2971.5000    88.9222    11.1616     0.0836     2.5342   -53.5964     7.0112     5.9037
 2972.0000    91.1677    11.1917     0.1341     2.5364   -53.4350     6.8639     5.6858
 2972.5000    93.4132    11.1920     0.1794     2.4812   -53.4230     6.7464     5.3918
 2973.0000    91.9906    11.2043     0.1572     2.4189   -53.4111     6.5991     5.0169
 2973.5000    89.8204    11.2223     0.0881     2.4169   -53.3969     6.4070     4.5095
 2974.0000    89.8204    11.2659     0.0995     2.4355   -53.3852     6.1851     3.8425
 2974.5000    90.9057    11.2824     0.1387     2.4462   -53.3735     5.7977     3.3999
 2975.0000    94.4247    11.3125     0.1758     2.4425   -53.3618     5.4742     3.2552
 2975.5000   105.1856    11.3426     0.1981     2.4134   -53.2006     4.9228     2.9640
 2976.0000   113.6219    11.4186     0.1863     2.3175   -53.1889     4.6411     2.8941
 2976.5000   119.2363    11.4961     0.1729     2.1884   -53.0277     4.2849     2.7509
 2977.0000   124.3640    11.6995     0.1848     1.9969   -52.7171     3.7943     2.7592
 2977.5000   127.7507    11.9986     0.1207     1.9559   -52.5559     3.6321     2.7657
 2978.0000   127.3206    12.3262    -0.0954     1.8848   -52.5442     3.5738     2.9222
 2978.5000   125.1879    12.1480    -0.0699     1.8776   -53.0000     3.8449     3.0171
 2979.0000   119.8730    12.4756     0.0617     1.9373   -53.5642     4.1454     3.3111
 2979.5000   111.3772    12.6247     0.1164     2.1486   -54.0010     4.6100     3.8416
 2980.0000   105.9880    12.0000     0.0941     2.3882   -54.2912     5.8955     4.4470
 2980.5000    98.8024    10.9884     0.1208     2.4916   -54.2765     6.5393     5.2769
 2981.0000    95.6587    10.9226     0.1465     2.5415   -54.4172     6.9590     5.8823
 2981.5000    94.7605    10.9295     0.1292     2.5385   -54.4026     7.1854     5.8889
 2982.0000    94.7605    10.9595     0.1124     2.5366   -54.3909     7.3209     5.9703
 2982.5000    95.2096    10.9896     0.0956     2.5565   -54.3792     7.3828     5.9769
 2983.0000    97.0060    11.0494     0.0999     2.5790   -54.1457     7.4145     6.0584
 2983.5000   100.1497    11.0497     0.1188     2.5536   -53.9073     7.4909     6.1400
 2984.0000   101.9461    11.0500     0.1377     2.5526   -53.7280     7.5972     6.1480
 2984.5000   102.3952    11.0503     0.1565     2.5521   -53.5821     7.7333     6.1545
 2985.0000   101.9089    11.0506     0.1486     2.5312   -53.5704     7.8695     6.2360
 2985.5000   101.4970    11.0211     0.1266     2.5507   -53.5588     7.9758     6.1677
 2986.0000   102.6943    10.9917     0.1050     2.5717   -53.6965     8.0841     6.2491
 2986.5000   105.6324    10.9920     0.0958     2.5777   -53.6848     8.2336     6.1792
 2987.0000   106.4371    10.9625     0.0806     2.5598   -53.8255     8.4294     6.1874
 2987.5000   105.9880    10.9603     0.0712     2.5615   -53.9604     8.5506     6.1190
 2988.0000   107.1862    10.9333     0.0769     2.5658   -53.9487     8.6122     5.9760
 2988.5000   109.4690    10.9336     0.0893     2.5626   -53.9370     8.5393     5.8329
 2989.0000   109.8428    10.9385     0.1172     2.5575   -53.9253     8.3620     5.7646
 2989.5000   106.5486    10.9640     0.1431     2.5481   -54.0631     8.0952     5.7729
 2990.0000   102.8439    10.9643     0.1609     2.5180   -54.0508     7.9776     5.8543
 2990.5000   102.6383    10.9712     0.1663     2.5047   -54.0368     7.9197     5.9357
 2991.0000   104.0045    10.9648     0.1575     2.5286   -54.1746     8.0414     6.0920
 2991.5000   104.6407    10.9652     0.1279     2.4993   -54.1629     8.1626     6.1734
 2992.0000   105.0898    10.9655     0.0904     2.4949   -54.4501     8.3137     6.3297
 2992.5000   104.6407    10.9658     0.1034     2.5422   -54.5908     8.5692     6.5608
 2993.0000   103.7425    10.9661     0.1155     2.5556   -54.7257     8.8845     6.7919
 2993.5000    99.7006    10.9664     0.1182     2.5557   -54.8640     9.1102     6.9484
 2994.0000    96.5569    10.9667     0.1013     2.5722   -55.1510     9.3657     7.1048
 2994.5000    96.1078    10.9670     0.0731     2.5803   -55.1390     9.5795     7.1127
 2995.0000    98.8024    10.9673     0.0539     2.5528   -54.9776     9.8147     7.1193
 2995.5000   101.0479    10.9676     0.0505     2.5692   -54.9633     9.8754     7.2007
 2996.0000   102.3952    10.9679     0.0643     2.5857   -54.9326     9.9852     7.2822
 2996.5000    99.6066    10.9682     0.0703     2.5865   -54.6409    10.2109     7.4384
 2997.0000    96.4817    10.9685     0.0644     2.5753   -54.4797    10.2873     7.5199
 2997.5000    95.2096    10.9688     0.0466     2.5736   -54.3186    10.2955     7.6761
 2998.0000    95.8082    10.9690     0.0481     2.5903   -54.0079    10.3660     7.7576
 2998.5000    97.0996    10.9694     0.0659     2.6083   -53.9962    10.2928     7.8391
 2999.0000    98.5781    10.9697     0.0793     2.6158   -53.8350    10.1458     7.8456
 2999.5000   100.5478    10.9700     0.0868     2.6039   -53.8234    10.0725     7.7773
 3000.0000   102.5378    10.9703     0.0794     2.5650   -53.8117     9.9255     7.7090
 3000.5000   104.6763    10.9699     0.0585     2.5561   -53.7995    10.0020     7.7924
 3001.0000   106.3087    10.9696     0.0710     2.5608   -53.7791    10.3771     7.5788
 3001.5000   107.2246    10.9693     0.0802     2.5639   -53.7586    10.3042     7.4378
 3002.0000   107.4269    10.9639     0.0858     2.5666   -53.5897    10.1567     7.2220
 3002.5000   106.5209    10.9390     0.0790     2.5470   -53.4228    10.0091     7.1557
