~VERSION INFORMATION
 VERS.                2.0:   CWLS LOG ASCII STANDARD - VERSION 2.0
 WRAP.                 NO:   ONE LINE PER DEPTH STEP
~WELL INFORMATION
#MNEM.UNIT      DATA TYPE    INFORMATION
#----------   ------------   ------------------------------
 STRT.F          240.0000:   START DEPTH
 STOP.F         2876.0000:   STOP DEPTH
 STEP.F            0.5000:   STEP LENGTH
 NULL.          -999.2500:   NO VALUE
 COMP.    FENIX & SCISSON:   COMPANY
 WELL. FENIX & SCISSON "A" #23-21:   WELL
 FLD .               NPR3:   FIELD
 LOC .      S21 T39N R78W:   LOCATION
 CNTY.            NATRONA:   COUNTY
 STAT.            WYOMING:   STATE
 CTRY. UNITED STATES OF AMERICA:   COUNTRY
 SRVC.              WELEX:   SERVICE COMPANY
 DATE.        05-MAR-1977:   LOGDATE
 API .     49025103030000:   API NUMBER
~CURVE INFORMATION
#MNEM.UNIT       API CODE    CURVE DESCRIPTION
#----------   ------------   ------------------------------
 DEPT.F                  :   
 GRD .GAPI   45 310 01 00:   GAMMA RAY FROM DENSITY LOG
 CALD.IN     45 280 60 00:   CALIPER FROM DENSITY LOG
 CORR.G/C3   45 356 01 00:   DENSITY CORRECTION
 RHOB.G/C3   45 350 01 00:   BULK DENSITY
 SPR .MV     07 010 01 00:   SPONTANEOUS POTENTIAL
 ILD .OHMM   07 120 46 00:   DEEP INDUCTION RESISTIVITY
 ILM .OHMM   07 120 44 00:   INDUCTION LOG MEDIUM RESISTIVITY
 SGRD.OHMM   07 220 05 00:   SHALLOW SHORT GUARD RESISTIVITY
~PARAMETER INFORMATION
#MNEM.UNIT          VALUE    DESCRIPTION
#----------   ------------   ------------------------------
 EKB .F         4986.0000:   Kelly bushing
 EGL .F         4976.0000:   Ground level
 TD  .F         2885.0000:   Total depth
 CLNT.            A2DTECH:   Client Code
 SL  . 990' FWL & 1650' FNL:   Surface Location
 DATE.        05-MAR-1977:   Date Logged [DD-MMM-YYYY]
 DD  .F              2885:   Depth driller
 DL  .F              2882:   Depth logger
 BLI .F              2876:   Bottom log interval
 TLI .F               238:   Top log interval
 CS1 .IN            8.625:   Casing size
 CBD1.      8.625" @ 251':   Casing driller 1
 CBL1.IN              251:   Casing logger 1
 BS1 .IN            7.875:   Bit size
 BSD1.F              2885:   Depth drilled with bit1
 DFT .                KCL:   Type fluid in hole
 DFD .                9.5:   Density
 TCS .HRS               3:   Time Circ. stopped
 MRT .F                78:   Maximum recorded temp.
 ENGI.          D. LAWSON:   Recorded By
 WITN.            K. JAPP:   Witnessed by
 ORIG.         2.5" PRINT:   Origin of data
 UWI .     49025103030000:   Unique Well ID
 DICO. A2D TECHNOLOGIES,INC.:   Digitizing Company
 PD  .                 GL:   Permanent Datum
 EPD .               4976:   Elevation Permanent Datum
 LMF .                 KB:   Log Measured From
 DMF .                 KB:   Drilling Measured From
 DAPD.                 10:   Feet Above Permanent Datum
 DFL .                8.8:   Fluid loss
 MSS .           FLOWLINE:   Source of sample
 RMS .OHMM            .40:   Rm
 MST .F                58:   Rm Meas. temp.
 RMF .OHMM            .37:   Rmf
 MFST.F                58:   Rmf Meas. temp.
 MFSS.OHMM            .67:   Source Rmf.
 MCST.F                58:   Rmc Meas. temp.
 MCSS.               MEAS:   Source Rmc.
 RMB .OHMM            .30:   Rm. at BHT
 BHT .F                78:   BHT.
~OTHER INFORMATION
~A   DEPT       GRD        CALD      CORR        RHOB      SPR        ILD        ILM       SGRD   
# ...
  604.5000   121.9145     8.7393     0.0064     2.4668   -43.1820     7.3289    11.6154    11.8324
  605.0000   122.8016     8.7397     0.0064     2.4650   -43.1804     7.2860    11.6362    11.8332
  605.5000   123.6886     8.7401     0.0065     2.4591   -43.1789     7.2430    11.6571    11.8056
  606.0000   124.5757     8.7245     0.0065     2.4580   -43.1774     7.2001    11.6718    11.7626
  606.5000   125.4628     8.7116     0.0066     2.4643   -43.1759     7.1571    11.6710    11.7196
  607.0000   124.2971     8.7121     0.0062     2.4670   -43.1744     7.1142    11.6702    11.6766
  607.5000   122.8381     8.7126     0.0048     2.4617   -43.1729     7.0963    11.6694    11.6384
  608.0000   121.3791     8.7130     0.0040     2.4513   -43.1715     7.0953    11.6686    11.6368
  608.5000   120.5067     8.6840     0.0040     2.4477   -43.1700     7.1104    11.6678    11.6352
  609.0000   119.9267     8.6256     0.0041     2.4513   -43.1685     7.1919    11.6670    11.6336
  609.5000   121.4010     8.5967     0.0041     2.4572   -43.1670     7.2907    11.5850    11.6655
  610.0000   121.9949     8.5677     0.0042     2.4615   -42.8696     7.3909    11.2704    11.8252
  610.5000   121.4157     8.5387     0.0043     2.4628   -42.8682     7.4925    11.0387    11.9551
  611.0000   121.7162     8.5392     0.0043     2.4525   -42.8667     7.5032    10.8147    12.1199
  611.5000   122.6033     8.5396     0.0044     2.4399   -42.8652     7.5944    10.5210    12.1181
  612.0000   124.0769     8.5695     0.0044     2.4307   -42.8637     7.5933    10.4442    12.1164
  612.5000   123.7909     8.5699     0.0045     2.4287   -42.8622     7.5923    10.4435    12.0869
  613.0000   122.9185     8.5703     0.0016     2.4287   -42.8607     7.5913    10.4427    11.9467
  613.5000   123.8055     8.5708     0.0016     2.4287   -42.8592     7.5836    10.4420    11.7561
  614.0000   125.8656     8.6006    -0.0013     2.4311   -42.8577     7.4852    10.4413    11.5942
  614.5000   127.6325     8.6011    -0.0072     2.4373   -42.8563     7.4842    10.4406    11.4564
  615.0000   128.5195     8.6015    -0.0072     2.4472   -42.8548     7.4832    10.4398    11.4548
  615.5000   127.6471     8.6020    -0.0071     2.4584   -42.8533     7.3797    10.4983    11.4532
  616.0000   124.4286     8.6024    -0.0041     2.4736   -42.8518     7.2776    10.5833    11.4516
  616.5000   122.6764     8.6028     0.0020     2.4871   -43.1465     7.1770    10.5259    11.4500
  617.0000   122.9769     8.6033     0.0050     2.4961   -43.1447     7.1760    10.3282    11.4485
  617.5000   124.4505     8.6037     0.0111     2.5035   -43.1435     7.1750     9.8763    11.4469
  618.0000   123.5780     8.6042     0.0111     2.4961   -43.1420     7.1740     9.7404    11.4453
  618.5000   122.4123     8.6046     0.0112     2.4798   -43.1405     7.1730     9.6063    11.4437
  619.0000   123.0062     8.6050     0.0083     2.4649   -43.1391     7.1720     9.6057    11.4296
  619.5000   123.8932     8.5761     0.0081     2.4590   -43.1376     7.1710     9.7385    11.2721
  620.0000   123.0208     8.5765     0.0052     2.4531   -43.1361     7.1700     9.8730    10.9741
  620.5000   121.5618     8.5475     0.0025     2.4486   -43.1346     7.1690     9.8722    10.8219
  621.0000   120.3961     8.5186     0.0025     2.4457   -42.8373     7.0699     9.8715    10.8284
  621.5000   120.1099     8.5190     0.0026     2.4413   -42.8358     7.0689     9.8708    11.1223
  622.0000   120.7040     8.5194     0.0056     2.4398   -42.8343     7.0679     9.8701    11.2820
  622.5000   121.0045     8.5199     0.0057     2.4394   -42.8328     7.0669     9.8695    11.4311
  623.0000   121.8916     8.5203     0.0057     2.4458   -42.8314     7.0659     9.9076    11.2725
  623.5000   124.5382     8.5208     0.0088     2.4682   -42.8299     7.0650    10.1441    11.1162
  624.0000   127.1848     8.5506     0.0089     2.4802   -42.8284     7.0640    10.1809    11.1146
  624.5000   127.1977     8.5510     0.0119     2.4757   -42.8269     7.0630    10.2835    11.1131
  625.0000   125.4399     8.5515     0.0125     2.4713   -42.8255     7.0620    10.2827    11.1116
  625.5000   124.8551     8.5519     0.0150     2.4699   -43.1198     7.0610    10.2480    11.1100
  626.0000   122.7871     8.5524     0.0181     2.4774   -43.1183     7.0601    10.1405    11.1085
  626.5000   120.1832     8.5528     0.0181     2.4834   -43.1168     7.0591    10.0009    11.1069
  627.0000   123.1548     8.5532     0.0182     2.4879   -43.1154     7.0581     9.8633    11.1054
  627.5000   125.5058     8.5537     0.0183     2.4909   -43.1139     7.0571     9.8626    10.9513
  628.0000   126.6685     8.5541     0.0183     2.4939   -43.1124     6.9595     9.7269    10.7994
  628.5000   127.2508     8.5546     0.0184     2.4909   -43.1110     6.8633     9.7262    10.6496
  629.0000   127.5668     8.5550     0.0177     2.4791   -43.1095     6.6757     9.7256    10.3577
  629.5000   128.1449     8.5849     0.0147     2.4627   -43.1080     6.4043     9.7249    10.2140
  630.0000   126.5690     8.5853     0.0118     2.4538   -43.1065     6.3157     9.7242    10.2126
  630.5000   124.0540     8.6152     0.0066     2.4613   -43.1050     6.2284     9.8586    10.0709
  631.0000   125.3283     8.6156     0.0037     2.4703   -43.1036     6.2275     9.8579    10.0695
  631.5000   127.3456     8.6160     0.0068     2.4807   -43.1021     6.2267     9.8572     9.9299
  632.0000   128.4747     8.6459     0.0098     2.4882   -43.1006     6.3124     9.8565     9.9285
  632.5000   127.5144     8.6463     0.0129     2.4942   -43.0991     6.4878     9.8730    10.0653
  633.0000   125.4319     8.6468     0.0159     2.5017   -42.8017     6.5771    10.1472    10.0640
  633.5000   123.8046     8.6472     0.0190     2.5077   -42.8003     6.6675    10.2861    10.3448
  634.0000   124.4693     8.6476     0.0201     2.5122   -42.7988     6.8528    10.5866    10.7815
  634.5000   124.6990     8.6481     0.0232     2.5167   -42.7973     7.0435    11.0162    11.2366
  635.0000   123.7879     8.6490     0.0281     2.5138   -42.7959     7.1403    11.3354    11.5501
  635.5000   123.2473     8.6784     0.0282     2.5079   -42.4985     7.2384    11.6366    11.8724
  636.0000   122.9187     8.6788     0.0283     2.5019   -42.4971     7.4397    11.9597    12.0362
  636.5000   121.5264     8.6793     0.0313     2.5005   -42.4956     7.5422    12.1234    12.3719
  637.0000   119.4569     8.6797     0.0302     2.5005   -42.4941     7.7088    12.2810    12.3702
  637.5000   119.1227     8.6801     0.0284     2.5006   -42.4926     7.7509    12.2802    12.3685
  638.0000   118.2483     8.6806     0.0285     2.4991   -42.4911     7.8115    12.2793    12.3668
  638.5000   117.3212     8.6810     0.0285     2.4977   -42.4896     7.8564    12.2785    12.3650
  639.0000   116.4995     8.6815     0.0286     2.4932   -42.4881     7.8553    12.2776    12.3633
  639.5000   117.0818     8.6819     0.0287     2.4903   -42.4866     7.8542    12.2768    12.1918
  640.0000   119.4432     8.6823     0.0287     2.4903   -42.4852     7.8531    12.2759    12.1901
  640.5000   121.5108     8.6828     0.0288     2.4948   -42.4838     7.8520    12.2751    12.0211
  641.0000   122.1546     8.6832     0.0288     2.4963   -42.4823     7.7434    12.1061    12.0194
  641.5000   119.3005     8.6837     0.0274     2.4888   -42.4808     7.5837    11.9395    12.0177
  642.0000   114.2401     8.6841     0.0230     2.4769   -42.4793     7.4277    11.6140    12.0161
  642.5000   112.7924     8.6845     0.0201     2.4695   -42.4778     7.4266    11.6132    12.0144
  643.0000   114.6305     8.6850     0.0155     2.4637   -42.4763     7.3239    11.6124    11.8477
  643.5000   114.4227     8.6854     0.0096     2.4669   -42.4748     7.1768    11.6116    11.6834
  644.0000   112.7370     8.6564     0.0053     2.4746   -42.4734     7.0252    11.4518    11.5213
  644.5000   110.5409     8.6569     0.0053     2.4833   -42.4719     7.0242    11.2942    11.3615
