~VERSION INFORMATION
 VERS.                2.0:   CWLS LOG ASCII STANDARD - VERSION 2.0
 WRAP.                 NO:   ONE LINE PER DEPTH STEP
~WELL INFORMATION
#MNEM.UNIT      DATA TYPE    INFORMATION
#----------   ------------   ------------------------------
 STRT.F           31.5000:   START DEPTH
 STOP.F         3370.0000:   STOP DEPTH
 STEP.F            0.5000:   STEP LENGTH
 NULL.          -999.2500:   NO VALUE
 COMP. LAWRENCE ALLISON & ASSOC - WEST:   COMPANY
 WELL. LAWRENCE "AX" #46-34:   WELL
 FLD .             NPR #3:   FIELD
 LOC .      S34 T39N R78W:   LOCATION
 CNTY.            NATRONA:   COUNTY
 STAT.            WYOMING:   STATE
 CTRY. UNITED STATES OF AMERICA:   COUNTRY
 SRVC.       SCHLUMBERGER:   SERVICE COMPANY
 DATE.        30-APR-1986:   LOGDATE
 API .     49025111380000:   API NUMBER
~CURVE INFORMATION
#MNEM.UNIT       API CODE    CURVE DESCRIPTION
#----------   ------------   ------------------------------
 DEPT.F                  :   
 TENR.LBS    07 635 01 00:   TENSION FROM RESISTIVITY
 GRR .GAPI   07 310 01 00:   GAMMA RAY FROM RESISTIVITY
 CALR.IN     07 280 01 00:   CALIPER FROM RESISTIVITY
 SPR .MV     07 010 01 00:   SPONTANEOUS POTENTIAL
 TEND.LBS    45 635 01 00:   TENSION FROM DENSITY LOG
 DEN .G/C3   45 350 01 00:   BULK DENSITY
 CORR.G/C3   45 356 01 00:   DENSITY CORRECTION
 CNC .DEC    42 890 03 00:   NEUTRON PORISITY SANDSTONE
 RFOC.OHMM   07 220 04 00:   RESISTIVITY FOCUSED LOG
 RILD.OHMM   07 120 46 00:   RESISTIVITY INDUCTION LOG DEEP
 RILM.OHMM   07 120 44 00:   RESISTIVITY INDUCTION LOG MEDIUM
~PARAMETER INFORMATION
#MNEM.UNIT          VALUE    DESCRIPTION
#----------   ------------   ------------------------------
 EKB .F         5094.0000:   Kelly bushing
 EGL .F         5082.0000:   Ground level
 EDF .F            0.0000:   Drilling floor
 TD  .F         3370.0000:   Total depth
 DATE.        30-APR-1986:   Date logged
 CLNT.            A2DTECH:   Client Code
 SL  . 2462' FWL & 1545' FSL:   Surface Location
 PD  .                 GL:   Permanent Datum
 EPD .F              5082:   Elevation Permanent Datum
 LMF .                 KB:   Log Measured From
 DMF .                 KB:   Drilling Measured From
 DAPD.F                12:   Feet Above Permanent Datum
 DD  .F              3370:   Depth driller
 DL  .F              3369:   Depth logger
 BLI .F              3367:   Bottom log interval
 CS1 .IN            8.625:   Casing size
 CBD1.      8.625" @ 642':   Casing driller 1
 CBL1.F               642:   Casing logger 1
 BS1 .IN            7.875:   Bit size
 BSD1.F              3370:   Depth drilled with bit1
 DFT .        POLYMER/KCL:   Type fluid in hole
 DFD .                8.9:   Density
 DFV .                 36:   Viscosity
 DFPH.                8.5:   pH
 DFL .               10.2:   Fluid loss
 MSS .           FLOWLINE:   Source of sample
 RMS .OHMM           .319:   Rm
 MST .F                79:   Rm Meas. temp.
 RMF .OHMM            .24:   Rmf
 MFST.F                79:   Rmf Meas. temp.
 RMC .OHMM            .40:   Rmc
 MCST.F                79:   Rmc Meas. temp.
 MFSS.               CALC:   Source Rmf.
 MCSS.               CALC:   Source Rmc.
 RMB .OHMM            .21:   Rm. at BHT
 BHT .F               117:   BHT.
 TCS .HRS               4:   Time Circ. stopped
 MRT .F               117:   Maximum recorded temp.
 LUN .            HL-6264:   Logging unit number
 LUL .           GILLETTE:   Logging unit location
 ENGI.     P. M. FAHLSING:   Recorded By
 WITN.             STRONG:   Witnessed by
 ORIG.        2" 5" PRINT:   Origin of data
 UWI .     49025111380000:   Unique Well ID
 DICO. A2D TECHNOLOGIES, INC.:   Digitizing Company
 TLI .                  0:   Top log interval
~OTHER INFORMATION
~A   DEPT     TENR        GRR       CALR        SPR       TEND        DEN       CORR        CNC       RFOC       RILD       RILM   
# ...
 1343.0000   -92.4930    96.3670     8.9900   -83.6480  -999.2500  -999.2500  -999.2500  -999.2500     8.7240     7.8230     7.0020
 1343.5000   -94.2570    96.0040     8.9900   -83.5580  -999.2500  -999.2500  -999.2500  -999.2500     8.0850     7.8230     7.1290
 1344.0000   -96.0210    97.2330     8.9900   -83.4840  -999.2500  -999.2500  -999.2500  -999.2500     7.6090     7.8230     7.2530
 1344.5000   -97.7850    98.5990     8.9900   -83.1790  -999.2500  -999.2500  -999.2500  -999.2500     7.9940     7.8230     7.3780
 1345.0000   -99.5490    99.8700     8.9900   -82.8860  -999.2500  -999.2500  -999.2500  -999.2500     8.2700     7.8230     7.5030
 1345.5000  -101.3130   101.1730     8.9900   -82.6390  -999.2500  -999.2500  -999.2500  -999.2500     7.6090     7.8230     7.4730
 1346.0000  -103.0760   101.5980     8.9900   -82.3600  -999.2500  -999.2500  -999.2500  -999.2500     7.7200     7.8230     7.3780
 1346.5000  -104.8400   100.7880     8.9900   -82.0950  -999.2500  -999.2500  -999.2500  -999.2500     7.9290     7.7180     7.2840
 1347.0000  -106.6040   100.2120     8.9900   -81.8340  -999.2500  -999.2500  -999.2500  -999.2500     8.1380     7.5250     7.1900
 1347.5000  -108.3680    99.3320     8.9900   -81.5540  -999.2500  -999.2500  -999.2500  -999.2500     8.3470     7.3330     7.1260
 1348.0000  -110.1320    99.0860     8.9900   -81.3100  -999.2500  -999.2500  -999.2500  -999.2500     8.2350     7.3410     7.1110
 1348.5000  -111.8960   101.7890     8.9900   -81.2900  -999.2500  -999.2500  -999.2500  -999.2500     8.1240     7.3500     7.0950
 1349.0000  -113.6600   104.2660     8.9900   -81.5100  -999.2500  -999.2500  -999.2500  -999.2500     8.0130     7.3580     7.0800
 1349.5000  -104.5640   104.5760     8.9900   -81.9410  -999.2500  -999.2500  -999.2500  -999.2500     7.9020     7.3660     7.0640
 1350.0000  -102.8970   101.6800     8.9900   -82.3960  -999.2500  -999.2500  -999.2500  -999.2500     7.8230     7.3740     7.0490
 1350.5000   -97.2320    98.2070     8.9900   -82.8380  -999.2500  -999.2500  -999.2500  -999.2500     7.8630     7.3830     7.0340
 1351.0000   -94.5340    97.1240     8.9900   -83.2800  -999.2500  -999.2500  -999.2500  -999.2500     7.9870     7.3910     7.0180
 1351.5000   -94.5340    95.7870     8.9900   -83.7360  -999.2500  -999.2500  -999.2500  -999.2500     8.1450     7.4010     7.0020
 1352.0000   -94.5340    95.8380     8.9900   -84.0920  -999.2500  -999.2500  -999.2500  -999.2500     8.4400     7.4010     7.0020
 1352.5000  -100.3510    98.1180     8.9900   -84.1090  -999.2500  -999.2500  -999.2500  -999.2500     8.7420     7.4090     7.0130
 1353.0000  -104.5640   100.6760     8.9900   -84.0890  -999.2500  -999.2500  -999.2500  -999.2500     8.5730     7.4290     7.0320
 1353.5000  -104.5640    98.9250     8.9900   -84.1120  -999.2500  -999.2500  -999.2500  -999.2500     8.4010     7.4500     7.0520
 1354.0000   -94.5340    95.4550     8.9900   -84.0870  -999.2500  -999.2500  -999.2500  -999.2500     8.2300     7.4700     7.0670
 1354.5000  -114.5940    98.4010     8.9900   -84.1150  -999.2500  -999.2500  -999.2500  -999.2500     8.0580     7.4700     7.0670
 1355.0000   -94.5340   101.2810     8.9900   -84.0830  -999.2500  -999.2500  -999.2500  -999.2500     7.8960     7.4770     7.0750
 1355.5000   -94.5340   104.2810     8.9900   -84.1200  -999.2500  -999.2500  -999.2500  -999.2500     7.8960     7.4870     7.0850
 1356.0000   -94.5340   107.2850     8.9900   -84.0770  -999.2500  -999.2500  -999.2500  -999.2500     7.8960     7.4970     7.0950
 1356.5000   -84.5040   103.7160     8.9900   -83.6140  -999.2500  -999.2500  -999.2500  -999.2500     8.0560     7.5080     7.1050
 1357.0000   -94.5340   100.0140     8.9900   -82.9660  -999.2500  -999.2500  -999.2500  -999.2500     8.2350     7.5180     7.1140
 1357.5000   -94.5340    96.8440     8.9900   -82.5300  -999.2500  -999.2500  -999.2500  -999.2500     8.4240     7.5290     7.1240
 1358.0000   -93.6180    94.5080     8.9920   -82.4690  -999.2500  -999.2500  -999.2500  -999.2500     8.3140     7.5390     7.1320
 1358.5000   -91.0050    96.1330     8.9950   -82.5310  -999.2500  -999.2500  -999.2500  -999.2500     8.1940     7.4980     7.0720
 1359.0000   -88.3920    97.9270     8.9970   -82.4700  -999.2500  -999.2500  -999.2500  -999.2500     8.1180     7.3850     6.9660
 1359.5000   -85.7790    98.0990     9.0000   -82.5280  -999.2500  -999.2500  -999.2500  -999.2500     8.0440     7.2730     6.8590
 1360.0000   -83.1660    96.1230     9.0030   -82.9120  -999.2500  -999.2500  -999.2500  -999.2500     8.4760     7.1600     6.7520
 1360.5000   -80.5530    94.9410     9.0050   -83.3770  -999.2500  -999.2500  -999.2500  -999.2500     8.3940     7.0470     6.6460
 1361.0000   -77.9400    97.8960     9.0080   -83.7580  -999.2500  -999.2500  -999.2500  -999.2500     7.8390     6.9340     6.5390
 1361.5000   -75.3270    99.7320     9.0090   -83.9120  -999.2500  -999.2500  -999.2500  -999.2500     7.5390     6.8730     6.4970
 1362.0000   -64.4430    97.7600     9.0060   -83.8920  -999.2500  -999.2500  -999.2500  -999.2500     7.6140     6.8590     6.4870
 1362.5000   -65.2900    95.7560     9.0030   -83.9030  -999.2500  -999.2500  -999.2500  -999.2500     7.7250     6.8470     6.4760
 1363.0000   -65.9520    95.6920     9.0000   -83.9010  -999.2500  -999.2500  -999.2500  -999.2500     7.7510     6.8360     6.4650
 1363.5000   -66.6130    98.5310     8.9970   -83.8950  -999.2500  -999.2500  -999.2500  -999.2500     7.6580     6.8250     6.4540
 1364.0000   -67.2750   101.4920     8.9940   -83.9080  -999.2500  -999.2500  -999.2500  -999.2500     7.5560     6.8100     6.4430
 1364.5000   -67.9370   104.3520     8.9910   -83.8890  -999.2500  -999.2500  -999.2500  -999.2500     7.4700     6.8100     6.4430
 1365.0000   -68.5990   106.6330     8.9880   -83.9110  -999.2500  -999.2500  -999.2500  -999.2500     7.5070     6.8100     6.4430
 1365.5000   -69.2600   103.2790     8.9850   -83.8890  -999.2500  -999.2500  -999.2500  -999.2500     7.5710     6.8150     6.4500
 1366.0000   -69.9220    99.8700     8.9830   -83.6230  -999.2500  -999.2500  -999.2500  -999.2500     7.5620     6.8280     6.4620
 1366.5000   -70.5840   100.4050     8.9790   -83.3750  -999.2500  -999.2500  -999.2500  -999.2500     7.4440     6.8420     6.4750
 1367.0000   -71.2460   101.6150     8.9770   -83.1620  -999.2500  -999.2500  -999.2500  -999.2500     7.4010     6.8550     6.4870
 1367.5000   -71.9070   102.4930     8.9740   -82.9190  -999.2500  -999.2500  -999.2500  -999.2500     7.4710     6.8680     6.5000
 1368.0000   -72.5690   101.5620     8.9700   -82.7030  -999.2500  -999.2500  -999.2500  -999.2500     7.6240     6.8810     6.5120
 1368.5000   -73.2310   100.1180     8.9710   -82.4620  -999.2500  -999.2500  -999.2500  -999.2500     7.7770     6.8940     6.5250
 1369.0000   -73.8920    97.8520     8.9720   -82.2450  -999.2500  -999.2500  -999.2500  -999.2500     7.7150     6.9080     6.5370
 1369.5000   -74.4730    95.7700     8.9730   -81.8930  -999.2500  -999.2500  -999.2500  -999.2500     7.6090     6.9210     6.5500
 1370.0000   -72.3070    96.5480     8.9740   -81.7080  -999.2500  -999.2500  -999.2500  -999.2500     8.0440     6.9370     6.5630
 1370.5000   -68.2310    97.4120     8.9740   -81.9440  -999.2500  -999.2500  -999.2500  -999.2500     7.9410     6.9620     6.6090
 1371.0000   -64.1540    97.2250     8.9750   -82.1680  -999.2500  -999.2500  -999.2500  -999.2500     7.8030     6.9950     6.6580
 1371.5000   -60.0780    97.0290     8.9760   -82.3600  -999.2500  -999.2500  -999.2500  -999.2500     7.6650     7.0280     6.7060
 1372.0000   -56.0020    96.7480     8.9770   -82.5800  -999.2500  -999.2500  -999.2500  -999.2500     7.6090     7.0620     6.7550
 1372.5000   -54.4130    97.1100     8.9780   -82.7780  -999.2500  -999.2500  -999.2500  -999.2500     7.9700     7.0950     6.8040
 1373.0000   -58.6400    98.7160     8.9790   -82.9900  -999.2500  -999.2500  -999.2500  -999.2500     7.9700     7.1280     6.8530
