~VERSION INFORMATION
 VERS.                2.0:   CWLS LOG ASCII STANDARD - VERSION 2.0
 WRAP.                 NO:   ONE LINE PER DEPTH STEP
~WELL INFORMATION
#MNEM.UNIT      DATA TYPE    INFORMATION
#----------   ------------   ------------------------------
 STRT.F            0.5000:   START DEPTH
 STOP.F         4128.0000:   STOP DEPTH
 STEP.F            0.5000:   STEP LENGTH
 NULL.          -999.2500:   NO VALUE
 COMP. LAWRENCE ALLISON ASSOC WEST:   COMPANY
 WELL. LAWRENCE NPR "AX" #12-33:   WELL
 FLD .      NPR - WILDCAT:   FIELD
 LOC .      S33 T39N R78W:   LOCATION
 CNTY.            NATRONA:   COUNTY
 STAT.            WYOMING:   STATE
 CTRY. UNITED STATES OF AMERICA:   COUNTRY
 SRVC.      DRESSER ATLAS:   SERVICE COMPANY
 DATE.        04-AUG-1984:   LOGDATE
 API .     49025109720000:   API NUMBER
~CURVE INFORMATION
#MNEM.UNIT       API CODE    CURVE DESCRIPTION
#----------   ------------   ------------------------------
 DEPT.F                  :   
 CORR.G/C3   45 356 01 00:   DENSITY CORRECTION
 TEND.LBS    45 635 01 00:   TENSION FROM DENSITY LOG
 RHOB.G/C3   45 350 01 00:   BULK DENSITY
 GRR .GAPI   07 310 01 00:   GAMMA RAY FROM RESISTIVITY
 SPR .MV     07 010 01 00:   SPONTANEOUS POTENTIAL
 RFOC.OHMM   07 220 04 00:   RESISTIVITY FOCUSED LOG RES.
 RILM.OHMM   07 120 44 00:   RESISTIVITY INDUCTION LOG MEDIUM
 RILD.OHMM   07 120 46 00:   RESISTIVITY INDUCTION LOG MEDIUM
 TENR.LBS    07 635 01 00:   TENSION FROM RESISTIVITY
 CALR.IN     07 280 01 00:   CALIPER FROM RESISTIVITY
 DT  .US/F   60 520 00 00:   DELTA TIME
 TENS.LBS    60 635 01 00:   TENSION FROM SONIC
 SPHI.DEC    60 890 00 00:   SONIC POROSITY
~PARAMETER INFORMATION
#MNEM.UNIT          VALUE    DESCRIPTION
#----------   ------------   ------------------------------
 EKB .F         5170.0000:   Kelly bushing
 EGL .F         5157.0000:   Ground level
 EDF .F            0.0000:   Drilling floor
 TD  .F         4121.0000:   Total depth
 DATE.        04-AUG-1984:   Date logged
 CLNT.            A2DTECH:   Client Code
 SL  . 857' FNL & 751' FWL:   Surface Location
 PD  .                 GL:   Permanent Datum
 EPD .F              5157:   Elevation Permanent Datum
 LMF .                 KB:   Log Measured From
 DMF .                 KB:   Drilling Measured From
 DAPD.F                13:   Feet Above Permanent Datum
 DD  .F              4120:   Depth driller
 DL  .F              4121:   Depth logger
 BLI .F              4119:   Bottom log interval
 CS1 .IN            8.625:   Casing size
 CBD1.      8.625" @ 625':   Casing driller 1
 CBL1.F               624:   Casing logger 1
 BS1 .IN            7.875:   Bit size
 BSD1.F              4120:   Depth drilled with bit1
 DFT .            GEL/KCL:   Type fluid in hole
 DFD .                9.1:   Density
 DFV .                 40:   Viscosity
 DFPH.                8.5:   pH
 DFL .                 11:   Fluid loss
 MSS .               TANK:   Source of sample
 RMS .OHMM           .302:   Rm
 MST .F                84:   Rm Meas. temp.
 RMF .OHMM            .22:   Rmf
 MFST.F                84:   Rmf Meas. temp.
 RMC .OHMM            .38:   Rmc
 MCST.F                84:   Rmc Meas. temp.
 MFSS.               CALC:   Source Rmf.
 MCSS.               CALC:   Source Rmc.
 RMB .OHMM            .19:   Rm. at BHT
 BHT .F               132:   BHT.
 TCS .HRS               4:   Time Circ. stopped
 MRT .F               132:   Maximum recorded temp.
 LUN .               6307:   Logging unit number
 LUL .               GLTE:   Logging unit location
 ENGI.           FAHLSING:   Recorded By
 WITN.       ROBERT SCOTT:   Witnessed by
 ORIG.           5" PRINT:   Origin of data
 UWI .     49025109720000:   Unique Well ID
 DICO. A2D TECHNOLOGIES, INC.:   Digitizing Company
~OTHER INFORMATION
~A    DEPT    CORR       TEND       RHOB         GRR       SPR       RFOC       RILM       RILD       TENR       CALR         DT       TENS       SPHI   
# ...
 1326.5000  -999.2500  -999.2500  -999.2500   104.2010   -39.5040     7.0060     6.3930     6.2870   -37.4350     7.8450  -999.2500  -999.2500  -999.2500
 1327.0000  -999.2500  -999.2500  -999.2500   105.4480   -39.3470     7.0060     6.5650     6.4020   -37.4730     7.8560  -999.2500  -999.2500  -999.2500
 1327.5000  -999.2500  -999.2500  -999.2500   106.4190   -39.6920     7.2120     6.7370     6.5170   -37.5110     7.8670  -999.2500  -999.2500  -999.2500
 1328.0000  -999.2500  -999.2500  -999.2500   104.7920   -40.1540     7.4120     6.9100     6.6310   -37.5490     7.8840  -999.2500  -999.2500  -999.2500
 1328.5000  -999.2500  -999.2500  -999.2500   102.4360   -40.6200     7.6130     7.0060     6.7460   -37.5880     7.9000  -999.2500  -999.2500  -999.2500
 1329.0000  -999.2500  -999.2500  -999.2500   101.4320   -41.0860     7.8130     7.0710     6.8610   -37.6260     7.9150  -999.2500  -999.2500  -999.2500
 1329.5000  -999.2500  -999.2500  -999.2500   102.0860   -41.5530     8.0140     7.0710     6.8780   -37.6640     7.9190  -999.2500  -999.2500  -999.2500
 1330.0000  -999.2500  -999.2500  -999.2500   106.1160   -42.0200     8.0430     7.0710     6.7810   -37.7020     7.9130  -999.2500  -999.2500  -999.2500
 1330.5000  -999.2500  -999.2500  -999.2500   107.4290   -42.4860     7.7360     6.9760     6.6880   -37.7400     7.9080  -999.2500  -999.2500  -999.2500
 1331.0000  -999.2500  -999.2500  -999.2500   109.6230   -42.9480     7.4460     6.8860     6.5950   -37.7790     7.9030  -999.2500  -999.2500  -999.2500
 1331.5000  -999.2500  -999.2500  -999.2500   111.9130   -43.3370     7.1570     6.7960     6.5030   -37.8170     7.9080  -999.2500  -999.2500  -999.2500
 1332.0000  -999.2500  -999.2500  -999.2500   112.2330   -43.3350     7.0060     6.7060     6.4100   -37.8550     7.9130  -999.2500  -999.2500  -999.2500
 1332.5000  -999.2500  -999.2500  -999.2500   108.9120   -43.0380     7.0140     6.6160     6.3170   -37.8930     7.9190  -999.2500  -999.2500  -999.2500
 1333.0000  -999.2500  -999.2500  -999.2500   103.2530   -42.6940     7.0410     6.5260     6.2240   -37.9310     7.9120  -999.2500  -999.2500  -999.2500
 1333.5000  -999.2500  -999.2500  -999.2500    97.8760   -42.3470     7.0710     6.4360     6.1550   -37.9700     7.8860  -999.2500  -999.2500  -999.2500
 1334.0000  -999.2500  -999.2500  -999.2500    96.4710   -41.9980     7.1360     6.3460     6.1420   -38.0080     7.8620  -999.2500  -999.2500  -999.2500
 1334.5000  -999.2500  -999.2500  -999.2500   101.3380   -41.6500     7.0910     6.2560     6.1290   -38.0460     7.8370  -999.2500  -999.2500  -999.2500
 1335.0000  -999.2500  -999.2500  -999.2500   103.5070   -41.3020     6.9440     6.1590     6.1160   -38.0840     7.8230  -999.2500  -999.2500  -999.2500
 1335.5000  -999.2500  -999.2500  -999.2500   105.4930   -40.9540     6.8150     6.1590     6.1030   -38.1220     7.8230  -999.2500  -999.2500  -999.2500
 1336.0000  -999.2500  -999.2500  -999.2500   104.8520   -40.6060     6.8150     6.2010     6.0900   -38.1610     7.8230  -999.2500  -999.2500  -999.2500
 1336.5000  -999.2500  -999.2500  -999.2500   103.8230   -40.2580     6.8150     6.2800     6.0770   -38.1990     7.8230  -999.2500  -999.2500  -999.2500
 1337.0000  -999.2500  -999.2500  -999.2500   102.7790   -39.9500     6.8650     6.3590     6.0640   -38.2370     7.8230  -999.2500  -999.2500  -999.2500
 1337.5000  -999.2500  -999.2500  -999.2500   101.7310   -40.2230     6.9180     6.4380     6.0470   -38.2750     7.8230  -999.2500  -999.2500  -999.2500
 1338.0000  -999.2500  -999.2500  -999.2500   100.6470   -40.5380     7.0060     6.5170     6.1120   -38.3130     7.8310  -999.2500  -999.2500  -999.2500
 1338.5000  -999.2500  -999.2500  -999.2500   100.9340   -40.8540     7.0060     6.5960     6.1980   -38.3520     7.8420  -999.2500  -999.2500  -999.2500
 1339.0000  -999.2500  -999.2500  -999.2500   101.4000   -41.1680     7.0060     6.6740     6.2840   -38.3900     7.8430  -999.2500  -999.2500  -999.2500
 1339.5000  -999.2500  -999.2500  -999.2500   101.8510   -41.4840     7.0960     6.7530     6.3710   -38.4280     7.8430  -999.2500  -999.2500  -999.2500
 1340.0000  -999.2500  -999.2500  -999.2500   101.7220   -41.8010     7.2140     6.8320     6.4570   -38.4660     7.8430  -999.2500  -999.2500  -999.2500
 1340.5000  -999.2500  -999.2500  -999.2500   100.0890   -42.1200     7.3310     6.9110     6.5430   -38.5040     7.8410  -999.2500  -999.2500  -999.2500
 1341.0000  -999.2500  -999.2500  -999.2500    98.5170   -42.2310     7.4480     6.9900     6.6300   -38.5430     7.8320  -999.2500  -999.2500  -999.2500
 1341.5000  -999.2500  -999.2500  -999.2500    96.9490   -42.3340     7.4720     7.0060     6.7530   -38.5810     7.8230  -999.2500  -999.2500  -999.2500
 1342.0000  -999.2500  -999.2500  -999.2500    95.3760   -42.4370     7.4720     7.0060     6.7530   -38.6190     7.8120  -999.2500  -999.2500  -999.2500
 1342.5000  -999.2500  -999.2500  -999.2500    95.5100   -42.5410     7.4720     7.0060     6.8150   -38.6570     7.8020  -999.2500  -999.2500  -999.2500
 1343.0000  -999.2500  -999.2500  -999.2500    98.2160   -42.6440     7.4720     7.0060     6.7760   -38.6950     7.7920  -999.2500  -999.2500  -999.2500
 1343.5000  -999.2500  -999.2500  -999.2500   100.9160   -42.7180     7.5090     7.0060     6.7120   -38.7340     7.7840  -999.2500  -999.2500  -999.2500
 1344.0000  -999.2500  -999.2500  -999.2500   103.0460   -42.6440     7.6730     7.0060     6.6480   -38.7720     7.7890  -999.2500  -999.2500  -999.2500
 1344.5000  -999.2500  -999.2500  -999.2500   102.1560   -42.5720     7.8370     7.0060     6.5840   -38.8100     7.7940  -999.2500  -999.2500  -999.2500
 1345.0000  -999.2500  -999.2500  -999.2500   101.7970   -42.5290     7.8960     6.9520     6.5200   -38.8480     7.8000  -999.2500  -999.2500  -999.2500
 1345.5000  -999.2500  -999.2500  -999.2500   102.2640   -42.5290     7.6980     6.8670     6.4560   -38.8860     7.8030  -999.2500  -999.2500  -999.2500
 1346.0000  -999.2500  -999.2500  -999.2500   103.3990   -42.5310     7.4630     6.7830     6.3920   -38.9250     7.8030  -999.2500  -999.2500  -999.2500
 1346.5000  -999.2500  -999.2500  -999.2500   103.7200   -42.5430     7.2270     6.6980     6.3320   -38.9630     7.8030  -999.2500  -999.2500  -999.2500
 1347.0000  -999.2500  -999.2500  -999.2500   102.3950   -42.1160     7.0060     6.6130     6.2740   -39.0010     7.8030  -999.2500  -999.2500  -999.2500
 1347.5000  -999.2500  -999.2500  -999.2500   101.0520   -41.6410     7.1010     6.5280     6.2160   -39.0390     7.8130  -999.2500  -999.2500  -999.2500
 1348.0000  -999.2500  -999.2500  -999.2500    99.7380   -41.1590     7.2120     6.4490     6.1590   -39.0780     7.8290  -999.2500  -999.2500  -999.2500
 1348.5000  -999.2500  -999.2500  -999.2500    99.5150   -40.6770     7.3360     6.3900     6.1590   -39.1160     7.8450  -999.2500  -999.2500  -999.2500
 1349.0000  -999.2500  -999.2500  -999.2500   101.3770   -40.2000     7.2310     6.3900     6.1030   -39.1540     7.8610  -999.2500  -999.2500  -999.2500
 1349.5000  -999.2500  -999.2500  -999.2500   103.2730   -40.1430     7.0780     6.3900     6.1030   -39.1920     7.8770  -999.2500  -999.2500  -999.2500
 1350.0000  -999.2500  -999.2500  -999.2500   102.3560   -40.1470     6.8780     6.3840     6.0470   -39.2300     7.8920  -999.2500  -999.2500  -999.2500
 1350.5000  -999.2500  -999.2500  -999.2500   101.4890   -40.2920     6.9420     6.4560     6.1030   -39.2690     7.9080  -999.2500  -999.2500  -999.2500
 1351.0000  -999.2500  -999.2500  -999.2500   102.2540   -40.8580     6.8780     6.4510     6.0940   -39.3070     7.9210  -999.2500  -999.2500  -999.2500
 1351.5000  -999.2500  -999.2500  -999.2500   103.3960   -41.4090     6.9160     6.4490     6.0860   -39.3450     7.9160  -999.2500  -999.2500  -999.2500
 1352.0000  -999.2500  -999.2500  -999.2500   102.0100   -41.9570     6.9500     6.4490     6.0780   -39.3830     7.9110  -999.2500  -999.2500  -999.2500
