~VERSION INFORMATION
 VERS.                2.0:   CWLS LOG ASCII STANDARD - VERSION 2.0
 WRAP.                 NO:   ONE LINE PER DEPTH STEP
~WELL INFORMATION
#MNEM.UNIT      DATA TYPE    INFORMATION
#----------   ------------   ------------------------------
 STRT.F          190.0000:   START DEPTH
 STOP.F         3050.0000:   STOP DEPTH
 STEP.F            0.5000:   STEP LENGTH
 NULL.          -999.2500:   NO VALUE
 COMP.    FENIX & SCISSON:   COMPANY
 WELL. FENIX NPR 3 "AX" #86-29:   WELL
 FLD .      NPR - WILDCAT:   FIELD
 LOC .      S29 T39N R78W:   LOCATION
 CNTY.            NATRONA:   COUNTY
 STAT.            WYOMING:   STATE
 CTRY. UNITED STATES OF AMERICA:   COUNTRY
 SRVC.              WELEX:   SERVICE COMPANY
 DATE.        24-JUN-1977:   LOGDATE
 API .     49025103830000:   API NUMBER
~CURVE INFORMATION
#MNEM.UNIT       API CODE    CURVE DESCRIPTION
#----------   ------------   ------------------------------
 DEPT.F                  :   
 SPR .MV     07 010 01 00:   SPONTANEOUS POTENTIAL
 ILD .OHMM   07 120 46 00:   DEEP INDUCTION RESISTIVITY
 ILM .OHMM   07 120 44 00:   INDUCTION LOG MEDIUM RESISTIVITY
 SGRD.OHMM   07 220 05 00:   SHALLOW SHORT GUARD RESISTIVITY
 GRD .GAPI   45 310 01 00:   GAMMA RAY FROM DENSITY LOG
 CALD.IN     45 280 60 00:   CALIPER FROM DENSITY LOG
 RHOB.G/C3   45 350 01 00:   BULK DENSITY
 CORR.G/C3   45 356 01 00:   DENSITY CORRECTION
~PARAMETER INFORMATION
#MNEM.UNIT          VALUE    DESCRIPTION
#----------   ------------   ------------------------------
 EKB .F         5056.0000:   Kelly bushing
 EGL .F         5046.0000:   Ground level
 EDF .F            0.0000:   Drilling floor
 TD  .F         3051.0000:   Total depth
 DATE.        24-JUN-1977:   Date logged
 CLNT.            A2DTECH:   Client Code
 SL  . 1746' FSL & 534' FEL:   Surface Location
 PD  .                 GL:   Permanent Datum
 EPD .F              5046:   Elevation Permanent Datum
 LMF .                 KB:   Log Measured From
 DMF .                 KB:   Drilling Measured From
 DAPD.F                10:   Feet Above Permanent Datum
 DD  .F              3038:   Depth driller
 DL  .F              3051:   Depth logger
 BLI .F              3049:   Bottom log interval
 TLI .F               200:   Top log interval
 CS1 .IN            8.625:   Casing size
 CBD1.      8.625" @ 217':   Casing driller 1
 CBL1.F               213:   Casing logger 1
 BS1 .IN            7.875:   Bit size
 BSD1.F              3038:   Depth drilled with bit1
 DFT .            KCL/MUD:   Type fluid in hole
 DFD .                8.7:   Density
 DFV .                134:   Viscosity
 DFPH.                7.5:   pH
 DFL .                7.2:   Fluid loss
 MSS .           FLOWLINE:   Source of sample
 RMS .OHMM            .62:   Rm
 MST .F                82:   Rm Meas. temp.
 RMF .OHMM            .28:   Rmf
 MFST.F                82:   Rmf Meas. temp.
 RMC .OHMM            .78:   Rmc
 MCST.F                82:   Rmc Meas. temp.
 MFSS.               MEAS:   Source Rmf.
 MCSS.               MEAS:   Source Rmc.
 RMB .OHMM            .45:   Rm. at BHT
 BHT .F               111:   BHT.
 TCS .HRS               2:   Time Circ. stopped
 MRT .F               111:   Maximum recorded temp.
 LUN .               8766:   Logging unit number
 LUL .             CASPER:   Logging unit location
 ENGI.          D. LAWSON:   Recorded By
 WITN.      B. HARRINGTON:   Witnessed by
 ORIG.           5" PRINT:   Origin of data
 UWI .     49025103830000:   Unique Well ID
 DICO. A2D TECHNOLOGIES, INC.:   Digitizing Company
~OTHER INFORMATION
~A   DEPT      SPR        ILD        ILM       SGRD        GRD       CALD         RHOB      CORR  
# ...
  392.5000   -49.6310    10.8230    13.2860    14.6870    72.6520     9.7580     2.4160     0.0170
  393.0000   -49.7610    11.0590    13.2490    14.8340    71.9480     9.7660     2.4170     0.0180
  393.5000   -49.8920    11.2400    13.2120    14.9810    71.3400     9.7740     2.4170     0.0190
  394.0000   -50.0230    11.3310    13.1760    15.0540    71.5690     9.7830     2.4170     0.0200
  394.5000   -50.1540    11.3310    13.1390    14.9030    71.9280     9.7910     2.4170     0.0190
  395.0000   -50.2850    11.3310    13.0520    14.7860    72.2870     9.7990     2.4160     0.0180
  395.5000   -50.4150    11.3310    12.9150    14.6700    72.6560     9.8070     2.4150     0.0170
  396.0000   -50.5460    11.3310    12.7790    14.5540    72.8910     9.8040     2.4150     0.0150
  396.5000   -50.6770    11.3310    12.6420    14.4380    73.1710     9.7960     2.4160     0.0140
  397.0000   -50.8760    11.3310    12.5050    14.3340    73.4490     9.7890     2.4170     0.0140
  397.5000   -51.0840    11.2810    12.3690    14.2420    73.7320     9.7820     2.4170     0.0140
  398.0000   -51.2920    11.1820    12.2320    14.1500    74.0690     9.7750     2.4160     0.0130
  398.5000   -51.5000    11.0830    12.0820    14.0580    74.5950     9.7680     2.4170     0.0130
  399.0000   -51.7090    10.9840    11.8270    13.9660    75.1050     9.7570     2.4200     0.0130
  399.5000   -51.9170    10.8850    11.5450    13.8740    75.6150     9.7450     2.4230     0.0150
  400.0000   -52.1250    10.7860    11.2620    13.7820    76.1410     9.7330     2.4260     0.0170
  400.5000   -52.3330    10.6860    10.9800    13.6340    76.2510     9.7210     2.4300     0.0200
  401.0000   -52.5410    10.5870    10.7250    13.4320    76.2070     9.7110     2.4330     0.0220
  401.5000   -52.7490    10.4880    10.6190    13.2290    76.1590     9.7030     2.4350     0.0250
  402.0000   -52.9570    10.3890    10.5230    13.0270    76.1100     9.6950     2.4350     0.0270
  402.5000   -53.1980    10.2410    10.4260    12.8240    76.3260     9.6870     2.4340     0.0280
  403.0000   -53.4720    10.0440    10.3390    12.6220    76.8160     9.6790     2.4320     0.0280
  403.5000   -53.7460     9.8460    10.0820    12.4190    77.3060     9.6710     2.4260     0.0270
  404.0000   -54.0200     9.6480     9.8470    12.2160    77.7970     9.6710     2.4170     0.0270
  404.5000   -54.2930     9.4500     9.6110    11.9780    78.2880     9.6710     2.4110     0.0270
  405.0000   -54.5670     9.2200     9.3760    11.7350    78.7780     9.6710     2.4040     0.0260
  405.5000   -54.8410     8.7660     8.9900    11.4920    79.2870     9.6710     2.4020     0.0240
  406.0000   -55.1150     8.3130     8.5850    11.2490    79.3580     9.6710     2.4020     0.0290
  406.5000   -55.3890     7.8590     8.1790    11.0240    79.2230     9.6830     2.4060     0.0340
  407.0000   -55.6630     7.4770     7.7740    10.5560    79.0720     9.7010     2.4130     0.0400
  407.5000   -55.9490     7.1300     7.4140    10.1510    79.3160     9.7190     2.4210     0.0450
  408.0000   -55.9230     6.7830     7.1000     8.5220    79.7260     9.7370     2.4300     0.0500
  408.5000   -55.7770     6.5780     6.9060     7.2030    80.1420     9.7630     2.4380     0.0500
  409.0000   -55.6220     6.5380     6.8190     6.1170    80.5580     9.8160     2.4420     0.0470
  409.5000   -55.3010     6.5840     6.7820     5.7510    80.5870     9.8670     2.4470     0.0410
  410.0000   -54.9850     6.6270     7.1690     8.6750    79.9990     9.9170     2.4520     0.0380
  410.5000   -54.6710     6.7380     7.6080    11.1250    79.4150     9.9320     2.4530     0.0370
  411.0000   -54.3460     7.0450     8.1360    11.7540    78.8350     9.8800     2.4530     0.0360
  411.5000   -54.1810     7.3520     8.6640    12.0010    78.2290     9.8110     2.4530     0.0350
  412.0000   -54.0700     7.6580     8.9840    12.0820    78.0430     9.7410     2.4530     0.0340
  412.5000   -53.9620     7.9650     9.2870    12.0820    78.4310     9.7090     2.4530     0.0320
  413.0000   -53.8540     8.3660     9.5890    12.0820    78.8810     9.6850     2.4480     0.0300
  413.5000   -53.7460     8.8170     9.8390    12.0820    79.0480     9.6720     2.4430     0.0270
  414.0000   -53.6380     9.2690    10.0600    12.0820    78.6070     9.6740     2.4380     0.0250
  414.5000   -53.5300     9.5310    10.2820    12.0820    78.1090     9.6760     2.4390     0.0220
  415.0000   -53.4220     9.5750    10.5030    12.3260    77.6040     9.6780     2.4430     0.0200
  415.5000   -53.3140     9.6190    10.8170    12.7080    77.1010     9.6800     2.4470     0.0200
  416.0000   -53.2060     9.6630    11.2510    13.0890    76.5970     9.6810     2.4470     0.0190
  416.5000   -53.0970     9.7440    11.6860    13.4700    76.0950     9.6830     2.4430     0.0180
  417.0000   -52.9890     9.9450    12.1200    13.7110    75.5920     9.6850     2.4390     0.0160
  417.5000   -52.8810    10.1470    12.3470    13.8690    75.0830     9.6870     2.4350     0.0140
  418.0000   -52.7730    10.3490    12.5320    14.0280    74.9320     9.6890     2.4360     0.0120
  418.5000   -52.6690    10.5510    12.7170    14.2460    74.9750     9.6910     2.4400     0.0150
  419.0000   -52.6160    10.6760    12.9020    14.5430    75.0190     9.6940     2.4440     0.0170
  419.5000   -52.5660    10.7560    13.0870    14.8410    75.0650     9.6980     2.4480     0.0200
  420.0000   -52.5160    10.8350    13.1200    15.1390    75.0930     9.7020     2.4520     0.0230
  420.5000   -52.4660    10.9140    13.1200    15.2310    74.8770     9.7060     2.4530     0.0250
  421.0000   -52.4160    10.9930    13.1200    15.3230    74.6580     9.7100     2.4520     0.0280
  421.5000   -52.3660    11.1130    13.4330    15.4150    74.4390     9.7130     2.4510     0.0290
  422.0000   -52.3160    11.2590    13.8160    15.5070    74.2220     9.7170     2.4510     0.0300
  422.5000   -52.2660    11.4050    14.1180    15.5980    73.9990     9.7210     2.4510     0.0310
  423.0000   -52.2150    11.5510    13.9640    15.8650    74.1410     9.7250     2.4510     0.0320
  423.5000   -52.1650    11.7510    13.8370    16.4740    74.5000     9.7290     2.4510     0.0320
  424.0000   -52.1160    11.7370    13.7280    16.9590    74.8620     9.7320     2.4490     0.0310
  424.5000   -52.0860    11.7100    13.6910    16.4640    75.2190     9.7350     2.4460     0.0280
  425.0000   -52.1500    11.6830    13.6540    16.1550    75.5380     9.7390     2.4430     0.0230
  425.5000   -52.2130    11.6550    13.6180    15.8460    75.8390     9.7430     2.4400     0.0190
  426.0000   -52.2760    11.6280    13.4570    15.5370    76.1760     9.7460     2.4370     0.0160
  426.5000   -52.3380    11.6010    13.2650    15.2280    76.6310     9.7500     2.4350     0.0160
  427.0000   -52.4010    11.5740    13.0730    14.9160    77.0890     9.7540     2.4380     0.0150
  427.5000   -52.4630    11.5460    12.8810    15.0000    77.5480     9.7590     2.4410     0.0140
  428.0000   -52.5260    11.4640    12.6890    15.2140    78.0070     9.7630     2.4430     0.0160
  428.5000   -52.5890    11.3670    12.5270    15.4730    78.4630     9.7670     2.4430     0.0180
  429.0000   -52.6510    11.2700    12.4990    15.2260    78.8830     9.7680     2.4440     0.0210
  429.5000   -52.7140    11.1730    12.4700    14.9120    79.0510     9.7620     2.4470     0.0230
  430.0000   -52.7760    11.0760    12.4420    14.7160    79.2300     9.7560     2.4500     0.0240
  430.5000   -52.8390    10.9790    12.3740    14.6040    79.4000     9.7500     2.4540     0.0260
  431.0000   -52.8560    10.8820    12.1270    14.5120    79.5710     9.7390     2.4570     0.0270
  431.5000   -52.8400    10.7850    11.8790    14.1770    79.7410     9.7270     2.4590     0.0280
  432.0000   -52.8240    10.6610    11.6310    13.8350    79.9110     9.7160     2.4600     0.0290
  432.5000   -52.8080    10.4900    11.3840    13.4920    80.0100     9.7090     2.4590     0.0290
