~VERSION INFORMATION
 VERS.                2.0:   CWLS LOG ASCII STANDARD - VERSION 2.0
 WRAP.                 NO:   ONE LINE PER DEPTH STEP
~WELL INFORMATION
#MNEM.UNIT      DATA TYPE    INFORMATION
#----------   ------------   ------------------------------
 STRT.F           81.0000:   START DEPTH
 STOP.F          910.0000:   STOP DEPTH
 STEP.F            0.5000:   STEP LENGTH
 NULL.          -999.2500:   NO VALUE
 COMP.         U. S. NAVY:   COMPANY
 WELL. US NAVY NPR 3 "S" #37-35:   WELL
 FLD .             TEAPOT:   FIELD
 LOC .      S35 T39N R78W:   LOCATION
 CNTY.            NATRONA:   COUNTY
 STAT.            WYOMING:   STATE
 CTRY. UNITED STATES OF AMERICA:   COUNTRY
 SRVC.       SCHLUMBERGER:   SERVICE COMPANY
 DATE.        22-JUL-1963:   LOGDATE
 API .     49025065040000:   API NUMBER
~CURVE INFORMATION
#MNEM.UNIT       API CODE    CURVE DESCRIPTION
#----------   ------------   ------------------------------
 DEPT.F                  :   
 SPR .MV     05 010 01 00:   SPONTANEOUS POTENTIAL FROM RES.
 ASN .OHMM   05 041 16 00:   AMPLIFIED SHORT NORMAL 16"
 ILD .OHMM   05 120 46 00:   INDUCTION LOG DEEP
~PARAMETER INFORMATION
#MNEM.UNIT          VALUE    DESCRIPTION
#----------   ------------   ------------------------------
 EKB .F         5113.0000:   Kelly bushing
 EGL .F         5108.0000:   Ground level
 TD  .F          900.0000:   Total depth
 DATE.        22-JUL-1963:   Date logged
 CLNT.            A2DTECH:   Client Code
 PD  .                 GL:   Permanent Datum
 EPD .F              5108:   Elevation Permanent Datum
 LMF .                 KB:   Log Measured From
 DMF .                 KB:   Drilling Measured From
 DAPD.F                 5:   Feet Above Permanent Datum
 DD  .F               900:   Depth driller
 DL  .F               900:   Depth logger
 BLI .F               899:   Bottom log interval
 TLI .F                81:   Top log interval
 BS1 .IN            7.875:   Bit size
 BSD1.F               900:   Depth drilled with bit1
 DFT .                GEL:   Type fluid in hole
 DFD .                9.6:   Density
 DFV .                 67:   Viscosity
 DFPH.                  9:   pH
 DFL .                4.8:   Fluid loss
 MSS .           FLOWLINE:   Source of sample
 RMS .OHMM            3.4:   Rm
 MST .F                77:   Rm Meas. temp.
 RMF .OHMM            3.3:   Rmf
 MFST.F                77:   Rmf Meas. temp.
 RMC .OHMM            3.8:   Rmc
 MCST.F                77:   Rmc Meas. temp.
 MFSS.                 FP:   Source Rmf.
 TCS .HRS               1:   Time Circ. stopped
 LUN .               2523:   Logging unit number
 LUL .               CSPR:   Logging unit location
 ENGI.            GIFFORD:   Recorded By
 WITN.          JORGENSON:   Witnessed by
 ORIG.           5" PRINT:   Origin of data
 UWI .     49025065040000:   Unique Well ID
 DICO. A2D TECHNOLOGIES, INC.:   Digitizing Company
~OTHER INFORMATION
~A   DEPT      SPR        ASN        ILD   
# ...
  718.0000   -34.0620     6.0650     5.5970
  718.5000   -34.2200     6.0570     5.8590
  719.0000   -34.3760     6.5220     6.1140
  719.5000   -34.5330     7.1110     6.3680
  720.0000   -34.6890     7.4190     6.6220
  720.5000   -34.8450     7.4760     6.8770
  721.0000   -35.0010     7.6390     7.1310
  721.5000   -35.1580     7.9170     7.3850
  722.0000   -35.3140     8.2030     7.6380
  722.5000   -35.4700     8.2890     7.8220
  723.0000   -35.6270     8.2960     7.8180
  723.5000   -35.7830     8.3450     7.8180
  724.0000   -35.9390     8.4500     7.8180
  724.5000   -36.0960     8.4400     7.8170
  725.0000   -36.2530     8.3770     7.8170
  725.5000   -36.3840     8.3160     7.6990
  726.0000   -36.0300     8.2540     7.4630
  726.5000   -35.7280     8.1520     7.2280
  727.0000   -35.4250     8.0370     6.9920
  727.5000   -35.1240     7.6260     6.6100
  728.0000   -34.8220     7.1010     6.1670
  728.5000   -34.5200     6.5740     5.7230
  729.0000   -34.2180     6.0450     5.2790
  729.5000   -33.9160     5.4910     4.8350
  730.0000   -33.6140     5.0520     4.3920
  730.5000   -33.3120     4.6570     3.9530
  731.0000   -33.0090     4.4030     3.6310
  731.5000   -32.7030     4.1810     3.8080
  732.0000   -32.6470     3.9630     4.0360
  732.5000   -32.8210     3.8650     4.2630
  733.0000   -33.0080     4.1640     4.4910
  733.5000   -33.1960     4.4930     4.7200
  734.0000   -33.3830     4.8280     4.9490
  734.5000   -33.5700     5.2680     5.1780
  735.0000   -33.7560     6.1000     5.4070
  735.5000   -33.9430     6.3220     5.6360
  736.0000   -33.9870     6.4830     5.8680
  736.5000   -33.7410     6.5220     6.1080
  737.0000   -33.4940     6.5440     6.1240
  737.5000   -33.2460     6.5940     5.9830
  738.0000   -32.9910     6.6420     5.8240
  738.5000   -32.6780     6.5100     5.6660
  739.0000   -32.6390     6.2030     5.5080
  739.5000   -32.6720     5.9080     5.3490
  740.0000   -32.7910     5.6010     5.1910
  740.5000   -32.9040     5.4070     5.0320
  741.0000   -33.0170     5.2070     4.8740
  741.5000   -33.1300     5.0210     4.7340
  742.0000   -33.2430     5.2080     4.7340
  742.5000   -33.3530     5.4280     4.7960
  743.0000   -33.3770     5.5030     5.0410
  743.5000   -33.1750     5.5870     5.2800
  744.0000   -32.9820     5.9870     5.5170
  744.5000   -32.7890     6.2780     5.7580
  745.0000   -32.5960     6.4360     6.0520
  745.5000   -32.4030     6.5950     6.3740
  746.0000   -32.2100     6.7880     6.6940
  746.5000   -32.0170     7.1060     6.9270
  747.0000   -31.8470     7.2390     6.9220
  747.5000   -31.8660     7.3160     6.9210
  748.0000   -31.8950     7.3200     6.9220
  748.5000   -31.9240     7.3160     6.9230
  749.0000   -31.9530     7.2320     6.9200
  749.5000   -31.9820     7.1510     6.7370
  750.0000   -32.0110     7.0700     6.5310
  750.5000   -32.0420     6.9890     6.3260
  751.0000   -31.9570     6.9070     6.1200
  751.5000   -31.8360     6.7740     5.9140
  752.0000   -31.7130     6.6170     5.7090
  752.5000   -31.6480     6.4430     5.5030
  753.0000   -31.6470     6.2070     5.2970
  753.5000   -31.6800     5.9750     5.0920
  754.0000   -31.7290     5.6880     4.8880
  754.5000   -31.7780     5.3290     4.7300
  755.0000   -31.8280     5.1280     4.7840
  755.5000   -31.8440     5.3680     5.0220
  756.0000   -31.8220     5.4190     5.2560
  756.5000   -31.7690     5.5440     5.4900
  757.0000   -31.7160     6.0100     5.7240
  757.5000   -31.6620     6.4580     5.9580
  758.0000   -31.6090     6.6800     6.1920
  758.5000   -31.5560     6.8180     6.4260
  759.0000   -31.5020     6.9370     6.6600
  759.5000   -31.4470     7.0560     6.8930
  760.0000   -31.5750     7.1140     7.1240
  760.5000   -31.7340     7.1570     7.3100
  761.0000   -31.8940     7.2010     7.2070
  761.5000   -32.0540     7.2620     7.1090
  762.0000   -32.2130     7.3240     7.0120
  762.5000   -32.3730     7.3860     6.9150
  763.0000   -32.5320     7.4420     6.8180
  763.5000   -32.6370     7.4230     6.7200
  764.0000   -32.4750     7.3990     6.6230
  764.5000   -32.3010     7.3750     6.5260
  765.0000   -32.1270     7.3360     6.4290
  765.5000   -31.9540     7.2500     6.3310
  766.0000   -31.7800     7.1670     6.2300
  766.5000   -31.6060     7.0840     6.2250
  767.0000   -31.4490     7.0440     6.2250
  767.5000   -31.5470     6.9730     6.2250
  768.0000   -31.6880     6.8970     6.2240
  768.5000   -31.8280     6.8840     6.1910
  769.0000   -31.9690     6.8710     6.0540
  769.5000   -32.1100     6.8140     5.9210
  770.0000   -32.2500     6.7290     5.7880
  770.5000   -32.3910     6.5420     5.6550
  771.0000   -32.5280     6.2320     5.5210
  771.5000   -32.5860     5.9240     5.3880
  772.0000   -32.3320     5.7490     5.2550
  772.5000   -32.0860     5.7550     5.1220
  773.0000   -31.8410     5.5810     4.9880
  773.5000   -31.6380     5.4030     4.8510
  774.0000   -31.7580     5.7420     4.9330
  774.5000   -31.8910     6.0940     5.0530
  775.0000   -32.0250     6.0810     5.1800
  775.5000   -32.1590     5.9340     5.0660
  776.0000   -32.2370     5.6870     4.9380
  776.5000   -32.0590     5.3350     4.8050
  777.0000   -31.8790     5.0500     4.6700
  777.5000   -31.7070     5.1840     4.5590
  778.0000   -31.4820     5.3200     4.6840
  778.5000   -31.5870     5.3900     4.8510
  779.0000   -31.6830     5.3320     5.0130
  779.5000   -31.7810     5.3880     5.1730
  780.0000   -31.8790     5.7270     5.3340
  780.5000   -31.9770     6.0530     5.4950
  781.0000   -32.0760     6.2420     5.6550
  781.5000   -32.1730     6.3150     5.8140
  782.0000   -32.2280     6.3880     5.9090
  782.5000   -32.1700     6.4270     5.8380
  783.0000   -32.1150     6.4220     5.7710
  783.5000   -32.0590     6.3290     5.7040
  784.0000   -32.0420     6.1810     5.6380
  784.5000   -32.1490     6.0350     5.5710
  785.0000   -32.3010     5.9490     5.5030
  785.5000   -32.4350     6.0280     5.4390
  786.0000   -32.0700     6.0240     5.5760
  786.5000   -31.6490     6.1670     5.7440
  787.0000   -31.2600     6.3760     5.9120
  787.5000   -31.2750     6.7340     6.0800
  788.0000   -31.3870     7.0830     6.2480
  788.5000   -31.4970     7.2160     6.4170
  789.0000   -31.6060     7.3050     6.5850
  789.5000   -31.7160     7.3950     6.7530
  790.0000   -31.8250     7.4840     6.9220
  790.5000   -31.9350     7.5000     7.0910
  791.0000   -32.0410     7.5010     7.1060
  791.5000   -32.0330     7.5000     7.0840
  792.0000   -31.7320     7.5800     7.0620
  792.5000   -31.4200     7.7080     7.0390
  793.0000   -31.1120     7.8340     7.0160
  793.5000   -30.8450     7.8550     6.9930
  794.0000   -30.8530     7.7950     6.9700
  794.5000   -30.8510     7.6890     6.9480
  795.0000   -30.8320     7.5830     6.9250
  795.5000   -30.8140     7.4770     6.9020
  796.0000   -30.7950     7.3710     6.8790
  796.5000   -30.7770     7.3890     6.8550
  797.0000   -30.7590     7.5410     6.8320
  797.5000   -30.7410     7.6890     6.7020
  798.0000   -30.7220     7.8170     6.4790
  798.5000   -30.7040     7.8170     6.2560
  799.0000   -30.6860     7.7610     6.0330
  799.5000   -30.6700     7.4050     5.8110
  800.0000   -30.7120     6.8950     5.5890
  800.5000   -30.9280     6.3690     5.4050
  801.0000   -31.1380     6.2360     5.3330
  801.5000   -31.3480     6.4450     5.3260
  802.0000   -31.5570     6.4150     5.5500
  802.5000   -31.7670     6.7120     6.0330
  803.0000   -31.9770     7.3570     6.5090
  803.5000   -32.1870     7.9990     6.9800
  804.0000   -32.3980     8.4020     7.4520
  804.5000   -32.6020     8.5090     7.6840
  805.0000   -32.9500     8.6110     7.6100
  805.5000   -33.4280     8.6060     7.5390
  806.0000   -33.9060     8.5970     7.4660
  806.5000   -34.3850     8.5890     7.3920
  807.0000   -34.8650     8.5800     7.3380
  807.5000   -35.3410     8.6270     7.7080
  808.0000   -35.7980     8.7690     8.0910
  808.5000   -36.4400     9.2500     8.7790
