~VERSION INFORMATION
 VERS.                2.0:   CWLS LOG ASCII STANDARD - VERSION 2.0
 WRAP.                 NO:   ONE LINE PER DEPTH STEP
~WELL INFORMATION
#MNEM.UNIT      DATA TYPE    INFORMATION
#----------   ------------   ------------------------------
 STRT.F          240.0000:   START DEPTH
 STOP.F         2876.0000:   STOP DEPTH
 STEP.F            0.5000:   STEP LENGTH
 NULL.          -999.2500:   NO VALUE
 COMP.    FENIX & SCISSON:   COMPANY
 WELL. FENIX & SCISSON "A" #23-21:   WELL
 FLD .               NPR3:   FIELD
 LOC .      S21 T39N R78W:   LOCATION
 CNTY.            NATRONA:   COUNTY
 STAT.            WYOMING:   STATE
 CTRY. UNITED STATES OF AMERICA:   COUNTRY
 SRVC.              WELEX:   SERVICE COMPANY
 DATE.        05-MAR-1977:   LOGDATE
 API .     49025103030000:   API NUMBER
~CURVE INFORMATION
#MNEM.UNIT       API CODE    CURVE DESCRIPTION
#----------   ------------   ------------------------------
 DEPT.F                  :   
 GRD .GAPI   45 310 01 00:   GAMMA RAY FROM DENSITY LOG
 CALD.IN     45 280 60 00:   CALIPER FROM DENSITY LOG
 CORR.G/C3   45 356 01 00:   DENSITY CORRECTION
 RHOB.G/C3   45 350 01 00:   BULK DENSITY
 SPR .MV     07 010 01 00:   SPONTANEOUS POTENTIAL
 ILD .OHMM   07 120 46 00:   DEEP INDUCTION RESISTIVITY
 ILM .OHMM   07 120 44 00:   INDUCTION LOG MEDIUM RESISTIVITY
 SGRD.OHMM   07 220 05 00:   SHALLOW SHORT GUARD RESISTIVITY
~PARAMETER INFORMATION
#MNEM.UNIT          VALUE    DESCRIPTION
#----------   ------------   ------------------------------
 EKB .F         4986.0000:   Kelly bushing
 EGL .F         4976.0000:   Ground level
 TD  .F         2885.0000:   Total depth
 CLNT.            A2DTECH:   Client Code
 SL  . 990' FWL & 1650' FNL:   Surface Location
 DATE.        05-MAR-1977:   Date Logged [DD-MMM-YYYY]
 DD  .F              2885:   Depth driller
 DL  .F              2882:   Depth logger
 BLI .F              2876:   Bottom log interval
 TLI .F               238:   Top log interval
 CS1 .IN            8.625:   Casing size
 CBD1.      8.625" @ 251':   Casing driller 1
 CBL1.IN              251:   Casing logger 1
 BS1 .IN            7.875:   Bit size
 BSD1.F              2885:   Depth drilled with bit1
 DFT .                KCL:   Type fluid in hole
 DFD .                9.5:   Density
 TCS .HRS               3:   Time Circ. stopped
 MRT .F                78:   Maximum recorded temp.
 ENGI.          D. LAWSON:   Recorded By
 WITN.            K. JAPP:   Witnessed by
 ORIG.         2.5" PRINT:   Origin of data
 UWI .     49025103030000:   Unique Well ID
 DICO. A2D TECHNOLOGIES,INC.:   Digitizing Company
 PD  .                 GL:   Permanent Datum
 EPD .               4976:   Elevation Permanent Datum
 LMF .                 KB:   Log Measured From
 DMF .                 KB:   Drilling Measured From
 DAPD.                 10:   Feet Above Permanent Datum
 DFL .                8.8:   Fluid loss
 MSS .           FLOWLINE:   Source of sample
 RMS .OHMM            .40:   Rm
 MST .F                58:   Rm Meas. temp.
 RMF .OHMM            .37:   Rmf
 MFST.F                58:   Rmf Meas. temp.
 MFSS.OHMM            .67:   Source Rmf.
 MCST.F                58:   Rmc Meas. temp.
 MCSS.               MEAS:   Source Rmc.
 RMB .OHMM            .30:   Rm. at BHT
 BHT .F                78:   BHT.
~OTHER INFORMATION
~A   DEPT       GRD        CALD      CORR        RHOB      SPR        ILD        ILM       SGRD   
# ...
  766.5000   124.8772     8.3430     0.0199     2.5030   -43.4911     6.7605     8.2000    11.1887
  767.0000   127.8126     8.3436     0.0170     2.5027   -43.4911     6.7601     8.1994    11.0350
  767.5000   130.1616     8.3442     0.0141     2.4832   -43.4911     6.6670     8.1989    10.7340
  768.0000   131.3376     8.3448     0.0111     2.4738   -43.4911     6.6666     8.1983    11.1887
  768.5000   130.7540     8.3454     0.0082     2.4686   -43.4911     6.5748     8.1977    11.1887
  769.0000   130.1704     8.3460     0.0053     2.4627   -43.4911     6.5744     8.1972    11.0350
  769.5000   129.2936     8.3465     0.0023     2.4613   -43.4911     6.4839     8.1966    10.2977
  770.0000   129.0033     8.3471     0.0054     2.4636   -43.4911     6.4835     8.1960    10.0168
  770.5000   129.0062     8.3477     0.0085     2.4695   -43.4911     6.4830     8.0833    10.1563
  771.0000   129.3024     8.3483     0.0115     2.4770   -43.7870     6.3938     8.1949    10.2977
  771.5000   130.4784     8.3489     0.0116     2.4822   -43.7870     6.3058     8.1943    10.4411
  772.0000   133.7071     8.3495     0.0146     2.4874   -43.7870     6.2190     8.1938    10.5865
  772.5000   136.9358     8.3501     0.0177     2.4964   -43.7870     6.1334     8.1932    10.7340
  773.0000   136.3523     8.3801     0.0177     2.5052   -43.7870     6.1330     8.1926    10.8834
  773.5000   134.0092     8.3807     0.0208     2.4812   -43.7870     6.1326     8.1921    10.8834
  774.0000   131.6661     8.3812     0.0208     2.4627   -43.7870     6.1322     8.1915    10.7948
  774.5000   130.7888     8.3816     0.0179     2.4613   -43.7870     6.1318     8.1909    10.6472
  775.0000   132.2584     8.3817     0.0150     2.4746   -43.7870     6.0474     8.0782    10.5865
  775.5000   133.7276     8.3818     0.0120     2.4880   -43.7870     6.0470     7.7504    10.5024
  776.0000   135.1969     8.3820     0.0121     2.4836   -43.7870     6.0465     7.6437    10.3589
  776.5000   136.3728     8.3821     0.0092     2.4739   -43.7870     6.0461     7.6432    10.2173
  777.0000   135.7892     8.3822     0.0122     2.4768   -43.7870     6.0457     7.6427    10.0777
  777.5000   133.7394     8.3824     0.0093     2.4894   -43.7870     6.0453     7.6421    10.0168
  778.0000   130.8098     8.3825     0.0093     2.4999   -43.4911     6.1288     7.7477     9.8792
  778.5000   128.7599     8.3826     0.0094     2.4986   -43.4911     6.1284     7.7472     9.8792
  779.0000   129.0561     8.3828     0.0095     2.4955   -43.4911     6.1279     7.7466     9.8792
  779.5000   130.2321     8.3829     0.0095     2.5050   -43.4911     6.2126     7.8536     9.8792
  780.0000   131.1148     8.3831     0.0126     2.5155   -43.1953     6.2984     8.0726    10.0168
  780.5000   128.4784     8.3832     0.0126     2.5259   -42.8994     6.4741     8.1842    10.2310
  781.0000   125.8420     8.3833     0.0097     2.5307   -42.8994     6.6546     8.6476    10.5172
  781.5000   123.4989     8.3835     0.0098     2.5102   -42.8994     6.8402     9.0122    10.8900
  782.0000   120.2761     8.3836     0.0098     2.4964   -42.6035     7.1286     9.3921    11.4321
  782.5000   118.5195     8.3837     0.0069     2.4926   -42.6035     7.3274     9.6541    12.1606
  783.0000   116.4696     8.3839     0.0040     2.4911   -42.6035     7.5317     9.7874    12.7641
  783.5000   114.4198     8.3840     0.0010     2.4802   -42.3077     7.6358     9.9227    13.4853
  784.0000   113.2497     8.3842    -0.0019     2.4691   -42.3077     7.9577    10.0597    13.8625
  784.5000   115.0121     8.3843    -0.0048     2.4513   -42.3077     8.0677    10.0590    14.2503
  785.0000   116.4814     8.3844    -0.0078     2.4484   -42.3077     8.4077    10.1980    14.2559
  785.5000   117.3641     8.3846    -0.0077     2.4579   -42.3077     8.5239    10.1972    14.0610
  786.0000   116.7805     8.3847    -0.0047     2.4663   -42.0118     8.5233    10.1965    13.8688
  786.5000   114.7306     8.3848    -0.0016     2.4737   -41.7160     8.6411    10.1958    13.3062
  787.0000   115.3201     8.3850     0.0014     2.4748   -41.5404     8.6404    10.1951    13.2084
  787.5000   117.9623     8.3851     0.0015     2.4676   -41.4201     8.5215    10.1944    13.2084
  788.0000   120.6045     8.3852     0.0016     2.4586   -41.4201     8.2892    10.1937    13.2084
  788.5000   121.4872     8.3854     0.0046     2.4519   -41.4201     8.1751    10.1930    13.2084
  789.0000   120.9037     8.3855     0.0077     2.4507   -41.4201     8.0626    10.3338    13.2084
  789.5000   119.4403     8.3857     0.0077     2.4551   -41.4201     8.0620    10.6220    13.2084
  790.0000   116.8040     8.3858     0.0048     2.4596   -41.4201     8.0615    10.7688    13.3923
  790.5000   117.1002     8.3859     0.0049     2.4626   -41.4201     8.0609    10.9176    13.3135
  791.0000   117.3963     8.3861     0.0049     2.4650   -41.4201     8.0604    10.9167    13.2084
  791.5000   116.8128     8.3862     0.0050     2.4671   -41.4201     8.0598    10.7665    13.2084
  792.0000   116.5220     8.3863     0.0050     2.4715   -41.4201     8.0593    10.6183    13.2084
  792.5000   116.2321     8.3865     0.0021     2.4754   -41.4201     8.0587    10.3288    13.3923
  793.0000   115.6485     8.3866     0.0022     2.4698   -41.4201     8.0581    10.1867    13.3181
  793.5000   115.9447     8.3868     0.0052     2.4618   -41.4201     8.1695    10.0465    13.2084
  794.0000   117.1207     8.3869     0.0053     2.4549   -41.5542     8.1689     9.9082    13.0270
  794.5000   119.7629     8.3870     0.0053     2.4516   -41.7160     8.1683     9.9075    13.0270
  795.0000   120.6456     8.3872     0.0054     2.4531   -41.7160     8.0559    10.0445    13.0270
  795.5000   120.0620     8.3873     0.0055     2.4556   -41.7160     8.0554    10.0437    12.8481
  796.0000   119.7712     8.3874     0.0025     2.4601   -41.7160     8.0548    10.0430    12.6066
  796.5000   120.3612     8.3876     0.0026     2.4661   -41.7160     8.0543    10.0423    12.4976
  797.0000   120.3641     8.3877     0.0026     2.4725   -41.7160     8.0537    10.0416    12.4976
  797.5000   120.0738     8.3878     0.0027     2.4774   -41.7160     8.0531    10.0409    12.4976
  798.0000   119.4902     8.3880     0.0058     2.4748   -41.7160     8.0526     9.9028    12.4976
  798.5000   119.4931     8.3881     0.0058     2.4659   -41.7160     8.0520     9.7665    12.4976
  799.0000   121.8421     8.3883     0.0059     2.4585   -41.7160     8.0515     9.6321    12.4976
  799.5000   124.4844     8.3884     0.0089     2.4575   -41.7160     8.0509     9.6314    12.4395
  800.0000   126.2468     8.3885     0.0090     2.4630   -41.7160     7.9401     9.4989    12.2695
  800.5000   126.8363     8.3887     0.0091     2.4709   -41.7160     7.9396     9.3681    12.1566
  801.0000   126.8392     8.3888     0.0091     2.4779   -41.7160     7.9390     9.1127    12.1566
  801.5000   126.2556     8.3889     0.0092     2.4799   -41.8057     7.8298     9.1121    11.9897
  802.0000   125.6721     8.3891     0.0062     2.4720   -42.0118     7.8008     8.9867    12.1566
  802.5000   125.6750     8.3892     0.0033     2.4613   -42.0118     7.7657     8.9861    12.1566
  803.0000   125.9712     8.3893     0.0004     2.4488   -42.0118     7.7243     8.8624    12.1617
  803.5000   126.2674     8.3895     0.0004     2.4637   -42.0898     7.7243     8.8618    12.1625
  804.0000   126.2703     8.3896     0.0035     2.4801   -42.3077     7.6185     8.7398    12.1634
  804.5000   125.6867     8.3898     0.0095     2.4831   -42.3077     7.6185     8.7503    12.5054
  805.0000   125.3964     8.3899     0.0126     2.4772   -42.3077     7.5142     8.7509    12.8570
  805.5000   124.9369     8.3900     0.0126     2.4713   -42.3077     7.3098     8.8730    12.6813
  806.0000   124.4066     8.3902     0.0127     2.4698   -42.3077     7.2097     8.9968    12.3362
  806.5000   123.8215     8.3903     0.0098     2.4698   -42.3077     7.1110     9.3774    12.0005
