~VERSION INFORMATION
 VERS.                2.0:   CWLS LOG ASCII STANDARD - VERSION 2.0
 WRAP.                 NO:   ONE LINE PER DEPTH STEP
~WELL INFORMATION
#MNEM.UNIT      DATA TYPE    INFORMATION
#----------   ------------   ------------------------------
 STRT.F          148.0000:   START DEPTH
 STOP.F         3394.0000:   STOP DEPTH
 STEP.F            0.5000:   STEP LENGTH
 NULL.          -999.2500:   NO VALUE
 COMP.    FENIX & SCISSON:   COMPANY
 WELL.  FENIX "AX" #28-10:   WELL
 FLD .        TEAPOT DOME:   FIELD
 LOC .      S10 T38N R78W:   LOCATION
 CNTY.            NATRONA:   COUNTY
 STAT.            WYOMING:   STATE
 CTRY. UNITED STATES OF AMERICA:   COUNTRY
 SRVC.       SCHLUMBERGER:   SERVICE COMPANY
 DATE.        03-MAR-1981:   LOGDATE
 API .     49025108680000:   API NUMBER
~CURVE INFORMATION
#MNEM.UNIT       API CODE    CURVE DESCRIPTION
#----------   ------------   ------------------------------
 DEPT.F                  :   
 SFL .OHMM   07 220 01 00:   SHALLOW FOCUSED LOG RESISTIVITY
 ILD .OHMM   07 120 46 00:   INDUCTION LOG DEEP RESISTIVITY
 ILM .OHMM   07 120 44 00:   INDUCTION LOG MEDIUM RESISTIVITY
 TENR.LBS    07 635 01 00:   TENSION
 SPR .MV     07 010 01 00:   SPONTANEOUS POTENTIAL
 CALD.IN     45 280 60 00:   CALIPER FROM DENSITY LOG
 GRD .GAPI   45 310 01 00:   GAMMA RAY FROM DENSITY LOG
 TEND.LBS    45 635 01 00:   TENSION FROM DENSITY LOG
 CORR.G/C3   45 356 01 00:   DENSITY CORRECTION
 RHOB.G/C3   45 350 01 00:   BULK DENSITY
~PARAMETER INFORMATION
#MNEM.UNIT          VALUE    DESCRIPTION
#----------   ------------   ------------------------------
 EKB .F         5241.0000:   Kelly bushing
 EGL .F         5231.0000:   Ground level
 EDF .F            0.0000:   Drilling floor
 TD  .F         3381.0000:   Total depth
 DATE.        03-MAR-1981:   Date logged
 CLNT.            A2DTECH:   Client Code
 SL  . 640' FSL & 720' FWL:   Surface Location
 PD  .                 GL:   Permanent Datum
 EPD .F              5231:   Elevation Permanent Datum
 LMF .                 KB:   Log Measured From
 DMF .                 KB:   Drilling Measured From
 DAPD.F                10:   Feet Above Permanent Datum
 DD  .F              3361:   Depth driller
 DL  .F              3381:   Depth logger
 BLI .F              3375:   Bottom log interval
 TLI .F               233:   Top log interval
 CS1 .IN            8.625:   Casing size
 CBD1.      8.625" @ 224':   Casing driller 1
 CBL1.F               233:   Casing logger 1
 BS1 .IN            7.875:   Bit size
 BSD1.F              3361:   Depth drilled with bit1
 DFT .           CHEM/GEL:   Type fluid in hole
 DFD .                  9:   Density
 DFV .                 40:   Viscosity
 DFPH.                8.5:   pH
 DFL .                 11:   Fluid loss
 MSS .           MUD/TANK:   Source of sample
 RMS .OHMM           2.52:   Rm
 MST .F                66:   Rm Meas. temp.
 RMF .OHMM            1.8:   Rmf
 MFST.F                67:   Rmf Meas. temp.
 MFSS.               MEAS:   Source Rmf.
 RMB .OHMM           1.47:   Rm. at BHT
 BHT .F               118:   BHT.
 TCS .HRS            0500:   Time Circ. stopped
 TLAB.HRS            0830:   Time logger at bottom
 MRT .F               118:   Maximum recorded temp.
 LUN .               8035:   Logging unit number
 LUL .               CSPR:   Logging unit location
 ENGI.            BEATTLE:   Recorded By
 WITN.              FIVAS:   Witnessed by
 ORIG.           5" PRINT:   Origin of data
 UWI .     49025108680000:   Unique Well ID
 DICO. A2D TECHNOLOGIES, INC.:   Digitizing Company
~OTHER INFORMATION
~A   DEPT      SFL        ILD        ILM       TENR        SPR         CALD       GRD      TEND       CORR       RHOB   
# ...
 2928.5000    27.2380    23.7630    23.9710   627.4810   -23.6830     8.6390    78.6940   699.7600     0.0500     2.4760
 2929.0000    25.6450    27.2380    22.7890   627.2690   -23.6880     8.6760    82.2250   699.0610     0.0660     2.5110
 2929.5000    23.9570    26.7730    21.6080   627.0560   -23.6340     8.7080    86.0990   698.3620     0.0700     2.5250
 2930.0000    22.2690    25.3670    20.5700   626.8430   -23.4760     8.7930    90.3600   697.6640     0.0670     2.4730
 2930.5000    20.5810    23.9600    25.2040   626.6300   -23.3290     8.8970    91.4810   696.9650     0.0460     2.4330
 2931.0000    18.8930    22.5540    27.2380   626.4170   -23.1620     9.2530    89.5410   696.2670     0.0430     2.4030
 2931.5000    17.7090    21.1470    26.7330   626.2050   -23.0200     9.6420    85.3420   695.5680     0.0390     2.3650
 2932.0000    17.7090    19.7410    25.5060   625.9920   -22.9110     9.5250    81.3820   694.8700     0.0370     2.3290
 2932.5000    18.2930    18.5330    24.1350   625.7790   -23.3520     9.2630    78.0400   694.1710     0.0330     2.2950
 2933.0000    19.1450    17.8280    22.7640   625.5660   -23.7730     9.0070    78.6910   693.4720     0.0260     2.2530
 2933.5000    19.9970    17.1220    21.7580   625.3530   -24.0910     8.7940    80.7440   692.7710     0.0190     2.2450
 2934.0000    20.8490    16.7410    23.1930   625.1410   -24.0830     8.6950    82.7430   693.5280     0.0090     2.2400
 2934.5000    21.7010    17.8410    24.8560   624.9280   -24.0920     8.6090    84.3720   694.2870     0.0090     2.2950
 2935.0000    22.5530    19.5230    26.5190   624.7150   -24.0890     8.5490    83.8960   695.0470     0.0210     2.3450
 2935.5000    23.8930    21.2060    28.1820   624.5020   -24.0850     8.5450    83.9450   695.8060     0.0330     2.3780
 2936.0000    23.7750    22.2690    30.4760   624.2900   -24.1030     8.5380    84.7150   696.5660     0.0350     2.3880
 2936.5000    23.4500    22.5020    29.0360   624.0770   -23.9490     8.5340    87.7120   697.3250     0.0300     2.4120
 2937.0000    24.0470    22.7350    26.7160   623.8640   -23.6800     8.5280    89.7230   698.0850     0.0260     2.4250
 2937.5000    25.4990    23.0150    24.3970   623.6510   -23.4290     8.5230    88.5120   698.8440     0.0280     2.4460
 2938.0000    26.9510    23.4620    22.0770   623.4380   -23.1840     8.5180    85.7550   699.6040     0.0330     2.4730
 2938.5000    28.4030    24.5920    20.1880   623.2260   -22.9320     8.5130    82.2640   700.3630     0.0410     2.4630
 2939.0000    29.8550    25.7510    21.3070   623.0130   -22.8720     8.5080    78.7440   701.1230     0.0370     2.4430
 2939.5000    30.4760    25.3220    22.7390   622.8000   -22.8740     8.5030    76.8410   701.8820     0.0260     2.4200
 2940.0000    29.1290    24.8830    24.1700   622.5870   -22.8760     8.4980    80.3600   702.6420     0.0150     2.4200
 2940.5000    27.3710    24.4440    24.8040   622.3740   -22.8730     8.4930    84.2790   703.4010     0.0080     2.4280
 2941.0000    25.6120    24.0050    24.8040   622.1620   -22.8770     8.4870    85.1710   704.1610     0.0100     2.4360
 2941.5000    24.8040    23.5660    24.8040   621.9490   -22.8760     8.4820    86.4370   704.9210     0.0130     2.4440
 2942.0000    24.8040    23.4500    24.8040   621.7360   -23.0400     8.4770    88.1200   705.6800     0.0210     2.4520
 2942.5000    26.3460    23.4500    24.8040   621.5230   -23.2780     8.4720    90.8590   706.4400     0.0220     2.4600
 2943.0000    28.0070    24.3810    24.8040   621.3100   -23.5090     8.4670    89.1100   707.1990     0.0150     2.4650
 2943.5000    29.6690    25.2120    24.8040   621.0980   -23.7350     8.4620    86.0560   707.9590     0.0170     2.4660
 2944.0000    31.3310    26.0430    24.9140   620.8850   -23.9870     8.4570    82.7600   708.7180     0.0220     2.4670
 2944.5000    32.8460    26.8750    25.0700   620.6720   -24.0340     8.4520    81.6260   709.4780     0.0330     2.4640
 2945.0000    32.2220    27.7060    25.2270   620.4590   -23.8710     8.4470    83.0360   710.2370     0.0330     2.4520
 2945.5000    31.3120    28.8120    25.3830   620.2460   -23.7320     8.4410    84.1930   710.9970     0.0260     2.4360
 2946.0000    30.4020    28.5920    25.5400   620.0340   -23.5890     8.4360    82.6950   711.7560     0.0170     2.4260
 2946.5000    29.9110    28.2640    25.7510   620.5810   -23.4430     8.4310    79.9850   712.5160     0.0130     2.4300
 2947.0000    30.0940    27.9350    25.6210   622.0210   -23.3040     8.4310    79.7640   713.2750     0.0150     2.4340
 2947.5000    30.3740    27.7530    25.1020   623.4610   -23.1550     8.4360    82.9900   714.0350     0.0160     2.4380
 2948.0000    30.4760    26.9530    24.5830   624.9010   -23.0170     8.4400    86.5370   714.7940     0.0170     2.4390
 2948.5000    30.1450    26.1840    24.0650   626.3410   -22.8910     8.4450    89.8600   715.5540     0.0150     2.4350
 2949.0000    29.3720    25.2730    23.4500   627.7820   -23.0330     8.4490    91.4830   716.3140     0.0130     2.4310
 2949.5000    28.5980    25.4220    23.4500   629.2220   -23.1770     8.4540    92.6080   717.0730     0.0110     2.4270
 2950.0000    27.8250    25.7840    23.7630   630.6620   -23.3340     8.4590    90.2280   717.8330     0.0130     2.4320
 2950.5000    26.7330    26.1450    24.2820   632.1020   -23.4840     8.4630    86.1740   718.5920     0.0140     2.4370
 2951.0000    27.9620    26.5070    24.8010   633.5420   -23.6330     8.4680    82.4110   719.3520     0.0160     2.4370
 2951.5000    30.0490    26.8690    25.3200   634.9830   -23.7900     8.4720    78.7810   720.1110     0.0180     2.4350
 2952.0000    32.1360    27.2310    25.7510   636.4230   -23.9340     8.4770    77.5310   720.8710     0.0200     2.4290
 2952.5000    33.4660    27.7530    25.6110   637.8630   -24.0710     8.4820    79.5170   721.6300     0.0240     2.4450
 2953.0000    33.4660    27.4870    25.2280   639.3030   -23.9110     8.4860    81.3090   722.3900     0.0280     2.4480
 2953.5000    31.7350    27.0100    24.8450   640.7430   -23.7440     8.4910    85.7020   723.1490     0.0280     2.4450
 2954.0000    29.4260    26.5320    24.4610   642.1840   -23.5640     8.4950    89.6960   723.9090     0.0300     2.4490
 2954.5000    28.8120    26.0550    24.0780   643.6240   -23.3920     8.5000    88.0820   724.6680     0.0340     2.4580
 2955.0000    28.8120    25.5770    23.6940   645.0640   -23.2170     8.5050    85.4130   725.4280     0.0310     2.4510
 2955.5000    28.8120    25.1000    23.3110   646.5040   -23.0410     8.5090    87.3540   726.1870     0.0220     2.4430
 2956.0000    28.8120    24.6220    22.9280   647.9440   -22.8680     8.5140    89.7770   726.9470     0.0150     2.4480
 2956.5000    28.8120    24.1440    22.5440   649.3840   -22.6930     8.5180    92.4300   727.7070     0.0150     2.4580
 2957.0000    28.8120    23.6670    22.1610   650.8250   -22.5170     8.5230    93.7710   728.4660     0.0210     2.4680
 2957.5000    27.7780    23.1890    21.7780   652.2650   -22.3500     8.5270    94.2220   729.2260     0.0260     2.4790
 2958.0000    26.8300    22.7120    21.3940   653.7050   -22.1550     8.5320    92.6900   729.9850     0.0320     2.4740
 2958.5000    25.7510    22.1690    20.9580   655.1450   -22.0380     8.5370    91.3110   730.7450     0.0270     2.4630
 2959.0000    25.3740    21.7580    20.5700   656.5850   -21.6760     8.5410    92.4790   731.5040     0.0180     2.4530
 2959.5000    24.9380    21.7580    20.6050   658.0260   -21.3220     8.5460    93.3980   732.2640     0.0090     2.4510
 2960.0000    24.3440    21.7580    20.6580   659.4660   -20.8850     8.5500    91.6460   732.9320     0.0040     2.4500
 2960.5000    25.4210    21.7580    20.7120   660.3180   -20.9300     8.5550    90.2590   731.7880     0.0100     2.4510
 2961.0000    27.1100    21.7580    20.7650   659.2460   -21.0150     8.5600    89.5300   730.7680     0.0170     2.4520
 2961.5000    28.8000    21.8780    20.8190   658.1730   -21.1200     8.5640    88.8290   729.7480     0.0230     2.4650
