~VERSION INFORMATION
 VERS.                2.0:   CWLS LOG ASCII STANDARD - VERSION 2.0
 WRAP.                 NO:   ONE LINE PER DEPTH STEP
~WELL INFORMATION
#MNEM.UNIT      DATA TYPE    INFORMATION
#----------   ------------   ------------------------------
 STRT.F            0.0000:   START DEPTH
 STOP.F         3474.0000:   STOP DEPTH
 STEP.F            0.5000:   STEP LENGTH
 NULL.          -999.2500:   NO VALUE
 COMP. LAWRENCE ALLISON & ASSOCIATES:   COMPANY
 WELL. LAWRENCE ALLISON #13-AX-14:   WELL
 FLD .            WILDCAT:   FIELD
 LOC .      S14 T38N R78W:   LOCATION
 CNTY.            NATRONA:   COUNTY
 STAT.            WYOMING:   STATE
 CTRY. UNITED STATES OF AMERICA:   COUNTRY
 SRVC.      DRESSER ATLAS:   SERVICE COMPANY
 DATE.        31-MAR-1986:   LOGDATE
 API .     49025110640000:   API NUMBER
~CURVE INFORMATION
#MNEM.UNIT       API CODE    CURVE DESCRIPTION
#----------   ------------   ------------------------------
 DEPT.F                  :   
 TEND.LBS    45 635 01 00:   TENSION FROM DENSITY LOG
 RHOB.G/C3   45 350 01 00:   BULK DENSITY
 CORR.G/C3   45 356 01 00:   DENSITY CORRECTION
 CALD.IN     45 280 60 00:   CALIPER FROM DENSITY LOG
 NPHI.DEC    42 890 00 00:   NEUTRON POROSITY
 TENR.LBS    07 635 01 00:   TENSION FROM RESISTIVITY
 RFOC.OHMM   07 220 01 00:   RESISTIVITY FOCUSED LOG RES.
 RILD.OHMM   07 120 46 00:   DEEP INDUCTION RESISTIVITY
 RILM.OHMM   07 120 44 00:   INDUCTION LOG MEDIUM RESISTIVITY
 GRR .GAPI   07 310 01 00:   GAMMA RAY FROM RESISTIVITY
 SPR .MV     07 010 01 00:   SPONTANEOUS POTENTIAL
 TENS.LBS    60 635 01 00:   TENSION FROM SONIC LOG
 DT  .US/F   60 520 00 00:   DELTA TIME
~PARAMETER INFORMATION
#MNEM.UNIT          VALUE    DESCRIPTION
#----------   ------------   ------------------------------
 EKB .F         5251.0000:   Kelly bushing
 EGL .F         5239.2000:   Ground level
 EDF .F         5248.1000:   Drilling floor
 TD  .F         3456.0000:   Total depth
 DATE.        31-MAR-1986:   Date logged
 CLNT.            A2DTECH:   Client Code
 SL  . 238' FWL & 1739' FNL:   Surface Location
 PD  .                 GL:   Permanent Datum
 EPD .F            5239.2:   Elevation Permanent Datum
 LMF .                 KB:   Log Measured From
 DMF .                 KB:   Drilling Measured From
 DAPD.F              11.8:   Feet Above Permanent Datum
 DD  .F              3450:   Depth driller
 DL  .F              3456:   Depth logger
 BLI .F              3450:   Bottom log interval
 CS1 .IN            8.625:   Casing size
 CBD1.      8.625" @ 689':   Casing driller 1
 CBL1.F               692:   Casing logger 1
 BS1 .IN            7.875:   Bit size
 BSD1.F              3450:   Depth drilled with bit1
 DFT .        POLYMER/KCL:   Type fluid in hole
 DFD .                9.1:   Density
 DFV .                 38:   Viscosity
 DFPH.                8.5:   pH
 DFL .               11.2:   Fluid loss
 MSS .           FLOWLINE:   Source of sample
 RMS .OHMM            .29:   Rm
 MST .F                65:   Rm Meas. temp.
 RMF .OHMM           .235:   Rmf
 MFST.F                65:   Rmf Meas. temp.
 RMC .OHMM           .378:   Rmc
 MCST.F                65:   Rmc Meas. temp.
 MFSS.               MEAS:   Source Rmf.
 MCSS.               MEAS:   Source Rmc.
 RMB .OHMM           .163:   Rm. at BHT
 BHT .F               115:   BHT.
 TCS .HRS               3:   Time Circ. stopped
 MRT .F               115:   Maximum recorded temp.
 LUN .            HL-6274:   Logging unit number
 LUL .           GILLETTE:   Logging unit location
 ENGI.             RAUTIO:   Recorded By
 WITN.             STRONG:   Witnessed by
 ORIG.           5" PRINT:   Origin of data
 UWI .     49025110640000:   Unique Well ID
 DICO. A2D TECHNOLOGIES, INC.:   Digitizing Company
~OTHER INFORMATION
~A    DEPT    TEND       RHOB       CORR       CALD       NPHI       TENR       RFOC       RILD       RILM          GRR      SPR       TENS         DT   
# ...
 2600.0000   -54.8050     2.5660     0.0310    10.0700     0.2320   -74.9950     5.8920     5.6940     5.7470   125.1700   -24.9950   -66.8380    85.0270
 2600.5000   -54.8050     2.5720     0.0250    10.0710     0.2350   -76.6350     7.1720     5.8030     6.1750   114.8720   -25.0010   -66.5660    82.7830
 2601.0000   -54.8050     2.5670     0.0200    10.0720     0.2410   -78.2750     8.4510     6.1820     6.5640   104.2130   -25.0010   -66.2950    81.0000
 2601.5000   -54.8050     2.5620     0.0130    10.0730     0.2460   -79.9150     8.7890     6.5620     6.9530   100.3360   -24.9990   -66.0230    79.7900
 2602.0000   -54.8050     2.5600     0.0090    10.0740     0.2500   -81.5550     8.4250     6.9410     7.2060   103.0120   -24.9950   -65.7520    80.1900
 2602.5000   -54.8050     2.5610     0.0130    10.0750     0.2380   -83.1950     8.0760     7.2390     7.2820   104.9470   -24.9960   -65.4800    81.1080
 2603.0000   -54.8050     2.5630     0.0210    10.0760     0.2320   -84.8350     7.8670     7.2390     7.3740   103.7450   -24.5450   -65.2080    82.0070
 2603.5000   -54.8050     2.5600     0.0280    10.0770     0.2310   -86.4740     7.8830     7.1810     7.3420   101.8430   -23.8270   -64.9370    82.4480
 2604.0000   -54.8050     2.5470     0.0390    10.0770     0.2300   -88.1140     7.9740     7.0260     7.2310   100.1930   -23.2330   -68.1930    82.3210
 2604.5000   -54.8050     2.5350     0.0510    10.0780     0.2350   -89.7540     8.0640     6.8710     7.0220   102.0680   -23.5510   -74.3240    82.0080
 2605.0000   -54.8050     2.5400     0.0510    10.0790     0.2400   -91.3940     8.1630     6.7160     6.8130   104.0480   -23.8510   -80.4550    81.8420
 2605.5000   -54.8050     2.5530     0.0310    10.0800     0.2440   -93.0340     7.8750     6.5620     6.6030   106.0180   -24.1460   -83.5000    82.1470
 2606.0000   -54.8050     2.5660     0.0240    10.0810     0.2470   -94.5340     7.4720     6.4200     6.5290   107.2270   -24.4450   -78.8290    82.6900
 2606.5000   -54.8050     2.5710     0.0210    10.0820     0.2530   -92.4160     6.8490     6.3670     6.4930   106.5760   -24.6150   -74.1570    83.3330
 2607.0000   -54.8050     2.5650     0.0150    10.0830     0.2550   -90.4660     6.9130     6.2880     6.4560   104.9900   -24.2950   -69.4860    83.5570
 2607.5000   -54.8050     2.5550     0.0030    10.0840     0.2540   -88.5160     7.2560     6.2080     6.4200   105.0230   -23.8480   -64.8150    83.3930
 2608.0000   -54.8050     2.5450    -0.0010    10.0850     0.2550   -86.5650     7.5120     6.1300     6.3830   108.2130   -24.1320   -64.8150    83.2300
 2608.5000   -54.8050     2.5370    -0.0020    10.0860     0.2600   -84.6150     7.3150     6.1300     6.3610   111.3060   -24.3930   -64.8150    83.4930
 2609.0000   -54.8050     2.5370     0.0010    10.0870     0.2620   -82.6640     6.9900     6.2580     6.5400   111.6570   -24.1330   -64.8150    84.1660
 2609.5000   -54.8050     2.5370     0.0020    10.0880     0.2570   -80.7140     6.7860     6.6540     6.7980   108.1070   -23.6810   -64.8150    84.4940
 2610.0000   -54.8050     2.5400     0.0020    10.0860     0.2470   -78.7640     7.2520     6.9670     7.0620   103.8940   -23.2250   -64.8150    84.4940
 2610.5000   -54.8050     2.5430     0.0240    10.0850     0.2380   -76.8130     7.8700     7.1250     7.3260   100.1180   -23.2660   -64.8150    83.4130
 2611.0000   -54.8050     2.5400     0.0200    10.0830     0.2360   -74.8630     8.5490     7.2830     7.5900    99.2950   -23.3530   -64.8150    82.4760
 2611.5000   -54.8050     2.5320     0.0090    10.0810     0.2390   -72.9120     8.8400     7.4410     7.8670    95.5790   -23.5650   -64.8150    81.7200
 2612.0000   -54.8050     2.5260     0.0020    10.0800     0.2390   -70.9620     9.1620     7.5990     7.9980    92.3230   -24.1830   -64.8150    81.5650
 2612.5000   -54.8050     2.5270     0.0080    10.0780     0.2450   -69.0110     9.2050     7.7230     8.0140    94.2940   -24.8000   -64.8150    81.8920
 2613.0000   -54.8050     2.5270     0.0160    10.0770     0.2530   -67.0610     8.7320     7.7730     8.0880    96.6910   -25.1590   -64.8150    82.1790
 2613.5000   -51.7350     2.5250     0.0190    10.0750     0.2610   -65.1110     8.2820     7.7950     8.0750    99.0890   -25.2210   -64.8150    82.4010
 2614.0000   -42.3350     2.5200     0.0170    10.0730     0.2590   -63.1600     7.9210     7.7230     8.0450   101.9100   -25.0000   -64.8150    82.6490
 2614.5000   -32.9350     2.5180     0.0080    10.0720     0.2600   -61.2100     7.4430     7.6280     8.0140   106.3940   -25.0040   -64.8150    83.0410
 2615.0000   -23.5350     2.5200    -0.0030    10.0700     0.2630   -59.2590     7.6590     7.4980     7.7640   110.9200   -25.0220   -64.8150    83.4330
 2615.5000   -14.7650     2.5250    -0.0130    10.0690     0.2640   -57.3090     7.8800     7.3670     7.5770   113.1320   -25.1510   -64.8150    83.7940
 2616.0000   -14.7650     2.5240    -0.0210    10.0700     0.2550   -55.3590     8.1010     7.2360     7.3740   112.5080   -25.2820   -64.8150    83.6200
 2616.5000   -21.4870     2.5190    -0.0200    10.0720     0.2490   -57.7970     8.5480     7.1630     7.3740   109.2840   -25.4240   -64.8150    82.9660
 2617.0000   -31.8770     2.5180    -0.0170    10.0740     0.2480   -64.3630     8.7090     7.1440     7.3740   106.4890   -25.6480   -64.8150    82.3120
 2617.5000   -42.2660     2.5210    -0.0130    10.0760     0.2460   -70.9290     8.3370     7.1250     7.3740   107.7150   -25.8660   -64.8150    82.1420
 2618.0000   -52.6550     2.5250    -0.0080    10.0780     0.2450   -73.8070     7.7280     7.1070     7.3740   109.8210   -25.8150   -64.8150    82.2650
 2618.5000   -53.8940     2.5260     0.0050    10.0800     0.2420   -72.3580     7.4430     7.0480     7.3070   106.8640   -25.2770   -64.8150    82.6930
 2619.0000   -48.9590     2.5280     0.0080    10.0820     0.2350   -70.9100     7.6270     6.9160     7.0650   103.4950   -25.2680   -64.8150    82.4920
 2619.5000   -44.0240     2.5300     0.0100    10.0830     0.2370   -69.4610     7.8480     6.7840     6.9360   100.0640   -25.3480   -64.8150    81.7920
 2620.0000   -39.0890     2.5320     0.0060    10.0850     0.2400   -68.0130     8.1630     6.6520     6.8060    99.4630   -25.4300   -64.8150    81.4540
 2620.5000   -34.7850     2.5330     0.0010    10.0870     0.2450   -66.5640     8.0370     6.5190     6.6770   100.5050   -25.5110   -69.3190    81.2610
 2621.0000   -37.9880     2.5290     0.0010    10.0890     0.2460   -65.1160     7.6960     6.3870     6.5400   102.7550   -25.5910   -73.4070    81.6790
 2621.5000   -44.1570     2.5270     0.0030    10.0910     0.2600   -68.2120     7.3550     6.2450     6.4750   105.0290   -25.5940   -74.5390    82.5930
 2622.0000   -50.3250     2.5250     0.0020    10.0930     0.2760   -75.2470     6.9130     6.2450     6.4070   106.1030   -25.2310   -74.1010    83.3260
 2622.5000   -54.8050     2.5150    -0.0190    10.0950     0.2720   -82.2830     6.9270     6.2450     6.3030   106.7440   -24.6100   -73.6630    84.0320
 2623.0000   -54.8050     2.4990    -0.0380    10.0960     0.2660   -89.3180     6.9460     6.2450     6.3520   107.5000   -24.8190   -73.2250    84.7370
 2623.5000   -54.8050     2.4900    -0.0400    10.0980     0.2620   -92.1450     6.9660     6.3170     6.4560   110.8340   -25.0590   -72.7870    85.1670
 2624.0000   -55.3540     2.4940    -0.0370    10.1000     0.2590   -82.9110     7.0820     6.4000     6.5590   114.1590   -25.4120   -72.3490    85.3950
 2624.5000   -56.6190     2.5020    -0.0090    10.1020     0.2540   -73.6770     7.5190     6.4830     6.6620   114.5170   -25.2370   -71.9110    85.2800
 2625.0000   -57.8850     2.5120     0.0070    10.1040     0.2460   -64.4430     7.8670     6.5660     6.7650   110.7460   -24.4480   -71.4730    85.1580
 2625.5000   -59.1500     2.5200     0.0110    10.1060     0.2380   -64.4430     7.9400     6.6490     6.8690   104.1220   -23.7810   -71.0350    85.1510
