~VERSION INFORMATION
 VERS.                2.0:   CWLS LOG ASCII STANDARD - VERSION 2.0
 WRAP.                 NO:   ONE LINE PER DEPTH STEP
~WELL INFORMATION
#MNEM.UNIT      DATA TYPE    INFORMATION
#----------   ------------   ------------------------------
 STRT.F            0.0000:   START DEPTH
 STOP.F         2775.5000:   STOP DEPTH
 STEP.F            0.5000:   STEP LENGTH
 NULL.          -999.2500:   NO VALUE
 COMP.          U.S. NAVY:   COMPANY
 WELL.   U.S. "A" #107-29:   WELL
 FLD .        TEAPOT DOME:   FIELD
 LOC .      S29 T39N R78W:   LOCATION
 CNTY.            NATRONA:   COUNTY
 STAT.            WYOMING:   STATE
 CTRY. UNITED STATES OF AMERICA:   COUNTRY
 SRVC.         MCCULLOUGH:   SERVICE COMPANY
 DATE.        07-SEP-1966:   LOGDATE
 API .     49025095920000:   API NUMBER
~CURVE INFORMATION
#MNEM.UNIT       API CODE    CURVE DESCRIPTION
#----------   ------------   ------------------------------
 DEPT.F                  :   
 GR  .GAPI   30 310 01 00:   GAMMA RAY
 CALI.IN     70 280 01 00:   CALIPER
~PARAMETER INFORMATION
#MNEM.UNIT          VALUE    DESCRIPTION
#----------   ------------   ------------------------------
 EKB .F            0.0000:   Kelly bushing
 EGL .F            0.0000:   Ground level
 EDF .F            0.0000:   Drilling floor
 EPD .F            0.0000:   Permanent datum
 TD  .F         2777.5000:   Total depth
 DATE.        07-SEP-1966:   Date logged
 CLNT.            A2DTECH:   Client Code
 PD  .                 GL:   Permanent Datum
 LMF .                 GL:   Log Measured From
 DMF .                 GL:   Drilling Measured From
 DL  .F            2777.5:   Depth logger
 BLI .F              2776:   Bottom log interval
 TLI .F              2200:   Top log interval
 CS1 .IN                5:   Casing size
 CBD1.         5" @ 2722':   Casing driller 1
 DFT .              WATER:   Type fluid in hole
 RMB .OHMM           .053:   Rm. at BHT
 TCS .HRS             1.5:   Time Circ. stopped
 LUN .               1460:   Logging unit number
 ENGI.        FITZSIMMONS:   Recorded By
 WITN.             TUTTLE:   Witnessed by
 ORIG.           5" PRINT:   Origin of data
 UWI .     49025095920000:   Unique Well ID
 DICO. A2D TECHNOLOGIES, INC.:   Digitizing Company
~OTHER INFORMATION
~A    DEPT      GR         CALI 
# ...
 1579.5000  -999.2500     6.6620
 1580.0000  -999.2500     6.6630
 1580.5000  -999.2500     6.6630
 1581.0000  -999.2500     6.6640
 1581.5000  -999.2500     6.6640
 1582.0000  -999.2500     6.6650
 1582.5000  -999.2500     6.6650
 1583.0000  -999.2500     6.6660
 1583.5000  -999.2500     6.6660
 1584.0000  -999.2500     6.6670
 1584.5000  -999.2500     6.6670
 1585.0000  -999.2500     6.6700
 1585.5000  -999.2500     6.6730
 1586.0000  -999.2500     6.6760
 1586.5000  -999.2500     6.6790
 1587.0000  -999.2500     6.6820
 1587.5000  -999.2500     6.6850
 1588.0000  -999.2500     6.6880
 1588.5000  -999.2500     6.6910
 1589.0000  -999.2500     6.6940
 1589.5000  -999.2500     6.6970
 1590.0000  -999.2500     6.7000
 1590.5000  -999.2500     6.7030
 1591.0000  -999.2500     6.7060
 1591.5000  -999.2500     6.7040
 1592.0000  -999.2500     6.7010
 1592.5000  -999.2500     6.6970
 1593.0000  -999.2500     6.6940
 1593.5000  -999.2500     6.6910
 1594.0000  -999.2500     6.6870
 1594.5000  -999.2500     6.6860
 1595.0000  -999.2500     6.6850
 1595.5000  -999.2500     6.6850
 1596.0000  -999.2500     6.6840
 1596.5000  -999.2500     6.6830
 1597.0000  -999.2500     6.6830
 1597.5000  -999.2500     6.6820
 1598.0000  -999.2500     6.6810
 1598.5000  -999.2500     6.6810
 1599.0000  -999.2500     6.6800
 1599.5000  -999.2500     6.6790
 1600.0000  -999.2500     6.6790
 1600.5000  -999.2500     6.6780
 1601.0000  -999.2500     6.6770
 1601.5000  -999.2500     6.6770
 1602.0000  -999.2500     6.6780
 1602.5000  -999.2500     6.6790
 1603.0000  -999.2500     6.6800
 1603.5000  -999.2500     6.6810
 1604.0000  -999.2500     6.6820
 1604.5000  -999.2500     6.6830
 1605.0000  -999.2500     6.6830
 1605.5000  -999.2500     6.6840
 1606.0000  -999.2500     6.6850
 1606.5000  -999.2500     6.6860
 1607.0000  -999.2500     6.6880
 1607.5000  -999.2500     6.7010
 1608.0000  -999.2500     6.7140
 1608.5000  -999.2500     6.7270
 1609.0000  -999.2500     6.7340
 1609.5000  -999.2500     6.7240
 1610.0000  -999.2500     6.7170
 1610.5000  -999.2500     6.7190
 1611.0000  -999.2500     6.7210
 1611.5000  -999.2500     6.7240
 1612.0000  -999.2500     6.7260
 1612.5000  -999.2500     6.7300
 1613.0000  -999.2500     6.7340
 1613.5000  -999.2500     6.7380
 1614.0000  -999.2500     6.7420
 1614.5000  -999.2500     6.7460
 1615.0000  -999.2500     6.7580
 1615.5000  -999.2500     6.7910
 1616.0000  -999.2500     6.8630
 1616.5000  -999.2500     6.8930
 1617.0000  -999.2500     6.8740
 1617.5000  -999.2500     6.8180
 1618.0000  -999.2500     6.7880
 1618.5000  -999.2500     6.7570
 1619.0000  -999.2500     6.7260
 1619.5000  -999.2500     6.7080
 1620.0000  -999.2500     6.7130
 1620.5000  -999.2500     6.7180
 1621.0000  -999.2500     6.7230
 1621.5000  -999.2500     6.7370
 1622.0000  -999.2500     6.7650
 1622.5000  -999.2500     6.7930
 1623.0000  -999.2500     6.8210
 1623.5000  -999.2500     6.8490
 1624.0000  -999.2500     6.8650
 1624.5000  -999.2500     6.8770
 1625.0000  -999.2500     6.8990
 1625.5000  -999.2500     6.9310
 1626.0000  -999.2500     6.8730
 1626.5000  -999.2500     6.8130
 1627.0000  -999.2500     6.7640
 1627.5000  -999.2500     6.7350
 1628.0000  -999.2500     6.7180
 1628.5000  -999.2500     6.7200
 1629.0000  -999.2500     6.7220
 1629.5000  -999.2500     6.7250
 1630.0000  -999.2500     6.7280
 1630.5000  -999.2500     6.7300
 1631.0000  -999.2500     6.7330
 1631.5000  -999.2500     6.7350
 1632.0000  -999.2500     6.7380
 1632.5000  -999.2500     6.7400
 1633.0000  -999.2500     6.7430
 1633.5000  -999.2500     6.7450
 1634.0000  -999.2500     6.7510
 1634.5000  -999.2500     6.7600
 1635.0000  -999.2500     6.7690
 1635.5000  -999.2500     6.7770
 1636.0000  -999.2500     6.7860
 1636.5000  -999.2500     6.7940
 1637.0000  -999.2500     6.7890
 1637.5000  -999.2500     6.7820
 1638.0000  -999.2500     6.7760
 1638.5000  -999.2500     6.7930
 1639.0000  -999.2500     6.8220
 1639.5000  -999.2500     6.8620
 1640.0000  -999.2500     6.8570
 1640.5000  -999.2500     6.8410
 1641.0000  -999.2500     6.8100
 1641.5000  -999.2500     6.7800
 1642.0000  -999.2500     6.7660
 1642.5000  -999.2500     6.7560
 1643.0000  -999.2500     6.7670
 1643.5000  -999.2500     6.7790
 1644.0000  -999.2500     6.7920
 1644.5000  -999.2500     6.7940
 1645.0000  -999.2500     6.7920
 1645.5000  -999.2500     6.7900
 1646.0000  -999.2500     6.7880
 1646.5000  -999.2500     6.7850
 1647.0000  -999.2500     6.7710
 1647.5000  -999.2500     6.7570
 1648.0000  -999.2500     6.7430
 1648.5000  -999.2500     6.7360
 1649.0000  -999.2500     6.7360
 1649.5000  -999.2500     6.7360
 1650.0000  -999.2500     6.7360
 1650.5000  -999.2500     6.7360
 1651.0000  -999.2500     6.7360
 1651.5000  -999.2500     6.7360
 1652.0000  -999.2500     6.7360
 1652.5000  -999.2500     6.7360
 1653.0000  -999.2500     6.7360
 1653.5000  -999.2500     6.7430
 1654.0000  -999.2500     6.7520
 1654.5000  -999.2500     6.7610
 1655.0000  -999.2500     6.7700
 1655.5000  -999.2500     6.7800
 1656.0000  -999.2500     6.7890
 1656.5000  -999.2500     6.7980
 1657.0000  -999.2500     6.8070
 1657.5000  -999.2500     6.8170
 1658.0000  -999.2500     6.8260
 1658.5000  -999.2500     6.8350
 1659.0000  -999.2500     6.8450
 1659.5000  -999.2500     6.8540
 1660.0000  -999.2500     6.8320
 1660.5000  -999.2500     6.8060
 1661.0000  -999.2500     6.7800
 1661.5000  -999.2500     6.7530
 1662.0000  -999.2500     6.7450
 1662.5000  -999.2500     6.7440
 1663.0000  -999.2500     6.7420
 1663.5000  -999.2500     6.7410
 1664.0000  -999.2500     6.7400
 1664.5000  -999.2500     6.7380
 1665.0000  -999.2500     6.7370
 1665.5000  -999.2500     6.7350
 1666.0000  -999.2500     6.7340
 1666.5000  -999.2500     6.7330
 1667.0000  -999.2500     6.7310
 1667.5000  -999.2500     6.7300
 1668.0000  -999.2500     6.7290
 1668.5000  -999.2500     6.7270
 1669.0000  -999.2500     6.7260
 1669.5000  -999.2500     6.7260
 1670.0000  -999.2500     6.7240
 1670.5000  -999.2500     6.7200
 1671.0000  -999.2500     6.7170
 1671.5000  -999.2500     6.7270
 1672.0000  -999.2500     6.7400
 1672.5000  -999.2500     6.7520
 1673.0000  -999.2500     6.7650
 1673.5000  -999.2500     6.7770
 1674.0000  -999.2500     6.7920
 1674.5000  -999.2500     6.8180
 1675.0000  -999.2500     6.8440
 1675.5000  -999.2500     6.8420
 1676.0000  -999.2500     6.8390
 1676.5000  -999.2500     6.8350
 1677.0000  -999.2500     6.8490
 1677.5000  -999.2500     6.8640
 1678.0000  -999.2500     6.8730
 1678.5000  -999.2500     6.8680
 1679.0000  -999.2500     6.8570
 1679.5000  -999.2500     6.8260
 1680.0000  -999.2500     6.7970
 1680.5000  -999.2500     6.7760
 1681.0000  -999.2500     6.7770
 1681.5000  -999.2500     6.7780
 1682.0000  -999.2500     6.7790
 1682.5000  -999.2500     6.7810
 1683.0000  -999.2500     6.7820
 1683.5000  -999.2500     6.7830
 1684.0000  -999.2500     6.7840
 1684.5000  -999.2500     6.7860
 1685.0000  -999.2500     6.7530
 1685.5000  -999.2500     6.7070
 1686.0000  -999.2500     6.6590
 1686.5000  -999.2500     6.6540
 1687.0000  -999.2500     6.6510
 1687.5000  -999.2500     6.6470
 1688.0000  -999.2500     6.6440
 1688.5000  -999.2500     6.6400
 1689.0000  -999.2500     6.6370
 1689.5000  -999.2500     6.6390
 1690.0000  -999.2500     6.6400
 1690.5000  -999.2500     6.6420
 1691.0000  -999.2500     6.6430
 1691.5000  -999.2500     6.6450
 1692.0000  -999.2500     6.6460
 1692.5000  -999.2500     6.6480
 1693.0000  -999.2500     6.6490
 1693.5000  -999.2500     6.6510
 1694.0000  -999.2500     6.6520
 1694.5000  -999.2500     6.6540
 1695.0000  -999.2500     6.6550
 1695.5000  -999.2500     6.6570
 1696.0000  -999.2500     6.6590
 1696.5000  -999.2500     6.6610
 1697.0000  -999.2500     6.6630
 1697.5000  -999.2500     6.6650
 1698.0000  -999.2500     6.6670
 1698.5000  -999.2500     6.6690
 1699.0000  -999.2500     6.6710
 1699.5000  -999.2500     6.6730
 1700.0000  -999.2500     6.6750
 1700.5000  -999.2500     6.6770
