~VERSION INFORMATION
 VERS.                2.0:   CWLS LOG ASCII STANDARD - VERSION 2.0
 WRAP.                 NO:   ONE LINE PER DEPTH STEP
~WELL INFORMATION
#MNEM.UNIT      DATA TYPE    INFORMATION
#----------   ------------   ------------------------------
 STRT.F          200.0000:   START DEPTH
 STOP.F         3135.5000:   STOP DEPTH
 STEP.F            0.5000:   STEP LENGTH
 NULL.          -999.2500:   NO VALUE
 COMP.    FENOX & SCISSON:   COMPANY
 WELL. FENIX NPR 23 "AX" #3-11:   WELL
 FLD .                NPR:   FIELD
 LOC .      S11 T38N R78W:   LOCATION
 CNTY.            NATRONA:   COUNTY
 STAT.            WYOMING:   STATE
 CTRY. UNITED STATES OF AMERICA:   COUNTRY
 SRVC.       SCHLUMBERGER:   SERVICE COMPANY
 DATE.        06-NOV-1977:   LOGDATE
 API .     49025104320000:   API NUMBER
~CURVE INFORMATION
#MNEM.UNIT       API CODE    CURVE DESCRIPTION
#----------   ------------   ------------------------------
 DEPT.F                  :   
 CALD.IN     45 280 60 00:   CALIPER FROM DENSITY LOG
 GRD .GAPI   45 310 01 00:   GAMMA RAY FROM DENSITY LOG
 RHOB.G/C3   45 350 01 00:   BULK DENSITY
 CORR.G/C3   45 356 01 00:   DENSITY CORRECTION
 SPR .MV     07 010 01 00:   SPONTANEOUS POTENTIAL
 LL8 .OHMM   07 220 08 00:   LATEROLOG-8 RES.
 ILD .OHMM   07 120 46 00:   DEEP INDUCTION RESISTIVITY
 ILM .OHMM   07 120 44 00:   INDUCTION LOG MEDIUM RESISTIVITY
~PARAMETER INFORMATION
#MNEM.UNIT          VALUE    DESCRIPTION
#----------   ------------   ------------------------------
 EKB .F         5176.0000:   Kelly bushing
 EGL .F         5171.0000:   Ground level
 TD  .F         3138.0000:   Total depth
 DATE.        06-NOV-1977:   Date logged
 CLNT.            A2DTECH:   Client Code
 SL  . 1650' FNL & 750' FWL:   Surface Location
 PD  .                 GL:   Permanent Datum
 EPD .F              5171:   Elevation Permanent Datum
 LMF .                 KB:   Log Measured From
 DMF .                 KB:   Drilling Measured From
 DAPD.F                 5:   Feet Above Permanent Datum
 DD  .F              3138:   Depth driller
 DL  .F              3135:   Depth logger
 BLI .F              3134:   Bottom log interval
 TLI .F               196:   Top log interval
 CS1 .IN            8.625:   Casing size
 CBD1.      8.625" @ 205':   Casing driller 1
 CBL1.F               205:   Casing logger 1
 BS1 .IN            7.875:   Bit size
 BSD1.F              3138:   Depth drilled with bit1
 DFT .            KCL/MUD:   Type fluid in hole
 DFD .                8.8:   Density
 DFV .                 34:   Viscosity
 DFPH.                 11:   pH
 DFL .                  6:   Fluid loss
 MSS .            MUD/PIT:   Source of sample
 RMS .OHMM           0.27:   Rm
 MST .F                48:   Rm Meas. temp.
 RMF .OHMM           0.29:   Rmf
 MFST.F                48:   Rmf Meas. temp.
 RMC .OHMM           0.39:   Rmc
 MCST.F                48:   Rmc Meas. temp.
 MFSS.               MEAS:   Source Rmf.
 MCSS.               CALC:   Source Rmc.
 RMB .OHMM           0.12:   Rm. at BHT
 BHT .F               104:   BHT.
 TCS .HRS            1500:   Time Circ. stopped
 TLAB.HRS            1930:   Time logger at bottom
 MRT .F               104:   Maximum recorded temp.
 LUN .               7711:   Logging unit number
 LUL .               CSPR:   Logging unit location
 ENGI.       CRAIG/SAYLER:   Recorded By
 WITN.         PETTINGILL:   Witnessed by
 ORIG.           5" PRINT:   Origin of data
 UWI .     49025104320000:   Unique Well ID
 DICO. A2D TECHNOLOGIES, INC.:   Digitizing Company
~OTHER INFORMATION
~A   DEPT     CALD        GRD       RHOB       CORR        SPR        LL8        ILD        ILM   
# ...
 1334.0000     8.4618   105.5567     2.5304     0.0125   -64.4419     9.7467    10.2038    10.4878
 1334.5000     8.4620   105.5618     2.5344     0.0165   -64.4476     9.4812    10.1085    10.4847
 1335.0000     8.4622   105.5678     2.5364     0.0125   -64.6541     8.8914    10.0147    10.4843
 1335.5000     8.4625   105.5729     2.5314     0.0045   -64.6597     8.4923     9.8315    10.3875
 1336.0000     8.4628   104.6749     2.5264     0.0026   -64.6653     8.3369     9.3504    10.3855
 1336.5000     8.4630   101.9706     2.5224     0.0036   -65.0728     8.4895     9.3495    10.3835
 1337.0000     8.4832   100.1694     2.5184     0.0046   -65.0784     8.8046     9.2622    10.3815
 1337.5000     8.4836   100.1743     2.5164     0.0036   -64.8831     9.0481     9.5592    10.3795
 1338.0000     8.5039   100.7814     2.5215     0.0056   -64.8887     8.9248     9.6452    10.3778
 1338.5000     8.5042   101.0874     2.5315     0.0076   -64.6945     8.8421     9.6436    10.3765
 1339.0000     8.5044   101.6945     2.5385     0.0106   -64.9011     8.9218     9.6423    10.3744
 1339.5000     8.5047   102.0005     2.5465     0.0156   -64.7057     9.1694     9.6401    10.3726
 1340.0000     8.5450   102.3066     2.5485     0.0097   -64.7113     9.0841     9.6391    10.3707
 1340.5000     8.5252   102.3116     2.5335     0.0097   -64.5160     8.8362     9.4624    10.3686
 1341.0000     8.5455   102.3165     2.5265     0.0097   -64.7226     8.5947     9.4607    10.2724
 1341.5000     8.5860   102.9237     2.5246     0.0087   -64.7282     8.7522     9.4591    10.1775
 1342.0000     8.6063   101.7243     2.5216     0.0087   -64.7338     8.9951     9.4574    10.0831
 1342.5000     8.6066    99.6216     2.5276     0.0087   -64.7394     8.9117     9.4558    10.0818
 1343.0000     8.6269    99.6275     2.5396     0.0097   -64.7450     8.6682     9.4541    10.0798
 1343.5000     8.6472    99.9335     2.5466     0.0137   -64.7506     8.4314     9.4525    10.0781
 1344.0000     8.6876   100.5407     2.5516     0.0248   -64.9572     8.2007     9.4511    10.0771
 1344.5000     8.6879   101.1479     2.5586     0.0238   -64.7619     8.1993     9.3637    10.0748
 1345.0000     8.6880   101.4540     2.5507     0.0228   -64.7675     8.4269     9.3619    10.0738
 1345.5000     8.7084   101.4590     2.5477     0.0218   -64.5721     8.5816     9.3606     9.9793
 1346.0000     8.7087   101.4640     2.5407     0.0158   -64.5777     8.9398     9.2735     9.8868
 1346.5000     8.6888   101.4690     2.5377     0.0168   -64.5833     8.9383     9.4433     9.8851
 1347.0000     8.6891   101.1728     2.5467     0.0218   -64.5900     8.8978     9.4414     9.8835
 1347.5000     8.6693    99.9731     2.5507     0.0198   -64.5957     8.8963     9.5266    10.0648
 1348.0000     8.6294    98.4722     2.5587     0.0208   -64.8023     9.1431     9.5260    10.0628
 1348.5000     8.6295    98.1759     2.5627     0.0219   -64.6069     9.3110     9.5235    10.0618
 1349.0000     8.6099    98.4820     2.5628     0.0189   -64.4115     9.3098     9.5225    10.0584
 1349.5000     8.5901    99.6917     2.5528     0.0139   -64.4687     8.8091     9.5212    10.0581
 1350.0000     8.5703    96.9859     2.5438     0.0109   -64.5259     8.6474     9.5548    10.0561
 1350.5000     8.5705    99.4013     2.5348     0.0129   -64.5830     9.2198     9.6037    10.0548
 1351.0000     8.5708    99.1051     2.5308     0.0159   -64.6350     9.5630     9.6914    10.1781
 1351.5000     8.5710    99.4112     2.5328     0.0179   -64.4396     9.3869     9.8688    10.3303
 1352.0000     8.5511   101.8259     2.5368     0.0219   -64.6462     9.1313     9.7367    10.3293
 1352.5000     8.5514   104.2407     2.5428     0.0289   -64.4508     8.6402     9.4706    10.3275
 1353.0000     8.5516   104.8482     2.5438     0.0300   -64.4564     8.6385     9.3825    10.3255
 1353.5000     8.5519   105.1544     2.5369     0.0190   -64.4620     9.2504     9.3809    10.3231
 1354.0000     8.5923   105.1595     2.5249     0.0120   -64.4676     9.3336     9.3797    10.4167
 1354.5000     8.5925   105.4658     2.5249     0.0100   -64.4732     9.4176     9.4643    10.2257
 1355.0000     8.6128   105.1696     2.5269     0.0050   -64.4788     9.3305     9.6381    10.2246
 1355.5000     8.6332   103.6684     2.5249     0.0040   -64.4844     9.5011     9.7254    10.1311
 1356.0000     8.6535    99.1544     2.5219     0.0040   -64.2901     9.2412     9.7238    10.1281
 1356.5000     8.6538    96.7491     2.5229     0.0040   -64.4968     8.7468     9.4580    10.1265
 1357.0000     8.6541    95.8502     2.5269     0.0070   -64.3014     8.2025     9.1158    10.1255
 1357.5000     8.6543    96.1563     2.5319     0.0070   -64.5080     8.2017     9.1140    10.1234
 1358.0000     8.6546   100.0789     2.5370     0.0051   -64.5136     8.3512     9.3669    10.1218
 1358.5000     8.6546   103.0969     2.5370     0.0071   -64.5192     9.2345     9.5795    10.2128
 1359.0000     8.5345   104.9097     2.5290     0.0071   -64.5248     9.4036     9.9345    10.4944
 1359.5000     8.5348   104.9147     2.5230     0.0091   -64.5305     9.5754     9.5754    10.5895
 1360.0000     8.5350   104.3171     2.5310     0.0161   -64.3340     9.8404     9.8404    10.4927
 1360.5000     8.5152   104.6235     2.5420     0.0311   -64.3406    10.2057    10.2057    10.8812
 1361.0000     8.5355   105.8338     2.5440     0.0321   -64.1452    10.3926    10.3926    10.8794
 1361.5000     8.5358   106.4416     2.5340     0.0281   -64.1508    10.3909    10.3909    10.8783
 1362.0000     8.5360   106.4466     2.5241     0.0212   -64.1564    10.3892    10.3892    10.8758
 1362.5000     8.5363   106.7531     2.5171     0.0092   -64.1620     9.9227     9.9227    10.9736
 1363.0000     8.5365   105.8551     2.5111     0.0052   -64.3687     9.8306     9.8306    10.8935
 1363.5000     8.5367   104.6547     2.5091     0.0022   -64.1733     9.7394     9.7394    10.8708
 1364.0000     8.5169   104.0570     2.5021    -0.0018   -63.9778     9.6973     9.8274    10.8686
 1364.5000     8.4770   103.7607     2.5021    -0.0008   -63.9845     9.6960     9.7362    10.7688
 1365.0000     8.3768   102.2588     2.5021     0.0012   -64.1912     9.6944     9.8241    10.7660
 1365.5000     8.3771   101.6611     2.5111     0.0032   -64.1968     9.6928     9.8225    10.7642
 1366.0000     8.3773   102.8716     2.5162     0.0042   -64.2024     9.7803    10.2809    10.7621
 1366.5000     8.3776   103.7808     2.5112     0.0062   -64.2080     9.7786     9.8189    10.8593
 1367.0000     8.3778   103.7858     2.5122     0.0033   -64.0126     9.6876     9.8173    10.9574
 1367.5000     8.3781   102.8866     2.5152     0.0023   -64.0182     9.3367     9.6376    11.0563
 1368.0000     8.3582   103.4945     2.5162     0.0023   -64.0238     9.2499     9.6360    11.2351
 1368.5000     8.3585   103.4995     2.5202     0.0093   -64.0294     9.4197     9.6344    11.2569
 1369.0000     8.3788   102.9016     2.5242     0.0103   -64.0373     9.8606     9.9010    11.2566
 1369.5000     8.3791   102.6052     2.5272     0.0033   -64.0384    10.0421    10.0823    11.3575
 1370.0000     8.3793   103.5145     2.5273     0.0033   -63.6452    10.1327     9.9888    11.3549
 1370.5000     8.3594   105.0278     2.5333     0.0023   -63.8485     9.8557     9.8961    11.3530
 1371.0000     8.3597   104.7314     2.5333     0.0033   -64.0563     9.7640     9.8945    11.3515
 1371.5000     8.3599   103.8320     2.5333     0.0064   -64.0608     9.7624     9.8928    11.2646
 1372.0000     8.3401   102.9327     2.5363     0.0124   -64.0687     9.7608     9.8010    11.1415
 1372.5000     8.3604   103.5406     2.5373     0.0094   -64.0743     9.7592     9.7101    10.9375
 1373.0000     8.3607   102.9462     2.5223     0.0004   -64.2810     9.7572     9.5320    10.8632
 1373.5000     8.3809   102.0447     2.5113    -0.0016   -64.2877     9.7556     9.2722    10.8346
 1374.0000     8.3813   100.5423     2.5134     0.0014   -64.2933     9.6648     9.5288    10.8321
