~VERSION INFORMATION
 VERS.                2.0:   CWLS LOG ASCII STANDARD - VERSION 2.0
 WRAP.                 NO:   ONE LINE PER DEPTH STEP
~WELL INFORMATION
#MNEM.UNIT      DATA TYPE    INFORMATION
#----------   ------------   ------------------------------
 STRT.F           16.0000:   START DEPTH
 STOP.F         2860.0000:   STOP DEPTH
 STEP.F            0.5000:   STEP LENGTH
 NULL.          -999.2500:   NO VALUE
 COMP.    FENIX & SCISSON:   COMPANY
 WELL. FENIX NPR 3 "AX" #22-21:   WELL
 FLD .  TEAPOT DOME - NPR:   FIELD
 LOC .      S21 T39N R78W:   LOCATION
 CNTY.            NATRONA:   COUNTY
 STAT.            WYOMING:   STATE
 CTRY. UNITED STATES OF AMERICA:   COUNTRY
 SRVC.      DRESSER ATLAS:   SERVICE COMPANY
 DATE.        07-AUG-1978:   LOGDATE
 API .     49025106790000:   API NUMBER
~CURVE INFORMATION
#MNEM.UNIT       API CODE    CURVE DESCRIPTION
#----------   ------------   ------------------------------
 DEPT.F                  :   
 CALD.IN     45 280 60 00:   CALIPER FROM DENSITY LOG
 GRD .GAPI   45 310 01 00:   GAMMA RAY FROM DENSITY LOG
 CORR.G/C3   45 356 01 00:   DENSITY CORRECTION
 RHOB.G/C3   45 350 01 00:   BULK DENSITY
 SPR .MV     05 010 01 00:   SPONTANEOUS POTENTIAL
 ILD .OHMM   05 120 46 00:   DEEP INDUCTION RESISTIVITY
 SN  .OHMM   05 040 00 00:   SHORT NORMAL
~PARAMETER INFORMATION
#MNEM.UNIT          VALUE    DESCRIPTION
#----------   ------------   ------------------------------
 EKB .F         4989.0000:   Kelly bushing
 EGL .F         4979.0000:   Ground level
 EDF .F            0.0000:   Drilling floor
 TD  .F         2847.0000:   Total depth
 DATE.        07-AUG-1978:   Date logged
 CLNT.            A2DTECH:   Client Code
 SL  . 880' FNL & 660' FWL:   Surface Location
 PD  .                 GL:   Permanent Datum
 DD  .F              2845:   Depth driller
 DL  .F              2847:   Depth logger
 BLI .F              2841:   Bottom log interval
 CS1 .IN            8.625:   Casing size
 CBD1.      8.625" @ 240':   Casing driller 1
 CBL1.F               240:   Casing logger 1
 BS1 .IN            7.875:   Bit size
 DFT .                KCL:   Type fluid in hole
 DFD .                9.2:   Density
 DFV .                 31:   Viscosity
 DFPH.               10.5:   pH
 MSS .           FLOWLINE:   Source of sample
 RMS .OHMM           1.25:   Rm
 MST .F                74:   Rm Meas. temp.
 RMF .OHMM            1.8:   Rmf
 MFST.F                76:   Rmf Meas. temp.
 RMC .OHMM              3:   Rmc
 MCST.F                78:   Rmc Meas. temp.
 MFSS.               MEAS:   Source Rmf.
 TCS .HRS               4:   Time Circ. stopped
 LUN .               3006:   Logging unit number
 LUL .               CASP:   Logging unit location
 ENGI.             MILLER:   Recorded By
 WITN.           MCGINLEY:   Witnessed by
 ORIG.           5" PRINT:   Origin of data
 UWI .     49025106790000:   Unique Well ID
 DICO. A2D TECHNOLOGIES, INC.:   Digitizing Company
 DAPD.                 10:   Feet Above Permanent Datum
 BSD1.F              2845:   Depth drilled with bit1
 EPD .F              4970:   Elevation Permanent Datum
 LMF .                 KB:   Log Measured From
 DMF .                 KB:   Drilling Measured From
 TLI .                240:   Top log interval
~OTHER INFORMATION
~A   DEPT     CALD         GRD      CORR       RHOB        SPR        ILD         SN   
# ...
 1972.5000     8.1070   125.4020     0.0180     2.4530    -4.8870     6.0420     9.1990
 1973.0000     8.0040   124.2810     0.0210     2.4510    -4.6090     6.0320     9.2360
 1973.5000     7.9280   121.9030     0.0230     2.4500    -4.1190     6.0210     9.2780
 1974.0000     7.8810   123.5160     0.0270     2.4490    -3.6050     6.0100     9.3190
 1974.5000     7.6780   127.3010     0.0300     2.4540    -3.3380     5.9990     9.3680
 1975.0000     8.4920   130.3710     0.0320     2.4600    -3.3660     5.9870     9.3460
 1975.5000     7.9580   131.5870     0.0280     2.4660    -3.3590     5.9760     9.3180
 1976.0000     8.2230   129.4470     0.0240     2.4660    -3.3590     5.9650     9.2900
 1976.5000     7.8330   126.9580     0.0200     2.4560    -3.3610     5.9540     9.2630
 1977.0000     8.0540   124.5010     0.0170     2.4510    -3.3650     5.9430     9.2350
 1977.5000     8.6030   121.9690     0.0200     2.4470    -3.2600     5.9330     9.1990
 1978.0000     7.9560   119.6120     0.0220     2.4430    -2.8850     5.9330     9.4360
 1978.5000     8.0550   117.3560     0.0240     2.4420    -2.5400     5.9330     9.7780
 1979.0000     8.1980   118.4900     0.0240     2.4390    -2.2090     6.0150     9.9420
 1979.5000     7.9540   120.3090     0.0230     2.4370    -2.4240     6.1420    10.0110
 1980.0000     8.0340   122.2880     0.0220     2.4400    -2.6520     6.2680    10.0810
 1980.5000     8.0600   124.1210     0.0220     2.4560    -2.9050     6.3950    10.1500
 1981.0000     8.0540   125.9850     0.0210     2.4500    -3.1390     6.5000    10.2190
 1981.5000     8.0260   128.0830     0.0210     2.4490    -3.3520     6.5250    10.4540
 1982.0000     8.0050   128.6200     0.0220     2.4500    -3.3800     6.5580    10.5660
 1982.5000     7.9950   126.8910     0.0230     2.4520    -3.4040     6.5900    10.6850
 1983.0000     7.9980   125.5050     0.0240     2.4500    -3.4210     6.6200    10.8430
 1983.5000     7.9940   123.3590     0.0250     2.4450    -3.4440     6.3550    10.7800
 1984.0000     7.9940   120.5830     0.0330     2.4420    -3.4640     6.1100    10.5420
 1984.5000     8.0090   117.8670     0.0410     2.4560    -3.4840     5.8650    10.2650
 1985.0000     8.0080   116.0950     0.0470     2.4760    -3.5050     5.7080     9.8200
 1985.5000     8.6170   117.2980     0.0300     2.4980    -3.5260     5.6800     9.2750
 1986.0000     8.2670   119.2310     0.0140     2.4910    -3.5460     5.6520     8.7080
 1986.5000     8.1040   121.3050     0.0080     2.4740    -3.5670     5.6250     8.6340
 1987.0000     8.1030   121.4090     0.0090     2.4750    -3.5870     5.5970     8.5500
 1987.5000     8.1320   120.4810     0.0090     2.4800    -3.6080     5.5690     8.5500
 1988.0000     8.0960   118.1990     0.0090     2.4790    -3.6280     5.5410     8.9710
 1988.5000     8.1370   114.8580     0.0090     2.4780    -3.6490     5.5150     9.5410
 1989.0000     8.0960   111.7100     0.0080     2.4780    -3.6690     5.3920     9.1380
 1989.5000     8.0080   111.5440     0.0070     2.4780    -3.6890     5.2760     8.7570
 1990.0000     8.3330   112.1510     0.0050     2.4820    -3.7110     5.1600     8.3770
 1990.5000     9.0900   116.7350     0.0040     2.4870    -3.7300     5.0440     7.9970
 1991.0000     8.3930   120.2600     0.0020     2.4800    -3.7520     4.9280     7.6170
 1991.5000     8.1010   120.9760     0.0000     2.4730    -3.7340     4.8520     7.3870
 1992.0000     8.1140   121.9720    -0.0010     2.4650    -3.7090     4.7360     7.3870
 1992.5000     8.0770   123.0220    -0.0030     2.4580    -3.6830     4.6780     7.3870
 1993.0000     7.9960   123.8780     0.0040     2.4490    -3.6580     4.7820     7.3870
 1993.5000     7.9860   124.9680     0.0100     2.4460    -3.6320     4.8180     7.3730
 1994.0000     8.3480   122.9660     0.0170     2.4540    -3.6070     4.8520     7.3190
 1994.5000     8.6320   120.3160     0.0170     2.4600    -3.5820     4.8520     7.2650
 1995.0000     7.8690   117.5070     0.0170     2.4670    -3.5560     4.8520     7.2110
 1995.5000     8.0130   116.0880     0.0170     2.4630    -3.5310     4.8520     7.1560
 1996.0000     7.9610   115.7710     0.0170     2.4550    -3.5060     4.8800     7.1220
 1996.5000     7.9880   115.3030     0.0170     2.4520    -3.4800     4.9550     7.3160
 1997.0000     7.9990   115.2960     0.0170     2.4570    -3.4550     5.0300     7.5180
 1997.5000     7.9950   115.5010     0.0210     2.4630    -3.4290     5.1050     7.7210
 1998.0000     8.0270   115.3240     0.0250     2.4690    -3.4040     5.1800     7.9480
 1998.5000     8.0500   114.4210     0.0280     2.4740    -3.3780     5.2200     7.9480
 1999.0000     8.0810   112.9790     0.0290     2.4770    -3.3600     5.2200     8.0070
 1999.5000     8.0980   111.3880     0.0290     2.4780    -3.3600     5.2200     8.2430
 2000.0000     8.1820   109.3640     0.0290     2.4780    -3.3600     5.2200     8.2430
 2000.5000     8.3130   110.6450     0.0290     2.4720    -3.3600     5.2210     8.2430
 2001.0000     8.1220   113.8070     0.0280     2.4670    -3.3600     5.2200     8.2430
 2001.5000     7.9270   116.1690     0.0270     2.4700    -3.3600     5.2200     8.2430
 2002.0000     8.4770   115.8490     0.0200     2.4830    -3.3590     5.2210     8.2430
 2002.5000     7.9890   114.1880     0.0090     2.4660    -3.3600     5.2210     8.2430
 2003.0000     8.0260   112.5480     0.0080     2.4500    -3.3640     5.2200     8.2430
 2003.5000     8.0640   110.8840     0.0160     2.4480    -3.4240     5.2210     8.2430
 2004.0000     8.1500   109.2690     0.0130     2.4550    -3.4830     5.2200     8.3710
 2004.5000     8.0500   107.7040     0.0150     2.4610    -3.5440     5.2200     8.6760
 2005.0000     7.9900   106.8180     0.0160     2.4650    -3.6040     5.2200     8.8690
 2005.5000     8.0050   108.4240     0.0180     2.4630    -3.6640     5.2200     8.5300
 2006.0000     8.0090   111.6320     0.0190     2.4580    -3.7250     4.9560     8.1780
 2006.5000     8.0280   113.7140     0.0220     2.4500    -3.7640     4.7240     7.8250
 2007.0000     8.0360   112.3270     0.0330     2.4430    -3.6820     4.4920     7.4720
 2007.5000     8.0110   110.4330     0.0390     2.4370    -3.5520     4.2700     7.1200
 2008.0000     8.2790   108.8950     0.0300     2.4680    -3.4250     4.3370     6.7670
 2008.5000     8.5440   107.7840     0.0220     2.4860    -3.3580     4.4020     6.4140
 2009.0000     8.1420   106.6980     0.0130     2.4720    -3.4180     4.4290     6.2670
 2009.5000     7.9680   105.7570     0.0160     2.4540    -3.4720     4.4290     6.2670
 2010.0000     7.9740   104.7740     0.0190     2.4370    -3.5300     4.2690     6.1540
 2010.5000     7.9970   105.5780     0.0220     2.4220    -3.5850     4.1200     7.9480
 2011.0000     7.9870   107.1990     0.0280     2.4140    -3.6450     3.9720     7.7840
 2011.5000     7.9710   107.9720     0.0440     2.4090    -3.6980     3.8230     7.4450
 2012.0000     8.0980   108.3340     0.0420     2.4100    -3.7410     3.6740     7.1220
 2012.5000     9.4300   107.4090     0.0290     2.4350    -3.5900     3.5260     5.6160
 2013.0000     7.9220   106.2330     0.0220     2.4420    -3.4280     3.3770     5.3090
 2013.5000     8.0350   105.0530     0.0180     2.4390    -3.3520     3.2280     4.9220
 2014.0000     8.2360   101.5640     0.0190     2.4340    -3.3640     3.1070     4.5350
 2014.5000     8.2240   103.0190     0.0230     2.4280    -3.3580     3.0390     4.3480
 2015.0000     8.0480   105.0210     0.0270     2.4390    -3.3600     2.9630     4.8520
 2015.5000     8.1330   107.2950     0.0280     2.4530    -3.3770     2.9720     4.4290
 2016.0000     8.2630   108.7640     0.0260     2.4470    -3.5890     2.9840     4.5450
 2016.5000     8.2040   109.9810     0.0240     2.4430    -3.7940     2.9950     5.0330
 2017.0000     8.1180   110.4230     0.0230     2.4440    -4.0330     3.0060     4.7520
 2017.5000     8.0770   108.1920     0.0210     2.4450    -4.1260     3.0170     4.3480
