~VERSION INFORMATION
 VERS.                2.0:   CWLS LOG ASCII STANDARD - VERSION 2.0
 WRAP.                 NO:   ONE LINE PER DEPTH STEP
~WELL INFORMATION
#MNEM.UNIT      DATA TYPE    INFORMATION
#----------   ------------   ------------------------------
 STRT.F          207.0000:   START DEPTH
 STOP.F         3130.0000:   STOP DEPTH
 STEP.F            0.5000:   STEP LENGTH
 NULL.          -999.2500:   NO VALUE
 COMP. FENIX & SCISSON U.S. NAVY:   COMPANY
 WELL.    FENIX "A" #61-3:   WELL
 FLD .             NPR #3:   FIELD
 LOC .       S3 T38N R78W:   LOCATION
 CNTY.            NATRONA:   COUNTY
 STAT.            WYOMING:   STATE
 CTRY. UNITED STATES OF AMERICA:   COUNTRY
 SRVC.              WELEX:   SERVICE COMPANY
 DATE.        13-MAY-1977:   LOGDATE
 API .     49025103630000:   API NUMBER
~CURVE INFORMATION
#MNEM.UNIT       API CODE    CURVE DESCRIPTION
#----------   ------------   ------------------------------
 DEPT.F                  :   
 SPR .MV     07 010 01 00:   SPONTANEOUS POTENTIAL
 SFLU.OHMM   07 220 01 00:   SPHERICALLY FOCUSED LOG UNAVERAGED RESISTIVITY
 ILD .OHMM   07 120 46 00:   INDUCTION LOG DEEP RESISTIVITY
 ILM .OHMM   07 120 44 00:   INDUCTION LOG MEDIUM RESISTIVITY
 CALD.IN     45 280 60 00:   CALIPER FROM DENSITY LOG
 GRD .GAPI   45 310 01 00:   GAMMA RAY FROM DENSITY LOG
 RHOB.G/C3   45 350 01 00:   BULK DENSITY
 CORR.G/C3   45 356 01 00:   DENSITY CORRECTION
~PARAMETER INFORMATION
#MNEM.UNIT          VALUE    DESCRIPTION
#----------   ------------   ------------------------------
 EKB .F         5109.0000:   Kelly bushing
 EGL .F         5099.0000:   Ground level
 EDF .F            0.0000:   Drilling floor
 TD  .F         3130.0000:   Total depth
 DATE.        13-MAY-1977:   Date logged
 CLNT.            A2DTECH:   Client Code
 SL  . 330' FNL & 1650' FEL:   Surface Location
 PD  .                 GL:   Permanent Datum
 EPD .F              5099:   Elevation Permanent Datum
 LMF .                 KB:   Log Measured From
 DMF .                 KB:   Drilling Measured From
 DAPD.F                10:   Feet Above Permanent Datum
 DD  .F              3126:   Depth driller
 DL  .F              3129:   Depth logger
 BLI .F              3127:   Bottom log interval
 TLI .F               210:   Top log interval
 CS1 .IN            8.625:   Casing size
 CBD1.      8.625" @ 200':   Casing driller 1
 CBL1.F               216:   Casing logger 1
 BS1 .IN            7.875:   Bit size
 BSD1.F              3126:   Depth drilled with bit1
 DFT .            KCL MUD:   Type fluid in hole
 DFD .                9.1:   Density
 DFV .                 32:   Viscosity
 DFPH.                  8:   pH
 DFL .                8.4:   Fluid loss
 MSS .           FLOWLINE:   Source of sample
 RMS .OHMM            .29:   Rm
 MST .F                68:   Rm Meas. temp.
 RMF .OHMM            .28:   Rmf
 MFST.F                68:   Rmf Meas. temp.
 RMC .OHMM            .43:   Rmc
 MCST.F                68:   Rmc Meas. temp.
 MFSS.           FANN KIT:   Source Rmf.
 MCSS.           FANN KIT:   Source Rmc.
 RMB .OHMM            .16:   Rm. at BHT
 BHT .F               123:   BHT.
 TCS .HRS             2.5:   Time Circ. stopped
 MRT .F               123:   Maximum recorded temp.
 LUN .               9685:   Logging unit number
 LUL .           BRIGHTON:   Logging unit location
 ENGI.          T. JOYNER:   Recorded By
 WITN.      B. HARRINGTON:   Witnessed by
 ORIG.           5" PRINT:   Origin of data
 UWI .     49025103630000:   Unique Well ID
 DICO. A2D TECHNOLOGIES, INC.:   Digitizing Company
~OTHER INFORMATION
~A   DEPT      SPR       SFLU        ILD        ILM       CALD        GRD       RHOB       CORR   
# ...
 2880.0000   -41.9541     6.4331     4.9738     4.4134     9.3326   139.4837     2.5375     0.0251
 2880.5000   -42.1627     6.3719     4.9265     4.3317     9.3330   140.6846     2.5335     0.0211
 2881.0000   -42.1718     6.3113     4.8350     4.2503     9.3532   141.0118     2.5295     0.0212
 2881.5000   -42.1808     6.3677     4.7890     4.2497     9.3536   141.0901     2.5256     0.0212
 2882.0000   -41.9903     6.3071     4.7869     4.1704     9.3540   141.0981     2.5336     0.0153
 2882.5000   -41.7998     6.2466     4.7413     4.1313     9.3544   141.1044     2.5316     0.0173
 2883.0000   -42.0084     6.1872     4.6107     4.0914     9.3548   141.1092     2.5256     0.0134
 2883.5000   -42.2170     6.1849     4.5668     4.0905     9.3552   140.4100     2.5197     0.0134
 2884.0000   -42.0265     6.1830     4.5651     4.0510     9.3358   139.7108     2.5197     0.0115
 2884.5000   -42.0355     6.2383     4.7343     4.0495     9.3362   139.0117     2.5237     0.0155
 2885.0000   -41.8450     6.4098     4.8203     4.0480     9.3366   138.3125     2.5297     0.0175
 2885.5000   -41.6545     6.4666     4.7308     4.0465     9.3370   137.5923     2.5397     0.0196
 2886.0000   -41.4640     6.6449     4.8168     4.1203     9.3374   136.8066     2.5438     0.0216
 2886.5000   -41.4730     6.8902     4.9043     4.1949     9.3378   136.0224     2.5438     0.0236
 2887.0000   -41.2825     6.8257     4.9478     4.2712     9.3580   135.2382     2.5398     0.0237
 2887.5000   -40.6928     6.8231     4.8114     4.3096     9.3386   133.6619     2.5318     0.0178
 2888.0000   -40.8978     6.8206     4.8541     4.3074     9.3192   132.4817     2.5299     0.0178
 2888.5000   -40.9051     6.8186     4.8523     4.3857     9.3394   131.3015     2.5279     0.0158
 2889.0000   -40.5204     6.8156     4.9405     4.4249     9.3200   130.1212     2.5331     0.0159
 2889.5000   -40.5294     6.6268     4.9386     4.4638     9.3404   127.0023     2.5361     0.0159
 2890.0000   -40.5385     6.6258     4.9368     4.4628     9.2812   126.6158     2.5392     0.0160
 2890.5000   -40.5457     6.6234     4.9350     4.5020     9.3014   126.6221     2.5472     0.0220
 2891.0000   -40.3552     6.6209     4.9335     4.5006     9.3216   127.8167     2.5442     0.0221
 2891.5000   -40.3643     6.8030     5.0221     4.5821     9.3022   129.0128     2.5362     0.0221
 2892.0000   -40.3733     6.9261     5.0213     4.5801     9.3423   129.8128     2.5303     0.0162
 2892.5000   -40.3824     7.1182     5.0662     4.5794     9.3228   131.0089     2.5313     0.0202
 2893.0000   -40.3914     7.1807     5.2055     4.6193     9.3232   131.8090     2.5321     0.0202
 2893.5000   -40.2009     7.2443     5.2036     4.6176     9.3235   131.7817     2.5301     0.0183
 2894.0000   -40.4095     7.1759     5.2020     4.6165     9.3239   131.7868     2.5282     0.0183
 2894.5000   -40.2190     6.9138     4.9208     4.6148     9.3441   131.7928     2.5227     0.0144
 2895.0000   -40.2280     6.4213     4.9189     4.6987     9.3643   131.4046     2.5172     0.0164
 2895.5000   -40.0375     6.2449     4.7834     4.7834     9.3449   130.2244     2.5118     0.0185
 2896.0000   -40.0466     5.9063     4.8703     4.8261     9.3453   128.6481     2.5063     0.0185
 2896.5000   -39.8560     5.8510     4.9589     4.8693     9.3457   125.8837     2.5023     0.0185
 2897.0000   -39.6655     5.6377     4.9570     4.9120     9.3461   123.9113     2.5003     0.0106
 2897.5000   -39.6746     5.7932     4.9552     4.9109     9.3465   123.9193     2.5044     0.0127
 2898.0000   -39.6836     6.1193     5.0918     4.9070     9.3469   124.3233     2.5184     0.0147
 2898.5000   -39.8922     6.1171     5.0434     4.9062     9.3473   123.1430     2.5264     0.0167
 2899.0000   -39.9013     6.2853     4.9501     4.9048     9.3477   121.5668     2.5224     0.0168
 2899.5000   -40.1099     6.4005     5.0393     4.9033     9.3679   119.9921     2.5205     0.0168
 2900.0000   -40.1190     6.5775     5.0382     4.9008     9.4277   118.8127     2.5205     0.0169
 2900.5000   -39.9572     6.6238     5.0360     4.8989     9.3585   119.6071     2.5221     0.0169
 2901.0000   -39.9355     6.7564     5.0810     4.8975     9.3687   121.1953     2.5265     0.0169
 2901.5000   -39.7439     6.7542     5.1266     4.9412     9.3491   122.3875     2.5245     0.0169
 2902.0000   -39.7520     6.8144     5.2197     5.0777     9.3493   123.5796     2.5185     0.0110
 2902.5000   -39.7600     6.7499     5.2662     5.1229     9.3891   123.5836     2.5105     0.0150
 2903.0000   -39.7648     6.7477     5.2648     5.3131     9.3893   123.5876     2.5125     0.0150
 2903.5000   -39.5749     6.7455     5.3604     5.4099     9.4093   124.3837     2.5166     0.0170
 2904.0000   -39.5829     6.8684     5.3590     5.4085     9.4095   125.5758     2.5166     0.0190
 2904.5000   -39.5909     6.7411     5.3573     5.4067     9.4097   126.7679     2.5166     0.0190
 2905.0000   -39.3994     6.8631     5.3062     5.2576     9.4099   129.1482     2.5146     0.0231
 2905.5000   -39.4074     6.7994     5.2082     5.2082     9.3705   132.3606     2.5126     0.0271
 2906.0000   -39.6150     6.4919     4.9269     4.9269     9.3509   135.4946     2.5106     0.0271
 2906.5000   -39.0243     6.1979     4.7043     4.6184     9.3511   139.1014     2.5066     0.0271
 2907.0000   -38.8327     5.7567     4.2896     4.2896     9.3513   140.2927     2.5006     0.0311
 2907.5000   -38.4416     5.2980     4.0581     3.9480     9.3515   142.2769     2.4947     0.0312
 2908.0000   -38.4496     4.6139     3.8392     3.6670     9.3715   143.4691     2.4907     0.0312
 2908.5000   -38.2581     4.4052     3.6320     3.5661     9.3717   147.0375     2.4747     0.0212
 2909.0000   -38.2661     3.9439     3.3118     3.3120     9.3917   149.3786     2.4727     0.0192
 2909.5000   -38.2741     3.5309     2.9108     2.8576     9.3721   150.9660     2.4747     0.0213
 2910.0000   -38.0826     3.3713     2.7797     2.8311     9.4119   151.3660     2.4827     0.0213
 2910.5000   -38.2902     3.2487     2.7282     2.8827     9.3923   148.2016     2.4947     0.0213
 2911.0000   -38.2982     3.3691     3.0173     3.1302     9.4321   143.4530     2.5007     0.0233
 2911.5000   -38.5058     4.5616     3.6920     3.4621     9.4323   138.3084     2.5107     0.0273
 2912.0000   -38.9130     5.4804     3.9003     3.7944     9.4325   127.6191     2.5167     0.0353
 2912.5000   -38.9210     6.0618     4.0080     4.0450     9.4525   119.3469     2.5207     0.0434
 2913.0000   -39.1286     6.1723     4.0434     4.1573     9.4725   118.1628     2.5227     0.0474
 2913.5000   -39.3362     6.2273     4.2721     4.3511     9.4727   118.5620     2.5227     0.0574
 2914.0000   -39.7434     6.2253     4.5963     4.5129     9.4729   120.1502     2.5228     0.0594
 2914.5000   -39.3555     6.2803     4.8556     4.7233     9.4929   119.3621     2.5208     0.0674
 2915.0000   -39.5599     6.2783     4.8986     4.8093     9.4931   118.9700     2.5168     0.0774
 2915.5000   -39.3683     6.2184     4.8970     4.8528     9.4933   119.3701     2.5148     0.0694
 2916.0000   -39.5759     6.0470     4.7187     4.8957     9.5132   120.5622     2.5068     0.0675
 2916.5000   -39.5840     5.8814     4.8938     4.8938     9.4936   122.1504     2.5008     0.0475
 2917.0000   -39.3956     5.8260     4.8031     4.8922     9.5136   126.5109     2.5168     0.0495
 2917.5000   -39.3988     5.7181     4.5859     4.8459     9.5138   127.3070     2.5208     0.0599
 2918.0000   -39.0077     5.7162     4.4600     4.7129     9.5338   128.1031     2.5208     0.0616
 2918.5000   -39.0173     5.7144     4.4181     4.6253     9.5340   129.2952     2.5208     0.0716
 2919.0000   -39.0254     5.7125     4.4167     4.5818     9.5144   129.2992     2.5149     0.0756
 2919.5000   -39.0334     5.7638     4.3746     4.5387     9.5146   131.6795     2.5089     0.0756
 2920.0000   -39.0414     5.8148     4.2932     4.5372     9.5545   134.0598     2.4929     0.0756
