~VERSION INFORMATION
 VERS.                2.0:   CWLS LOG ASCII STANDARD - VERSION 2.0
 WRAP.                 NO:   ONE LINE PER DEPTH STEP
~WELL INFORMATION
#MNEM.UNIT      DATA TYPE    INFORMATION
#----------   ------------   ------------------------------
 STRT.F           96.5000:   START DEPTH
 STOP.F         2720.0000:   STOP DEPTH
 STEP.F            0.5000:   STEP LENGTH
 NULL.          -999.2500:   NO VALUE
 COMP.          INTEX OIL:   COMPANY
 WELL. INTEX NPR 65 "AX" #3-20:   WELL
 FLD .             TEAPOT:   FIELD
 LOC .      S20 T39N R78W:   LOCATION
 CNTY.            NATRONA:   COUNTY
 STAT.            WYOMING:   STATE
 CTRY. UNITED STATES OF AMERICA:   COUNTRY
 SRVC.       SCHLUMBERGER:   SERVICE COMPANY
 DATE.        04-MAY-1966:   LOGDATE
 API .     49025094910000:   API NUMBER
~CURVE INFORMATION
#MNEM.UNIT       API CODE    CURVE DESCRIPTION
#----------   ------------   ------------------------------
 DEPT.F                  :   
 SPR .MV     05 010 01 00:   SPONTANEOUS POTENTIAL FROM RES.
 SN  .OHMM   05 040 16 00:   SHORT NORMAL 16"
 ILD .OHMM   05 120 46 00:   INDUCTION LOG DEEP
 CALD.IN     45 280 60 00:   CALIPER FROM DENSITY LOG
 CORR.G/C3   45 356 01 00:   DENSITY CORRECTION
 GRD .GAPI   45 310 01 00:   GAMMA RAY FROM DENSITY LOG
 RHOB.G/C3   45 350 01 00:   BULK DENSITY
~PARAMETER INFORMATION
#MNEM.UNIT          VALUE    DESCRIPTION
#----------   ------------   ------------------------------
 EKB .F         5053.3000:   Kelly bushing
 EGL .F         5043.0000:   Ground level
 EDF .F            0.0000:   Drilling floor
 TD  .F         2720.0000:   Total depth
 DATE.        04-MAY-1966:   Date logged
 CLNT.            A2DTECH:   Client Code
 PD  .                 GL:   Permanent Datum
 EPD .F              5043:   Elevation Permanent Datum
 LMF .                 KB:   Log Measured From
 DMF .                 KB:   Drilling Measured From
 DAPD.F              10.3:   Feet Above Permanent Datum
 DD  .F              2720:   Depth driller
 DL  .F              2720:   Depth logger
 BLI .F              2719:   Bottom log interval
 TLI .F                97:   Top log interval
 CS1 .IN            10.75:   Casing size
 CBD1.       10.75" @ 30':   Casing driller 1
 BS1 .IN            7.875:   Bit size
 BSD1.F              2720:   Depth drilled with bit1
 DFT . GEL/Q-BROX/OIL/DAKOLITE:   Type fluid in hole
 DFD .               10.3:   Density
 DFV .                 41:   Viscosity
 DFPH.                7.2:   pH
 DFL .                8.8:   Fluid loss
 MSS .           FLOWLINE:   Source of sample
 RMS .OHMM              2:   Rm
 MST .F                61:   Rm Meas. temp.
 RMF .OHMM           1.31:   Rmf
 MFST.F                65:   Rmf Meas. temp.
 MFSS.                 FP:   Source Rmf.
 RMB .OHMM           1.15:   Rm. at BHT
 BHT .F               110:   BHT.
 TCS .HRS               2:   Time Circ. stopped
 MRT .F               110:   Maximum recorded temp.
 LUN .               4507:   Logging unit number
 LUL .               CSPR:   Logging unit location
 ENGI.            MANGOLD:   Recorded By
 WITN.             TUTTLE:   Witnessed by
 ORIG.       2", 5" PRINT:   Origin of data
 UWI .     49025094910000:   Unique Well ID
 DICO. A2D TECHNOLOGIES, INC.:   Digitizing Company
~OTHER INFORMATION
~A   DEPT      SPR         SN         ILD      CALD       CORR        GRD       RHOB   
# ...
 2007.5000   -34.6070    11.4520     8.1490     8.7310     0.0060   120.4910     2.4440
 2008.0000   -34.5540    11.3190     7.9000     8.7320     0.0090   122.6090     2.4540
 2008.5000   -34.5010    11.0990     7.6550     8.7330     0.0110   124.1470     2.4480
 2009.0000   -34.4520    10.8240     7.3460     8.7340     0.0120   127.1210     2.4450
 2009.5000   -34.4020    10.6130     7.0280     8.7350     0.0120   135.8890     2.4310
 2010.0000   -34.3520    10.4740     6.8520     8.7360     0.0120   144.4800     2.4170
 2010.5000   -34.3030    10.2630     6.8710     8.7370     0.0090   153.6800     2.4010
 2011.0000   -34.2520     9.9170     6.9890     8.7380     0.0080   159.7070     2.3900
 2011.5000   -34.1980     9.6650     7.1500     8.7390     0.0060   157.2940     2.3900
 2012.0000   -34.1480     9.8900     7.4470     8.7390     0.0040   152.1340     2.3900
 2012.5000   -34.1060    10.7640     7.9930     8.7400    -0.0010   146.8190     2.3900
 2013.0000   -34.0650    12.1550     8.7740     8.7410    -0.0050   149.1340     2.3900
 2013.5000   -34.0350    13.7900     9.6930     8.7420    -0.0090   153.2530     2.3810
 2014.0000   -34.0470    15.3190    10.6430     8.7430    -0.0130   157.3690     2.3710
 2014.5000   -34.0880    16.3250    11.4720     8.7440    -0.0170   161.5900     2.3610
 2015.0000   -34.0750    16.5890    11.9540     8.7450    -0.0110   165.9720     2.3730
 2015.5000   -33.9470    16.3380    11.9120     8.7460    -0.0040   169.3790     2.3860
 2016.0000   -33.7690    15.9850    11.3710     8.7470     0.0020   168.0910     2.3980
 2016.5000   -33.6510    15.6360    10.5430     8.7480     0.0080   166.9210     2.4110
 2017.0000   -33.6060    15.0730     9.6700     8.7490     0.0060   165.4480     2.4040
 2017.5000   -33.5480    14.1830     8.8520     8.7500     0.0030   164.2640     2.3890
 2018.0000   -33.4320    13.1450     8.0440     8.7500     0.0010   162.9890     2.3730
 2018.5000   -33.3090    12.1380     7.2060     8.7520     0.0020   165.6930     2.3650
 2019.0000   -33.2190    11.0750     6.3900     8.7520     0.0050   168.4510     2.3680
 2019.5000   -33.1340     9.7820     5.6600     8.7540     0.0070   171.8410     2.3890
 2020.0000   -33.0230     8.3750     4.9990     8.7580     0.0090   168.0730     2.4100
 2020.5000   -32.9230     7.2650     4.3990     8.8390     0.0120   158.5070     2.4430
 2021.0000   -32.8940     6.7450     3.9600     8.9360     0.0140   148.8320     2.4730
 2021.5000   -32.9430     6.6630     3.7790     9.0320     0.0160   140.0600     2.4700
 2022.0000   -33.0240     6.6240     3.7880     9.1340     0.0150   136.2610     2.4660
 2022.5000   -33.0940     6.4410     3.8310     9.1880     0.0130   134.2540     2.4680
 2023.0000   -33.1460     6.2400     3.8610     9.1820     0.0100   133.6410     2.4800
 2023.5000   -33.1970     6.1740     3.9420     9.1830     0.0080   134.7460     2.4940
 2024.0000   -33.2650     6.2140     4.0990     9.1950     0.0060   135.1140     2.4850
 2024.5000   -33.3430     6.2570     4.2810     9.2170     0.0060   134.5000     2.4730
 2025.0000   -33.3980     6.2750     4.4570     9.2370     0.0100   133.7720     2.4820
 2025.5000   -33.4310     6.2970     4.6260     9.2570     0.0090   131.0790     2.4780
 2026.0000   -33.4980     6.3330     4.7620     9.2780     0.0070   129.0770     2.4830
 2026.5000   -33.6150     6.3700     4.8220     9.2980     0.0100   129.7720     2.4980
 2027.0000   -33.6780     6.4030     4.8140     9.3180     0.0140   129.0990     2.5120
 2027.5000   -33.5890     6.4410     4.7960     9.3380     0.0180   129.5500     2.5130
 2028.0000   -33.4300     6.4880     4.7990     9.3400     0.0140   129.6840     2.5030
 2028.5000   -33.3960     6.5330     4.8080     9.3400     0.0100   130.0160     2.4930
 2029.0000   -33.5310     6.5670     4.8060     9.3400     0.0050   130.2110     2.4830
 2029.5000   -33.6780     6.5860     4.8010     9.3400     0.0010   129.6440     2.4780
 2030.0000   -33.7050     6.6020     4.8030     9.3400    -0.0020   127.9200     2.4730
 2030.5000   -33.6580     6.6210     4.8070     9.3400    -0.0050   125.0860     2.4680
 2031.0000   -33.6370     6.6410     4.8030     9.3400    -0.0070   124.8740     2.4640
 2031.5000   -33.6580     6.6580     4.8000     9.3400     0.0000   126.8660     2.4580
 2032.0000   -33.6770     6.6760     4.8060     9.3400     0.0070   129.4910     2.4620
 2032.5000   -33.6710     6.7000     4.8110     9.3400     0.0130   133.0430     2.4730
 2033.0000   -33.6500     6.7200     4.8000     9.3400     0.0180   136.6260     2.4820
 2033.5000   -33.6430     6.7280     4.7880     9.3400     0.0150   140.0850     2.4900
 2034.0000   -33.6710     6.7430     4.8230     9.3400     0.0130   142.9400     2.4710
 2034.5000   -33.6990     6.7930     4.9280     9.3400     0.0100   139.5740     2.4490
 2035.0000   -33.6520     6.8770     5.0720     9.3400     0.0080   136.0220     2.4410
 2035.5000   -33.5390     6.9750     5.2240     9.3400     0.0050   133.9760     2.4570
 2036.0000   -33.4760     7.0800     5.3910     9.3400     0.0060   132.0170     2.4690
 2036.5000   -33.5290     7.1870     5.5650     9.3400     0.0080   130.1220     2.4810
 2037.0000   -33.6130     7.2650     5.6620     9.3400     0.0110   128.5220     2.4950
 2037.5000   -33.6140     7.3200     5.5860     9.3400     0.0130   127.2740     2.4990
 2038.0000   -33.5410     7.4320     5.3490     9.3400     0.0140   126.5340     2.4900
 2038.5000   -33.4750     7.6290     5.0630     9.3400     0.0150   126.6490     2.4960
 2039.0000   -33.4450     7.7590     4.8040     9.3400     0.0160   128.6800     2.4990
 2039.5000   -33.4210     7.6210     4.5540     9.3400     0.0190   130.9990     2.5060
 2040.0000   -33.3820     7.2060     4.2870     9.3400     0.0280   132.4610     2.4850
 2040.5000   -33.3280     6.6790     4.0320     9.3420     0.0360   133.7330     2.4670
 2041.0000   -33.2750     6.1580     3.8340     9.3600     0.0450   135.0020     2.4780
 2041.5000   -33.2600     5.6720     3.6880     9.3770     0.0530   136.4270     2.4830
 2042.0000   -33.2920     5.3040     3.5620     9.3950     0.0620   137.0570     2.4750
 2042.5000   -33.2940     5.1770     3.4630     9.4120     0.0500   136.2300     2.4660
 2043.0000   -33.1730     5.2700     3.4230     9.4300     0.0320   135.7230     2.4590
 2043.5000   -32.9520     5.3960     3.4410     9.4470     0.0190   134.2680     2.4600
 2044.0000   -32.7550     5.4210     3.4790     9.4650     0.0140   133.5360     2.4610
 2044.5000   -32.6470     5.3870     3.5050     9.4820     0.0070   134.7750     2.4660
 2045.0000   -32.5790     5.3770     3.5230     9.4990     0.0080   136.6930     2.4740
 2045.5000   -32.5110     5.3940     3.5460     9.5170     0.0190   139.2310     2.4790
 2046.0000   -32.4770     5.4010     3.5740     9.5340     0.0130   141.9180     2.4780
 2046.5000   -32.5130     5.3920     3.6000     9.5520     0.0120   142.0640     2.4950
 2047.0000   -32.5890     5.3880     3.6220     9.5690     0.0160   140.5590     2.4960
 2047.5000   -32.6510     5.3920     3.6460     9.5870     0.0230   138.9120     2.4870
 2048.0000   -32.6980     5.3940     3.6720     9.6040     0.0340   137.2550     2.4810
 2048.5000   -32.7560     5.3920     3.6970     9.6220     0.0460   136.5840     2.4880
 2049.0000   -32.8230     5.3910     3.7200     9.6390     0.0580   135.7170     2.4950
 2049.5000   -32.8680     5.3920     3.7450     9.6560     0.0690   135.1350     2.5010
 2050.0000   -32.8770     5.3920     3.7710     9.6740     0.0690   134.7790     2.5080
 2050.5000   -32.8710     5.3930     3.7950     9.6900     0.0610   134.3750     2.5130
 2051.0000   -32.8810     5.3930     3.8200     9.6910     0.0550   134.0030     2.5140
 2051.5000   -32.9170     5.3920     3.8480     9.6910     0.0480   133.5670     2.5140
 2052.0000   -32.9640     5.3910     3.8760     9.6910     0.0410   133.7320     2.5160
 2052.5000   -33.0090     5.3930     3.8990     9.6910     0.0350   134.3220     2.5060
