~VERSION INFORMATION
 VERS.                2.0:   CWLS LOG ASCII STANDARD - VERSION 2.0
 WRAP.                 NO:   ONE LINE PER DEPTH STEP
~WELL INFORMATION
#MNEM.UNIT      DATA TYPE    INFORMATION
#----------   ------------   ------------------------------
 STRT.F           40.0000:   START DEPTH
 STOP.F         3032.5000:   STOP DEPTH
 STEP.F            0.5000:   STEP LENGTH
 NULL.          -999.2500:   NO VALUE
 COMP.   TESORO PETROLEUM:   COMPANY
 WELL. TESORO NPR 3 "AX" #51-15:   WELL
 FLD .        TEAPOT DOME:   FIELD
 LOC .      S15 T38N R78W:   LOCATION
 CNTY.            NATRONA:   COUNTY
 STAT.            WYOMING:   STATE
 CTRY. UNITED STATES OF AMERICA:   COUNTRY
 SRVC.       SCHLUMBERGER:   SERVICE COMPANY
 DATE.        21-JUL-1969:   LOGDATE
 API .     49025100240000:   API NUMBER
~CURVE INFORMATION
#MNEM.UNIT       API CODE    CURVE DESCRIPTION
#----------   ------------   ------------------------------
 DEPT.F                  :   
 CALD.IN     45 280 60 00:   CALIPER FROM DENSITY LOG
 GRD .GAPI   45 310 01 00:   GAMMA RAY FROM DENSITY LOG
 RHOB.G/C3   45 350 01 00:   BULK DENSITY
 CORR.G/C3   45 356 01 00:   DENSITY CORRECTION
 GR  .GAPI   35 310 01 00:   GAMMA RAY FROM GAMMA RAY LOG
 SPR .MV     05 010 01 00:   SPONTANEOUS POTENTIAL
 ASN .OHMM   05 041 16 00:   AMPLIFIED SHORT NORMAL 16"
 ILD .OHMM   05 120 46 00:   DEEP INDUCTION RESISTIVITY
~PARAMETER INFORMATION
#MNEM.UNIT          VALUE    DESCRIPTION
#----------   ------------   ------------------------------
 EKB .F         5235.0000:   Kelly bushing
 EGL .F         5222.0000:   Ground level
 EDF .F            0.0000:   Drilling floor
 TD  .F         3027.0000:   Total depth
 DATE.        21-JUL-1969:   Date logged
 CLNT.            A2DTECH:   Client Code
 SL  . 2000' FEL & 660' FNL:   Surface Location
 PD  .                 GL:   Permanent Datum
 EPD .F              5222:   Elevation Permanent Datum
 LMF .                 KB:   Log Measured From
 DMF .                 KB:   Drilling Measured From
 DAPD.F                13:   Feet Above Permanent Datum
 DD  .F              3027:   Depth driller
 DL  .F              3025:   Depth logger
 BLI .F              3024:   Bottom log interval
 TLI .F              2604:   Top log interval
 CS1 .IN            10.75:   Casing size
 CBD1.      10.75" @ 622':   Casing driller 1
 BS1 .IN                9:   Bit size
 BSD1.F              3027:   Depth drilled with bit1
 DFT .          FRESH/GEL:   Type fluid in hole
 DFD .                9.7:   Density
 DFV .                 65:   Viscosity
 DFPH.                9.5:   pH
 DFL .                  7:   Fluid loss
 MSS .           FLOWLINE:   Source of sample
 RMS .OHMM           2.48:   Rm
 MST .F                80:   Rm Meas. temp.
 RMF .OHMM           2.80:   Rmf
 MFST.F                80:   Rmf Meas. temp.
 MFSS.               MEAS:   Source Rmf.
 RMB .OHMM           2.20:   Rm. at BHT
 BHT .F               106:   BHT.
 TCS .HRS               1:   Time Circ. stopped
 MRT .F               106:   Maximum recorded temp.
 LUN .               4507:   Logging unit number
 LUL .               CSPR:   Logging unit location
 ENGI.           CHAMPLIN:   Recorded By
 WITN.                MAY:   Witnessed by
 ORIG.           5" PRINT:   Origin of data
 UWI .     49025100240000:   Unique Well ID
 DICO. A2D TECHNOLOGIES, INC.:   Digitizing Company
~OTHER INFORMATION
~A   DEPT     CALD        GRD       RHOB       CORR         GR        SPR        ASN          ILD 
# ...
 2308.0000     9.2850    86.3020     2.5440     0.0250  -999.2500   -23.6170    10.9970     8.9380
 2308.5000     9.2850    85.5580     2.5670     0.0230  -999.2500   -23.7150    11.1960     9.0620
 2309.0000     9.2860    84.6180     2.5750     0.0130  -999.2500   -23.8080    11.5830     9.1710
 2309.5000     9.2870    81.7460     2.5300     0.0120  -999.2500   -23.9020    11.9150     9.3320
 2310.0000     9.2880    81.7060     2.4800     0.0210  -999.2500   -24.0000    12.2790     9.5320
 2310.5000     9.2890    83.2520     2.4890     0.0310  -999.2500   -24.0900    12.4090     9.7160
 2311.0000     9.2890    81.6390     2.4990     0.0250  -999.2500   -24.1840    12.3780     9.8500
 2311.5000     9.2900    80.5260     2.5120     0.0050  -999.2500   -24.0830    12.1990     9.5800
 2312.0000     9.2910    80.8720     2.5240    -0.0040  -999.2500   -23.8990    12.0100     9.1420
 2312.5000     9.2920    83.4810     2.5320    -0.0010  -999.2500   -23.7250    11.7960     8.7490
 2313.0000     9.2930    87.3000     2.5240     0.0020  -999.2500   -23.5470    11.2960     8.3620
 2313.5000     9.2940    91.0520     2.5160     0.0030  -999.2500   -23.3730    10.7390     8.0980
 2314.0000     9.2940    98.5500     2.5270     0.0050  -999.2500   -23.1950    10.1750     7.8910
 2314.5000     9.2950    99.3160     2.5220     0.0070  -999.2500   -23.0170    10.0770     7.7430
 2315.0000     9.2960    99.3960     2.5140     0.0130  -999.2500   -22.7160    10.2050     7.6220
 2315.5000     9.2970    97.0620     2.5120     0.0180  -999.2500   -22.4270    10.2840     7.3830
 2316.0000     9.2980    93.9630     2.5100     0.0120  -999.2500   -22.1300    10.4060     7.1680
 2316.5000     9.2980    87.1610     2.5030     0.0140  -999.2500   -21.8360    10.2360     6.9480
 2317.0000     9.2990    91.7230     2.4880     0.0170  -999.2500   -21.5490    10.1320     6.7250
 2317.5000     9.3000    93.6470     2.4880     0.0090  -999.2500   -21.2290    10.1440     6.5150
 2318.0000     9.3010    99.3900     2.5070     0.0020  -999.2500   -21.0430     9.4240     6.2700
 2318.5000     9.3020   108.3020     2.4880    -0.0020  -999.2500   -21.0010     8.1810     6.3000
 2319.0000     9.3020   114.9990     2.4950    -0.0010  -999.2500   -20.9200     8.2370     6.3860
 2319.5000     9.3030   116.9380     2.5120     0.0110  -999.2500   -20.8470     8.4100     6.6470
 2320.0000     9.3040   113.5040     2.5040     0.0310  -999.2500   -20.7900     9.7600     7.1010
 2320.5000     9.3050   106.8400     2.4770     0.0370  -999.2500   -20.6830    10.5110     7.5380
 2321.0000     9.3060   103.5980     2.5020     0.0270  -999.2500   -20.7090    11.7570     7.9780
 2321.5000     9.3060   111.6830     2.4730     0.0450  -999.2500   -20.2580    12.8040     8.4220
 2322.0000     9.3070   115.6920     2.4560     0.0400  -999.2500   -19.7780    13.9740     8.8640
 2322.5000     9.3080   118.0280     2.4620     0.0170  -999.2500   -19.4180    13.5340     9.2830
 2323.0000     9.3090   118.8050     2.4700     0.0080  -999.2500   -19.1360    12.6120     9.4690
 2323.5000     9.3100   127.2320     2.5020     0.0090  -999.2500   -19.3800    11.7290     8.9640
 2324.0000     9.3100   134.5170     2.4960     0.0090  -999.2500   -19.6320    10.7380     7.9940
 2324.5000     9.3110   136.7440     2.5050     0.0130  -999.2500   -19.8750    10.3170     7.1200
 2325.0000     9.3130   138.1080     2.4550     0.0210  -999.2500   -20.1410    10.3050     6.2140
 2325.5000     9.3120   136.3290     2.4630     0.0290  -999.2500   -20.2130     7.9030     5.5850
 2326.0000     9.3290   134.7910     2.4820     0.0340  -999.2500   -19.4180     6.9930     5.1590
 2326.5000     9.3600   134.5290     2.5150     0.0370  -999.2500   -18.6440     6.1250     4.6940
 2327.0000     9.3890   131.3400     2.5710     0.0290  -999.2500   -18.7540     6.0010     4.3880
 2327.5000     9.4180   121.4170     2.5650     0.0110  -999.2500   -20.1070     5.8640     4.2700
 2328.0000     9.4470   110.2050     2.4670     0.0010  -999.2500   -21.1570     5.5870     4.1140
 2328.5000     9.4750   108.7510     2.5080     0.0110  -999.2500   -20.9840     5.2040     4.0670
 2329.0000     9.5040   108.9710     2.5410     0.0270  -999.2500   -20.6090     5.1740     4.0770
 2329.5000     9.5340   110.7740     2.5540     0.0420  -999.2500   -20.1090     5.1420     4.1410
 2330.0000     9.5540   107.3600     2.5710     0.1160  -999.2500   -20.0390     5.1770     4.2050
 2330.5000     9.5510   109.2140     2.5850     0.0960  -999.2500   -20.3120     5.2500     4.2710
 2331.0000     9.5500   107.9540     2.6090     0.0040  -999.2500   -20.2920     5.3230     4.3350
 2331.5000     9.5480   105.3240     2.6300     0.0560  -999.2500   -20.4120     5.3960     4.4020
 2332.0000     9.5460   103.9730     2.5820     0.1270  -999.2500   -20.4900     5.4550     4.4660
 2332.5000     9.5440   104.9870     2.5930     0.1050  -999.2500   -20.5870     5.4430     4.5320
 2333.0000     9.5420   105.6580     2.6100     0.0840  -999.2500   -20.6910     5.4100     4.5970
 2333.5000     9.5410   105.4820     2.5600     0.0840  -999.2500   -21.0730     5.3760     4.6580
 2334.0000     9.5390   104.9700     2.5250     0.0820  -999.2500   -21.4320     5.3440     4.6620
 2334.5000     9.5370   104.4220     2.5380     0.0920  -999.2500   -21.8240     5.3090     4.6630
 2335.0000     9.5350   105.9510     2.5300     0.1000  -999.2500   -21.8460     5.2960     4.6620
 2335.5000     9.5330   109.3300     2.5130     0.0880  -999.2500   -21.8610     5.2980     4.6620
 2336.0000     9.5310   109.8830     2.5230     0.1020  -999.2500   -21.8430     5.2960     4.6620
 2336.5000     9.5290   110.4180     2.5440     0.0910  -999.2500   -21.8540     5.3010     4.6600
 2337.0000     9.5270   110.9320     2.5440     0.0600  -999.2500   -21.9190     5.2650     4.6660
 2337.5000     9.5260   110.9330     2.5400     0.0300  -999.2500   -22.6520     5.2050     4.6140
 2338.0000     9.5240   110.4390     2.5520     0.0200  -999.2500   -23.2970     5.1530     4.5030
 2338.5000     9.5210   105.5060     2.5470     0.0300  -999.2500   -23.9580     5.0970     4.4010
 2339.0000     9.5210   105.4830     2.5670     0.0330  -999.2500   -24.4760     5.0480     4.2950
 2339.5000     9.5170   107.2730     2.5880     0.0270  -999.2500   -24.9070     4.9610     4.1900
 2340.0000     9.5160   108.0890     2.6090     0.0190  -999.2500   -25.3550     4.8400     4.0850
 2340.5000     9.5220   105.5500     2.5860     0.0110  -999.2500   -25.3370     4.7250     3.9800
 2341.0000     9.5610   103.9270     2.5780     0.0030  -999.2500   -25.2170     4.6110     3.8750
 2341.5000     9.5600   103.9990     2.5870    -0.0020  -999.2500   -25.0950     4.4880     3.7700
 2342.0000     9.5680   103.8410     2.6200     0.0200  -999.2500   -24.9830     4.3990     3.6650
 2342.5000     9.5730   104.3400     2.5970     0.0640  -999.2500   -24.8620     4.3570     3.5600
 2343.0000     9.5780   105.3040     2.5850     0.0950  -999.2500   -24.7480     4.3010     3.4560
 2343.5000     9.5840   106.4990     2.5730     0.1170  -999.2500   -24.6140     4.2590     3.3490
 2344.0000     9.5890   105.8630     2.5810     0.1420  -999.2500   -24.4510     4.1340     3.2470
 2344.5000     9.5950   104.8920     2.5980     0.1550  -999.2500   -24.2450     3.8970     3.1380
 2345.0000     9.6000   105.1530     2.5810     0.1460  -999.2500   -24.0520     3.7310     3.0370
 2345.5000     9.6060   109.3440     2.5720     0.1300  -999.2500   -23.8430     3.6100     2.9330
 2346.0000     9.6110   114.5150     2.5540     0.1160  -999.2500   -23.6530     3.5450     2.8270
 2346.5000     9.6170   113.9910     2.5280     0.0950  -999.2500   -23.4540     3.5750     2.7080
 2347.0000     9.6220   109.9790     2.5370     0.1020  -999.2500   -23.6480     3.6360     2.8130
 2347.5000     9.6280   105.1600     2.5260     0.1230  -999.2500   -23.8950     3.7000     2.8680
 2348.0000     9.6330   103.3050     2.5350     0.1490  -999.2500   -24.1480     3.7640     2.9470
