~VERSION INFORMATION
 VERS.                2.0:   CWLS LOG ASCII STANDARD - VERSION 2.0
 WRAP.                 NO:   ONE LINE PER DEPTH STEP
~WELL INFORMATION
#MNEM.UNIT      DATA TYPE    INFORMATION
#----------   ------------   ------------------------------
 STRT.F           11.0000:   START DEPTH
 STOP.F         4154.0000:   STOP DEPTH
 STEP.F            0.5000:   STEP LENGTH
 NULL.          -999.2500:   NO VALUE
 COMP.   LAWRENCE ALLISON:   COMPANY
 WELL. ALLISON NPR 3 "LX" #14-22:   WELL
 FLD .                NPR:   FIELD
 LOC .      S22 T38N R78W:   LOCATION
 CNTY.            NATRONA:   COUNTY
 STAT.            WYOMING:   STATE
 CTRY. UNITED STATES OF AMERICA:   COUNTRY
 SRVC.       DRESER ATLAS:   SERVICE COMPANY
 DATE.        14-APR-1985:   LOGDATE
 API .     49025110230000:   API NUMBER
~CURVE INFORMATION
#MNEM.UNIT       API CODE    CURVE DESCRIPTION
#----------   ------------   ------------------------------
 DEPT.F                  :   
 TEND.LBS    45 635 01 00:   TENSION FROM DENSITY LOG
 RHOB.G/C3   45 350 01 00:   BULK DENSITY
 DRHO.G/C3   45 356 01 00:   DENSITY CORRECTION
 CALD.IN     45 280 60 00:   CALIPER FROM DENSITY LOG
 NPHI.DEC    42 890 03 00:   NEUTRON POROSITY SANDSTONE
 TENR.LBS    07 635 01 00:   TENSION FROM RESISTIVITY
 SPR .MV     07 010 01 00:   SPONTANEOUS POTENTIAL
 GRR .GAPI   07 310 01 00:   GAMMA RAY FROM RESISTIVITY
 RFOC.OHMM   07 220 01 00:   RESISTIVITY FOCUSED LOG RES.
 RILD.OHMM   07 120 46 00:   DEEP INDUCTION RESISTIVITY
 RILM.OHMM   07 120 44 00:   INDUCTION LOG MEDIUM RESISTIVITY
~PARAMETER INFORMATION
#MNEM.UNIT          VALUE    DESCRIPTION
#----------   ------------   ------------------------------
 EKB .F         5230.4000:   Kelly bushing
 EGL .F         5220.4000:   Ground level
 EDF .F            0.0000:   Drilling floor
 TD  .F         4150.0000:   Total depth
 DATE.        14-APR-1985:   Date logged
 CLNT.            A2DTECH:   Client Code
 SL  . 905' FNL & 824' FWL:   Surface Location
 PD  .                 GL:   Permanent Datum
 EPD .F            5220.4:   Elevation Permanent Datum
 LMF .                 KB:   Log Measured From
 DMF .                 KB:   Drilling Measured From
 DAPD.F                10:   Feet Above Permanent Datum
 DD  .F              4150:   Depth driller
 DL  .F              4140:   Depth logger
 BLI .F              4138:   Bottom log interval
 CS1 .IN            8.625:   Casing size
 CBD1.      8.625" @ 738':   Casing driller 1
 CBL1.F               738:   Casing logger 1
 BS1 .IN            7.875:   Bit size
 BSD1.F              4150:   Depth drilled with bit1
 DFT .            KCL/GEL:   Type fluid in hole
 DFD .                9.1:   Density
 DFV .                 48:   Viscosity
 DFPH.                8.5:   pH
 DFL .                 10:   Fluid loss
 MSS .           FLOWLINE:   Source of sample
 RMS .OHMM            .35:   Rm
 MST .F                62:   Rm Meas. temp.
 RMF .OHMM            .26:   Rmf
 MFST.F                62:   Rmf Meas. temp.
 RMC .OHMM            .43:   Rmc
 MCST.F                62:   Rmc Meas. temp.
 MFSS.               CALC:   Source Rmf.
 MCSS.               CALC:   Source Rmc.
 RMB .OHMM            .16:   Rm. at BHT
 BHT .F               140:   BHT.
 TCS .HRS               6:   Time Circ. stopped
 MRT .F               140:   Maximum recorded temp.
 LUN .               6274:   Logging unit number
 LUL .               GLTE:   Logging unit location
 ENGI.               MACK:   Recorded By
 WITN.             STRONG:   Witnessed by
 ORIG.           5" PRINT:   Origin of data
 UWI .     49025110230000:   Unique Well ID
 DICO. A2D TECHNOLOGIES, INC.:   Digitizing Company
~OTHER INFORMATION
~A   DEPT     TEND       RHOB       DRHO       CALD       NPHI       TENR        SPR        GRR       RFOC       RILD       RILM   
# ...
 1871.5000  -999.2500  -999.2500  -999.2500  -999.2500  -999.2500   -75.7630   -69.8760   113.8840     6.7350     6.3590     6.4720
 1872.0000  -999.2500  -999.2500  -999.2500  -999.2500  -999.2500   -74.8250   -69.6060   113.2420     6.9200     6.5310     6.6270
 1872.5000  -999.2500  -999.2500  -999.2500  -999.2500  -999.2500   -72.5590   -69.3360   111.4900     7.0650     6.7030     6.7810
 1873.0000  -999.2500  -999.2500  -999.2500  -999.2500  -999.2500   -69.9040   -69.0650   109.8170     7.0980     6.8640     6.8900
 1873.5000  -999.2500  -999.2500  -999.2500  -999.2500  -999.2500   -67.2490   -68.7950   109.5250     7.1220     6.8950     6.9470
 1874.0000  -999.2500  -999.2500  -999.2500  -999.2500  -999.2500   -64.8150   -68.6190   108.7500     7.1510     6.9310     7.0040
 1874.5000  -999.2500  -999.2500  -999.2500  -999.2500  -999.2500   -72.6230   -68.7570   105.4950     7.1790     6.9660     7.0560
 1875.0000  -999.2500  -999.2500  -999.2500  -999.2500  -999.2500   -79.8300   -68.9240   106.2170     7.1880     6.9920     7.0560
 1875.5000  -999.2500  -999.2500  -999.2500  -999.2500  -999.2500   -84.1010   -69.0920   110.9210     7.1010     6.8980     7.0560
 1876.0000  -999.2500  -999.2500  -999.2500  -999.2500  -999.2500   -81.6980   -69.2600   112.7590     7.0050     6.7950     7.0560
 1876.5000  -999.2500  -999.2500  -999.2500  -999.2500  -999.2500   -79.2960   -69.4280   110.0820     6.9090     6.6910     7.0430
 1877.0000  -999.2500  -999.2500  -999.2500  -999.2500  -999.2500   -76.8940   -69.5950   106.3150     6.8130     6.5880     6.9340
 1877.5000  -999.2500  -999.2500  -999.2500  -999.2500  -999.2500   -75.2140   -69.6110   106.9960     6.7160     6.4850     6.8250
 1878.0000  -999.2500  -999.2500  -999.2500  -999.2500  -999.2500   -78.0170   -69.5650   108.4070     6.6150     6.3760     6.7160
 1878.5000  -999.2500  -999.2500  -999.2500  -999.2500  -999.2500   -80.8200   -69.5190   109.8540     6.5090     6.3180     6.6070
 1879.0000  -999.2500  -999.2500  -999.2500  -999.2500  -999.2500   -83.6230   -69.4720   111.3820     6.4480     6.2560     6.4940
 1879.5000  -999.2500  -999.2500  -999.2500  -999.2500  -999.2500   -84.8350   -69.4280   110.2240     6.3880     6.1950     6.4630
 1880.0000  -999.2500  -999.2500  -999.2500  -999.2500  -999.2500   -84.8350   -69.5350   107.9660     6.3270     6.1450     6.4290
 1880.5000  -999.2500  -999.2500  -999.2500  -999.2500  -999.2500   -84.8350   -69.6570   107.3830     6.2660     6.1580     6.3960
 1881.0000  -999.2500  -999.2500  -999.2500  -999.2500  -999.2500   -84.8350   -69.7680   107.3750     6.2050     6.1720     6.3630
 1881.5000  -999.2500  -999.2500  -999.2500  -999.2500  -999.2500   -84.8350   -69.9430   107.5270     6.1450     6.1860     6.3170
 1882.0000  -999.2500  -999.2500  -999.2500  -999.2500  -999.2500   -84.8350   -69.7970   109.4600     6.1450     6.1990     6.3320
 1882.5000  -999.2500  -999.2500  -999.2500  -999.2500  -999.2500   -84.8350   -69.6570   112.5630     6.1890     6.2120     6.3690
 1883.0000  -999.2500  -999.2500  -999.2500  -999.2500  -999.2500   -84.8350   -69.5140   115.6670     6.2960     6.2250     6.4060
 1883.5000  -999.2500  -999.2500  -999.2500  -999.2500  -999.2500   -84.8350   -69.3700   118.8040     6.4030     6.2370     6.4570
 1884.0000  -999.2500  -999.2500  -999.2500  -999.2500  -999.2500   -84.8350   -69.2220   119.9370     6.5100     6.2500     6.5500
 1884.5000  -999.2500  -999.2500  -999.2500  -999.2500  -999.2500   -84.8350   -69.0040   119.3760     6.6170     6.2590     6.6770
 1885.0000  -999.2500  -999.2500  -999.2500  -999.2500  -999.2500   -84.8350   -68.7820   117.4980     6.7240     6.1990     6.6150
 1885.5000  -999.2500  -999.2500  -999.2500  -999.2500  -999.2500   -84.8350   -68.5590   115.6150     6.7380     6.1510     6.0420
 1886.0000  -999.2500  -999.2500  -999.2500  -999.2500  -999.2500   -84.8350   -68.3480   113.5310     6.6870     5.7080     5.5010
 1886.5000  -999.2500  -999.2500  -999.2500  -999.2500  -999.2500   -84.8350   -67.9480   110.7080     6.6400     5.2040     4.9600
 1887.0000  -999.2500  -999.2500  -999.2500  -999.2500  -999.2500   -84.8350   -67.5530   107.3550     6.1890     4.7470     4.5400
 1887.5000  -999.2500  -999.2500  -999.2500  -999.2500  -999.2500   -84.8350   -67.1560   102.1510     5.3140     4.7470     4.2110
 1888.0000  -999.2500  -999.2500  -999.2500  -999.2500  -999.2500   -84.8350   -66.7530   101.7230     4.4400     4.7470     4.3490
 1888.5000  -999.2500  -999.2500  -999.2500  -999.2500  -999.2500   -84.8350   -66.4190   102.1340     3.8400     4.8200     4.5460
 1889.0000  -999.2500  -999.2500  -999.2500  -999.2500  -999.2500   -84.8350   -66.7350   105.4800     4.3420     5.0550     4.7420
 1889.5000  -999.2500  -999.2500  -999.2500  -999.2500  -999.2500   -84.8350   -67.0640   109.0100     5.0310     5.2890     5.0230
 1890.0000  -999.2500  -999.2500  -999.2500  -999.2500  -999.2500   -84.8350   -67.3940   111.5320     5.7200     5.5970     5.3780
 1890.5000  -999.2500  -999.2500  -999.2500  -999.2500  -999.2500   -84.8350   -67.6920   111.5950     6.4090     5.9330     5.7330
 1891.0000  -999.2500  -999.2500  -999.2500  -999.2500  -999.2500   -84.8350   -68.1860   111.9560     7.0560     6.2680     6.0880
 1891.5000  -999.2500  -999.2500  -999.2500  -999.2500  -999.2500   -84.8350   -68.6890   113.5490     7.0490     6.6150     6.4440
 1892.0000  -999.2500  -999.2500  -999.2500  -999.2500  -999.2500   -84.8350   -69.1930   114.9160     7.0360     6.8300     6.7380
 1892.5000  -999.2500  -999.2500  -999.2500  -999.2500  -999.2500   -84.8350   -69.4200   114.7420     7.0230     6.9270     6.7620
 1893.0000  -999.2500  -999.2500  -999.2500  -999.2500  -999.2500   -84.8350   -69.4220   114.5270     7.0100     6.8860     6.8570
 1893.5000  -999.2500  -999.2500  -999.2500  -999.2500  -999.2500   -84.8350   -69.4230   113.5050     6.9970     6.8150     6.7380
 1894.0000  -999.2500  -999.2500  -999.2500  -999.2500  -999.2500   -84.8350   -69.4210   112.4270     6.9920     6.3990     6.4500
 1894.5000  -999.2500  -999.2500  -999.2500  -999.2500  -999.2500   -84.8350   -69.2570   112.0720     6.9270     5.8950     6.0720
 1895.0000  -999.2500  -999.2500  -999.2500  -999.2500  -999.2500   -84.8350   -68.8160   112.9600     6.7150     5.4010     5.6950
 1895.5000  -999.2500  -999.2500  -999.2500  -999.2500  -999.2500   -84.8350   -68.3790   113.5600     6.0330     5.4010     5.5520
 1896.0000  -999.2500  -999.2500  -999.2500  -999.2500  -999.2500   -84.8350   -67.9400   107.8630     5.3520     5.5060     5.6140
 1896.5000  -999.2500  -999.2500  -999.2500  -999.2500  -999.2500   -84.8350   -67.5020   102.3020     4.8350     5.6040     5.6750
 1897.0000  -999.2500  -999.2500  -999.2500  -999.2500  -999.2500   -84.8350   -67.4650   106.7640     5.1470     5.6480     5.8050
 1897.5000  -999.2500  -999.2500  -999.2500  -999.2500  -999.2500   -84.8350   -67.6330   112.2360     5.7410     5.7010     6.0210
 1898.0000  -999.2500  -999.2500  -999.2500  -999.2500  -999.2500   -84.8350   -67.8440   114.2920     6.3360     5.8540     6.2380
 1898.5000  -999.2500  -999.2500  -999.2500  -999.2500  -999.2500   -84.8350   -68.1260   111.7230     7.1220     6.0230     6.4540
 1899.0000  -999.2500  -999.2500  -999.2500  -999.2500  -999.2500   -84.8350   -68.3650   111.5340     7.1180     6.1920     6.6710
 1899.5000  -999.2500  -999.2500  -999.2500  -999.2500  -999.2500   -84.8350   -68.5930   113.5110     7.1090     6.3610     6.7720
 1900.0000  -999.2500  -999.2500  -999.2500  -999.2500  -999.2500   -84.8350   -68.8210   113.3820     7.1010     6.5310     6.8210
 1900.5000  -999.2500  -999.2500  -999.2500  -999.2500  -999.2500   -84.8350   -69.0500   111.0490     7.0920     6.6460     6.8700
 1901.0000  -999.2500  -999.2500  -999.2500  -999.2500  -999.2500   -84.8350   -69.2780   111.2640     7.0840     6.6770     6.9180
 1901.5000  -999.2500  -999.2500  -999.2500  -999.2500  -999.2500   -84.8350   -69.5060   111.6680     7.0760     6.6770     6.9670
