~VERSION INFORMATION
 VERS.                2.0:   CWLS LOG ASCII STANDARD - VERSION 2.0
 WRAP.                 NO:   ONE LINE PER DEPTH STEP
~WELL INFORMATION
#MNEM.UNIT      DATA TYPE    INFORMATION
#----------   ------------   ------------------------------
 STRT.F          213.5000:   START DEPTH
 STOP.F         3198.0000:   STOP DEPTH
 STEP.F            0.5000:   STEP LENGTH
 NULL.          -999.2500:   NO VALUE
 COMP.    FENIX & SCISSON:   COMPANY
 WELL.   FENIX "AX" #14-2:   WELL
 FLD .              NPR-3:   FIELD
 LOC .       S2 T38N R78W:   LOCATION
 CNTY.            NATRONA:   COUNTY
 STAT.            WYOMING:   STATE
 CTRY. UNITED STATES OF AMERICA:   COUNTRY
 SRVC.              WELEX:   SERVICE COMPANY
 DATE.        14-MAY-1977:   LOGDATE
 API .     49025103620000:   API NUMBER
~CURVE INFORMATION
#MNEM.UNIT       API CODE    CURVE DESCRIPTION
#----------   ------------   ------------------------------
 DEPT.F                  :   
 GRD .GAPI   45 310 01 00:   GAMMA RAY FROM DENSITY LOG
 CALD.IN     45 280 60 00:   CALIPER FROM DENSITY LOG
 CORR.G/C3   45 356 01 00:   DENSITY CORRECTION
 RHOB.G/C3   45 350 01 00:   BULK DENSITY
 SPR .MV     07 010 01 00:   SPONTANEOUS POTENTIAL FROM RES.
 ILD .OHMM   07 120 46 00:   DEEP INDUCTION RESISTIVITY
 ILM .OHMM   07 120 44 00:   INDUCTION LOG MEDIUM RESISTIVITY
 SGRD.OHMM   07 220 05 00:   SHALLOW SHORT GUARD RESISTIVITY
~PARAMETER INFORMATION
#MNEM.UNIT          VALUE    DESCRIPTION
#----------   ------------   ------------------------------
 EKB .F         5119.0000:   Kelly bushing
 EGL .F         5110.0000:   Ground level
 TD  .F         3200.0000:   Total depth
 CLNT.            A2DTECH:   Client Code
 SL  . 2400' FNL & 150' FWL:   Surface Location
 PD  .                 GL:   Permanent Datum
 EPD .F              5110:   Elevation Permanent Datum
 LMF .                 KB:   Log Measured From
 DMF .                 KB:   Drilling Measured From
 DAPD.F                 9:   Feet Above Permanent Datum
 DATE.        14-MAY-1977:   Date Logged [DD-MMM-YYYY]
 DD  .F              3200:   Depth driller
 DL  .F              3199:   Depth logger
 BLI .F              3197:   Bottom log interval
 TLI .F               217:   Top log interval
 CS1 .IN            8.625:   Casing size
 BS1 .IN            7.875:   Bit size
 BSD1.F              3200:   Depth drilled with bit1
 DFT .            KCL MUD:   Type fluid in hole
 DFD .                8.8:   Density
 TCS .HRS             2.5:   Time Circ. stopped
 MRT .F               130:   Maximum recorded temp.
 ENGI.          T. JOYNER:   Recorded By
 WITN.      W. PETTINGILL:   Witnessed by
 ORIG.           5" PRINT:   Origin of data
 UWI .     49025103620000:   Unique Well ID
 DICO. A2D TECHNOLOGIES, INC.:   Digitizing Company
 DFV .                 31:   Viscosity
 DFPH.                7.5:   pH
 DFL .                6.4:   Fluid loss
 MSS .          FLOW LINE:   Source of sample
 RMS .OHMM            .13:   Rm
 MST .F               62.:   Rm Meas. temp.
 RMF .OHMM            .12:   Rmf
 MFST.F                62:   Rmf Meas. temp.
 MFSS.           FANN KIT:   Source Rmf.
 RMC .OHMM            .28:   Rmc
 MCST.F                62:   Rmc Meas. temp.
 RMB .OHMM            .06:   Rm. at BHT
 BHT .F               130:   BHT.
~OTHER INFORMATION
~A   DEPT      GRD       CALD       CORR       RHOB        SPR        ILD        ILM       SGRD   
# ...
 2765.0000    97.8782     8.3779     0.0871     2.4607   -33.6807     7.4518     6.9525    18.5653
 2765.5000    97.9015     8.3797     0.0872     2.4588   -32.4814     8.6224     7.0505    17.8287
 2766.0000    96.7055     8.3812     0.0904     2.4678   -31.7259     8.9946     6.9586    16.7704
 2766.5000    96.1544     8.3974     0.0921     2.4686   -30.6746     9.0644     6.9648    15.5586
 2767.0000    96.7814     8.4136     0.0922     2.4605   -29.4753     8.9471     7.0692    15.1485
 2767.5000    98.0005     8.4446     0.0909     2.4515   -28.1281     8.7074     7.2743    15.0588
 2768.0000    99.8175     8.4778     0.0880     2.4404   -26.9288     8.2809     7.5374    14.9696
 2768.5000   102.2324     8.5217     0.0882     2.4269   -26.0044     7.7591     7.7561    14.8806
 2769.0000   105.2453     8.5527     0.0913     2.4140   -25.1181     7.7104     7.9260    14.7922
 2769.5000   103.1759     8.5689     0.0914     2.4053   -24.5105     7.7182     8.1560    14.5061
 2770.0000   100.2097     8.5851     0.0916     2.4039   -24.3467     7.7245     8.4551    13.3653
 2770.5000    97.5197     8.6013     0.0887     2.4070   -24.0350     7.7843     9.0436    11.3351
 2771.0000    94.7883     8.6028     0.0769     2.4175   -23.8713     7.8446    10.4971    11.0341
 2771.5000    90.7188     8.6190     0.0773     2.4363   -24.0073     7.9602    11.8201    13.4032
 2772.0000    83.8662     8.6352     0.0892     2.4536   -24.2834     8.0219    14.3640    15.8338
 2772.5000    80.5952     8.6366     0.0939     2.4724   -24.4155     8.1966    16.9783    18.5763
 2773.0000    86.0055     8.6381     0.0955     2.4762   -24.3996     8.2098    18.7246    18.5939
 2773.5000    84.5340     8.6251     0.0957     2.4632   -24.5317     8.3258    19.3976    17.0944
 2774.0000    82.4646     8.6413     0.0913     2.4478   -24.5119     8.3325    12.2908    15.2031
 2774.5000    78.0036     8.6428     0.0899     2.4344   -24.4961     8.3393     9.0058    13.9562
 2775.0000    81.0164     8.6590     0.0901     2.4217   -24.4803     8.4039     8.9515    13.1277
 2775.5000    87.7126     8.6900     0.0902     2.4165   -24.4660     8.2381     8.9594    11.1336
 2776.0000    91.2333     8.7062     0.0874     2.4226   -24.4142     7.8555     8.8458    10.4727
 2776.5000    93.3493     8.7224     0.0845     2.4301   -24.2848     7.5426     8.6714    10.3364
 2777.0000    93.6715     8.7534     0.0817     2.4377   -24.2692     7.1923     8.5005    10.8611
 2777.5000    93.6948     8.7696     0.0819     2.4431   -24.0274     7.0019     8.3310    11.4097
 2778.0000    94.6150     8.8165     0.0835     2.4498   -23.7929     6.8638     8.8157    12.0690
 2778.5000    95.8341     8.8490     0.0852     2.4506   -23.6258     6.9173    11.3237    12.5913
 2779.0000    96.7542     8.8924     0.0868     2.4499   -23.6100     6.9240    13.1093    12.7785
 2779.5000    97.6744     8.9086     0.0884     2.4515   -23.4172     6.9777    14.2586    12.1730
 2780.0000    99.5116     8.9396     0.0901     2.4538   -23.1358     6.9833    15.2953    11.7064
 2780.5000   100.7636     8.9558     0.0902     2.4531   -23.0912     7.0374    15.8548    11.6340
 2781.0000   101.0327     8.9573     0.0919     2.4554   -22.9556     7.0920    16.6109    11.8097
 2781.5000    99.8661     8.9883     0.0952     2.4622   -22.7885     7.0977    17.3158    12.0683
 2782.0000    98.9867     9.0045     0.0997     2.4714   -22.7722     7.1035    17.2685    12.3325
 2782.5000   100.5105     9.0207     0.1014     2.4661   -22.6036     7.1092    17.2875    12.4297
 2783.0000   101.4307     9.0222     0.1015     2.4564   -22.4467     7.1150    17.6662    12.4414
 2783.5000   102.3509     9.0405     0.0987     2.4475   -22.2800     7.1209    17.8047    12.3673
 2784.0000   102.3742     9.0697     0.0958     2.4378   -22.2642     7.1280    17.5751    12.2094
 2784.5000   102.3976     9.0859     0.0900     2.4296   -22.4003     7.1832    17.1097    11.8797
 2785.0000   102.0824     9.0874     0.0871     2.4237   -22.4333     7.2388    16.6011    11.5752
 2785.5000   100.6561     9.0888     0.0812     2.4260   -22.6472     7.2949    16.1615    11.2705
 2786.0000    98.8857     9.0902     0.0814     2.4359   -22.7929     7.3515    16.0063    11.2838
 2786.5000    97.4142     9.1065     0.0815     2.4403   -22.8887     7.4084    16.9049    11.2945
 2787.0000    97.1328     9.1227     0.0817     2.4381   -22.9187     7.4658    19.4726    12.2817
 2787.5000    98.0587     9.1241     0.0834     2.4435   -23.1889     7.4719    20.8884    13.1721
 2788.0000    99.8758     9.1256     0.0880     2.4457   -23.1691     7.4780    22.0986    13.0037
 2788.5000   103.4865     9.1270     0.0912     2.4466   -23.3033     7.4842    20.0729    12.7492
 2789.0000   106.4993     9.1288     0.0943     2.4511   -23.2853     7.4916    19.6772    12.5862
 2789.5000   104.7289     9.1151     0.0975     2.4572   -23.2707     7.4976    19.5585    12.4254
 2790.0000   107.4486     9.1018     0.1006     2.4632   -23.2523     7.5037    19.1730    12.4375
 2790.5000   108.3629     9.1036     0.1038     2.4655   -23.2382     7.5098    18.1549    12.4518
 2791.0000   105.7015     9.0903     0.1069     2.4581   -23.2219     7.5159    17.0721    12.3749
 2791.5000   103.3331     9.0769     0.1025     2.4477   -23.2614     7.5220    17.0875    11.6431
 2792.0000   100.3669     9.0784     0.0995     2.4365   -23.3382     7.5281    17.2218    11.1042
 2792.5000    98.8896     9.0650     0.0953     2.4298   -23.3184     7.5864    17.2401    10.8843
 2793.0000   100.7124     9.0517     0.0910     2.4276   -23.4545     7.5403    16.7835    10.9727
 2793.5000   101.9316     9.0532     0.0882     2.4292   -23.7305     7.5465    16.6786    11.3688
 2794.0000   103.1672     9.0547     0.0868     2.4322   -24.1125     7.5005    16.8131    12.4482
 2794.5000   103.7728     9.0564     0.0839     2.4384   -24.5561     7.4050    16.4817    13.2587
 2795.0000   104.0999     9.0578     0.0811     2.4421   -25.0144     7.4110    15.8243    13.6493
 2795.5000   104.1232     9.0593     0.0782     2.4242   -25.4423     7.3645    15.0882    13.3616
 2796.0000   104.1465     9.0607     0.0739     2.4160   -25.8703     7.2707    14.9887    12.9372
 2796.5000   103.5719     9.0622     0.0695     2.4228   -26.2943     7.2766    15.8678    12.8573
 2797.0000   102.9915     9.0636     0.0667     2.4326   -26.6274     7.2825    16.3390    13.0515
 2797.5000   103.6185     9.0502     0.0668     2.4417   -27.1542     7.3390    16.6879    13.2455
 2798.0000   103.6688     9.0517     0.0700     2.4471   -27.7261     7.4987    16.4727    13.4423
 2798.5000   102.7641     9.0532     0.0731     2.4515   -28.1540     7.7175    16.2566    13.7366
 2799.0000   101.5245     9.0398     0.0763     2.4562   -28.4340     7.9534    16.8484    14.0374
 2799.5000   100.1301     9.0416     0.0734     2.4636   -28.7145     8.2821    20.9047    14.5442
 2800.0000   102.5450     9.0132     0.0720     2.4652   -28.8462     8.3463    28.0794    16.1464
 2800.5000   104.0572     9.0002     0.0707     2.4690   -28.8299     8.4110    35.6413    18.6031
 2801.0000   101.9937     8.9573     0.0709     2.4773   -28.9584     8.4178    40.9040    21.4752
 2801.5000   100.2233     8.9145     0.0725     2.4848   -28.9426     8.4246    25.4817    20.7661
 2802.0000    96.6591     8.8716     0.0727     2.4669   -29.0787     8.4314    19.2804    18.4838
 2802.5000    96.9813     8.8284     0.0743     2.4557   -29.2108     8.3973    15.9911    16.1150
 2803.0000   101.1900     8.7711     0.0745     2.4595   -29.3428     8.2404    13.8932    12.6676
 2803.5000   105.7917     8.7282     0.0750     2.4625   -29.4749     8.1376    12.1073    12.3313
 2804.0000   106.8194     8.7149     0.0754     2.4603   -29.7510     8.0277    10.9230    13.5052
 2804.5000   105.1230     8.7167     0.0759     2.4544   -29.7352     7.9854     9.7865    13.7206
 2805.0000   104.5730     8.7181     0.0765     2.4507   -29.8734     7.9953     9.2040    13.4374
