~VERSION INFORMATION
 VERS.                2.0:   CWLS LOG ASCII STANDARD - VERSION 2.0
 WRAP.                 NO:   ONE LINE PER DEPTH STEP
~WELL INFORMATION
#MNEM.UNIT      DATA TYPE    INFORMATION
#----------   ------------   ------------------------------
 STRT.F          500.0000:   START DEPTH
 STOP.F         2517.0000:   STOP DEPTH
 STEP.F            0.5000:   STEP LENGTH
 NULL.          -999.2500:   NO VALUE
 COMP.    FENIX & SCISSON:   COMPANY
 WELL. FENIX & SCISSON SHX #46-33:   WELL
 FLD .  TEAPOT DOME NPR-3:   FIELD
 LOC .      S33 T39N R78W:   LOCATION
 CNTY.            NATRONA:   COUNTY
 STAT.            WYOMING:   STATE
 CTRY. UNITED STATES OF AMERICA:   COUNTRY
 SRVC.           BIRDWELL:   SERVICE COMPANY
 DATE.        04-APR-1979:   LOGDATE
 API .     49025107670000:   API NUMBER
~CURVE INFORMATION
#MNEM.UNIT       API CODE    CURVE DESCRIPTION
#----------   ------------   ------------------------------
 DEPT.F                  :   
 GRD .GAPI   45 310 01 00:   GAMMA RAY FROM DENSITY LOG
 CALD.IN     45 280 60 00:   CALIPER FROM DENSITY LOG
 CORR.G/C3   45 356 01 00:   DENSITY CORRECTION
 RHOB.G/C3   45 350 01 00:   BULK DENSITY
~PARAMETER INFORMATION
#MNEM.UNIT          VALUE    DESCRIPTION
#----------   ------------   ------------------------------
 EKB .F         5217.0000:   Kelly bushing
 EGL .F         5207.0000:   Ground level
 EDF .F            0.0000:   Drilling floor
 TD  .F         2630.0000:   Total depth
 CLNT.            A2DTECH:   Client Code
 SL  . 1955' FSL & 1970' FWL:   Surface Location
 PD  .                 GL:   Permanent Datum
 EPD .F              5207:   Elevation Permanent Datum
 LMF .                 KB:   Log Measured From
 DMF .                 KB:   Drilling Measured From
 DAPD.                 10:   Feet Above Permanent Datum
 DATE.        04-APR-1979:   Date Logged [DD-MMM-YYYY]
 DD  .F              2630:   Depth driller
 DL  .F              2517:   Depth logger
 BLI .F              2517:   Bottom log interval
 TLI .F               504:   Top log interval
 CS1 .              9.625:   Casing size
 CBD1.      9.625" @ 300':   Casing driller 1
 CBL1.IN              306:   Casing logger 1
 BS1 .IN            7.875:   Bit size
 BSD1.F              2630:   Depth drilled with bit1
 DFT .                OIL:   Type fluid in hole
 LUL .             CASPER:   Logging unit location
 ENGI.            ROLLINS:   Recorded By
 ORIG.           5" PRINT:   Origin of data
 UWI .     49025107670000:   Unique Well ID
 DICO. A2D TECHNOLOGIES ,INC.:   Digitizing Company
 WITN.              AMUND:   Witnessed by
~OTHER INFORMATION
~A   DEPT      GRD       CALD       CORR       RHOB   
# ...
 1814.0000    26.0144     9.5486     0.2795     2.6878
 1814.5000    20.4622     9.5939     0.3041     2.6902
 1815.0000    19.2157     9.6243     0.3104     2.6895
 1815.5000    19.5291     9.6547     0.3152     2.6912
 1816.0000    23.1114     9.6700     0.3292     2.7102
 1816.5000    27.5852     9.5956     0.3417     2.7345
 1817.0000    29.5331     9.6410     0.3477     2.7422
 1817.5000    29.9910     9.6115     0.2795     2.7362
 1818.0000    25.9993     9.6104     0.2581     2.7068
 1818.5000    22.4494     9.6873     0.2599     2.6819
 1819.0000    22.1643     9.5530     0.2677     2.6941
 1819.5000    24.5620     9.4936     0.2694     2.6965
 1820.0000    26.0640     9.6447     0.2619     2.6769
 1820.5000    26.8231     9.6758     0.2880     2.6589
 1821.0000    25.5020     9.6550     0.3187     2.6574
 1821.5000    23.2853     9.7799     0.3356     2.6924
 1822.0000    23.1529     9.6606     0.2977     2.7114
 1822.5000    22.2816     9.6310     0.2735     2.7092
 1823.0000    21.2577     9.7363     0.2523     2.6752
 1823.5000    21.1248     9.6619     0.2403     2.6413
 1824.0000    23.9647     9.7222     0.2389     2.6285
 1824.5000    25.0210     9.8125     0.2544     2.6301
 1825.0000    25.0371     9.8279     0.2836     2.6317
 1825.5000    24.7562     9.8283     0.3142     2.6333
 1826.0000    25.8247     9.8138     0.3495     2.6478
 1826.5000    26.2749     9.8143     0.3847     2.6684
 1827.0000    25.8448     9.7399     0.4017     2.6740
 1827.5000    25.4152     9.6953     0.3851     2.6504
 1828.0000    26.7728     9.7258     0.3456     2.6316
 1828.5000    27.9777     9.7711     0.3656     2.6597
 1829.0000    28.2910     9.6968     0.3826     2.6734
 1829.5000    29.3473     9.6224     0.3706     2.6682
 1830.0000    27.5804     9.7575     0.3341     2.6622
 1830.5000    25.5164     9.7280     0.3221     2.6570
 1831.0000    23.7495     9.6535     0.3301     2.6556
 1831.5000    22.1312     9.7888     0.3362     2.6693
 1832.0000    20.5129     9.7294     0.3158     2.6573
 1832.5000    21.8664     9.6971     0.2896     2.6620
 1833.0000    24.1114     9.8201     0.2652     2.6666
 1833.5000    26.6536     9.6708     0.2486     2.6478
 1834.0000    29.0472     9.5216     0.2380     2.6312
 1834.5000    29.6577     9.7615     0.2566     2.6366
 1835.0000    30.4169     9.7605     0.2628     2.6397
 1835.5000    27.9070     9.6104     0.2661     2.6398
 1836.0000    23.7627     9.5365     0.2662     2.6339
 1836.5000    19.4699     9.5088     0.2756     2.6219
 1837.0000    18.8855     9.6740     0.3001     2.6371
 1837.5000    19.9480     9.7044     0.3201     2.6531
 1838.0000    22.0739     9.6749     0.2944     2.6615
 1838.5000    25.6745     9.6305     0.2717     2.6250
 1839.0000    27.2958     9.6158     0.2689     2.6193
 1839.5000    28.5542     9.6463     0.2462     2.6189
 1840.0000    30.4341     9.6767     0.2174     2.5893
 1840.5000    30.8920     9.6921     0.2008     2.5576
 1841.0000    26.9004     9.7075     0.2101     2.5637
 1841.5000    25.1335     9.7080     0.2926     2.5896
 1842.0000    24.4027     9.7084     0.3507     2.6048
 1842.5000    25.1659     9.7089     0.4012     2.6329
 1843.0000    24.5877     9.7093     0.4365     2.7231
 1843.5000    22.8208     9.6947     0.4385     2.7345
 1844.0000    22.3872     9.6803     0.2920     2.7180
 1844.5000    27.3108     9.5609     0.2236     2.6636
 1845.0000    29.8530     9.4716     0.2055     2.6387
 1845.5000    28.0862     9.6517     0.1980     2.6161
 1846.0000    22.4560     9.6822     0.2431     2.5995
 1846.5000    22.0223     9.6525     0.2975     2.6148
 1847.0000    25.9059     9.6691     0.3284     2.6361
 1847.5000    30.0825     9.7450     0.3164     2.6430
 1848.0000    30.2944     9.7090     0.3011     2.6241
 1848.5000    22.5369     9.6393     0.3547     2.6234
 1849.0000    20.3242     9.6399     0.3777     2.6327
 1849.5000    20.1856     9.6553     0.3947     2.6335
 1850.0000    25.2600     9.7156     0.4070     2.6699
 1850.5000    29.0151     9.7760     0.4102     2.6867
 1851.0000    29.8989     9.7614     0.3662     2.6834
 1851.5000    29.7488     9.6721     0.3527     2.6393
 1852.0000    26.0567     9.6574     0.3742     2.6117
 1852.5000    21.9094     9.7239     0.3912     2.5819
 1853.0000    21.9425     9.9651     0.4036     2.5403
 1853.5000    23.3130    10.0864     0.4052     2.5223
 1854.0000    21.8035    10.1345     0.3570     2.5065
 1854.5000    20.4794     9.9100     0.3435     2.5437
 1855.0000    18.8581     9.7610     0.3346     2.5513
 1855.5000    18.1250     9.6423     0.3897     2.5522
 1856.0000    18.1414     9.6305     0.4418     2.5969
 1856.5000    22.0179     9.6475     0.4466     2.6442
 1857.0000    28.1232     9.6790     0.4163     2.6788
 1857.5000    29.1764     9.6806     0.3297     2.7063
 1858.0000    26.6636     9.6823     0.2933     2.6363
 1858.5000    25.6333     9.6839     0.2905     2.6118
 1859.0000    25.7090     9.6701     0.2890     2.6339
 1859.5000    24.9200     9.6418     0.2468     2.6188
 1860.0000    24.6360     9.6135     0.1891     2.6083
 1860.5000    24.5005     9.5856     0.1893     2.6054
 1861.0000    27.4362     9.5423     0.1956     2.6093
 1861.5000    30.3251     9.5289     0.2080     2.6276
 1862.0000    31.0812     9.5756     0.2266     2.6413
 1862.5000    29.6084     9.6557     0.2313     2.6451
 1863.0000    28.4296     9.6835     0.2026     2.6362
 1863.5000    31.4178     9.4007     0.1967     2.6279
 1864.0000    32.0253     9.5973     0.2412     2.6235
 1864.5000    31.2955     9.7037     0.2597     2.6198
 1865.0000    29.8195     9.6301     0.2660     2.6139
 1865.5000    33.2535     9.6321     0.3242     2.6064
 1866.0000    33.8610     9.6337     0.3673     2.6460
 1866.5000    32.9826     9.6503     0.3795     2.6497
 1867.0000    31.2127     9.6669     0.3797     2.6390
 1867.5000    27.3626     9.6685     0.3800     2.6431
 1868.0000    25.1372     9.6102     0.3939     2.6644
 1868.5000    24.1701     9.5969     0.3561     2.6494
 1869.0000    21.4618     9.6135     0.3456     2.6253
 1869.5000    22.2179     9.6600     0.3641     2.6163
 1870.0000    22.9740     9.7216     0.3872     2.6504
 1870.5000    23.1324     9.6636     0.3996     2.6861
 1871.0000    21.6630     9.6952     0.3358     2.6900
 1871.5000    20.7846     9.7264     0.3132     2.6704
 1872.0000    21.0949     9.5936     0.2814     2.6622
 1872.5000    20.9595     9.5953     0.2694     2.6585
 1873.0000    19.7839     9.6119     0.2697     2.6601
 1873.5000    20.3914     9.6135     0.2790     2.6655
 1874.0000    19.3645     9.6151     0.2946     2.6709
 1874.5000    19.5262     9.6317     0.2911     2.6687
 1875.0000    22.8083     9.6182     0.2057     2.6294
 1875.5000    24.9118     9.6349     0.1976     2.6120
 1876.0000    24.6283     9.6365     0.2238     2.6054
 1876.5000    22.1081     9.6389     0.2591     2.6256
 1877.0000    21.9694     9.7180     0.2807     2.6859
 1877.5000    22.5802     9.7912     0.2916     2.7231
 1878.0000    24.3764     9.7482     0.2887     2.7383
 1878.5000    23.2009     9.6899     0.2631     2.7180
 1879.0000    22.6164     9.6612     0.2496     2.6855
 1879.5000    24.1187     9.6329     0.2421     2.6576
 1880.0000    24.4290     9.6349     0.2714     2.6403
 1880.5000    28.3055     9.6212     0.3265     2.6321
 1881.0000    30.1017     9.6681     0.3770     2.6564
 1881.5000    27.8860     9.7595     0.4016     2.6875
 1882.0000    26.8589     9.7757     0.3921     2.7012
 1882.5000    27.1694     9.6430     0.3493     2.6907
 1883.0000    26.5785     9.5847     0.3237     2.7090
 1883.5000    25.9876     9.6163     0.3141     2.7008
 1884.0000    28.2523     9.6642     0.3311     2.6751
 1884.5000    28.5626     9.7119     0.3451     2.6920
 1885.0000    27.9814     9.7110     0.3499     2.7156
 1885.5000    27.5455     9.6527     0.3059     2.7201
 1886.0000    25.7789     9.6094     0.2634     2.6568
 1886.5000    24.1543     9.5961     0.2606     2.6045
