~VERSION INFORMATION
 VERS.                2.0:   CWLS LOG ASCII STANDARD - VERSION 2.0
 WRAP.                 NO:   ONE LINE PER DEPTH STEP
~WELL INFORMATION
#MNEM.UNIT      DATA TYPE    INFORMATION
#----------   ------------   ------------------------------
 STRT.F          196.0000:   START DEPTH
 STOP.F         3430.0000:   STOP DEPTH
 STEP.F            0.5000:   STEP LENGTH
 NULL.          -999.2500:   NO VALUE
 COMP.    FENIX $ SCISSON:   COMPANY
 WELL.   FENIX "A" #23-10:   WELL
 FLD .              N P R:   FIELD
 LOC .      S10 T38N R78W:   LOCATION
 CNTY.            NATRONA:   COUNTY
 STAT.            WYOMING:   STATE
 CTRY. UNITED STATES OF AMERICA:   COUNTRY
 SRVC.              WELEX:   SERVICE COMPANY
 DATE.        23-JUL-1977:   LOGDATE
 API .     49025103990000:   API NUMBER
~CURVE INFORMATION
#MNEM.UNIT       API CODE    CURVE DESCRIPTION
#----------   ------------   ------------------------------
 DEPT.F                  :   
 SPR .MV     07 010 01 00:   SPONTANEOUS POTENTIAL
 GURD.OHMM   07 220 05 00:   GUARD LOG RESISTIVITY
 FORX.OHMM   07 220 00 00:   FORMATION FACTOR
 NPHI.DEC    42 890 03 00:   NEUTRON POROSITY SANDSTONE
 CALD.IN     45 280 60 00:   CALIPER FROM DENSITY LOG
 CORR.G/C3   45 356 01 00:   DENSITY CORRECTION
 GRD .GAPI   45 310 01 00:   GAMMA RAY FROM DENSITY LOG
 RHOB.G/C3   45 350 01 00:   BULK DENSITY
~PARAMETER INFORMATION
#MNEM.UNIT          VALUE    DESCRIPTION
#----------   ------------   ------------------------------
 EKB .F         5251.0000:   Kelly bushing
 EGL .F         5241.0000:   Ground level
 EDF .F            0.0000:   Drilling floor
 EPD .F         5241.0000:   Permanent datum
 TD  .F         3430.0000:   Total depth
 DATE.        23-JUL-1977:   Date logged
 CLNT.            A2DTECH:   Client Code
 SL  . 1650' FNL & 990' FWL:   Surface Location
 PD  .                 GL:   Permanent Datum
 DD  .F              3430:   Depth driller
 DL  .F              3430:   Depth logger
 BLI .F              3428:   Bottom log interval
 CS1 .IN            8.625:   Casing size
 CBD1.      8.625" @ 220':   Casing driller 1
 BS1 .IN            7.875:   Bit size
 DFT .            KCL MUD:   Type fluid in hole
 DFD .                8.9:   Density
 DFV .                 33:   Viscosity
 DFPH.                  8:   pH
 DFL .                  8:   Fluid loss
 MSS .           FLOWLINE:   Source of sample
 RMS .OHMM            .49:   Rm
 MST .F                94:   Rm Meas. temp.
 RMF .OHMM            .46:   Rmf
 MFST.F                90:   Rmf Meas. temp.
 RMC .OHMM            .40:   Rmc
 MCST.F                90:   Rmc Meas. temp.
 MFSS.               FANN:   Source Rmf.
 RMB .OHMM            .15:   Rm. at BHT
 BHT .F               122:   BHT.
 TCS .HRS               6:   Time Circ. stopped
 MRT .F               122:   Maximum recorded temp.
 LUN .               8611:   Logging unit number
 LUL .             CASPER:   Logging unit location
 ENGI.            C. DOAK:   Recorded By
 WITN.      B. HARRINGTON:   Witnessed by
 ORIG.           5" PRINT:   Origin of data
 UWI .     49025103990000:   Unique Well ID
 DICO. A2D TECHNOLOGIES, INC.:   Digitizing Company
 DAPD.                 10:   Feet Above Permanent Datum
 BSD1.               3430:   Depth drilled with bit1
 MCSS.                KIT:   Source Rmc.
 TLI .                200:   Top log interval
~OTHER INFORMATION
~A   DEPT      SPR         GURD     FORX       NPHI       CALD       CORR        GRD       RHOB   
# ...
 1897.0000   -82.3860     9.6310    14.0390     0.3250     9.6370     0.0310   129.1520     2.4740
 1897.5000   -82.3490     9.6310    13.4080     0.3240     9.6430     0.0260   128.8190     2.4610
 1898.0000   -82.3110     9.5450    14.1690     0.3260     9.6490     0.0200   127.2930     2.4410
 1898.5000   -82.2740     9.4520    12.8060     0.3300     9.6520     0.0150   125.8200     2.4210
 1899.0000   -82.2550     9.2830     9.4380     0.3350     9.6440     0.0100   124.3580     2.4000
 1899.5000   -82.2580     7.9570     3.3160     0.3400     9.6360     0.0050   122.8960     2.3910
 1900.0000   -82.2700     5.7680    14.9720     0.3480     9.6280     0.0000   121.4330     2.3800
 1900.5000   -82.2810     3.7370    10.2120     0.3570     9.6210     0.0010   120.1510     2.4070
 1901.0000   -82.2930     4.8020     6.5460     0.3630     9.6150     0.0020   120.5430     2.4390
 1901.5000   -82.3040     6.2520    14.1690     0.3660     9.6390     0.0040   120.9400     2.4710
 1902.0000   -82.3160     5.8630    13.9160     0.3610     9.6630     0.0070   121.3760     2.4760
 1902.5000   -82.3270     8.5450    13.5320     0.3550     9.6870     0.0100   122.9410     2.4730
 1903.0000   -82.3380     9.5110    14.4320     0.3480     9.7110     0.0140   124.4640     2.4690
 1903.5000   -82.3500     9.9920    14.1690     0.3410     9.7320     0.0170   125.9810     2.4650
 1904.0000   -82.3610    10.1600    14.0390     0.3340     9.7220     0.0210   127.5040     2.4630
 1904.5000   -82.3730    10.2710    14.8710     0.3250     9.7110     0.0240   126.7410     2.4830
 1905.0000   -82.3840    10.4460    15.5330     0.3190     9.7010     0.0270   125.3370     2.4980
 1905.5000   -82.3960    10.5960    15.4660     0.3150     9.6910     0.0310   123.8370     2.5010
 1906.0000   -82.4070    10.7540    15.3910     0.3140     9.6810     0.0340   123.6000     2.5030
 1906.5000   -82.4190    10.7540    14.8020     0.3160     9.6700     0.0370   124.1860     2.5020
 1907.0000   -82.4300    10.4960    14.1810     0.3180     9.6600     0.0380   124.7920     2.5010
 1907.5000   -82.4410    10.2710    13.6150     0.3190     9.6500     0.0360   125.4000     2.5000
 1908.0000   -82.4510     9.9000    11.5800     0.3210     9.6390     0.0340   126.0070     2.4900
 1908.5000   -82.4510     8.3460     8.3240     0.3230     9.6150     0.0270   126.6150     2.4750
 1909.0000   -82.4510     6.7340     4.3290     0.3260     9.6160     0.0200   127.2210     2.4600
 1909.5000   -82.4510     6.0820    14.6990     0.3290     9.6190     0.0140   127.6820     2.4460
 1910.0000   -82.4510     6.6720    12.3440     0.3320     9.6220     0.0070   126.9990     2.4500
 1910.5000   -82.4510     8.0830    13.2190     0.3340     9.6250     0.0050   126.3150     2.4700
 1911.0000   -82.4510     8.9480    15.5330     0.3370     9.6280     0.0070   125.6370     2.4870
 1911.5000   -82.4510     9.0310    15.8210     0.3360     9.6310     0.0090   124.9580     2.4800
 1912.0000   -82.4510     9.6350    15.5820     0.3310     9.6330     0.0110   124.2780     2.4730
 1912.5000   -82.4510    10.3660    15.1320     0.3250     9.6360     0.0130   123.5920     2.4660
 1913.0000   -82.4510    10.2350    14.5040     0.3230     9.6390     0.0150   122.9270     2.4620
 1913.5000   -82.4510    10.0180    14.9720     0.3220     9.6420     0.0160   122.2120     2.4730
 1914.0000   -82.4510     9.8010    14.8340     0.3260     9.6450     0.0180   123.0530     2.4820
 1914.5000   -82.4510     9.6310    14.6990     0.3320     9.6470     0.0200   123.8550     2.4910
 1915.0000   -82.4510     9.8670    15.8210     0.3390     9.6500     0.0220   124.6460     2.4920
 1915.5000   -82.4510    10.0610    15.5660     0.3420     9.6530     0.0230   125.4390     2.4910
 1916.0000   -82.4510    10.2550    15.2500     0.3420     9.6560     0.0260   126.2330     2.4950
 1916.5000   -82.4510    10.3660    14.8720     0.3410     9.6590     0.0280   127.0270     2.5000
 1917.0000   -82.4510    10.0260    14.4320     0.3390     9.6610     0.0310   127.8220     2.4980
 1917.5000   -82.4510     9.6390    13.4390     0.3380     9.6640     0.0340   128.6100     2.4840
 1918.0000   -82.4310     9.1140    13.1640     0.3350     9.6670     0.0370   129.3170     2.4800
 1918.5000   -82.4000     9.2060    13.9110     0.3330     9.6700     0.0400   128.9200     2.4910
 1919.0000   -82.3680     9.4110    14.5460     0.3310     9.6730     0.0430   128.4420     2.4860
 1919.5000   -82.3370     9.6160    14.9720     0.3260     9.6710     0.0460   127.9640     2.4960
 1920.0000   -82.3060     9.8100    13.2300     0.3210     9.6690     0.0490   127.4850     2.5060
 1920.5000   -82.2750     9.6830    15.4120     0.3150     9.6660     0.0520   127.0010     2.5160
 1921.0000   -82.2430     9.5350    14.3000     0.3100     9.6630     0.0550   126.4970     2.5290
 1921.5000   -82.2120     9.3690    15.5330     0.3050     9.6610     0.0520   127.1070     2.5420
 1922.0000   -82.1810     9.6030    13.3500     0.3000     9.6580     0.0490   127.9420     2.5410
 1922.5000   -82.1500     9.9520    10.7540     0.3000     9.6550     0.0460   128.7810     2.5370
 1923.0000   -82.1180    10.2710    13.4920     0.3020     9.6530     0.0430   129.6190     2.5330
 1923.5000   -82.0880    10.7540    18.3280     0.3090     9.6500     0.0400   130.4570     2.5300
 1924.0000   -82.0580    11.3010    15.8210     0.3160     9.6470     0.0370   131.2950     2.5420
 1924.5000   -81.8560    11.4690    16.2630     0.3230     9.6450     0.0340   132.1350     2.5460
 1925.0000   -81.6290    11.4690    15.6380     0.3300     9.6420     0.0310   132.9860     2.5410
 1925.5000   -81.4020    11.0210    14.7420     0.3350     9.6390     0.0280   133.8030     2.5310
 1926.0000   -81.1750    10.5720    14.3000     0.3380     9.6360     0.0260   133.4130     2.5200
 1926.5000   -80.9480    10.0840    14.1690     0.3380     9.6380     0.0280   130.3830     2.5090
 1927.0000   -80.7210    10.1180    14.2470     0.3380     9.6590     0.0300   127.7220     2.5000
 1927.5000   -80.4930    10.1850    14.4320     0.3370     9.6700     0.0320   125.0770     2.5050
 1928.0000   -80.2530    10.2520    13.6760     0.3340     9.6790     0.0340   122.4490     2.5020
 1928.5000   -79.9260    10.2710    12.3440     0.3300     9.6890     0.0360   122.1100     2.5080
 1929.0000   -79.5970    10.2710    14.4320     0.3260     9.6980     0.0410   122.1070     2.4940
 1929.5000   -79.2690    10.2710    12.8060     0.3240     9.7080     0.0480   122.1110     2.4850
 1930.0000   -78.9410    10.2710    13.1640     0.3260     9.7170     0.0540   122.1120     2.4690
 1930.5000   -78.6130    10.2710    12.5190     0.3320     9.7270     0.0610   122.1120     2.4380
 1931.0000   -78.2820    10.0820    10.0290     0.3370     9.7360     0.0670   122.1120     2.4040
 1931.5000   -77.9480     9.4410     6.4040     0.3390     9.7460     0.0680   122.1120     2.3570
 1932.0000   -78.1080     6.9570     0.7410     0.3410     9.7550     0.0660   122.1110     2.2880
 1932.5000   -78.3310     3.8120     2.5510     0.3420     9.7650     0.0460   122.1130     2.2140
 1933.0000   -78.5550     1.7260     7.5990     0.3420     9.7690     0.0190   122.1160     2.1700
 1933.5000   -78.7780     1.9910     9.4550     0.3430     9.8460    -0.0070   122.0740     2.2440
 1934.0000   -79.0000     5.3740    12.2310     0.3430    10.0080     0.0080   124.6420     2.3920
 1934.5000   -79.2230     9.0420    12.0430     0.3410     9.8670     0.0280   128.9390     2.5280
 1935.0000   -79.4460     9.5120    12.6890     0.3370     9.6850     0.0390   128.1310     2.5270
 1935.5000   -79.6690    10.0840    12.6890     0.3320     9.6600     0.0400   126.7660     2.5360
 1936.0000   -79.8920     9.8150    12.7450     0.3270     9.6670     0.0400   125.7610     2.5490
 1936.5000   -80.1130     9.4730    13.0440     0.3240     9.6740     0.0410   127.3830     2.5500
 1937.0000   -80.3020     9.1980    13.0440     0.3290     9.6820     0.0410   129.4930     2.5430
