~VERSION INFORMATION
 VERS.                2.0:   CWLS LOG ASCII STANDARD - VERSION 2.0
 WRAP.                 NO:   ONE LINE PER DEPTH STEP
~WELL INFORMATION
#MNEM.UNIT      DATA TYPE    INFORMATION
#----------   ------------   ------------------------------
 STRT.F           40.0000:   START DEPTH
 STOP.F         1336.0000:   STOP DEPTH
 STEP.F            0.5000:   STEP LENGTH
 NULL.          -999.2500:   NO VALUE
 COMP. LAWRENCE - ALLISON WEST:   COMPANY
 WELL. LAWRENCE NPR 3 "AX" #54-23:   WELL
 FLD .              N P R:   FIELD
 LOC .      S23 T38N R78W:   LOCATION
 CNTY.            NATRONA:   COUNTY
 STAT.            WYOMING:   STATE
 CTRY. UNITED STATES OF AMERICA:   COUNTRY
 SRVC.       SCHLUMBERGER:   SERVICE COMPANY
 DATE.        13-MAY-1982:   LOGDATE
 API .     49025108880000:   API NUMBER
~CURVE INFORMATION
#MNEM.UNIT       API CODE    CURVE DESCRIPTION
#----------   ------------   ------------------------------
 DEPT.F                  :   
 NPOR.DEC    42 890 03 00:   ALPHA PROCESSED NEUTRON POROSITY
 TEND.LBS    45 635 01 00:   TENSION FROM DENSITY LOG
 CORR.G/C3   45 356 01 00:   DENSITY CORRECTION
 RHOB.G/C3   45 350 01 00:   BULK DENSITY
 GRD .GAPI   45 310 01 00:   GAMMA RAY FROM DENSITY LOG
 CALD.IN     45 280 60 00:   CALIPER FROM DENSITY LOG
 SPR .MV     07 010 01 00:   SPONTANEOUS POTENTIAL
 TENR.LBS    07 635 01 00:   TENSION
 ILD .OHMM   07 120 46 00:   DEEP INDUCTION RESISTIVITY
 ILM .OHMM   07 120 44 00:   INDUCTION LOG MEDIUM RESISTIVITY
 SFL .OHMM   07 220 01 00:   SHALLOW FOCUSED LOG RESISTIVITY
~PARAMETER INFORMATION
#MNEM.UNIT          VALUE    DESCRIPTION
#----------   ------------   ------------------------------
 EKB .F         5342.0000:   Kelly bushing
 EGL .F         5332.0000:   Ground level
 EDF .F            0.0000:   Drilling floor
 TD  .F         1325.0000:   Total depth
 DATE.        13-MAY-1982:   Date logged
 CLNT.            A2DTECH:   Client Code
 SL  . 2278' FSL & 2665' FWL:   Surface Location
 PD  .                 GL:   Permanent Datum
 DD  .F              1325:   Depth driller
 DL  .F              1314:   Depth logger
 BLI .F              1308:   Bottom log interval
 CS1 .IN             15.5:   Casing size
 CBD1.        15.5" @ 40':   Casing driller 1
 CBL1.F                54:   Casing logger 1
 BS1 .IN            12.25:   Bit size
 DFT .             LT/GEL:   Type fluid in hole
 DFD .                8.9:   Density
 DFV .                 33:   Viscosity
 DFPH.                8.8:   pH
 DFL .                 16:   Fluid loss
 MSS .                PIT:   Source of sample
 RMS .OHMM           2.47:   Rm
 MST .F                61:   Rm Meas. temp.
 RMF .OHMM           2.12:   Rmf
 MFST.F                62:   Rmf Meas. temp.
 MFSS.               MEAS:   Source Rmf.
 RMB .OHMM           1.73:   Rm. at BHT
 BHT .F                87:   BHT.
 TCS .HRS            2300:   Time Circ. stopped
 MRT .F                87:   Maximum recorded temp.
 LUN .               8043:   Logging unit number
 LUL .               CSPR:   Logging unit location
 ENGI.        WAGNER/CSPR:   Recorded By
 WITN.           JENNINGS:   Witnessed by
 ORIG.           5" PRINT:   Origin of data
 UWI .     49025108880000:   Unique Well ID
 DICO. A2D TECHNOLOGIES, INC.:   Digitizing Company
 BSD1.F              1325:   Depth drilled with bit1
 EPD .F              5332:   Elevation Permanent Datum
 LMF .                 KB:   Log Measured From
 DMF .                 KB:   Drilling Measured From
 TLI .F                54:   Top log interval
 DAPD.F                10:   Feet Above Permanent Datum
~OTHER INFORMATION
~A   DEPT     NPOR       TEND       CORR       RHOB        GRD       CALD        SPR       TENR        ILD        ILM        SFL   
# ...
  375.5000     0.1850   121.6900     0.0130     2.4390   142.4500    13.1390   -22.9930   -31.2450     5.0110     4.9630     5.0710
  376.0000     0.1770   121.6900     0.0080     2.4260   136.7020    13.1380   -23.5510   -31.5950     4.9790     4.9000     5.0370
  376.5000     0.1710   121.6900     0.0030     2.4150   133.3760    13.1360   -24.4240   -31.9460     4.9460     4.8380     5.0030
  377.0000     0.1750   122.1100     0.0000     2.4150   132.9900    13.1350   -24.4920   -32.2960     4.9140     4.7760     4.9630
  377.5000     0.1760   122.6310    -0.0010     2.4190   136.6180    13.1340   -24.0760   -32.6470     4.8820     4.7120     4.8990
  378.0000     0.1690   123.1510    -0.0020     2.4230   140.6670    13.1320   -23.6660   -32.9970     4.8050     4.6220     4.8230
  378.5000     0.1540   123.6720    -0.0010     2.4280   141.6770    13.1320   -23.3620   -33.3480     4.7040     4.5150     4.7460
  379.0000     0.1510   124.1930     0.0000     2.4340   138.5290    13.1330   -24.2700   -33.6990     4.6030     4.4090     4.6350
  379.5000     0.1570   124.7130     0.0010     2.4330   135.1710    13.1350   -25.3760   -34.0490     4.5020     4.3030     4.4270
  380.0000     0.1630   125.2340     0.0020     2.4290   132.3920    13.1360   -26.4340   -34.4000     4.4010     4.2410     4.2180
  380.5000     0.1730   125.7540     0.0050     2.4280   135.6710    13.1370   -26.2150   -34.7500     4.3000     4.1890     4.1110
  381.0000     0.1740   126.2750     0.0080     2.4320   135.5820    13.1390   -25.2190   -35.1010     4.2680     4.2920     4.1830
  381.5000     0.1690   126.7960     0.0110     2.4360   129.8230    13.1400   -24.5310   -35.1080     4.4940     4.4400     4.4310
  382.0000     0.1590   127.3160     0.0150     2.4410   128.9230    13.1410   -24.5960   -34.7710     4.7840     4.5890     4.6590
  382.5000     0.1560   127.8370     0.0180     2.4440   132.1600    13.1430   -26.1790   -34.4340     5.0730     4.7380     4.8400
  383.0000     0.1550   128.3570     0.0200     2.4450   136.2490    13.1440   -26.6550   -34.0970     5.2130     4.8640     5.0220
  383.5000     0.1570   128.8780     0.0200     2.4460   137.9940    13.1450   -25.9860   -33.7600     5.2960     4.9820     5.2450
  384.0000     0.1620   129.3990     0.0150     2.4450   139.6420    13.1470   -25.4070   -33.4230     5.3510     5.1000     5.2310
  384.5000     0.1760   129.9190     0.0100     2.4390   141.2900    13.1480   -24.8040   -33.0860     5.3510     5.1530     5.2030
  385.0000     0.1740   130.4400     0.0040     2.4310   139.9960    13.1490   -24.5300   -32.7490     5.3510     5.1530     5.1760
  385.5000     0.1660   130.9600    -0.0030     2.4270   136.2160    13.1510   -25.2850   -32.4120     5.3120     5.1530     5.1530
  386.0000     0.1540   131.4810    -0.0070     2.4250   132.3080    13.1520   -25.9860   -32.0750     5.2420     5.1030     5.0550
  386.5000     0.1480   131.8740    -0.0040     2.4230   128.5660    13.1530   -26.3170   -31.7380     5.1720     5.0380     4.9700
  387.0000     0.1520   131.8740     0.0000     2.4220   128.6430    13.1550   -25.7420   -31.4010     5.1020     4.9740     4.8860
  387.5000     0.1540   131.8740     0.0020     2.4200   129.8550    13.1560   -25.2410   -31.0640     5.0320     4.9090     4.8010
  388.0000     0.1450   131.8740     0.0030     2.4150   132.3510    13.1570   -24.6490   -30.7270     4.9630     4.8440     4.7170
  388.5000     0.1560   131.8740     0.0020     2.4130   135.3440    13.1590   -24.5150   -30.3900     4.9630     4.7790     4.6330
  389.0000     0.1730   131.8740     0.0020     2.4190   138.9930    13.1600   -24.5840   -30.0530     4.9630     4.6900     4.5480
  389.5000     0.1890   131.8740     0.0020     2.4280   142.3280    13.1610   -25.6200   -29.7160     5.0200     4.7250     4.5170
  390.0000     0.1980   131.8740     0.0020     2.4350   142.4250    13.1630   -25.6510   -29.3790     5.1100     4.7790     4.5170
  390.5000     0.1870   131.8740     0.0010     2.4320   140.9780    13.1640   -24.7640   -29.0420     5.2010     4.9630     4.5930
  391.0000     0.1760   131.8740     0.0010     2.4360   139.1920    13.1650   -23.2910   -28.7050     5.3290     5.1070     4.9010
  391.5000     0.1670   131.8740     0.0010     2.4440   136.9990    13.1670   -22.9450   -28.3680     5.5020     5.2760     5.2510
  392.0000     0.1650   131.1580     0.0010     2.4480   134.6970    13.1680   -22.9610   -28.0310     5.6620     5.4460     5.3790
  392.5000     0.1650   130.4870     0.0010     2.4410   135.1810    13.1690   -24.2180   -27.6940     5.8100     5.6150     5.5270
  393.0000     0.1690   129.8160     0.0000     2.4430   137.4260    13.1710   -26.1920   -27.3570     5.9910     5.7700     5.6620
  393.5000     0.1720   129.1440     0.0000     2.4470   139.7050    13.1720   -27.4030   -27.0200     5.9280     5.7330     5.6620
  394.0000     0.1700   128.4730     0.0000     2.4450   140.2920    13.1730   -26.8720   -26.6830     5.8350     5.6990     5.6620
  394.5000     0.1610   127.8020     0.0000     2.4430   137.1750    13.1740   -26.2380   -26.3460     5.7430     5.6620     5.6010
  395.0000     0.1640   127.1300     0.0000     2.4430   134.2310    13.1740   -25.7760   -26.0090     5.6620     5.4880     5.4050
  395.5000     0.1680   126.4590    -0.0010     2.4450   130.5750    13.1750   -26.6580   -25.6720     5.4900     5.2980     5.2750
  396.0000     0.1690   125.7880    -0.0020     2.4350   131.3850    13.1760   -27.4170   -25.3350     5.3370     5.1070     5.0410
  396.5000     0.1650   125.1170    -0.0060     2.4210   133.5050    13.1760   -27.5980   -24.9980     5.1830     4.9830     4.8080
  397.0000     0.1660   124.4450    -0.0010     2.4070   134.1600    13.1770   -26.4650   -24.6610     5.0300     4.8830     4.5740
  397.5000     0.1680   123.7740    -0.0050     2.3930   134.5310    13.1780   -25.2970   -24.3240     4.8700     4.7790     4.0340
  398.0000     0.1690   123.1030    -0.0040     2.3880   136.1690    13.1780   -23.9990   -23.9870     4.8080     4.7160     4.1490
  398.5000     0.1610   122.4310     0.0000     2.3920   139.2770    13.1790   -23.1530   -23.6500     4.7430     4.6020     4.3540
  399.0000     0.1430   121.7600     0.0030     2.4000   140.9020    13.1800   -22.9010   -23.3130     4.6900     4.6020     4.5590
  399.5000     0.1480   122.5710     0.0060     2.4060   138.4550    13.1800   -22.5470   -22.9760     4.8270     4.6020     4.6610
  400.0000     0.1560   123.5540     0.0060     2.4130   134.0680    13.1810   -22.2400   -22.6390     4.9430     4.6020     4.7360
  400.5000     0.1710   124.5370     0.0050     2.4210   133.7610    13.1820   -21.8790   -22.3020     5.0590     4.6410     4.8110
  401.0000     0.1710   125.5190     0.0040     2.4300   135.9590    13.1820   -21.7710   -21.9650     5.1530     4.7390     4.8860
  401.5000     0.1670   126.5020     0.0030     2.4350   138.6380    13.1830   -21.8500   -21.6280     5.2520     4.8360     4.9630
  402.0000     0.1640   127.4850     0.0020     2.4360   139.6550    13.1840   -23.1750   -21.2910     5.3350     4.9340     5.0580
  402.5000     0.1740   128.4670     0.0010     2.4350   139.1710    13.1840   -24.5770   -20.9540     5.4190     5.0310     5.1570
  403.0000     0.1860   129.4500     0.0000     2.4340   138.7510    13.1850   -25.6580   -20.6170     5.5020     5.1290     5.2550
  403.5000     0.1790   130.4330    -0.0020     2.4350   138.3470    13.1860   -25.6370   -20.2800     5.5780     5.2030     5.3530
  404.0000     0.1650   131.4160    -0.0040     2.4360   138.1500    13.1860   -25.0300   -19.9430     5.6390     5.2700     5.4510
  404.5000     0.1440   131.6340    -0.0040     2.4380   138.8620    13.1870   -24.3650   -19.6060     5.7010     5.3360     5.5560
  405.0000     0.1450   131.1860    -0.0010     2.4410   140.2430    13.1880   -24.2180   -19.2690     5.7630     5.4030     5.6050
  405.5000     0.1600   130.7370     0.0020     2.4450   140.2770    13.1880   -25.5130   -18.9320     5.8240     5.4700     5.6580
