~VERSION INFORMATION
 VERS.                2.0:   CWLS LOG ASCII STANDARD - VERSION 2.0
 WRAP.                 NO:   ONE LINE PER DEPTH STEP
~WELL INFORMATION
#MNEM.UNIT      DATA TYPE    INFORMATION
#----------   ------------   ------------------------------
 STRT.F          206.0000:   START DEPTH
 STOP.F         3080.5000:   STOP DEPTH
 STEP.F            0.5000:   STEP LENGTH
 NULL.          -999.2500:   NO VALUE
 COMP.    FENIX & SCISSON:   COMPANY
 WELL.   FENIX "A" #61-28:   WELL
 FLD .           N P R #3:   FIELD
 LOC .      S28 T39N R78W:   LOCATION
 CNTY.            NATRONA:   COUNTY
 STAT.            WYOMING:   STATE
 CTRY. UNITED STATES OF AMERICA:   COUNTRY
 SRVC.        SCHLUMBEGER:   SERVICE COMPANY
 DATE.        16-MAY-1977:   LOGDATE
 API .     49025103680000:   API NUMBER
~CURVE INFORMATION
#MNEM.UNIT       API CODE    CURVE DESCRIPTION
#----------   ------------   ------------------------------
 DEPT.F                  :   
 SPR .MV     07 010 01 00:   SPONTANEOUS POTENTIAL
 LL8 .OHMM   07 220 08 00:   LATEROLOG-8 RES.
 ILM .OHMM   07 120 44 00:   INDUCTION LOG MEDIUM RESISTIVITY
 ILD .OHMM   07 120 46 00:   DEEP INDUCTION RESISTIVITY
 CALD.IN     45 280 60 00:   CALIPER FROM DENSITY LOG
 GRD .GAPI   45 310 01 00:   GAMMA RAY FROM DENSITY LOG
 RHOB.G/C3   45 350 01 00:   BULK DENSITY
 CORR.G/C3   45 356 01 00:   DENSITY CORRECTION
~PARAMETER INFORMATION
#MNEM.UNIT          VALUE    DESCRIPTION
#----------   ------------   ------------------------------
 EKB .F         5019.0000:   Kelly bushing
 EGL .F         5009.0000:   Ground level
 EDF .F            0.0000:   Drilling floor
 TD  .F         3050.0000:   Total depth
 DATE.        16-MAY-1977:   Date logged
 CLNT.            A2DTECH:   Client Code
 SL  . 330' FNL & 1650' FEL:   Surface Location
 PD  .                 GL:   Permanent Datum
 DD  .F              3050:   Depth driller
 DL  .F              3079:   Depth logger
 BLI .F              3072:   Bottom log interval
 CS1 .IN            8.625:   Casing size
 CBD1.      8.625" @ 213':   Casing driller 1
 CBL1.F               213:   Casing logger 1
 BS1 .IN            7.875:   Bit size
 DFT .            KCL-MUD:   Type fluid in hole
 DFD .                9.2:   Density
 DFV .                 32:   Viscosity
 DFPH.                  8:   pH
 DFL .                7.6:   Fluid loss
 MSS .              CIRC.:   Source of sample
 RMS .OHMM          0.128:   Rm
 MST .F                62:   Rm Meas. temp.
 RMF .OHMM          0.126:   Rmf
 MFST.F                62:   Rmf Meas. temp.
 RMC .OHMM          0.192:   Rmc
 MCST.F                62:   Rmc Meas. temp.
 MFSS.               MEAS:   Source Rmf.
 RMB .OHMM           0.07:   Rm. at BHT
 BHT .F               112:   BHT.
 TCS .HRS            0900:   Time Circ. stopped
 MRT .F               112:   Maximum recorded temp.
 LUN .               7711:   Logging unit number
 LUL .               CSPR:   Logging unit location
 ENGI.             SAYLER:   Recorded By
 WITN.         PETTINGILL:   Witnessed by
 ORIG.           5" PRINT:   Origin of data
 UWI .     49025103680000:   Unique Well ID
 DICO. A2D TECHNOLOGIES, INC.:   Digitizing Company
 DAPD.                 10:   Feet Above Permanent Datum
 BSD1.               3050:   Depth drilled with bit1
 MCSS.               CALC:   Source Rmc.
 EPD .F              5009:   Elevation Permanent Datum
 LMF .                 KB:   Log Measured From
 DMF .                 KB:   Drilling Measured From
 TLI .F               213:   Top log interval
 TLAB.               1100:   Time logger at bottom
~OTHER INFORMATION
~A   DEPT      SPR        LL8        ILM        ILD       CALD         GRD      RHOB       CORR   
# ...
  975.5000   -41.4790    11.7450    12.0630    12.3510     8.6800   117.1570     2.5020     0.0020
  976.0000   -41.3940    11.6160    11.8960    12.2240     8.6790   111.9510     2.5010     0.0010
  976.5000   -41.4110    11.4870    11.7280    12.0970     8.6790   109.0170     2.5080     0.0040
  977.0000   -41.4200    11.3580    11.5610    11.9690     8.6790   108.2920     2.5140     0.0070
  977.5000   -41.4310    11.2290    11.3930    11.8420     8.6800   107.5080     2.5120     0.0110
  978.0000   -41.4430    11.1000    11.2260    11.7150     8.6810   107.8730     2.5150     0.0140
  978.5000   -41.4540    10.9700    11.0580    11.5880     8.6820   107.7010     2.5130     0.0120
  979.0000   -41.4660    10.9030    10.9030    11.5220     8.6830   107.0710     2.5030     0.0080
  979.5000   -41.4770    10.9360    10.9580    11.5420     8.6840   106.4150     2.4990     0.0030
  980.0000   -41.4890    10.9860    11.0400    11.5620     8.6860   106.5950     2.4980    -0.0020
  980.5000   -41.5000    11.0360    11.1220    11.5810     8.6870   106.9590     2.4940    -0.0010
  981.0000   -41.5110    11.0860    11.2030    11.6010     8.6880   107.2980     2.4960     0.0050
  981.5000   -41.5230    11.1060    11.2850    11.6200     8.6890   108.4060     2.5040     0.0110
  982.0000   -41.5340    11.1350    11.3670    11.6400     8.6900   111.7080     2.5120     0.0160
  982.5000   -41.5460    11.2140    11.4490    11.6590     8.6910   113.5490     2.5150     0.0150
  983.0000   -41.5570    11.2930    11.5310    11.6790     8.6920   112.8680     2.5120     0.0100
  983.5000   -41.5680    11.3720    11.6130    11.6990     8.6930   113.6740     2.5100     0.0050
  984.0000   -41.5800    11.4500    11.6950    11.7180     8.6950   114.2850     2.5110     0.0090
  984.5000   -41.5910    11.5210    11.7350    11.7360     8.6960   114.2470     2.5170     0.0130
  985.0000   -41.6030    11.5210    11.5610    11.7100     8.6970   112.4950     2.5250     0.0150
  985.5000   -41.6140    11.3530    11.4030    11.6180     8.6980   108.4120     2.5230     0.0130
  986.0000   -41.6250    11.1620    11.2440    11.5270     8.6990   104.4490     2.5230     0.0080
  986.5000   -41.6370    10.9700    11.0860    11.4370     8.6980   102.0520     2.5240     0.0040
  987.0000   -41.6480    10.7790    10.9280    11.3450     8.6960   102.4760     2.5160     0.0010
  987.5000   -41.6600    10.5870    10.7690    11.2540     8.6940   105.5870     2.5080     0.0040
  988.0000   -41.6710    10.5100    10.7050    11.1060     8.6930   109.0350     2.5080     0.0060
  988.5000   -41.6820    10.5100    10.7050    11.1250     8.6910   111.2310     2.5110     0.0080
  989.0000   -41.6940    10.5100    10.7050    11.1750     8.6900   111.6370     2.5030     0.0030
  989.5000   -41.7050    10.5100    10.7050    11.2260     8.6880   108.4980     2.4940    -0.0010
  990.0000   -41.7170    10.5100    10.7050    11.2770     8.6860   105.9980     2.4860    -0.0050
  990.5000   -41.7280    10.5100    10.7050    11.3120     8.6850   105.8880     2.4830    -0.0080
  991.0000   -41.7390    10.5100    10.9030    11.2620     8.6830   107.3890     2.4850    -0.0050
  991.5000   -41.7510    10.4910    10.8380    11.2050     8.6810   109.8300     2.4860    -0.0030
  992.0000   -41.7620    10.4250    10.7420    11.1490     8.6800   112.2480     2.4830    -0.0010
  992.5000   -41.7740    10.3580    10.6460    11.0940     8.6790   114.2430     2.4800     0.0010
  993.0000   -41.7850    10.2910    10.5500    11.0380     8.6790   113.4580     2.4820     0.0030
  993.5000   -41.7960    10.2240    10.4540    10.9820     8.6790   112.8350     2.4920     0.0040
  994.0000   -41.8080    10.1580    10.3180    10.9260     8.6790   112.8560     2.5010     0.0020
  994.5000   -41.8190    10.1300    10.3280    10.9030     8.6790   112.8180     2.5030    -0.0010
  995.0000   -41.8310    10.1600    10.3450    10.9030     8.6790   111.5850     2.4970     0.0040
  995.5000   -41.8420    10.1990    10.3620    10.9030     8.6770   110.2500     2.4910     0.0090
  996.0000   -41.8540    10.2370    10.3790    10.9030     8.6750   109.1690     2.5030     0.0120
  996.5000   -41.8650    10.2750    10.3950    10.9030     8.6730   108.3510     2.5010     0.0050
  997.0000   -41.8760    10.3170    10.4120    10.9030     8.6700   107.7790     2.5050     0.0080
  997.5000   -41.8880    10.3180    10.4290    10.9030     8.6680   107.3220     2.5150     0.0130
  998.0000   -41.8990    10.3190    10.4460    10.9030     8.6660   108.4070     2.5140     0.0140
  998.5000   -41.9110    10.3180    10.4630    10.8840     8.6640   110.2060     2.5170     0.0080
  999.0000   -41.9220    10.3180    10.4790    10.8630     8.6610   111.2160     2.5320     0.0030
  999.5000   -41.9330    10.3180    10.4960    10.8410     8.6580   111.1400     2.5290     0.0050
 1000.0000   -41.9450    10.3180    10.5100    10.8190     8.6450   111.9070     2.5260     0.0090
 1000.5000   -41.9560    10.3180    10.5080    10.7980     8.6310   113.6580     2.5330     0.0120
 1001.0000   -41.9680    10.3180    10.5250    10.7760     8.6200   115.8490     2.5390     0.0150
 1001.5000   -41.9790    10.3180    10.5560    10.7540     8.6190   117.9920     2.5300     0.0160
 1002.0000   -41.9900    10.3180    10.5830    10.7320     8.6200   116.7930     2.5210     0.0120
 1002.5000   -42.0020    10.3180    10.6120    10.7110     8.6200   114.3210     2.5220     0.0090
 1003.0000   -42.0130    10.3180    10.6400    10.6890     8.6200   112.9800     2.5180     0.0050
 1003.5000   -42.0250    10.3180    10.6680    10.6670     8.6200   112.6820     2.5210     0.0030
 1004.0000   -42.0360    10.3170    10.6970    10.6460     8.6200   114.4520     2.5220    -0.0010
 1004.5000   -42.0470    10.3230    10.6120    10.6240     8.6200   115.3680     2.5170     0.0010
 1005.0000   -42.0590    10.2600    10.4940    10.6020     8.6200   114.2170     2.5050     0.0040
 1005.5000   -42.0700    10.1370    10.3760    10.5810     8.6200   112.0260     2.4980    -0.0020
 1006.0000   -42.0820    10.0130    10.2580    10.5590     8.6200   109.7320     2.5050     0.0040
 1006.5000   -42.0930     9.9400    10.1280    10.5360     8.6200   107.5350     2.5120     0.0100
 1007.0000   -42.1040     9.9460    10.1330    10.5090     8.6200   105.7880     2.5140     0.0090
 1007.5000   -42.1160     9.9470    10.1310    10.5130     8.6200   105.3850     2.5060     0.0030
 1008.0000   -42.1270     9.9450    10.1300    10.5060     8.6200   108.9610     2.5090     0.0020
 1008.5000   -42.1390     9.9420    10.1300    10.4990     8.6200   113.2950     2.5080     0.0060
 1009.0000   -42.1500     9.9460    10.1270    10.5290     8.6200   116.6370     2.5030     0.0030
 1009.5000   -42.1610     9.6940    10.1300    10.2990     8.6200   118.7740     2.5050     0.0020
 1010.0000   -42.1730     9.5870    10.0710    10.2190     8.6200   120.2550     2.5050     0.0080
 1010.5000   -42.1840     9.5870     9.9570    10.1200     8.6200   115.8840     2.4980     0.0040
 1011.0000   -42.1960     9.5870     9.8430    10.0170     8.6200   112.6780     2.5030    -0.0040
 1011.5000   -42.2000     9.5870     9.7650     9.9460     8.6200   112.4690     2.5080    -0.0090
 1012.0000   -42.2000     9.5430     9.7650     9.9300     8.6200   113.8240     2.5130    -0.0050
 1012.5000   -42.2000     9.4080     9.5680     9.9130     8.6200   115.4030     2.5030     0.0000
 1013.0000   -42.2000     9.4170     9.5060     9.8950     8.6200   115.2860     2.4920    -0.0020
 1013.5000   -42.2000     9.4180     9.4440     9.8780     8.6200   115.8940     2.4860    -0.0050
 1014.0000   -42.2000     9.2340     9.4080     9.8610     8.6200   116.4380     2.4850    -0.0050
 1014.5000   -42.2000     9.2500     9.4160     9.8430     8.6200   116.4360     2.4850    -0.0010
 1015.0000   -42.2000     9.2460     9.4060     9.8260     8.6210   116.0720     2.4930     0.0020
 1015.5000   -42.2000     9.2730     9.5930     9.8090     8.6220   116.8890     2.5000     0.0000
