~VERSION INFORMATION
 VERS.                2.0:   CWLS LOG ASCII STANDARD - VERSION 2.0
 WRAP.                 NO:   ONE LINE PER DEPTH STEP
~WELL INFORMATION
#MNEM.UNIT      DATA TYPE    INFORMATION
#----------   ------------   ------------------------------
 STRT.F          466.5000:   START DEPTH
 STOP.F         3184.0000:   STOP DEPTH
 STEP.F            0.5000:   STEP LENGTH
 NULL.          -999.2500:   NO VALUE
 COMP. LAWRENCE ALLISON AND ASSOCIATES:   COMPANY
 WELL. LAWRENCE 66 "X" #3-28:   WELL
 FLD .              N P R:   FIELD
 LOC .      S28 T39N R78W:   LOCATION
 CNTY.            NATRONA:   COUNTY
 STAT.            WYOMING:   STATE
 CTRY. UNITED STATES OF AMERICA:   COUNTRY
 SRVC.      DRESSER ATLAS:   SERVICE COMPANY
 DATE.        16-APR-1986:   LOGDATE
 API .     49025111340000:   API NUMBER
~CURVE INFORMATION
#MNEM.UNIT       API CODE    CURVE DESCRIPTION
#----------   ------------   ------------------------------
 DEPT.F                  :   
 RHOB.G/C3   45 350 01 00:   BULK DENSITY
 CORR.G/C3   45 356 01 00:   DENSITY CORRECTION
 TEND.LBS    45 635 01 00:   TENSION FROM DENSITY LOG
 NPHI.DEC    42 890 03 00:   NEUTRON POROSITY SANDSTONE
 DT  .US/F   60 520 00 00:   DELTA TIME
 TENS.LBS    51 635 01 00:   TENSION
 CALR.IN     07 280 01 00:   CALIPER FROM RESISTIVITY
 SPR .MV     07 010 01 00:   SPONTANEOUS POTENTIAL
 TENR.LBS    07 635 01 00:   TENSION FROM RESISTIVITY
 RFOC.OHMM   07 220 04 00:   RESISTIVITY FOCUSED LOG RES.
 GRR .GAPI   07 310 01 00:   GAMMA RAY FROM RESISTIVITY
 RILD.OHMM   07 120 46 00:   DEEP INDUCTION RESISTIVITY
 RILM.OHMM   07 120 44 00:   INDUCTION LOG MEDIUM RESISTIVITY
~PARAMETER INFORMATION
#MNEM.UNIT          VALUE    DESCRIPTION
#----------   ------------   ------------------------------
 EKB .F         5071.0000:   Kelly bushing
 EGL .F         5059.0000:   Ground level
 TD  .F         3176.0000:   Total depth
 DATE.        16-APR-1986:   Date logged
 CLNT.            A2DTECH:   Client Code
 SL  . 1685' FEL & 1915'FSL:   Surface Location
 PD  .                 GL:   Permanent Datum
 EPD .F              5059:   Elevation Permanent Datum
 LMF .                 KB:   Log Measured From
 DD  .F              3176:   Depth driller
 DL  .F              3176:   Depth logger
 BLI .F              3174:   Bottom log interval
 TLI .F               480:   Top log interval
 CS1 .IN            8.625:   Casing size
 BS1 .IN            7.875:   Bit size
 DFT .        POLYMER KCL:   Type fluid in hole
 DFD .                  9:   Density
 DFV .                 40:   Viscosity
 DFPH.                8.5:   pH
 DFL .               10.2:   Fluid loss
 MSS .           FLOWLINE:   Source of sample
 RMS .OHMM           .226:   Rm
 MST .F                65:   Rm Meas. temp.
 RMF .OHMM           .169:   Rmf
 MFST.F                65:   Rmf Meas. temp.
 RMC .OHMM           .283:   Rmc
 MCST.F                65:   Rmc Meas. temp.
 MFSS.               CALC:   Source Rmf.
 MCSS.               CALC:   Source Rmc.
 RMB .OHMM           .118:   Rm. at BHT
 BHT .F               125:   BHT.
 TCS .HRS               5:   Time Circ. stopped
 MRT .F               125:   Maximum recorded temp.
 LUN .               6264:   Logging unit number
 LUL .           GILLETTE:   Logging unit location
 ENGI.             MILLER:   Recorded By
 WITN.             STRONG:   Witnessed by
 ORIG.           5" PRINT:   Origin of data
 UWI .     49025111340000:   Unique Well ID
 DICO. A2D TECHNOLOGIES, INC.:   Digitizing Company
 DMF .                 KB:   Drilling Measured From
 DAPD.F                12:   Feet Above Permanent Datum
 CBD1.      8.625" @ 475':   Casing driller 1
 CBL1.F               480:   Casing logger 1
 BSD1.F              3176:   Depth drilled with bit1
~OTHER INFORMATION
~A   DEPT     RHOB       CORR       TEND       NPHI         DT       TENS       CALR        SPR       TENR       RFOC         GRR      RILD       RILM   
# ...
 2962.5000     2.4310     0.0360   -31.2290     0.2460    82.0760   -54.4130     8.6790   -74.3110   -55.0000     4.4670   103.4390     3.9160     4.0110
 2963.0000     2.4220     0.0420   -64.6290     0.2390    82.5960   -72.4670     8.6940   -74.1970   -71.8600     4.2600   105.1420     3.8700     3.9610
 2963.5000     2.4120     0.0460   -55.5440     0.2370    83.0700   -88.9380     8.7090   -74.0830   -87.2200     4.0800   107.0990     3.8240     3.9100
 2964.0000     2.4120     0.0560   -46.8270     0.2390    83.5440  -105.4080     8.6960   -73.9710  -102.5800     4.0560   109.0630     3.7780     3.8600
 2964.5000     2.4170     0.0410   -48.6820     0.2420    84.0180  -107.6730     8.6800   -73.9250  -110.1000     4.0320   110.9330     3.7310     3.8090
 2965.0000     2.4100     0.0070   -54.1870     0.2430    84.1300   -92.0260     8.6650   -73.9940   -85.0000     4.0090   110.5910     3.6850     3.7580
 2965.5000     2.3960    -0.0280   -59.6930     0.2430    84.1850   -83.0780     8.6500   -74.0670   -71.9500     4.0350   110.1510     3.6390     3.6900
 2966.0000     2.3810    -0.0680   -63.4270     0.2420    84.2400   -80.3330     8.6470   -74.3630   -59.1500     4.0670   109.7200     3.6230     3.7100
 2966.5000     2.3880    -0.0550   -51.8040     0.2400    84.3250   -77.5880     8.6450   -74.9420   -59.9430     4.0830   109.2980     3.6770     3.7410
 2967.0000     2.3950    -0.0310   -50.0000     0.2380    84.5260   -74.8430     8.6430   -75.5080   -62.7430     3.9320   109.0920     3.7140     3.7730
 2967.5000     2.3960    -0.0080   -64.2650     0.2360    84.7260   -62.1640     8.6400   -75.8350   -55.4290     3.8640   109.5970     3.7240     3.7930
 2968.0000     2.3890    -0.0170   -69.4070     0.2380    84.6100   -47.9390     8.6380   -75.6030   -48.1140     4.0320   111.0250     3.6020     3.6960
 2968.5000     2.3820    -0.0310   -50.1370     0.2440    84.3640   -33.7150     8.6350   -75.3810   -31.9330     4.1590   112.4620     3.5250     3.6110
 2969.0000     2.3800    -0.0190   -30.8670     0.2520    84.1190   -19.4900     8.6330   -75.1580    -9.1780     4.0940   113.8970     3.4480     3.5260
 2969.5000     2.3810    -0.0200   -11.5970     0.2610    84.2280   -18.4300     8.6310   -74.9350     1.9670     3.9680   115.3340     3.3700     3.4410
 2970.0000     2.3890    -0.0260   -12.7760     0.2630    84.7840   -24.9500     8.6280   -74.8380    -8.2000     3.7850   116.7650     3.2930     3.3550
 2970.5000     2.3950    -0.0240   -25.8520     0.2590    85.3410   -31.4690     8.6260   -74.7650   -28.6800     3.7240   117.8200     3.2160     3.2700
 2971.0000     2.3990    -0.0090   -32.0780     0.2540    85.8970   -37.9890     8.6230   -74.6950   -40.0570     3.7240   117.4780     3.1390     3.2120
 2971.5000     2.4020     0.0050   -24.6060     0.2510    86.4530   -44.3830     8.6210   -74.6680   -43.4910     3.6270   116.3350     3.0410     3.1650
 2972.0000     2.4020     0.0210   -17.1340     0.2520    87.0100   -46.6940     8.6190   -74.6400   -38.8360     3.4600   115.2070     3.0690     3.1260
 2972.5000     2.4020     0.0040   -28.7240     0.2510    87.2620   -48.9620     8.6160   -74.6120   -35.8180     3.5100   114.0890     3.0690     3.1260
 2973.0000     2.4080    -0.0120   -50.5180     0.2500    87.1610   -51.2300     8.6140   -74.5830   -40.4730     3.5750   113.4810     3.0690     3.1260
 2973.5000     2.4140    -0.0070   -59.0980     0.2560    86.9770   -53.4970     8.6110   -74.5550   -45.0000     3.6410   113.7120     3.0410     3.1080
 2974.0000     2.4080    -0.0050   -43.4070     0.2650    86.7930   -66.8510     8.6120   -74.5270   -75.0570     3.6900   114.2800     2.9940     3.0660
 2974.5000     2.4020    -0.0110   -36.6460     0.2710    86.7930   -87.7130     8.6150   -74.4970   -87.4140     3.6670   115.0950     2.9470     3.0230
 2975.0000     2.3980    -0.0140   -41.4010     0.2630    87.0240   -94.5340     8.6190   -74.4130   -91.0710     3.6030   117.2000     2.9010     2.9800
 2975.5000     2.4040    -0.0090   -51.4830     0.2570    87.5240   -94.5340     8.6230   -74.3300   -95.0000     3.4940   118.8700     2.8540     2.9380
 2976.0000     2.4100     0.0000   -72.4050     0.2590    88.2960   -94.5340     8.6270   -74.2480   -87.7080     3.3850   117.2860     2.8070     2.8950
 2976.5000     2.4130     0.0090   -84.6690     0.2760    89.1970   -88.6590     8.6310   -74.1660   -79.8310     3.2740   115.6750     2.7610     2.8510
 2977.0000     2.4100     0.0180   -79.7890     0.2780    89.6840   -70.3070     8.6340   -74.1220   -63.6860     3.2440   116.5390     2.7230     2.8140
 2977.5000     2.4070     0.0280   -61.3290     0.2750    89.6490   -38.2110     8.6380   -74.2620   -35.0000     3.2440   118.0100     2.7230     2.7960
 2978.0000     2.4030     0.0220   -42.8680     0.2730    89.6140    -4.2630     8.6420   -74.3990     2.2860     3.2700   119.3220     2.7230     2.7900
 2978.5000     2.3990     0.0160   -24.5490     0.2700    89.3250   -21.4640     8.6460   -74.5660    -0.4150     3.3030   118.1060     2.7230     2.7850
 2979.0000     2.3950     0.0100   -24.5490     0.2680    88.8340   -39.7190     8.6490   -74.8530   -24.0460     3.3360   116.8260     2.7230     2.7790
 2979.5000     2.3910     0.0030   -49.5080     0.2660    88.3430   -57.9740     8.6530   -75.1230   -45.0000     3.3680   117.3910     2.7240     2.7740
 2980.0000     2.3890    -0.0030   -73.2830     0.2690    87.9940   -74.4730     8.6570   -75.2520   -45.0000     3.3960   119.7230     2.6970     2.7350
 2980.5000     2.3870    -0.0090   -97.0580     0.2740    88.1290   -70.6620     8.6600   -75.3880   -50.4570     3.3270   122.1400     2.6480     2.6930
 2981.0000     2.3850    -0.0150  -120.8330     0.2800    88.5890   -67.1850     8.6640   -75.5250   -55.0000     3.2330   121.8100     2.5990     2.6510
 2981.5000     2.3840    -0.0220  -116.8060     0.2830    89.6700   -61.3790     8.6680   -75.6630   -55.0000     3.1400   121.0010     2.5500     2.6090
 2982.0000     2.3830    -0.0280  -107.2960     0.2790    90.7500   -46.8910     8.6690   -75.7980   -47.0500     3.0460   121.3790     2.5010     2.5530
 2982.5000     2.3790    -0.0320  -107.8820     0.2790    91.3840   -32.4030     8.6670   -75.8520   -34.2500     2.9580   121.8010     2.4830     2.5530
 2983.0000     2.3750    -0.0260  -112.2410     0.2810    91.7050   -17.9150     8.6640   -75.6150   -21.4500     2.9310   120.0380     2.5140     2.5530
 2983.5000     2.3780    -0.0090  -102.6440     0.2780    91.4860   -14.2930     8.6620   -75.3870    -8.6500     3.0140   119.0080     2.5290     2.5530
 2984.0000     2.3900     0.0070   -74.4800     0.2750    90.8000   -33.4750     8.6600   -75.1590   -12.3200     3.0910   119.3020     2.4960     2.5530
 2984.5000     2.3950    -0.0010   -44.5890     0.2780    90.1130   -56.8050     8.6570   -74.9310   -22.5600     3.1260   120.2810     2.4660     2.5380
 2985.0000     2.3930    -0.0090   -53.7840     0.2830    89.4270   -84.8890     8.6550   -74.7060   -49.0000     3.0980   121.2550     2.4360     2.5180
 2985.5000     2.3850    -0.0120   -66.0910     0.2800    89.0970  -114.5940     8.6530   -74.6200   -80.5080     3.1210   122.2230     2.4070     2.4890
 2986.0000     2.3780    -0.0080   -78.3980     0.2760    89.2190  -113.6910     8.6500   -74.5400  -115.0000     3.1550   124.0050     2.3770     2.4450
 2986.5000     2.3820    -0.0020   -82.6290     0.2710    89.8980  -108.4750     8.6500   -74.4590  -107.9870     3.0800   126.3910     2.3160     2.3730
 2987.0000     2.3890     0.0130   -63.6090     0.2750    90.9670   -99.8220     8.6500   -74.3780  -101.1600     2.9610   128.8130     2.2280     2.2940
 2987.5000     2.4040     0.0280   -44.5890     0.2810    92.4270   -80.8560     8.6500   -74.2970  -108.3330     2.8430   131.2770     2.1830     2.2230
 2988.0000     2.4220     0.0400   -64.2030     0.2870    93.5320   -61.8900     8.6500   -74.2170   -74.2000     2.7250   129.0830     2.2170     2.2630
