~VERSION INFORMATION
 VERS.                2.0:   CWLS LOG ASCII STANDARD - VERSION 2.0
 WRAP.                 NO:   ONE LINE PER DEPTH STEP
~WELL INFORMATION
#MNEM.UNIT      DATA TYPE    INFORMATION
#----------   ------------   ------------------------------
 STRT.F            1.0000:   START DEPTH
 STOP.F         2854.0000:   STOP DEPTH
 STEP.F            0.5000:   STEP LENGTH
 NULL.          -999.2500:   NO VALUE
 COMP.          INTEX OIL:   COMPANY
 WELL. INTEX N.P.R. "AX" #42-29:   WELL
 FLD .             TEAPOT:   FIELD
 LOC .      S29 T39N R78W:   LOCATION
 CNTY.            NATRONA:   COUNTY
 STAT.            WYOMING:   STATE
 CTRY. UNITED STATES OF AMERICA:   COUNTRY
 SRVC.       SCHLUMBERGER:   SERVICE COMPANY
 DATE.        30-MAY-1986:   LOGDATE
 API .     49025095240000:   API NUMBER
~CURVE INFORMATION
#MNEM.UNIT       API CODE    CURVE DESCRIPTION
#----------   ------------   ------------------------------
 DEPT.F                  :   
 SPR .MV     05 010 01 00:   SPONTANEOUS POTENTIAL FROM RES.
 ASN .OHMM   05 041 16 00:   AMPLIFIED SHORT NORMAL 16"
 ILD .OHMM   05 120 46 00:   INDUCTION LOG DEEP
 GRD .GAPI   45 310 01 00:   GAMMA RAY FROM DENSITY LOG
 CALD.IN     45 280 60 00:   CALIPER FROM DENSITY LOG
 CORR.G/C3   45 356 01 00:   DENSITY CORRECTION
 RHOB.G/C3   45 350 01 00:   BULK DENSITY
 CALI.IN     30 280 01 00:   CALIPER FROM GAMMA RAY LOG
 GR  .GAPI   30 310 01 00:   GAMMA RAY
~PARAMETER INFORMATION
#MNEM.UNIT          VALUE    DESCRIPTION
#----------   ------------   ------------------------------
 EKB .F         5020.3000:   Kelly bushing
 EGL .F         5010.0000:   Ground level
 EDF .F            0.0000:   Drilling floor
 TD  .F         2860.0000:   Total depth
 CLNT.            A2DTECH:   Client Code
 DATE.        30-MAY-1986:   Date Logged [DD-MMM-YYYY]
 DD  .F              2860:   Depth driller
 DL  .F              2855:   Depth logger
 BLI .F              2854:   Bottom log interval
 TLI .F               164:   Top log interval
 CS1 .              8.625:   Casing size
 CBD1.      8.625" @ 167':   Casing driller 1
 CBL1.IN              164:   Casing logger 1
 BS1 .IN            7.875:   Bit size
 BSD1.F              2860:   Depth drilled with bit1
 DFT .  LIGND-SULFATE LCM:   Type fluid in hole
 DFD .                8.9:   Density
 DFV .                 33:   Viscosity
 DFPH.               11.0:   pH
 DFL .                9.2:   Fluid loss
 MSS .           FLOWLINE:   Source of sample
 RMS .OHMM           1.47:   Rm
 MST .F                55:   Rm Meas. temp.
 RMF .OHMM           1.13:   Rmf
 MFST.F                75:   Rmf Meas. temp.
 RMB .OHMM           0.78:   Rm. at BHT
 BHT .F               108:   BHT.
 TCS .HRS               3:   Time Circ. stopped
 MRT .F               108:   Maximum recorded temp.
 LUN .               3527:   Logging unit number
 LUL .               CSPR:   Logging unit location
 ENGI.            MANGOLO:   Recorded By
 WITN.             TUTTLE:   Witnessed by
 ORIG.      1" 2.5" PRINT:   Origin of data
 UWI .     49025095240000:   Unique Well ID
 DICO. A2D TECHNOLOGIES, INC.:   Digitizing Company
 PD  .                 GL:   Permanent Datum
 EPD .               5010:   Elevation Permanent Datum
 LMF .                 KB:   Log Measured From
 DMF .                 KB:   Drilling Measured From
 DAPD.              10.32:   Feet Above Permanent Datum
 MFSS.         MEAS PRESS:   Source Rmf.
~OTHER INFORMATION
~A    DEPT     SPR        ASN        ILD        GRD       CALD       CORR       RHOB        CALI        GR   
# ...
  183.5000   -63.2676    18.1402    14.5993  -999.2500  -999.2500  -999.2500  -999.2500     9.1886    71.8707
  184.0000   -63.4391    18.1402    14.4762  -999.2500  -999.2500  -999.2500  -999.2500     9.1587    73.7027
  184.5000   -63.4383    18.0943    14.4495  -999.2500  -999.2500  -999.2500  -999.2500     9.1579    72.9535
  185.0000   -63.4374    17.9878    14.3819  -999.2500  -999.2500  -999.2500  -999.2500     9.1294    72.2385
  185.5000   -63.4367    17.9878    14.2967  -999.2500  -999.2500  -999.2500  -999.2500     9.1281    72.2244
  186.0000   -63.5762    17.9878    14.2964  -999.2500  -999.2500  -999.2500  -999.2500     9.1002    70.7351
  186.5000   -63.8209    17.9878    14.2959  -999.2500  -999.2500  -999.2500  -999.2500     9.1009    69.3082
  187.0000   -64.0443    17.9878    14.1935  -999.2500  -999.2500  -999.2500  -999.2500     9.1016    70.8048
  187.5000   -64.0433    17.9656    14.1433  -999.2500  -999.2500  -999.2500  -999.2500     9.1022    71.5137
  188.0000   -64.2500    17.8354    14.1429  -999.2500  -999.2500  -999.2500  -999.2500     9.1029    70.3462
  188.5000   -64.3468    17.7194    14.1425  -999.2500  -999.2500  -999.2500  -999.2500     9.1036    69.3155
  189.0000   -64.4344    17.6829    14.1421  -999.2500  -999.2500  -999.2500  -999.2500     9.1043    70.8269
  189.5000   -64.6791    17.6256    14.1417  -999.2500  -999.2500  -999.2500  -999.2500     9.1050    71.5210
  190.0000   -64.9542    17.5025    14.1413  -999.2500  -999.2500  -999.2500  -999.2500     9.1102    70.7889
  190.5000   -64.9535    17.3780    14.1409  -999.2500  -999.2500  -999.2500  -999.2500     9.1369    71.3154
  191.0000   -64.9527    17.2563    14.1205  -999.2500  -999.2500  -999.2500  -999.2500     9.1377    73.1632
  191.5000   -64.9520    17.1333    13.9882  -999.2500  -999.2500  -999.2500  -999.2500     9.1383    77.0255
  192.0000   -64.9512    17.0732    13.8743  -999.2500  -999.2500  -999.2500  -999.2500     9.1390    80.1615
  192.5000   -64.9504    17.0732    13.7513  -999.2500  -999.2500  -999.2500  -999.2500     9.1090    81.0732
  193.0000   -64.9497    17.0732    13.6282  -999.2500  -999.2500  -999.2500  -999.2500     9.1098    76.7670
  193.5000   -64.9489    17.0732    13.5051  -999.2500  -999.2500  -999.2500  -999.2500     9.1039    72.4874
  194.0000   -65.0518    16.9751    13.3784  -999.2500  -999.2500  -999.2500  -999.2500     9.0738    72.2714
  194.5000   -65.2524    16.9207    13.2589  -999.2500  -999.2500  -999.2500  -999.2500     9.0436    74.6390
  195.0000   -65.2515    16.9601    13.2257  -999.2500  -999.2500  -999.2500  -999.2500     8.9901    75.2110
  195.5000   -65.7111    17.0732    13.2253  -999.2500  -999.2500  -999.2500  -999.2500     8.9832    74.0227
  196.0000   -66.2012    17.0732    13.2563  -999.2500  -999.2500  -999.2500  -999.2500     8.9530    73.7466
  196.5000   -66.5800    17.0732    13.3765  -999.2500  -999.2500  -999.2500  -999.2500     8.9309    74.9462
  197.0000   -66.7729    17.1476    13.3762  -999.2500  -999.2500  -999.2500  -999.2500     8.9317    76.4195
  197.5000   -66.7721    17.2256    13.4714  -999.2500  -999.2500  -999.2500  -999.2500     8.9324    77.8929
  198.0000   -66.7713    17.2414    13.5938  -999.2500  -999.2500  -999.2500  -999.2500     8.9331    78.9994
  198.5000   -66.5922    17.3780    13.7161  -999.2500  -999.2500  -999.2500  -999.2500     8.9643    79.3719
  199.0000   -66.4650    17.3780    13.8384  -999.2500  -999.2500  -999.2500  -999.2500     8.9650    78.5506
  199.5000   -66.4642    17.3780    13.9821  -999.2500  -999.2500  -999.2500  -999.2500     8.9657    76.8251
  200.0000   -66.4634    17.4288    14.1844  -999.2500  -999.2500  -999.2500  -999.2500     8.9663    75.9630
  200.5000   -66.4627    17.5305    14.2854  -999.2500  -999.2500  -999.2500  -999.2500     8.9670    74.9792
  201.0000   -66.4619    17.5305    14.3278  -999.2500  -999.2500  -999.2500  -999.2500     8.9677    69.3175
  201.5000   -66.3346    17.5305    14.4366  -999.2500  -999.2500  -999.2500  -999.2500     8.9684    66.2942
  202.0000   -66.1555    17.4446    14.4361  -999.2500  -999.2500  -999.2500  -999.2500     8.9691    66.5664
  202.5000   -66.1548    17.3215    14.4358  -999.2500  -999.2500  -999.2500  -999.2500     8.9581    67.8136
  203.0000   -66.1540    17.2256    14.3577  -999.2500  -999.2500  -999.2500  -999.2500     8.9397    69.1463
  203.5000   -66.1532    17.2256    14.2830  -999.2500  -999.2500  -999.2500  -999.2500     8.9405    68.3407
  204.0000   -66.1525    17.1047    14.2634  -999.2500  -999.2500  -999.2500  -999.2500     8.9106    67.0190
  204.5000   -66.1517    17.0732    14.1303  -999.2500  -999.2500  -999.2500  -999.2500     8.8876    66.9609
  205.0000   -66.1509    17.0109    14.1299  -999.2500  -999.2500  -999.2500  -999.2500     8.8400    68.3853
  205.5000   -66.1500    16.9207    14.1295  -999.2500  -999.2500  -999.2500  -999.2500     8.8100    70.0288
  206.0000   -66.1494    16.9207    14.0749  -999.2500  -999.2500  -999.2500  -999.2500     8.7901    71.1512
  206.5000   -66.1486    16.9207    13.9768  -999.2500  -999.2500  -999.2500  -999.2500     8.7908    72.3652
  207.0000   -66.2302    16.9207    13.9764  -999.2500  -999.2500  -999.2500  -999.2500     8.7914    72.0027
  207.5000   -66.4521    16.9207    13.9761  -999.2500  -999.2500  -999.2500  -999.2500     8.7920    72.3752
  208.0000   -66.4511    16.9207    13.8865  -999.2500  -999.2500  -999.2500  -999.2500     8.7927    70.6496
  208.5000   -66.4505    16.9207    13.8233  -999.2500  -999.2500  -999.2500  -999.2500     8.7626    70.1843
  209.0000   -66.4497    16.9207    13.7923  -999.2500  -999.2500  -999.2500  -999.2500     8.7633    71.0582
  209.5000   -66.3590    16.9207    13.6706  -999.2500  -999.2500  -999.2500  -999.2500     8.7639    72.7011
  210.0000   -66.1434    16.9944    13.6702  -999.2500  -999.2500  -999.2500  -999.2500     8.7338    75.3394
  210.5000   -66.4473    17.0732    13.6699  -999.2500  -999.2500  -999.2500  -999.2500     8.7244    74.7077
  211.0000   -66.6631    17.0732    13.6695  -999.2500  -999.2500  -999.2500  -999.2500     8.6944    74.8880
  211.5000   -66.9078    17.0732    13.7054  -999.2500  -999.2500  -999.2500  -999.2500     8.6439    75.8592
  212.0000   -67.0549    17.0732    13.8420  -999.2500  -999.2500  -999.2500  -999.2500     8.6446    75.4545
  212.5000   -67.0160    17.1526    14.2761  -999.2500  -999.2500  -999.2500  -999.2500     8.6146    74.6320
  213.0000   -66.7484    17.2756    14.6781  -999.2500  -999.2500  -999.2500  -999.2500     8.5846    76.1542
  213.5000   -66.7477    17.3987    15.6676  -999.2500  -999.2500  -999.2500  -999.2500     8.5546    78.2244
  214.0000   -66.4177    17.5305    16.9331  -999.2500  -999.2500  -999.2500  -999.2500     8.5247    76.8883
  214.5000   -65.9261    17.6449    17.9733  -999.2500  -999.2500  -999.2500  -999.2500     8.4846    72.5737
  215.0000   -65.4345    17.9382    18.5296  -999.2500  -999.2500  -999.2500  -999.2500     8.3731    67.1562
  215.5000   -64.9154    18.4748    18.9543  -999.2500  -999.2500  -999.2500  -999.2500     7.9864    61.3410
  216.0000   -64.6829    19.2926    19.2908  -999.2500  -999.2500  -999.2500  -999.2500     7.9461    58.2409
  216.5000   -64.9535    20.4268    19.4881  -999.2500  -999.2500  -999.2500  -999.2500     8.0589    57.7953
  217.0000   -65.3308    21.6284    19.5920  -999.2500  -999.2500  -999.2500  -999.2500     8.1411    59.0458
  217.5000   -65.5755    22.1328    19.5915  -999.2500  -999.2500  -999.2500  -999.2500     8.2029    58.2539
  218.0000   -65.8262    22.1331    19.1434  -999.2500  -999.2500  -999.2500  -999.2500     8.2543    56.4231
  218.5000   -65.8255    21.7584    17.7424  -999.2500  -999.2500  -999.2500  -999.2500     8.1531    55.1046
  219.0000   -65.8247    21.0198    16.3287  -999.2500  -999.2500  -999.2500  -999.2500     8.0009    56.4258
  219.5000   -65.7035    20.2812    15.5903  -999.2500  -999.2500  -999.2500  -999.2500     7.8383    58.3425
