~VERSION INFORMATION
 VERS.                2.0:   CWLS LOG ASCII STANDARD - VERSION 2.0
 WRAP.                 NO:   ONE LINE PER DEPTH STEP
~WELL INFORMATION
#MNEM.UNIT      DATA TYPE    INFORMATION
#----------   ------------   ------------------------------
 STRT.F          199.5000:   START DEPTH
 STOP.F         2983.0000:   STOP DEPTH
 STEP.F            0.5000:   STEP LENGTH
 NULL.          -999.2500:   NO VALUE
 COMP.    FENIX & SCISSON:   COMPANY
 WELL. FENIX (UE-49) "AX" #52-29:   WELL
 FLD . U.S. NAVAL PETROLEUM RESERVE #3:   FIELD
 LOC .      S29 T39N R78W:   LOCATION
 CNTY.            NATRONA:   COUNTY
 STAT.            WYOMING:   STATE
 CTRY. UNITED STATES OF AMERICA:   COUNTRY
 SRVC.           BIRDWELL:   SERVICE COMPANY
 DATE.        07-AUG-1977:   LOGDATE
 API .     49025104090000:   API NUMBER
~CURVE INFORMATION
#MNEM.UNIT       API CODE    CURVE DESCRIPTION
#----------   ------------   ------------------------------
 DEPT.F                  :   
 GRD .GAPI   45 310 01 00:   GAMMA RAY FROM DENSITY LOG
 CALD.IN     45 280 60 00:   CALIPER FROM DENSITY LOG
 DEN .G/C3   45 350 01 00:   BULK DENSITY
 DCOR.G/C3   45 356 01 00:   DENSITY CORRECTION
 SN  .OHMM   05 040 16 00:   SHORT NORMAL 16"
 ILD .OHMM   05 120 46 00:   INDUCTION LOG DEEP RESISTIVITY
~PARAMETER INFORMATION
#MNEM.UNIT          VALUE    DESCRIPTION
#----------   ------------   ------------------------------
 EKB .F         4995.0000:   Kelly bushing
 EGL .F         4985.0000:   Ground level
 EDF .F            0.0000:   Drilling floor
 TD  .F         2973.0000:   Total depth
 DATE.         7-AUG-1977:   Date logged
 CLNT.            A2DTECH:   Client Code
 SL  . 1400' FNL & 2380' FEL:   Surface Location
 PD  .                 GL:   Permanent Datum
 EPD .F              4985:   Elevation Permanent Datum
 LMF .                 KB:   Log Measured From
 DMF .                 KB:   Drilling Measured From
 DAPD.F                10:   Feet Above Permanent Datum
 DD  .F              2972:   Depth driller
 DL  .F              2973:   Depth logger
 BLI .F              2968:   Bottom log interval
 TLI .F               216:   Top log interval
 CS1 .IN            8.625:   Casing size
 CBD1.      8.625" @ 216':   Casing driller 1
 CBL1.F               216:   Casing logger 1
 BS1 .IN            7.875:   Bit size
 BSD1.F              2972:   Depth drilled with bit1
 DFT .            GEL-KCL:   Type fluid in hole
 DFD .                8.9:   Density
 DFV .                 33:   Viscosity
 DFL .                  9:   Fluid loss
 MSS .            MUD PIT:   Source of sample
 RMS .OHMM           0.26:   Rm
 MST .F                73:   Rm Meas. temp.
 RMF .OHMM           0.26:   Rmf
 MFST.F                72:   Rmf Meas. temp.
 RMC .OHMM           0.96:   Rmc
 MCST.F                72:   Rmc Meas. temp.
 MFSS.              PRESS:   Source Rmf.
 RMB .OHMM           0.14:   Rm. at BHT
 BHT .F               130:   BHT.
 TCS .HRS               5:   Time Circ. stopped
 MRT .F               130:   Maximum recorded temp.
 LUN .               2958:   Logging unit number
 LUL .             CASPER:   Logging unit location
 ENGI.                LAW:   Recorded By
 WITN.             RHODES:   Witnessed by
 ORIG.           5" PRINT:   Origin of data
 UWI .     49025104090000:   Unique Well ID
 DICO. A2D TECHNOLOGIES, INC.:   Digitizing Company
~OTHER INFORMATION
~A   DEPT       GRD      CALD        DEN       DCOR         SN        ILD   
# ...
  927.5000    64.1650     9.6910     2.5500     0.0260     7.8600     8.8470
  928.0000    60.2610     9.6930     2.5490     0.0230     7.8400     8.7900
  928.5000    60.7630     9.6950     2.5440     0.0240     7.8200     8.7660
  929.0000    58.5070     9.6970     2.5400     0.0290     7.8000     8.8600
  929.5000    59.8630     9.6990     2.5520     0.0270     7.7820     8.9230
  930.0000    58.9470     9.7000     2.5610     0.0250     7.8210     8.9860
  930.5000    61.8890     9.7020     2.5600     0.0280     7.8590     9.0490
  931.0000    58.1670     9.7040     2.5680     0.0250     7.8960     9.1130
  931.5000    58.3850     9.7050     2.5710     0.0200     7.9330     9.1760
  932.0000    60.8510     9.7060     2.5600     0.0190     7.9700     9.2390
  932.5000    57.1910     9.7060     2.5590     0.0210     8.0150     9.5010
  933.0000    58.2250     9.7050     2.5610     0.0210     8.0810     9.7850
  933.5000    60.0760     9.7050     2.5600     0.0250     8.1480     9.6080
  934.0000    53.5190     9.7070     2.5580     0.0120     8.2150     9.4330
  934.5000    53.3520     9.7430     2.5630     0.0180     8.2820     9.7340
  935.0000    55.5470     9.7530     2.5640     0.0220     8.3740     9.9440
  935.5000    57.1420     9.7270     2.5580     0.0230     8.3640    10.1510
  936.0000    57.2820     9.7010     2.5390     0.0230     8.3490    10.1900
  936.5000    53.8980     9.6860     2.5500     0.0180     8.3340    10.2290
  937.0000    54.1160     9.6860     2.5340     0.0190     8.3190    10.2680
  937.5000    56.0980     9.6860     2.5200     0.0210     8.2970    10.3070
  938.0000    55.9700     9.6860     2.5210     0.0190     8.3740    10.3390
  938.5000    56.5290     9.6860     2.5190     0.0190     8.9290    10.4530
  939.0000    58.0440     9.6860     2.5170     0.0220     8.9200    10.7250
  939.5000    55.8060     9.6860     2.5190     0.0220     8.9100    10.5300
  940.0000    53.6110     9.6860     2.5290     0.0210     8.9000    10.9230
  940.5000    52.2790     9.6860     2.5270     0.0190     8.8890    11.0130
  941.0000    53.5280     9.6860     2.5240     0.0250     8.8790    11.1250
  941.5000    50.6120     9.6860     2.5320     0.0320     8.8680    11.1120
  942.0000    49.7000     9.6860     2.5460     0.0300     8.8580    11.0950
  942.5000    51.7090     9.6860     2.5480     0.0330     8.8480    11.0780
  943.0000    54.6040     9.6860     2.5370     0.0370     8.8710    11.0610
  943.5000    54.4340     9.6860     2.5340     0.0340     8.8970    11.0440
  944.0000    53.6660     9.6860     2.5430     0.0250     8.9290    11.0270
  944.5000    54.1380     9.7440     2.5390     0.0250     8.8620    11.0100
  945.0000    58.6970     9.8100     2.5290     0.0240     8.7660    10.9930
  945.5000    55.9780     9.8750     2.5160     0.0240     8.8620    10.9760
  946.0000    55.5050     9.9020     2.5050     0.0250     8.9630    10.9580
  946.5000    52.7240     9.8920     2.5140     0.0290     9.0110    10.9420
  947.0000    53.3820     9.8830     2.5150     0.0350     9.0110    10.9240
  947.5000    53.0050     9.8750     2.5290     0.0350     9.0110    10.9560
  948.0000    53.4890     9.8660     2.5400     0.0290     9.0110    10.9920
  948.5000    55.3970     9.8630     2.5340     0.0200     9.0110    11.0340
  949.0000    54.8800     9.8620     2.5230     0.0190     9.0110    11.1280
  949.5000    56.0810     9.8610     2.5130     0.0200     9.0110    11.2210
  950.0000    52.7620     9.8600     2.5140     0.0210     9.0110    11.3140
  950.5000    49.7230     9.8590     2.5200     0.0220     9.0110    11.4080
  951.0000    50.4890     9.8580     2.5260     0.0180     9.0110    11.5010
  951.5000    51.0610     9.8570     2.5230     0.0040     9.0110    11.5950
  952.0000    46.6990     9.8550     2.5160     0.0050     9.0110    11.6880
  952.5000    47.9380     9.8540     2.5190     0.0090     9.0110    11.7810
  953.0000    50.3460     9.8530     2.5260     0.0140     9.0110    11.8620
  953.5000    48.8270     9.8520     2.5330     0.0140     9.0110    11.8110
  954.0000    47.3940     9.8510     2.5360     0.0140     9.0110    11.7660
  954.5000    49.3470     9.8500     2.5300     0.0180     9.0110    11.7210
  955.0000    49.2230     9.8490     2.5350     0.0170     9.0110    11.6750
  955.5000    52.2740     9.8480     2.5400     0.0190     9.0110    11.6100
  956.0000    53.8310     9.8470     2.5420     0.0180     9.0110    11.5100
  956.5000    54.3370     9.8460     2.5370     0.0140     9.0110    11.4090
  957.0000    49.7750     9.8450     2.5240     0.0160     9.0110    11.3090
  957.5000    51.2300     9.8440     2.5190     0.0240     9.0110    11.2070
  958.0000    55.0060     9.8430     2.5300     0.0290     9.0070    11.0970
  958.5000    55.4050     9.8420     2.5340     0.0290     8.9850    10.9880
  959.0000    55.8030     9.8410     2.5330     0.0300     8.9630    10.9230
  959.5000    56.3640     9.8400     2.5380     0.0310     8.9410    11.0650
  960.0000    58.8350     9.8390     2.5440     0.0240     8.9290    11.2280
  960.5000    57.0780     9.8370     2.5390     0.0200     8.7790    10.9230
  961.0000    55.9220     9.8360     2.5320     0.0220     8.6320    11.0160
  961.5000    58.5890     9.8350     2.5330     0.0230     8.5860    11.1250
  962.0000    58.5730     9.8340     2.5360     0.0250     8.5600    11.0370
  962.5000    56.2030     9.8330     2.5390     0.0250     8.5340    10.7810
  963.0000    58.5910     9.8320     2.5430     0.0250     8.5080    10.4940
  963.5000    56.8090     9.8310     2.5410     0.0230     8.4820    10.3390
  964.0000    57.6240     9.8300     2.5380     0.0210     8.4560    10.5300
  964.5000    58.3160     9.8290     2.5420     0.0220     8.4310    10.3310
  965.0000    58.0420     9.8280     2.5360     0.0250     8.4050    10.0580
  965.5000    60.7920     9.8270     2.5430     0.0250     8.3790    10.0580
  966.0000    59.6710     9.8260     2.5430     0.0250     8.3530    10.0580
  966.5000    62.6570     9.8250     2.5430     0.0230     8.3270    10.0580
  967.0000    59.3990     9.8240     2.5490     0.0190     8.3010     9.9210
  967.5000    59.3090     9.8230     2.5440     0.0180     8.2750     9.6960
  968.0000    55.3750     9.7890     2.5390     0.0240     8.2490    10.2440
  968.5000    57.4850     9.7030     2.5460     0.0260     8.2220     9.4330
  969.0000    58.7370     9.6880     2.5530     0.0250     8.2220     9.9660
  969.5000    57.9820     9.6470     2.5500     0.0250     8.2220     9.6080
  970.0000    60.3260     9.6450     2.5540     0.0210     8.2220     9.9470
  970.5000    59.8240     9.6450     2.5470     0.0120     8.2220    10.0450
  971.0000    59.5520     9.6440     2.5380     0.0080     8.2220    10.1430
  971.5000    57.4720     9.6430     2.5280     0.0050     8.2220    10.2440
  972.0000    58.8820     9.6430     2.5270     0.0070     8.2520    10.2900
  972.5000    56.5120     9.6420     2.5230     0.0100     8.3070    10.3390
  973.0000    57.5060     9.6410     2.5250     0.0130     8.3620    10.3390
  973.5000    58.7450     9.6410     2.5280     0.0130     8.3740    10.3390
  974.0000    56.1260     9.6400     2.5290     0.0170     8.6070    10.3690
  974.5000    53.4900     9.6390     2.5310     0.0210     8.8470    10.5300
  975.0000    50.7400     9.6390     2.5380     0.0250     8.8220    10.6940
  975.5000    55.6820     9.6380     2.5460     0.0210     8.8000    10.8600
  976.0000    56.0290     9.6380     2.5410     0.0180     8.7790    11.0240
  976.5000    60.7870     9.6370     2.5380     0.0180     8.7660    11.1100
  977.0000    55.7290     9.6360     2.5450     0.0190     8.8680    11.1960
  977.5000    50.6020     9.6360     2.5430     0.0180     8.9390    11.3310
  978.0000    51.8200     9.6350     2.5440     0.0110     9.0110    11.2280
  978.5000    51.1470     9.6340     2.5300     0.0080     9.0940    11.6210
  979.0000    50.4180     9.6340     2.5300     0.0190     9.0850    11.9400
