~VERSION INFORMATION
 VERS.                2.0:   CWLS LOG ASCII STANDARD - VERSION 2.0
 WRAP.                 NO:   ONE LINE PER DEPTH STEP
~WELL INFORMATION
#MNEM.UNIT      DATA TYPE    INFORMATION
#----------   ------------   ------------------------------
 STRT.F           42.0000:   START DEPTH
 STOP.F         4542.0000:   STOP DEPTH
 STEP.F            0.5000:   STEP LENGTH
 NULL.          -999.2500:   NO VALUE
 COMP. LAWRENCE ALLISON & ASSOC.:   COMPANY
 WELL. ALLISON NPR 3 #86-27:   WELL
 FLD .                NPR:   FIELD
 LOC .      S27 T39N R78W:   LOCATION
 CNTY.            NATRONA:   COUNTY
 STAT.            WYOMING:   STATE
 CTRY. UNITED STATES OF AMERICA:   COUNTRY
 SRVC.      DRESSER ATLAS:   SERVICE COMPANY
 DATE.        20-MAR-1985:   LOGDATE
 API .     49025110190000:   API NUMBER
~CURVE INFORMATION
#MNEM.UNIT       API CODE    CURVE DESCRIPTION
#----------   ------------   ------------------------------
 DEPT.F                  :   
 CALD.IN     45 280 60 00:   CALIPER FROM DENSITY LOG
 TEND.LBS    45 635 01 00:   TENSION FROM DENSITY LOG
 CORR.G/C3   45 356 01 00:   DENSITY CORRECTION
 RHOB.G/C3   45 350 01 00:   BULK DENSITY
 CNC .DEC    42 890 03 00:   NEUTRON PORISITY SANDSTONE
 TENR.LBS    07 635 01 00:   TENSION FROM RESISTIVITY
 GRR .GAPI   07 310 01 00:   GAMMA RAY FROM RESISTIVITY
 SFL .OHMM   07 220 01 00:   SHALLOW FOCUSED LOG RESISTIVITY
 ILD .OHMM   07 120 46 00:   DEEP INDUCTION RESISTIVITY
 ILM .OHMM   07 120 44 00:   INDUCTION LOG MEDIUM RESISTIVITY
 TENS.LBS    60 635 01 00:   TENSION FROM SONIC LOG
 DT  .US/F   60 520 00 00:   DELTA TIME
 CALS.IN     60 280 50 00:   CALIPER FROM SONIC LOG
 GRS .GAPI   60 310 01 00:   GAMMA RAY FROM SONIC LOG
~PARAMETER INFORMATION
#MNEM.UNIT          VALUE    DESCRIPTION
#----------   ------------   ------------------------------
 EKB .F         5095.0000:   Kelly bushing
 EGL .F         5083.0000:   Ground level
 EDF .F            0.0000:   Drilling floor
 TD  .F         4545.0000:   Total depth
 DATE.        20-MAR-1985:   Date logged
 CLNT.            A2DTECH:   Client Code
 SL  . 292' FEL & 1975' FWL:   Surface Location
 PD  .                 GL:   Permanent Datum
 EPD .F              5083:   Elevation Permanent Datum
 LMF .                 KB:   Log Measured From
 DMF .                 KB:   Drilling Measured From
 DAPD.F                12:   Feet Above Permanent Datum
 DD  .F              4545:   Depth driller
 DL  .F              4533:   Depth logger
 BLI .F              4534:   Bottom log interval
 TLI .F              1045:   Top log interval
 CS1 .IN            8.625:   Casing size
 CBD1.     8.625" @ 1033':   Casing driller 1
 CBL1.F              1045:   Casing logger 1
 BS1 .IN            7.875:   Bit size
 BSD1.F              4545:   Depth drilled with bit1
 DFT .    GEL/KCL/STA/FLO:   Type fluid in hole
 DFD .                9.1:   Density
 DFV .                 30:   Viscosity
 DFPH.                  8:   pH
 DFL .                 12:   Fluid loss
 MSS .           MUD/TANK:   Source of sample
 RMS .OHMM            .46:   Rm
 MST .F                74:   Rm Meas. temp.
 RMF .OHMM            .37:   Rmf
 MFST.F                72:   Rmf Meas. temp.
 RMC .OHMM            .58:   Rmc
 MCST.F                74:   Rmc Meas. temp.
 MFSS.               MEAS:   Source Rmf.
 MCSS.               CALC:   Source Rmc.
 RMB .OHMM            .25:   Rm. at BHT
 BHT .F               138:   BHT.
 TCS .HRS             4.5:   Time Circ. stopped
 MRT .F               138:   Maximum recorded temp.
 LUN .            HL-6274:   Logging unit number
 LUL .           GILLETTE:   Logging unit location
 ENGI.             RAUTIO:   Recorded By
 WITN.             STRONG:   Witnessed by
 ORIG.           5" PRINT:   Origin of data
 UWI .     49025110190000:   Unique Well ID
 DICO. A2D TECHNOLOGIES, INC.:   Digitizing Company
~OTHER INFORMATION
~A   DEPT     CALD       TEND       CORR       RHOB        CNC       TENR        GRR        SFL        ILD        ILM       TENS         DT        CALS        GRS  
# ...
 3227.0000     9.3900   -20.4590    -0.0070     2.5410     0.2510    35.5590    75.0560     8.3080     6.5330     6.1800  -999.2500  -999.2500  -999.2500  -999.2500
 3227.5000     9.3890   -21.1050     0.0000     2.5390     0.2430    37.3240    75.4640     8.4630     6.6160     6.3020  -999.2500  -999.2500  -999.2500  -999.2500
 3228.0000     9.3890   -24.0520     0.0090     2.5360     0.2300    34.9570    77.2840     8.2350     6.7210     6.4540  -999.2500  -999.2500  -999.2500  -999.2500
 3228.5000     9.3880   -26.9990     0.0170     2.5380     0.2320    32.5900    76.6960     8.0060     6.8250     6.6060  -999.2500  -999.2500  -999.2500  -999.2500
 3229.0000     9.3870   -29.9460     0.0260     2.5390     0.2390    30.2230    75.7260     7.5480     6.9300     6.7580  -999.2500  -999.2500  -999.2500  -999.2500
 3229.5000     9.3860   -32.8930     0.0320     2.5390     0.2470    27.8570    76.0470     6.9050     7.0340     6.9110  -999.2500  -999.2500  -999.2500  -999.2500
 3230.0000     9.3860   -35.8400     0.0270     2.5360     0.2510    25.4900    76.5560     7.1000     7.2110     7.0630  -999.2500  -999.2500  -999.2500  -999.2500
 3230.5000     9.3850   -38.7870    -0.0010     2.5320     0.2490    23.1230    77.3520     7.4250     7.3880     7.2150  -999.2500  -999.2500  -999.2500  -999.2500
 3231.0000     9.3840   -40.9270    -0.0320     2.5310     0.2420    20.7560    76.0470     7.7490     7.5650     7.3670  -999.2500  -999.2500  -999.2500  -999.2500
 3231.5000     9.3840   -42.0660    -0.0450     2.5300     0.2390    18.3900    73.3500     8.0740     7.7420     7.5190  -999.2500  -999.2500  -999.2500  -999.2500
 3232.0000     9.3830   -43.2050    -0.0410     2.5380     0.2370    18.3900    71.4810     8.4630     7.9190     7.6720  -999.2500  -999.2500  -999.2500  -999.2500
 3232.5000     9.3820   -44.3430    -0.0040     2.5490     0.2350    18.3900    72.3590     8.6260     8.0960     7.8240  -999.2500  -999.2500  -999.2500  -999.2500
 3233.0000     9.3820   -45.4820     0.0060     2.5580     0.2320    18.3900    72.5850     8.8290     8.3080     8.0060  -999.2500  -999.2500  -999.2500  -999.2500
 3233.5000     9.3810   -46.6200     0.0180     2.5580     0.2290    18.3900    72.6440     9.1130     8.2780     7.9650  -999.2500  -999.2500  -999.2500  -999.2500
 3234.0000     9.3800   -47.7590     0.0160     2.5510     0.2240    18.3900    73.7620     8.9470     8.2400     7.9120  -999.2500  -999.2500  -999.2500  -999.2500
 3234.5000     9.3790   -48.8980    -0.0010     2.5430     0.2180    18.3900    74.7910     8.6700     8.2020     7.8600  -999.2500  -999.2500  -999.2500  -999.2500
 3235.0000     9.3790   -50.0360    -0.0030     2.5430     0.2200    18.3900    76.0460     8.3940     8.1560     7.7160  -999.2500  -999.2500  -999.2500  -999.2500
 3235.5000     9.3780   -51.1750     0.0090     2.5530     0.2260    18.3900    74.8150     8.1170     7.9910     7.5730  -999.2500  -999.2500  -999.2500  -999.2500
 3236.0000     9.3770   -52.3140     0.0270     2.5600     0.2310    18.3900    72.7830     8.0060     7.7850     7.4290  -999.2500  -999.2500  -999.2500  -999.2500
 3236.5000     9.3770   -53.4520     0.0440     2.5600     0.2360    18.3900    72.6690     8.0060     7.5780     7.2860  -999.2500  -999.2500  -999.2500  -999.2500
 3237.0000     9.3760   -54.5910     0.0220     2.5500     0.2330    18.3900    74.1560     8.0060     7.3720     7.1420  -999.2500  -999.2500  -999.2500  -999.2500
 3237.5000     9.3750   -55.7290     0.0010     2.5380     0.2300    18.3900    75.4090     8.0060     7.1660     6.9990  -999.2500  -999.2500  -999.2500  -999.2500
 3238.0000     9.3750   -56.8680    -0.0140     2.5220     0.2310    18.3900    77.8380     7.7440     7.0040     6.8550  -999.2500  -999.2500  -999.2500  -999.2500
 3238.5000     9.3740   -58.0070    -0.0230     2.5090     0.2290    18.3900    76.9410     7.4810     6.7790     6.6550  -999.2500  -999.2500  -999.2500  -999.2500
 3239.0000     9.3730   -59.1450    -0.0250     2.5170     0.2270    18.3900    75.6490     7.1660     6.8400     6.7240  -999.2500  -999.2500  -999.2500  -999.2500
 3239.5000     9.3720   -60.3790    -0.0280     2.5240     0.2290    18.3900    74.4340     7.0340     6.9420     6.8390  -999.2500  -999.2500  -999.2500  -999.2500
 3240.0000     9.3720   -48.9020    -0.0310     2.5310     0.2340    18.3900    74.7410     7.2770     7.0450     6.9540  -999.2500  -999.2500  -999.2500  -999.2500
 3240.5000     9.3710   -40.4190    -0.0340     2.5290     0.2380    18.3900    74.9780     7.6820     7.1470     7.0700  -999.2500  -999.2500  -999.2500  -999.2500
 3241.0000     9.3700   -40.4190    -0.0370     2.5240     0.2430    18.3900    75.3420     8.0060     7.2490     7.1850  -999.2500  -999.2500  -999.2500  -999.2500
 3241.5000     9.3700   -40.4190    -0.0370     2.5220     0.2440    18.3900    75.6720     7.8210     7.3520     7.3000  -999.2500  -999.2500  -999.2500  -999.2500
 3242.0000     9.3690   -52.0960    -0.0180     2.5240     0.2400    18.3900    75.9990     7.6670     7.4540     7.4160  -999.2500  -999.2500  -999.2500  -999.2500
 3242.5000     9.3680   -59.5710     0.0040     2.5250     0.2310    18.3900    76.3360     7.5740     7.5560     7.5310  -999.2500  -999.2500  -999.2500  -999.2500
 3243.0000     9.3680   -57.1860     0.0050     2.5270     0.2300    18.3900    76.6900     7.7970     7.6590     7.6460  -999.2500  -999.2500  -999.2500  -999.2500
 3243.5000     9.3670   -54.8000     0.0040     2.5300     0.2280    18.3900    76.9770     8.0190     7.7610     7.7240  -999.2500  -999.2500  -999.2500  -999.2500
 3244.0000     9.3660   -52.4140     0.0020     2.5320     0.2270    18.3900    77.3750     8.2410     7.8630     7.7440  -999.2500  -999.2500  -999.2500  -999.2500
 3244.5000     9.3650   -50.0290     0.0020     2.5340     0.2190    18.3900    76.1930     8.4630     7.9660     7.7640  -999.2500  -999.2500  -999.2500  -999.2500
 3245.0000     9.3650   -47.6430     0.0020     2.5360     0.2200    18.3900    75.5190     8.5130     8.0270     7.7840  -999.2500  -999.2500  -999.2500  -999.2500
 3245.5000     9.3640   -45.2570     0.0020     2.5380     0.2350    18.3900    76.1840     8.5620     8.0610     7.8040  -999.2500  -999.2500  -999.2500  -999.2500
 3246.0000     9.3630   -42.8710     0.0020     2.5380     0.2460    18.3900    77.4570     8.6210     8.0950     7.8240  -999.2500  -999.2500  -999.2500  -999.2500
 3246.5000     9.3630   -40.4190    -0.0070     2.5340     0.2370    18.3900    76.7230     8.0060     8.1290     7.8430  -999.2500  -999.2500  -999.2500  -999.2500
 3247.0000     9.3620   -40.4190    -0.0180     2.5300     0.2300    18.3900    75.0400     8.1140     8.1560     7.8590  -999.2500  -999.2500  -999.2500  -999.2500
 3247.5000     9.3610   -40.4190    -0.0290     2.5300     0.2220    17.4800    73.1830     8.2220     8.1000     7.8160  -999.2500  -999.2500  -999.2500  -999.2500
 3248.0000     9.3610   -42.0070    -0.0170     2.5350     0.2220    16.7230    72.9280     8.3080     8.0310     7.7810  -999.2500  -999.2500  -999.2500  -999.2500
 3248.5000     9.3600   -43.6270    -0.0060     2.5450     0.2250    15.9650    74.0330     8.7910     7.9620     7.7450  -999.2500  -999.2500  -999.2500  -999.2500
 3249.0000     9.3590   -45.2470     0.0070     2.5430     0.2270    15.2070    74.8460     9.1130     7.8920     7.7090  -999.2500  -999.2500  -999.2500  -999.2500
 3249.5000     9.3580   -46.8670     0.0040     2.5390     0.2280    14.4500    74.1370     8.7300     7.8230     7.6740  -999.2500  -999.2500  -999.2500  -999.2500
 3250.0000     9.3580   -48.4870    -0.0010     2.5400     0.2250    13.6920    73.8810     8.4120     7.7530     7.6380  -999.2500  -999.2500  -999.2500  -999.2500
 3250.5000     9.3570   -50.1070     0.0060     2.5460     0.2180    12.9350    74.5590     8.0930     7.6840     7.5850  -999.2500  -999.2500  -999.2500  -999.2500
 3251.0000     9.3560   -51.7270     0.0140     2.5480     0.2110    12.1770    74.8350     7.7160     7.5740     7.5900  -999.2500  -999.2500  -999.2500  -999.2500
