~VERSION INFORMATION
 VERS.                2.0:   CWLS LOG ASCII STANDARD - VERSION 2.0
 WRAP.                 NO:   ONE LINE PER DEPTH STEP
~WELL INFORMATION
#MNEM.UNIT      DATA TYPE    INFORMATION
#----------   ------------   ------------------------------
 STRT.F          492.0000:   START DEPTH
 STOP.F         3008.0000:   STOP DEPTH
 STEP.F            0.5000:   STEP LENGTH
 NULL.          -999.2500:   NO VALUE
 COMP.    FENIX & SCISSON:   COMPANY
 WELL. FENIX & SCISSON AX #24-28:   WELL
 FLD .             TEAPOT:   FIELD
 LOC .      S28 T39N R78W:   LOCATION
 CNTY.            NATRONA:   COUNTY
 STAT.            WYOMING:   STATE
 CTRY. UNITED STATES OF AMERICA:   COUNTRY
 SRVC.              WELEX:   SERVICE COMPANY
 DATE.        03-AUG-1980:   LOGDATE
 API .     49025108490000:   API NUMBER
~CURVE INFORMATION
#MNEM.UNIT       API CODE    CURVE DESCRIPTION
#----------   ------------   ------------------------------
 DEPT.F                  :   
 SPR .MV     07 010 01 00:   SPONTANEOUS POTENTIAL
 ILD .OHMM   07 120 46 00:   DEEP INDUCTION RESISTIVITY
 ILM .OHMM   07 120 44 00:   INDUCTION LOG MEDIUM RESISTIVITY
 SGRD.OHMM   07 220 05 00:   SHALLOW SHORT GUARD RESISTIVITY
 GRD .GAPI   45 310 01 00:   GAMMA RAY FROM DENSITY LOG
 CALD.IN     45 280 60 00:   CALIPER FROM DENSITY LOG
 CORR.G/C3   45 356 01 00:   DENSITY CORRECTION
 RHOB.G/C3   45 350 01 00:   BULK DENSITY
~PARAMETER INFORMATION
#MNEM.UNIT          VALUE    DESCRIPTION
#----------   ------------   ------------------------------
 EKB .F         5061.0000:   Kelly bushing
 EGL .F         5051.0000:   Ground level
 TD  .F         3000.0000:   Total depth
 CLNT.            A2DTECH:   Client Code
 SL  . 2350' FNL & 1000' FWL:   Surface Location
 DATE.         3-AUG-1980:   Date Logged [DD-MMM-YYYY]
 DD  .F              3000:   Depth driller
 DL  .F              3010:   Depth logger
 BLI .F              3008:   Bottom log interval
 TLI .F               308:   Top log interval
 CS1 .              8.625:   Casing size
 CBD1.      8.625" @ 393':   Casing driller 1
 BS1 .IN            7.875:   Bit size
 BSD1.F              3000:   Depth drilled with bit1
 DFT .     WATER BASE MUD:   Type fluid in hole
 DFD .                8.9:   Density
 TCS .HRS               8:   Time Circ. stopped
 MRT .F               115:   Maximum recorded temp.
 ENGI.           WACHTELL:   Recorded By
 WITN.           DINSMORE:   Witnessed by
 ORIG.      2.5" 5" PRINT:   Origin of data
 UWI .     49025108490000:   Unique Well ID
 DICO. A2D TECHNOLOGIES, INC.:   Digitizing Company
 PD  .                 GL:   Permanent Datum
 EPD .F              3051:   Elevation Permanent Datum
 LMF .                 KB:   Log Measured From
 DMF .                 KB:   Drilling Measured From
 DAPD.F                10:   Feet Above Permanent Datum
 DFV .                 43:   Viscosity
 DFPH.                9.5:   pH
 DFL .                7.2:   Fluid loss
 MSS .           FLOWLINE:   Source of sample
 RMS .OHMM             .9:   Rm
 MST .F                80:   Rm Meas. temp.
 RMF .OHMM            .72:   Rmf
 MFST.F                80:   Rmf Meas. temp.
 MFSS.               MEAS:   Source Rmf.
 RMC .OHMM           1.08:   Rmc
 MCST.F                80:   Rmc Meas. temp.
 MCSS.               MEAS:   Source Rmc.
 RMB .OHMM            .06:   Rm. at BHT
 BHT .F               115:   BHT.
 LUN .               1892:   Logging unit number
 LUL .             CASPER:   Logging unit location
~OTHER INFORMATION
~A   DEPT      SPR        ILD        ILM       SGRD        GRD       CALD       CORR       RHOB   
# ...
  978.0000   -79.2793     6.1888     7.1377     7.1752    85.9344    12.0943     0.0578     2.4526
  978.5000   -79.2793     6.0163     7.0689     7.1722    85.2641    11.9739     0.0414     2.4611
  979.0000   -79.2793     5.9306     7.0669     7.1692    84.5937    11.8534     0.0093     2.4541
  979.5000   -79.2793     5.9282     7.0649     7.1656    84.3731    11.9143    -0.0172     2.4323
  980.0000   -78.9790     5.8437     7.1617     7.1627    84.3785    12.0030    -0.0204     2.4455
  980.5000   -78.9790     5.8413     7.1598     7.1598    84.8325    12.0777    -0.0096     2.4611
  981.0000   -78.9790     5.8388     7.1578     7.1570    85.5115    12.1375     0.0017     2.4533
  981.5000   -78.6787     5.8364     7.1559     7.1541    85.9656    12.1372     0.0135     2.4370
  982.0000   -78.6787     5.7532     7.1540     7.1512    86.4198    12.1369     0.0197     2.4665
  982.5000   -78.3784     5.6712     7.1520     7.1483    86.2001    12.1216     0.0227     2.4766
  983.0000   -78.0781     5.6689     7.2504     7.1453    86.2044    12.0912     0.0008     2.4253
  983.5000   -77.7778     5.5877     7.2484     7.1557    85.9827    12.0309    -0.0008     2.4175
  984.0000   -77.4775     5.5854     7.2464     7.2397    86.2130    11.9405     0.0209     2.4323
  984.5000   -77.4775     5.6615     7.3462     7.2363    86.4423    11.9402     0.0410     2.4664
  985.0000   -77.4775     5.6592     7.3440     7.2333    87.1222    11.9999     0.0782     2.4929
  985.5000   -77.4775     5.8168     7.3782     7.2303    87.8011    12.0597    -0.0385     2.5239
  986.0000   -77.4775     5.8960     7.4429     7.3285    88.2552    12.1045    -0.0137     2.5006
  986.5000   -77.4775     5.8883     7.3905     7.2715    88.7093    12.1193     0.0033     2.4633
  987.0000   -77.4775     5.7986     7.3358     7.2207    88.7003    12.1039    -0.0466     2.4089
  987.5000   -77.4775     5.5694     7.2319     7.2178    88.0443    12.0585    -0.0545     2.3926
  988.0000   -77.4775     5.4688     7.2300     7.2148    87.5977    11.9982    -0.0032     2.4205
  988.5000   -77.4775     5.3855     7.1280     7.1123    87.1522    11.9378     0.0402     2.5262
  989.0000   -77.4775     5.3347     7.1261     7.1094    87.1576    11.9075     0.0542     2.5355
  989.5000   -77.4775     5.3325     7.1242     7.1065    87.3868    11.9222     0.0572     2.5099
  990.0000   -77.4775     5.3303     7.0237     7.0055    87.8419    12.0010     0.0819     2.5005
  990.5000   -77.4775     5.3276     7.0218     6.8995    88.2960    12.1168     0.0616     2.5285
  991.0000   -77.4775     5.3255     7.0098     6.7135    88.5252    12.2066     0.0476     2.5106
  991.5000   -77.4775     5.3233     6.9043     6.6922    88.3035    12.2214     0.0770     2.4982
  992.0000   -77.4775     5.2476     6.7063     6.4998    88.3089    12.1459     0.1018     2.5207
  992.5000   -77.1772     5.2455     6.6337     6.3422    88.0547    12.0075     0.1033     2.5469
  993.0000   -76.8638     5.2433     6.5060     6.2519    87.6428    11.9201     0.1032     2.5502
  993.5000   -76.5431     5.2411     6.3194     6.2493    88.0980    12.0549     0.1046     2.5479
  994.0000   -76.2763     5.1665     6.2688     6.2467    88.1022    12.1597     0.0921     2.5595
  994.5000   -76.2763     5.1643     6.2671     6.3316    87.6568    12.2646     0.0310     2.5634
  995.0000   -76.2763     5.1621     6.2651     6.3285    86.7392    12.3554     0.0235     2.5336
  995.5000   -76.1607     5.1600     6.3512     6.5045    85.6424    12.3240     0.0576     2.5245
  996.0000   -75.9760     5.1578     6.5290     6.5929    85.6467    12.1585     0.0731     2.5447
  996.5000   -75.9760     5.1917     6.7117     6.6828    85.6510    12.0982     0.0823     2.5509
  997.0000   -75.9760     5.2258     6.8041     6.7735    84.3060    12.1279     0.0757     2.5292
  997.5000   -75.9760     5.2233     6.8022     6.8656    82.4887    12.2182     0.0557     2.5198
  998.0000   -75.9760     5.2947     6.8003     6.8628    81.8408    12.2924     0.0447     2.5292
  998.5000   -75.9760     5.2923     6.7984     6.8599    82.2960    12.2771     0.0431     2.5400
  999.0000   -75.6757     5.3644     6.7965     6.8570    83.1998    12.1868     0.0570     2.5548
  999.5000   -75.6757     5.3622     6.7946     6.8542    84.3285    12.0814     0.0730     2.5455
 1000.0000   -75.6757     5.3601     6.8883     6.8513    85.4573    12.0060     0.0941     2.5462
 1000.5000   -75.6757     5.5093     6.8861     6.8484    87.0368    11.9606     0.1049     2.5579
 1001.0000   -75.6757     5.5954     6.8842     6.8456    87.9407    11.9903     0.1095     2.5680
 1001.5000   -75.6757     5.6772     6.8857     6.8427    87.0454    12.0501     0.0720     2.5669
 1002.0000   -75.6757     5.8180     6.8971     6.9357    84.5760    12.1399     0.0517     2.5543
 1002.5000   -75.6757     5.8153     6.9084     6.9323    81.6567    12.2898     0.0438     2.5334
 1003.0000   -75.6285     5.9300     6.9197     6.9295    80.0555    12.4724     0.0531     2.5458
 1003.5000   -75.3908     6.0167     6.9311     6.9267    79.4164    12.4734     0.0685     2.5520
 1004.0000   -75.1531     6.0559     6.9424     6.7381    78.9710    12.1387     0.0840     2.5395
 1004.5000   -74.9154     6.1383     6.9540     6.9259    79.6102    12.1125     0.1026     2.5293
 1005.0000   -74.6777     6.1354     7.0477     7.0206    79.3853    12.2478     0.1087     2.5370
 1005.5000   -74.4580     6.1329     7.1432     7.0177    79.8351    12.3530     0.0962     2.5501
 1006.0000   -74.1562     6.1305     7.2400     7.0153    80.2849    12.4132     0.0727     2.5516
 1006.5000   -73.8544     6.1280     7.3382     7.0128    80.7346    12.4434     0.0790     2.5383
 1007.0000   -73.8529     6.1233     7.3347     7.1082    80.7346    12.5036     0.1021     2.5437
 1007.5000   -73.8513     6.1161     7.3312     7.2054    80.7346    12.5338     0.1160     2.5475
 1008.0000   -73.8498     6.1090     7.4402     7.3039    80.0600    12.2937     0.0957     2.5350
 1008.5000   -73.8481     6.1018     7.5481     7.4037    79.3853    12.3990     0.0552     2.5109
 1009.0000   -73.8466     6.0947     7.7405     7.4012    78.4858    12.6394     0.0393     2.4882
 1009.5000   -73.8452     6.0878     7.7363     7.3987    77.5862    12.8497     0.0363     2.4757
 1010.0000   -73.8437     6.0841     7.7325     7.3962    77.1364    12.4445     0.0424     2.4816
 1010.5000   -74.1426     6.0804     7.7288     7.3936    77.3613    12.4437     0.0579     2.5005
 1011.0000   -74.4414     6.0767     7.7250     7.3910    77.8111    12.5360     0.0718     2.4631
 1011.5000   -74.7403     6.0730     7.7212     7.3884    78.5009    12.5951     0.0635     2.4692
 1012.0000   -74.7387     6.0693     7.7168     7.4898    79.1604    12.6553     0.0265     2.4909
 1012.5000   -75.0377     6.1507     7.8214     7.4867    79.1604    12.7005     0.0031     2.4808
 1013.0000   -74.7357     6.1470     8.1514     7.5352    78.7106    12.7757     0.0948     2.4077
 1013.5000   -74.7342     6.2409     8.2619     7.5864    77.8111    12.8659     0.0682     2.3827
 1014.0000   -74.4324     6.3304     8.4914     7.6895    76.9115    12.6408     0.0905     2.3948
 1014.5000   -74.4309     6.5113     8.6065     7.7946    76.4618    12.6260     0.1194     2.4230
 1015.0000   -74.1291     6.6668     8.7231     7.7920    76.4618    12.7313     0.0758     2.4385
 1015.5000   -73.8271     6.7563     8.7188     7.7894    76.7166    12.8215     0.1036     2.3653
 1016.0000   -73.8256     6.7512     8.5939     7.8960    77.1364    12.9418     0.1004     2.3124
 1016.5000   -73.8242     6.8416     8.4115     8.0038    77.8111    12.9719     0.1382     2.2782
 1017.0000   -73.5224     6.9333     8.1201     8.0010    77.8111    12.8670     0.2324     2.2478
 1017.5000   -73.5210     7.0262     8.1162     7.9982    76.9115    12.7170     0.2992     2.1211
 1018.0000   -73.8198     7.1203     8.3329     7.9954    75.5622    12.6270     0.2882     2.1311
