~VERSION INFORMATION
 VERS.                2.0:   CWLS LOG ASCII STANDARD - VERSION 2.0
 WRAP.                 NO:   ONE LINE PER DEPTH STEP
~WELL INFORMATION
#MNEM.UNIT      DATA TYPE    INFORMATION
#----------   ------------   ------------------------------
 STRT.F          204.0000:   START DEPTH
 STOP.F         3024.0000:   STOP DEPTH
 STEP.F            0.5000:   STEP LENGTH
 NULL.          -999.2500:   NO VALUE
 COMP.    FENIX & SCISSON:   COMPANY
 WELL. FENIX NPR 3 "AX" #87-33:   WELL
 FLD .      NPR - WILDCAT:   FIELD
 LOC .      S33 T39N R78W:   LOCATION
 CNTY.            NATRONA:   COUNTY
 STAT.            WYOMING:   STATE
 CTRY. UNITED STATES OF AMERICA:   COUNTRY
 SRVC.              WELEX:   SERVICE COMPANY
 DATE.        20-JUN-1977:   LOGDATE
 API .     49025103840000:   API NUMBER
~CURVE INFORMATION
#MNEM.UNIT       API CODE    CURVE DESCRIPTION
#----------   ------------   ------------------------------
 DEPT.F                  :   
 SPR .MV     07 010 01 00:   SPONTANEOUS POTENTIAL
 ILD .OHMM   07 120 46 00:   DEEP INDUCTION RESISTIVITY
 ILM .OHMM   07 120 44 00:   INDUCTION LOG MEDIUM RESISTIVITY
 SGRD.OHMM   07 220 05 00:   SHALLOW SHORT GUARD RESISTIVITY
 CALD.IN     45 280 60 00:   CALIPER FROM DENSITY LOG
 GRD .GAPI   45 310 01 00:   GAMMA RAY FROM DENSITY LOG
 RHOB.G/C3   45 350 01 00:   BULK DENSITY
 CORR.G/C3   45 356 01 00:   DENSITY CORRECTION
~PARAMETER INFORMATION
#MNEM.UNIT          VALUE    DESCRIPTION
#----------   ------------   ------------------------------
 EKB .F         5170.0000:   Kelly bushing
 EGL .F         5160.0000:   Ground level
 TD  .F         3040.0000:   Total depth
 DATE.        20-JUN-1977:   Date logged
 CLNT.            A2DTECH:   Client Code
 SL  . 800' FSL & 100' FEL:   Surface Location
 PD  .                 GL:   Permanent Datum
 EPD .F              5160:   Elevation Permanent Datum
 LMF .                 KB:   Log Measured From
 DMF .                 KB:   Drilling Measured From
 DD  .F              3040:   Depth driller
 DL  .F              3027:   Depth logger
 BLI .F              3025:   Bottom log interval
 TLI .F               200:   Top log interval
 CS1 .IN            8.625:   Casing size
 CBD1.      8.625" @ 230':   Casing driller 1
 CBL1.F               210:   Casing logger 1
 BS1 .IN            7.875:   Bit size
 BSD1.F              3040:   Depth drilled with bit1
 DFT .                KCL:   Type fluid in hole
 DFD .                9.2:   Density
 DFV .                 38:   Viscosity
 DFPH.                7.5:   pH
 DFL .                5.4:   Fluid loss
 MSS .           FLOWLINE:   Source of sample
 RMS .OHMM            .60:   Rm
 MST .F                92:   Rm Meas. temp.
 RMF .OHMM            .29:   Rmf
 MFST.F                92:   Rmf Meas. temp.
 RMC .OHMM            .76:   Rmc
 MCST.F                92:   Rmc Meas. temp.
 MFSS.               MEAS:   Source Rmf.
 MCSS.               MEAS:   Source Rmc.
 RMB .OHMM            .49:   Rm. at BHT
 BHT .F               112:   BHT.
 TCS .HRS               2:   Time Circ. stopped
 MRT .F               112:   Maximum recorded temp.
 LUN .               8611:   Logging unit number
 LUL .           GILLETTE:   Logging unit location
 ENGI.            C. DOAK:   Recorded By
 WITN.      B. HARRINGTON:   Witnessed by
 ORIG.     2.5", 5" PRINT:   Origin of data
 UWI .     49025103840000:   Unique Well ID
 DICO. A2D TECHNOLOGIES, INC.:   Digitizing Company
~OTHER INFORMATION
~A   DEPT      SPR        ILD        ILM       SGRD         CALD       GRD        RHOB      CORR  
# ...
 1135.5000   -58.4170     8.2410     8.4600     9.5240    10.8270    93.0020     2.5160     0.0050
 1136.0000   -58.4300     8.2410     8.4780     9.5240    10.8420    94.6070     2.5140     0.0070
 1136.5000   -58.4420     8.2410     8.4970     9.5240    10.8590    96.2530     2.5150     0.0080
 1137.0000   -58.4550     8.2410     8.5150     9.5240    10.8790    98.9030     2.5110     0.0090
 1137.5000   -58.4680     8.2410     8.5340     9.5240    10.8990    99.8300     2.5140     0.0110
 1138.0000   -58.4800     8.2410     8.5450     9.5240    10.9180    98.6130     2.5170     0.0120
 1138.5000   -58.4930     8.2410     8.5450     9.5240    10.9380    98.9070     2.5210     0.0120
 1139.0000   -58.5060     8.2410     8.5440     9.5240    10.9580    99.6030     2.5220     0.0120
 1139.5000   -58.5180     8.2410     8.5440     9.5250    10.9770   100.2960     2.5190     0.0120
 1140.0000   -58.5310     8.2410     8.5440     9.5240    10.9970   101.0210     2.5190     0.0120
 1140.5000   -58.5440     8.2410     8.5440     9.5240    11.0170   102.5310     2.5270     0.0120
 1141.0000   -58.5560     8.2410     8.5440     9.5260    11.0360   104.0460     2.5300     0.0110
 1141.5000   -58.5690     8.2410     8.5440     9.4980    11.0560   104.4380     2.5220     0.0090
 1142.0000   -58.5820     8.2410     8.5450     9.4010    11.0760   103.2750     2.5110     0.0070
 1142.5000   -58.5940     8.2410     8.5440     9.3030    11.0950   102.1860     2.5100     0.0050
 1143.0000   -58.6070     8.2410     8.5430     9.2060    11.1150   101.7950     2.5080     0.0040
 1143.5000   -58.6200     8.2410     8.5280     9.1100    11.1340   101.4140     2.5040     0.0030
 1144.0000   -58.6320     8.2400     8.5140     9.0220    11.1540   102.0380     2.5050     0.0020
 1144.5000   -58.6450     8.2400     8.4980     9.0090    11.1740   102.7810     2.5080     0.0000
 1145.0000   -58.6580     8.2170     8.4840     8.9900    11.1930   103.1880     2.5050    -0.0010
 1145.5000   -58.6700     8.1900     8.4690     8.9710    11.2130   102.3770     2.5030    -0.0020
 1146.0000   -58.6830     8.1640     8.4540     8.9520    11.2330   101.6770     2.5010    -0.0030
 1146.5000   -58.6950     8.1380     8.4390     8.9340    11.2500    99.8370     2.5020    -0.0030
 1147.0000   -58.7080     8.1110     8.4240     8.9150    11.2610   100.3590     2.5040    -0.0040
 1147.5000   -58.7210     8.0850     8.4090     8.8970    11.2720   101.1840     2.5030    -0.0050
 1148.0000   -58.7330     8.0590     8.3950     8.8780    11.2830   101.7660     2.5010    -0.0050
 1148.5000   -58.7460     8.0320     8.3490     8.8590    11.2940   101.1300     2.5030    -0.0050
 1149.0000   -58.7590     8.0060     8.2950     8.8140    11.3050   100.5200     2.5050    -0.0050
 1149.5000   -58.7710     7.9800     8.2400     8.7670    11.3100    99.9220     2.5040    -0.0050
 1150.0000   -58.7840     7.9480     8.1860     8.7210    11.3140    99.3220     2.4980    -0.0040
 1150.5000   -58.7970     7.8990     8.1320     8.6750    11.3180    99.5750     2.4930    -0.0040
 1151.0000   -58.8090     7.8370     8.0770     8.6280    11.3220   100.6820     2.4880    -0.0040
 1151.5000   -58.8220     7.7760     8.0230     8.5810    11.3260   101.7970     2.4830    -0.0030
 1152.0000   -58.8350     7.7140     7.9680     8.5430    11.3300   103.0110     2.4900    -0.0020
 1152.5000   -58.8470     7.6530     7.9140     8.5080    11.3340   104.6270     2.5010    -0.0010
 1153.0000   -58.8600     7.5920     7.8600     8.4800    11.3380   106.0770     2.5010     0.0000
 1153.5000   -58.8730     7.5300     7.8050     8.4500    11.3420   107.2540     2.4990     0.0010
 1154.0000   -58.8850     7.4690     7.7370     8.4210    11.3460   106.5150     2.4960     0.0030
 1154.5000   -58.8980     7.4080     7.6690     8.3910    11.3460   105.5800     2.4920     0.0040
 1155.0000   -58.9110     7.3460     7.6010     8.3910    11.3460   105.4120     2.4900     0.0050
 1155.5000   -58.9230     7.2850     7.5330     8.3910    11.3460   105.5020     2.4920     0.0070
 1156.0000   -58.9360     7.2180     7.4650     8.3160    11.3460   105.6020     2.4880     0.0080
 1156.5000   -58.9480     7.1480     7.3960     8.2410    11.3450   105.7130     2.4830     0.0080
 1157.0000   -58.9610     7.0770     7.3280     8.1210    11.3260   105.3430     2.4770     0.0080
 1157.5000   -58.9740     7.0070     7.2600     8.0010    11.3070   104.7980     2.4830     0.0070
 1158.0000   -58.9860     6.9360     7.2050     7.8810    11.2890   104.2500     2.4900     0.0070
 1158.5000   -58.9990     6.8660     7.1500     7.7610    11.2710   103.7490     2.4970     0.0050
 1159.0000   -59.0120     6.7960     7.0950     7.6650    11.2520   103.5140     2.4920     0.0020
 1159.5000   -59.0240     6.7200     7.0400     7.6840    11.2350   103.2920     2.4860    -0.0010
 1160.0000   -59.0370     6.6350     6.9850     7.6990    11.2170   103.0720     2.4790    -0.0050
 1160.5000   -59.0500     6.5510     6.9300     7.7140    11.2230   102.5980     2.4740    -0.0090
 1161.0000   -59.0620     6.4670     6.8750     7.7290    11.2540   101.8720     2.4600    -0.0140
 1161.5000   -59.0750     6.3830     6.8190     7.7440    11.2850   101.1450     2.4480    -0.0180
 1162.0000   -59.0880     6.2820     6.7530     7.7600    11.3180   100.3880     2.4370    -0.0170
 1162.5000   -59.1000     6.2970     6.7660     7.7750    11.3580   100.3680     2.4400    -0.0170
 1163.0000   -59.1130     6.3160     6.7810     7.7900    11.3830   100.6460     2.4440    -0.0140
 1163.5000   -59.1260     6.3350     6.7960     7.8050    11.3030   101.8860     2.4570    -0.0090
 1164.0000   -59.1380     6.3540     6.8120     7.7880    11.2090   102.9560     2.4730    -0.0040
 1164.5000   -59.1510     6.3740     6.8270     7.7590    11.2170   103.1560     2.4780    -0.0030
 1165.0000   -59.1630     6.3960     6.8430     7.7290    11.2250   103.3620     2.4780    -0.0030
 1165.5000   -59.1760     6.4640     6.8580     7.7000    11.2340   103.5750     2.4810    -0.0030
 1166.0000   -59.1760     6.5480     6.8770     7.6650    11.2430   103.7130     2.4840    -0.0030
 1166.5000   -59.1710     6.6320     6.9400     7.6930    11.2510   102.8190     2.4840    -0.0020
 1167.0000   -59.1650     6.7160     7.0190     7.8050    11.2600   101.9510     2.4880    -0.0010
 1167.5000   -59.1600     6.8000     7.0980     7.7590    11.2690   101.0940     2.4920     0.0010
 1168.0000   -59.1550     6.8840     7.1660     7.6650    11.2770   100.2380     2.4930     0.0020
 1168.5000   -59.1500     6.9690     7.2260     7.9070    11.2860    99.9180     2.4900     0.0020
 1169.0000   -59.1450     7.0210     7.2850     8.1090    11.2810   100.1240     2.4870     0.0000
 1169.5000   -59.1390     7.0530     7.3450     8.3910    11.2740   100.9790     2.4840    -0.0010
 1170.0000   -59.1340     7.0850     7.3930     8.2790    11.2670   102.0880     2.4810    -0.0030
 1170.5000   -59.1290     7.1170     7.4090     8.0930    11.2650   103.2000     2.4820    -0.0030
 1171.0000   -59.1240     7.1300     7.4230     8.2170    11.2630   104.4430     2.4860    -0.0020
 1171.5000   -59.1190     7.1300     7.4360     8.3910    11.2600   105.8240     2.4870    -0.0020
 1172.0000   -59.1130     7.1300     7.4500     8.2810    11.2580   106.5310     2.4830    -0.0010
 1172.5000   -59.1080     7.1300     7.4630     8.0980    11.2560   105.8220     2.4830     0.0000
 1173.0000   -59.1030     7.1300     7.4770     7.9150    11.2540   104.8390     2.4850     0.0010
 1173.5000   -59.0980     7.1030     7.4900     7.8050    11.2520   103.4630     2.4820     0.0010
 1174.0000   -59.0920     7.0800     7.5040     7.8050    11.2490   101.7730     2.4780     0.0020
 1174.5000   -59.0870     7.0580     7.5160     7.8050    11.2470   101.3910     2.4770     0.0020
 1175.0000   -59.0820     7.0350     7.5250     7.8050    11.2540   101.3820     2.4790     0.0030
 1175.5000   -59.0770     7.0120     7.4860     7.8420    11.2630   101.8320     2.4810     0.0030
