~VERSION INFORMATION
 VERS.                2.0:   CWLS LOG ASCII STANDARD - VERSION 2.0
 WRAP.                 NO:   ONE LINE PER DEPTH STEP
~WELL INFORMATION
#MNEM.UNIT      DATA TYPE    INFORMATION
#----------   ------------   ------------------------------
 STRT.F          484.0000:   START DEPTH
 STOP.F         4334.0000:   STOP DEPTH
 STEP.F            0.5000:   STEP LENGTH
 NULL.          -999.2500:   NO VALUE
 COMP.    FENIX & SCISSON:   COMPANY
 WELL. FENIX NPR 3 "JX" #46-27:   WELL
 FLD .              N P R:   FIELD
 LOC .      S27 T39N R78W:   LOCATION
 CNTY.            NATRONA:   COUNTY
 STAT.            WYOMING:   STATE
 CTRY. UNITED STATES OF AMERICA:   COUNTRY
 SRVC.       SCHLUMBERGER:   SERVICE COMPANY
 DATE.        01-MAR-1979:   LOGDATE
 API .     49025107660000:   API NUMBER
~CURVE INFORMATION
#MNEM.UNIT       API CODE    CURVE DESCRIPTION
#----------   ------------   ------------------------------
 DEPT.F                  :   
 TENR.LBS    07 635 01 00:   TENSION FROM RESISTIVITY
 SPR .MV     07 010 01 00:   SPONTANEOUS POTENTIAL
 SFL .OHMM   07 220 01 00:   SHALLOW FOCUSED LOG RESISTIVITY
 ILD .OHMM   07 120 46 00:   DEEP INDUCTION RESISTIVITY
 ILM .OHMM   07 120 44 00:   INDUCTION LOG MEDIUM RESISTIVITY
 TEND.LBS    42 635 01 00:   TENSION FROM COMPENSATE NEUTRON
 GRD .GAPI   45 310 01 00:   GAMMA RAY FROM DENSITY LOG
 CALD.IN     45 280 60 00:   CALIPER FROM DENSITY LOG
 RHOB.G/C3   45 350 01 00:   BULK DENSITY
 CORR.G/C3   45 356 01 00:   DENSITY CORRECTION
 NPHI.DEC    42 890 03 00:   NEUTRON POROSITY SANDSTONE
~PARAMETER INFORMATION
#MNEM.UNIT          VALUE    DESCRIPTION
#----------   ------------   ------------------------------
 EKB .F         5059.0000:   Kelly bushing
 EGL .F         5049.0000:   Ground level
 EDF .F            0.0000:   Drilling floor
 TD  .F         4320.0000:   Total depth
 DATE.        01-MAR-1979:   Date logged
 CLNT.            A2DTECH:   Client Code
 SL  . 1625' FSL & 2281' FWL:   Surface Location
 PD  .                 GL:   Permanent Datum
 DD  .F              4320:   Depth driller
 DL  .F              4319:   Depth logger
 BLI .F              4316:   Bottom log interval
 CS1 .IN            8.625:   Casing size
 CBD1.      8.625" @ 505':   Casing driller 1
 CBL1.F               500:   Casing logger 1
 BS1 .IN            7.875:   Bit size
 DFT .                FGM:   Type fluid in hole
 DFD .                9.1:   Density
 DFV .                 40:   Viscosity
 DFPH.               11.7:   pH
 DFL .                6.5:   Fluid loss
 MSS .               TANK:   Source of sample
 RMS .OHMM           .901:   Rm
 MST .F                65:   Rm Meas. temp.
 RMF .OHMM           .852:   Rmf
 MFST.F                65:   Rmf Meas. temp.
 MFSS.               MEAS:   Source Rmf.
 RMB .OHMM            .39:   Rm. at BHT
 BHT .F               151:   BHT.
 TCS .HRS            1200:   Time Circ. stopped
 MRT .F               151:   Maximum recorded temp.
 LUN .               8043:   Logging unit number
 LUL .               CSPR:   Logging unit location
 ENGI.              PFARR:   Recorded By
 WITN.              AMENO:   Witnessed by
 ORIG.         2.5" PRINT:   Origin of data
 UWI .     49025107660000:   Unique Well ID
 DICO. A2D TECHNOLOGIES, INC.:   Digitizing Company
 DAPD.                 10:   Feet Above Permanent Datum
 BSD1.F              4320:   Depth drilled with bit1
 EPD .F              5049:   Elevation Permanent Datum
 LMF .                 KB:   Log Measured From
 DMF .                 KB:   Drilling Measured From
 TLI .F               500:   Top log interval
 TLAB.HRS            1900:   Time logger at bottom
~OTHER INFORMATION
~A   DEPT     TENR        SPR        SFL        ILD        ILM       TEND         GRD      CALD       RHOB       CORR         NPHI 
# ...
 2771.5000   943.9250   -38.6610    13.4490    12.1250    12.3460  1225.6940    92.1470     8.1000     2.4740     0.0260     0.2230
 2772.0000   944.0910   -38.1920    14.3370    12.1570    12.3760  1226.8940    95.9000     8.1000     2.4730     0.0220     0.2230
 2772.5000   944.2560   -37.5610    15.1540    12.1850    12.4060  1228.0940    99.8600     8.1000     2.4870     0.0200     0.2210
 2773.0000   944.4220   -37.5550    14.8140    12.2130    12.4350  1229.2939   100.4990     8.1000     2.4990     0.0210     0.2210
 2773.5000   944.5880   -38.1520    14.2630    12.2410    12.4650  1230.4950    98.7780     8.1000     2.4980     0.0220     0.2250
 2774.0000   944.7530   -38.6960    14.2630    12.2650    12.4930  1231.6949    97.2650     8.1000     2.4880     0.0210     0.2250
 2774.5000   944.9190   -39.2170    14.2630    12.2860    12.5220  1232.8950    95.8600     8.1000     2.4740     0.0200     0.2170
 2775.0000   945.0850   -39.8300    14.2630    12.3230    12.5500  1234.0950    94.1470     8.1000     2.4700     0.0200     0.2090
 2775.5000   945.2510   -39.8750    14.2630    12.5500    12.7820  1235.2950    94.2210     8.1000     2.4810     0.0190     0.2120
 2776.0000   945.4160   -39.8910    14.7830    12.6220    12.8540  1236.4950    94.3820     8.1000     2.4900     0.0220     0.2160
 2776.5000   945.5820   -39.8810    16.0630    12.7100    12.9450  1237.6949    94.8710     8.1000     2.4980     0.0240     0.2200
 2777.0000   945.7480   -39.9680    16.8130    12.7990    13.0350  1238.8950    93.1760     8.1010     2.4970     0.0240     0.2200
 2777.5000   945.9140   -40.0410    15.7900    12.8880    13.1260  1240.0950    89.9960     8.0890     2.4910     0.0220     0.2210
 2778.0000   946.0790   -40.1380    14.7830    12.9770    13.2160  1241.2960    86.9260     8.0600     2.4830     0.0200     0.2210
 2778.5000   946.2450   -40.2070    14.0050    13.0650    13.3060  1242.4960    84.0940     8.0310     2.4750     0.0180     0.2160
 2779.0000   946.4110   -40.2380    14.3940    13.1540    13.3970  1243.6960    80.6960     8.0190     2.4690     0.0160     0.2070
 2779.5000   946.5760   -39.7580    14.8640    13.2570    13.5020  1244.8960    79.7780     8.0200     2.4680     0.0150     0.1950
 2780.0000   946.7420   -39.3290    15.3340    13.2570    13.5020  1246.0959    80.8100     8.0200     2.4600     0.0120     0.1980
 2780.5000   946.9080   -39.0550    15.8040    13.0060    13.2450  1247.2960    83.4810     8.0200     2.4530     0.0090     0.2060
 2781.0000   947.0740   -39.1010    16.2730    12.7630    12.9990  1248.4960    85.3420     8.0200     2.4440     0.0060     0.2140
 2781.5000   947.2390   -39.0920    16.8130    12.5210    12.7520  1249.6960    86.8170     8.0200     2.4360     0.0070     0.2200
 2782.0000   947.4050   -39.0050    15.8410    12.2790    12.5060  1249.5200    89.9590     8.0200     2.4360     0.0080     0.2170
 2782.5000   947.5710   -38.6340    13.7010    12.0820    12.3050  1248.8770    95.7200     8.0200     2.4440     0.0090     0.2120
 2783.0000   947.7370   -38.4100    12.5500    12.0130    12.2350  1248.2350    95.3350     8.0200     2.4490     0.0100     0.2060
 2783.5000   947.9020   -38.0860    12.7820    11.9440    12.1650  1247.5920    93.2100     8.0200     2.4610     0.0120     0.2040
 2784.0000   948.0680   -37.8010    13.3200    11.8810    12.1000  1246.9490    92.0480     8.0200     2.4700     0.0130     0.2040
 2784.5000   948.2340   -37.5380    13.9390    11.6650    11.8810  1246.3070    90.8820     8.0200     2.4950     0.0220     0.2070
 2785.0000   948.3990   -37.8550    14.5260    11.7740    11.9910  1245.6639    92.9830     8.0200     2.5070     0.0340     0.2090
 2785.5000   948.5650   -38.1930    14.5260    12.0000    12.2210  1245.0210    95.1610     8.0200     2.5130     0.0420     0.2110
 2786.0000   948.7310   -38.5550    14.0050    12.2260    12.4520  1244.3790    97.7540     8.0200     2.5120     0.0420     0.2140
 2786.5000   948.8970   -38.8990    14.1790    12.4520    12.6820  1243.7360    96.7490     8.0200     2.5120     0.0370     0.2160
 2787.0000   949.0620   -39.2500    14.7790    12.6780    12.9120  1243.0930    94.9850     8.0200     2.5080     0.0310     0.2190
 2787.5000   949.2280   -39.6060    15.3780    12.9050    13.1430  1242.4510    94.5040     8.0200     2.5010     0.0250     0.2180
 2788.0000   949.3940   -39.8820    15.9160    13.0170    13.2570  1241.8080    94.1330     8.0200     2.4900     0.0190     0.2160
 2788.5000   949.5600   -39.9720    15.3440    12.7360    12.9710  1241.1650    93.7830     8.0200     2.4790     0.0130     0.2170
 2789.0000   949.7250   -40.0490    15.3440    12.5890    12.8210  1240.5229    93.4400     8.0200     2.4760     0.0080     0.2170
 2789.5000   949.8910   -40.1260    15.3440    12.4420    12.6710  1239.8800    92.6060     8.0200     2.4800     0.0090     0.2100
 2790.0000   950.0570   -40.2010    15.3440    12.2940    12.5210  1239.2371    90.9600     8.0200     2.4830     0.0160     0.2040
 2790.5000   950.2230   -40.2730    14.3830    12.1470    12.3710  1238.5950    89.5720     8.0200     2.4880     0.0280     0.2070
 2791.0000   950.3880   -40.2780    13.7510    11.9990    12.2200  1237.9520    87.6650     8.0200     2.4910     0.0400     0.2120
 2791.5000   950.5540   -40.2790    13.7510    11.8520    12.0700  1237.3090    88.0730     8.0200     2.4960     0.0470     0.2150
 2792.0000   950.7200   -40.2740    13.0170    11.7040    11.9200  1236.6670    88.9080     8.0200     2.4990     0.0450     0.2140
 2792.5000   950.8850   -40.2920    13.2010    11.5570    11.7700  1236.0240    95.8250     8.0200     2.4990     0.0370     0.2130
 2793.0000   951.0510   -40.1260    13.7410    11.4090    11.6200  1235.3810    98.6830     8.0200     2.4980     0.0330     0.2110
 2793.5000   951.2170   -39.8210    14.2820    11.2620    11.4700  1234.7390    97.1960     8.0200     2.4980     0.0310     0.2160
 2794.0000   951.3830   -39.5360    14.5260    11.1150    11.3200  1234.0959    95.6390     8.0200     2.4980     0.0290     0.2210
 2794.5000   951.5480   -39.2700    14.0390    10.9670    11.1690  1233.4530    95.7710     8.0200     2.4970     0.0280     0.2250
 2795.0000   951.7140   -38.9550    12.6680    10.8430    11.0430  1232.8110    97.5670     8.0200     2.4970     0.0260     0.2290
 2795.5000   951.8800   -38.6770    11.0430    11.1950    11.4010  1232.1680    99.3630     8.0200     2.4930     0.0240     0.2260
 2796.0000   952.0460   -37.9410    11.6610    11.4980    11.7100  1231.5250    97.6060     8.0200     2.4870     0.0090     0.2220
 2796.5000   952.2110   -38.3640    12.7540    11.8010    12.0190  1230.8831    95.5400     8.0200     2.4820     0.0000     0.2180
 2797.0000   952.3770   -38.8980    13.8470    12.1040    12.3270  1230.2400    95.2900     8.0200     2.4750     0.0000     0.2160
 2797.5000   952.5430   -39.4600    14.7940    12.4070    12.6360  1229.5970    96.2660     8.0200     2.4770    -0.0010     0.2200
 2798.0000   952.7080   -39.4780    15.2030    12.7110    12.9450  1228.9550    95.2760     8.0200     2.4840     0.0110     0.2240
 2798.5000   952.8740   -39.4870    15.4380    13.0170    13.2570  1228.3120    90.9580     8.0200     2.4890     0.0260     0.2280
 2799.0000   953.0400   -39.4830    15.6270    13.5020    13.7510  1227.6689    87.4520     8.0200     2.4970     0.0380     0.2300
 2799.5000   953.2060   -39.5050    16.3360    13.7510    14.0050  1227.0270    83.8170     8.0200     2.4940     0.0440     0.2270
 2800.0000   953.3710   -39.8170    16.9680    13.7510    14.0050  1226.3840    84.3260     8.0200     2.4870     0.0340     0.2240
 2800.5000   953.5370   -40.1360    16.2150    13.6170    13.8680  1225.7410    84.8170     8.0210     2.4830     0.0240     0.2150
 2801.0000   953.7030   -40.4990    15.0790    13.2800    13.5250  1225.0990    86.1270     8.0210     2.4910     0.0210     0.2070
 2801.5000   953.8690   -40.6630    13.9430    12.9430    13.1810  1224.4561    87.6840     8.0660     2.4980     0.0220     0.2000
