~VERSION INFORMATION
 VERS.                2.0:   CWLS LOG ASCII STANDARD - VERSION 2.0
 WRAP.                 NO:   ONE LINE PER DEPTH STEP
~WELL INFORMATION
#MNEM.UNIT      DATA TYPE    INFORMATION
#----------   ------------   ------------------------------
 STRT.F          197.0000:   START DEPTH
 STOP.F         3074.5000:   STOP DEPTH
 STEP.F            0.5000:   STEP LENGTH
 NULL.          -999.2500:   NO VALUE
 COMP.    FENIX & SCISSON:   COMPANY
 WELL.   FENIX "A" #36-21:   WELL
 FLD .             NPR #3:   FIELD
 LOC .      S21 T39N R78W:   LOCATION
 CNTY.            NATRONA:   COUNTY
 STAT.            WYOMING:   STATE
 CTRY. UNITED STATES OF AMERICA:   COUNTRY
 SRVC.              WELEX:   SERVICE COMPANY
 DATE.        06-JUL-1977:   LOGDATE
 API .     49025103920000:   API NUMBER
~CURVE INFORMATION
#MNEM.UNIT       API CODE    CURVE DESCRIPTION
#----------   ------------   ------------------------------
 DEPT.F                  :   
 CALD.IN     45 280 60 00:   CALIPER FROM DENSITY LOG
 GRD .GAPI   45 310 01 00:   GAMMA RAY FROM DENSITY LOG
 CORR.G/C3   45 356 01 00:   DENSITY CORRECTION
 RHOB.G/C3   45 350 01 00:   BULK DENSITY
 SPR .MV     11 010 01 00:   SPONTANEOUS POTENTIAL FROM RES.
 FORX.OHMM   11 000 00 00:   FORMATION FACTOR
 GURD.OHMM   11 220 05 00:   GUARD LOG RESISTIVITY
 NPHI.DEC    42 890 03 00:   NEUTRON POROSITY SANDSTONE
~PARAMETER INFORMATION
#MNEM.UNIT          VALUE    DESCRIPTION
#----------   ------------   ------------------------------
 EKB .F         4960.0000:   Kelly bushing
 EGL .F         4950.0000:   Ground level
 EDF .F            0.0000:   Drilling floor
 EPD .F         4950.0000:   Permanent datum
 TD  .F         3078.0000:   Total depth
 CLNT.            A2DTECH:   Client Code
 SL  . 1650' FSL & 1650' FWL:   Surface Location
 PD  .                 GL:   Permanent Datum
 DAPD.F                10:   Feet Above Permanent Datum
 DATE.        06-JUL-1977:   Date Logged [DD-MMM-YYYY]
 DD  .F              3066:   Depth driller
 DL  .F              3078:   Depth logger
 BLI .F              3076:   Bottom log interval
 TLI .F               200:   Top log interval
 CS1 .IN            8.625:   Casing size
 BS1 .IN            7.875:   Bit size
 BSD1.F              3066:   Depth drilled with bit1
 DFT .            KCL MUD:   Type fluid in hole
 DFD .                9.2:   Density
 DFV .                 35:   Viscosity
 DFPH.                7.5:   pH
 DFL .                 18:   Fluid loss
 MSS .           FLOWLINE:   Source of sample
 RMS .OHMM            0.9:   Rm
 MST .F                80:   Rm Meas. temp.
 RMF .OHMM           0.81:   Rmf
 MFST.F                80:   Rmf Meas. temp.
 MFSS.               FANN:   Source Rmf.
 RMC .OHMM           1.06:   Rmc
 MCST.F                80:   Rmc Meas. temp.
 MCSS.                KIT:   Source Rmc.
 RMB .OHMM           0.60:   Rm. at BHT
 BHT .F               119:   BHT.
 TCS .HRS               3:   Time Circ. stopped
 MRT .F               119:   Maximum recorded temp.
 LUN .               8611:   Logging unit number
 LUL .             CASPER:   Logging unit location
 ENGI.             C DOAK:   Recorded By
 WITN.         HARRINGTON:   Witnessed by
 ORIG.           5" PRINT:   Origin of data
 UWI .     49025103920000:   Unique Well ID
 DICO. A2D TECHNOLOGIES,INC.:   Digitizing Company
~OTHER INFORMATION
~A   DEPT     CALD         GRD      CORR       RHOB        SPR       FORX       GURD       NPHI   
# ...
  764.0000     7.9675    71.6528     0.0363     2.3746   -68.9743     8.4813     7.2854     0.2863
  764.5000     7.9695    73.0051     0.0365     2.3791   -69.1153     8.0828     7.3886     0.2833
  765.0000     7.9714    73.7647     0.0397     2.3747   -68.9510     8.0839     7.4418     0.2801
  765.5000     7.9730    74.3762     0.0413     2.3688   -68.9394     7.9743     7.1419     0.2782
  766.0000     7.9749    74.6914     0.0415     2.3629   -68.7780     7.7051     7.0830     0.2761
  766.5000     7.9769    74.8584     0.0401     2.3540   -68.7664     7.7595     7.2982     0.2731
  767.0000     7.9787    75.0255     0.0374     2.3504   -68.6048     8.0913     6.9532     0.2695
  767.5000     7.9805    75.3407     0.0360     2.3543   -68.7430     8.4388     7.0033     0.2673
  768.0000     7.9824    74.2814     0.0347     2.3618   -68.7285     8.4321     7.1521     0.2673
  768.5000     7.9842    72.8355     0.0379     2.3708   -68.8694     8.0918     7.6118     0.2721
  769.0000     7.9860    72.2862     0.0395     2.3798   -69.0075     7.8725     7.2055     0.2832
  769.5000     7.9878    74.5321     0.0412     2.3880   -68.9929     7.8195     7.2074     0.2928
  770.0000     7.9897    75.2917     0.0429     2.3955   -69.2807     7.8749     7.2093     0.2975
  770.5000     7.9915    75.3106     0.0446     2.3956   -69.2690     7.9853     7.3115     0.2990
  771.0000     7.9933    75.0332     0.0447     2.3942   -69.2574     8.2097     7.5181     0.2996
  771.5000     7.9952    74.6030     0.0464     2.3943   -69.2455     8.5573     7.6246     0.3008
  772.0000     7.9970    74.1821     0.0466     2.3966   -69.3837     8.2119     7.5221     0.3016
  772.5000     7.9999    73.0158     0.0467     2.4019   -69.2195     8.1566     7.3169     0.3019
  773.0000     8.0155    71.9977     0.0484     2.4086   -69.2078     7.9907     7.0663     0.3016
  773.5000     8.0177    71.1277     0.0486     2.4199   -69.3488     7.9918     7.0264     0.3007
  774.0000     8.0196    71.5949     0.0488     2.4229   -69.3342     7.9929     7.2254     0.2991
  774.5000     8.0066    72.6607     0.0489     2.4198   -69.3225     8.1052     7.2274     0.2985
  775.0000     8.0084    72.8148     0.0491     2.4063   -69.1612     8.4487     7.2293     0.3000
  775.5000     8.0103    72.6848     0.0493     2.3815   -69.1497     8.7462     7.1322     0.3024
  776.0000     8.0269    74.4862     0.0495     2.3734   -69.1377     8.8078     7.0846     0.3045
  776.5000     8.0435    76.8754     0.0466     2.3727   -69.1257     8.6881     7.2352     0.3086
  777.0000     8.0601    79.2647     0.0468     2.3899   -68.8122     8.4532     7.2371     0.3082
  777.5000     8.0768    81.0614     0.0470     2.3982   -68.8006     8.3960     7.2391     0.3030
  778.0000     8.0934    82.2655     0.0457     2.3936   -68.6392     8.3974     7.1912     0.2990
  778.5000     8.1100    81.3955     0.0458     2.3885   -68.3282     8.3986     7.2430     0.2980
  779.0000     8.1266    77.8588     0.0445     2.3833   -68.1668     8.3420     7.4997     0.2989
  779.5000     8.1285    75.5073     0.0447     2.3767   -68.0055     8.1634     7.2976     0.3001
  780.0000     8.1303    74.6374     0.0418     2.3708   -67.8441     8.1810     7.4522     0.2976
  780.5000     8.1169    74.3600     0.0390     2.3659   -67.6826     8.4615     7.3520     0.2961
  781.0000     8.0896    74.3789     0.0377     2.3622   -67.5210     8.2325     6.9591     0.2997
  781.5000     8.0766    74.4711     0.0379     2.3564   -67.3571     7.9000     6.6783     0.3003
  782.0000     8.0636    78.2732     0.0365     2.3416   -67.3455     7.6861     6.7268     0.3109
  782.5000     8.0803    79.1763     0.0307     2.3245   -67.1841     7.4781     6.9169     0.3170
  783.0000     8.0969    76.3851     0.0278     2.3038   -67.1725     7.4791     7.5159     0.3212
  783.5000     8.1283    75.2188     0.0191     2.2779   -67.3134     8.1253     7.2571     0.3164
  784.0000     8.1598    75.8303     0.0102     2.2504   -67.4515     9.6549     6.8276     0.3089
  784.5000     8.1616    77.1825     0.0044     2.2378   -67.7365     9.3290     7.0696     0.3040
  785.0000     8.1635    78.6829     0.0121     2.2543   -68.0289     7.4797     7.1693     0.3007
  785.5000     8.1653    79.2944     0.0287     2.3086   -68.3329     8.3601     7.0244     0.3010
  786.0000     8.1675    79.0170     0.0349     2.3541   -68.5995     8.2176     6.6954     0.3022
  786.5000     8.1694    78.8770     0.0411     2.3668   -68.8873     5.7667     5.4828     0.3067
  787.0000     8.1712    79.5003     0.0442     2.3706   -68.8727     5.3409     3.5511     0.3129
  787.5000     8.1730    79.0371     0.0474     2.3783   -68.8611     6.5240     3.6514     0.3213
  788.0000     8.1157    77.6888     0.0491     2.3864   -68.8494     6.7537     5.5253     0.3306
  788.5000     8.0879    75.8569     0.0508     2.3931   -68.9904     7.3879     6.4452     0.3324
  789.0000     8.0602    76.3203     0.0510     2.4028   -68.9758     7.1386     6.2162     0.3321
  789.5000     8.0620    79.4503     0.0541     2.4222   -68.9641     7.0415     6.3091     0.3248
  790.0000     8.0638    82.1358     0.0573     2.4513   -68.9521     7.2396     6.5277     0.3136
  790.5000     8.0657    83.6362     0.0620     2.4752   -68.7882     7.3919     6.8526     0.3107
  791.0000     8.0675    84.9885     0.0651     2.4983   -68.7766     8.2551     6.8544     0.3079
  791.5000     8.0693    86.0444     0.0653     2.4768   -68.7649     8.4870     6.4435     0.3007
  792.0000     8.0859    86.5077     0.0639     2.4605   -68.6035     7.7016     6.2694     0.2980
  792.5000     8.1026    86.0822     0.0627     2.4836   -68.5919     7.3451     6.5365     0.2923
  793.0000     8.1044    85.9526     0.0583     2.4934   -68.5802     7.2458     6.1872     0.2880
  793.5000     8.1062    85.9718     0.0675     2.4347   -68.5686     7.0496     6.0620     0.2922
  794.0000     8.1081    85.9911     0.0691     2.4192   -68.5569     7.0019     6.1057     0.3063
  794.5000     8.1099    86.0104     0.0558     2.3895   -68.5449     7.1003     6.1926     0.3138
  795.0000     8.0969    86.3295     0.0470     2.3739   -68.5307     7.1999     6.4602     0.3153
  795.5000     8.0988    87.8299     0.0397     2.3603   -68.5190     7.3008     6.3693     0.3116
  796.0000     8.1154    89.3303     0.0353     2.3510   -68.3577     7.6628     6.1977     0.3050
  796.5000     8.1172    90.8307     0.0355     2.3512   -68.3460     7.6109     6.0306     0.3026
  797.0000     8.1339    91.5903     0.0357     2.3505   -68.3344     7.5080     6.2010     0.3001
  797.5000     8.1505    92.2018     0.0389     2.3610   -68.0233     7.2047     6.0756     0.3007
  798.0000     8.1524    93.2578     0.0405     2.3685   -68.0117     6.8191     5.9936     0.3061
  798.5000     8.1842    93.4248     0.0422     2.3730   -68.0000     6.7223     5.9136     0.3136
  799.0000     8.2156    93.5918     0.0439     2.3738   -67.8383     6.6354     5.7542     0.3232
  799.5000     8.2470    93.0181     0.0431     2.3731   -67.8241     6.6824     5.7157     0.3241
  800.0000     8.2632    91.9222     0.0433     2.3730   -67.8124     6.6372     5.8777     0.3253
  800.5000     8.2501    90.0401     0.0435     2.3726   -67.6511     6.5459     6.0438     0.3241
  801.0000     8.2524    87.5880     0.0437     2.3734   -67.4897     6.4558     5.6424     0.3204
  801.5000     8.2247    85.3802     0.0439     2.3743   -67.3284     5.7415     5.5665     0.3111
  802.0000     8.2266    83.6168     0.0441     2.3766   -67.3167     5.5849     5.6454     0.3050
  802.5000     8.2286    82.0016     0.0473     2.3871   -67.1553     5.7460     5.7301     0.3008
  803.0000     8.2156    81.5680     0.0475     2.3925   -67.1437     6.1077     6.0942     0.2998
  803.5000     8.2027    81.2897     0.0476     2.3797   -67.1291     6.7261     7.0462     0.2953
  804.0000     8.1750    79.9708     0.0478     2.3769   -67.1053     7.5099     7.2453     0.2948
