~VERSION INFORMATION
 VERS.                2.0:   CWLS LOG ASCII STANDARD - VERSION 2.0
 WRAP.                 NO:   ONE LINE PER DEPTH STEP
~WELL INFORMATION
#MNEM.UNIT      DATA TYPE    INFORMATION
#----------   ------------   ------------------------------
 STRT.F           36.0000:   START DEPTH
 STOP.F         3014.5000:   STOP DEPTH
 STEP.F            0.5000:   STEP LENGTH
 NULL.          -999.2500:   NO VALUE
 COMP.    TESRO PETROLEUM:   COMPANY
 WELL. TESORO N.P.R. "A" #6-21:   WELL
 FLD .             TEAPOT:   FIELD
 LOC .      S21 T39N R78W:   LOCATION
 CNTY.            NATRONA:   COUNTY
 STAT.            WYOMING:   STATE
 CTRY. UNITED STATES OF AMERICA:   COUNTRY
 SRVC.              WELEX:   SERVICE COMPANY
 DATE.        16-JUL-1968:   LOGDATE
 API .     49025100180000:   API NUMBER
~CURVE INFORMATION
#MNEM.UNIT       API CODE    CURVE DESCRIPTION
#----------   ------------   ------------------------------
 DEPT.F                  :   
 SPR .MV     05 010 01 00:   SPONTANEOUS POTENTIAL FROM RES.
 ASN .OHMM   05 041 18 00:   AMPLIFIED SHORT NORMAL 18"
 IL  .OHMM   05 120 00 00:   INDUCTION LOG
 GRD .GAPI   45 310 01 00:   GAMMA RAY FROM DENSITY LOG
 CALD.IN     45 280 60 00:   CALIPER FROM DENSITY LOG
 GDEN.CPS    45 350 30 00:   GAMMA DENS
~PARAMETER INFORMATION
#MNEM.UNIT          VALUE    DESCRIPTION
#----------   ------------   ------------------------------
 EKB .F         5002.0000:   Kelly bushing
 EGL .F         4991.0000:   Ground level
 EDF .F         5001.0000:   Drilling floor
 TD  .F         3025.0000:   Total depth
 DATE.        16-JUL-1968:   Date logged
 CLNT.            A2DTECH:   Client Code
 PD  .                 GL:   Permanent Datum
 EPD .F              4991:   Elevation Permanent Datum
 LMF .                 KB:   Log Measured From
 DMF .                 KB:   Drilling Measured From
 DD  .F              3025:   Depth driller
 DL  .F              3019:   Depth logger
 BLI .F              3014:   Bottom log interval
 TLI .F              2670:   Top log interval
 CS1 .IN            10.75:   Casing size
 CBD1.      10.75" @ 325':   Casing driller 1
 CBL1.F               325:   Casing logger 1
 BS1 .IN                9:   Bit size
 BSD1.F              3025:   Depth drilled with bit1
 DFT .     WATER BASE MUD:   Type fluid in hole
 DFD .                9.7:   Density
 DFV .                 60:   Viscosity
 DFL .                6.4:   Fluid loss
 MSS .              CIRC.:   Source of sample
 RMS .OHMM            2.2:   Rm
 MST .F                84:   Rm Meas. temp.
 RMF .OHMM            1.6:   Rmf
 MFST.F                70:   Rmf Meas. temp.
 RMC .OHMM            3.3:   Rmc
 MCST.F                68:   Rmc Meas. temp.
 MFSS.               MEAS:   Source Rmf.
 RMB .OHMM           1.55:   Rm. at BHT
 BHT .F               120:   BHT.
 MRT .F               120:   Maximum recorded temp.
 LUN .               6869:   Logging unit number
 LUL .                 NC:   Logging unit location
 ENGI.          H. STEITZ:   Recorded By
 WITN.                MAY:   Witnessed by
 ORIG.           5" PRINT:   Origin of data
 UWI .     49025100180000:   Unique Well ID
 DICO. A2D TECHNOLOGIES, INC.:   Digitizing Company
~OTHER INFORMATION
~A   DEPT      SPR        ASN           IL      GRD       CALD       GDEN   
# ...
  868.0000   -39.1370    11.5390    10.2240  -999.2500  -999.2500  -999.2500
  868.5000   -38.9910    11.6470    10.2730  -999.2500  -999.2500  -999.2500
  869.0000   -41.2790    11.7040    10.3230  -999.2500  -999.2500  -999.2500
  869.5000   -39.0810    11.7030    10.3740  -999.2500  -999.2500  -999.2500
  870.0000   -38.9670    11.7050    10.4250  -999.2500  -999.2500  -999.2500
  870.5000   -37.1830    11.7720    10.4770  -999.2500  -999.2500  -999.2500
  871.0000   -35.7210    11.8450    10.5810  -999.2500  -999.2500  -999.2500
  871.5000   -37.2320    11.9350    10.7770  -999.2500  -999.2500  -999.2500
  872.0000   -40.7050    12.0900    10.9730  -999.2500  -999.2500  -999.2500
  872.5000   -39.6220    12.2450    11.1690  -999.2500  -999.2500  -999.2500
  873.0000   -41.3240    12.4000    11.3650  -999.2500  -999.2500  -999.2500
  873.5000   -43.2600    12.5550    11.5610  -999.2500  -999.2500  -999.2500
  874.0000   -44.5160    12.7100    11.7600  -999.2500  -999.2500  -999.2500
  874.5000   -41.5930    12.8670    11.7920  -999.2500  -999.2500  -999.2500
  875.0000   -41.0530    12.8850    11.7770  -999.2500  -999.2500  -999.2500
  875.5000   -39.1600    12.8540    11.7610  -999.2500  -999.2500  -999.2500
  876.0000   -38.3810    12.8220    11.7440  -999.2500  -999.2500  -999.2500
  876.5000   -39.4840    12.7900    11.7290  -999.2500  -999.2500  -999.2500
  877.0000   -34.5700    12.7580    11.7150  -999.2500  -999.2500  -999.2500
  877.5000   -38.0430    12.7270    11.7810  -999.2500  -999.2500  -999.2500
  878.0000   -37.8650    12.7170    11.8610  -999.2500  -999.2500  -999.2500
  878.5000   -40.4620    12.8390    11.9260  -999.2500  -999.2500  -999.2500
  879.0000   -41.6370    12.9630    11.9900  -999.2500  -999.2500  -999.2500
  879.5000   -41.4440    13.0860    12.0540  -999.2500  -999.2500  -999.2500
  880.0000   -41.2620    13.2080    12.1180  -999.2500  -999.2500  -999.2500
  880.5000   -40.9530    13.3130    12.1820  -999.2500  -999.2500  -999.2500
  881.0000   -39.1420    13.3670    12.2460  -999.2500  -999.2500  -999.2500
  881.5000   -38.4020    13.4220    12.3090  -999.2500  -999.2500  -999.2500
  882.0000   -38.7810    13.4760    12.3730  -999.2500  -999.2500  -999.2500
  882.5000   -36.5080    13.5290    12.4680  -999.2500  -999.2500  -999.2500
  883.0000   -35.5700    13.5790    12.5860  -999.2500  -999.2500  -999.2500
  883.5000   -40.2400    13.7820    12.7140  -999.2500  -999.2500  -999.2500
  884.0000   -41.2170    14.0060    13.1180  -999.2500  -999.2500  -999.2500
  884.5000   -38.9620    14.2310    13.5230  -999.2500  -999.2500  -999.2500
  885.0000   -40.5950    14.4560    13.9290  -999.2500  -999.2500  -999.2500
  885.5000   -41.9540    14.6810    14.2770  -999.2500  -999.2500  -999.2500
  886.0000   -41.3000    14.6880    14.2880  -999.2500  -999.2500  -999.2500
  886.5000   -40.2460    14.5520    14.1080  -999.2500  -999.2500  -999.2500
  887.0000   -37.9880    14.4080    13.9190  -999.2500  -999.2500  -999.2500
  887.5000   -39.3410    14.2640    13.7380  -999.2500  -999.2500  -999.2500
  888.0000   -36.6580    14.1200    13.3190  -999.2500  -999.2500  -999.2500
  888.5000   -37.5210    13.9760    12.8880  -999.2500  -999.2500  -999.2500
  889.0000   -35.8940    13.8300    12.4530  -999.2500  -999.2500  -999.2500
  889.5000   -37.5920    13.7470    12.0240  -999.2500  -999.2500  -999.2500
  890.0000   -40.9100    13.6810    12.1220  -999.2500  -999.2500  -999.2500
  890.5000   -40.2030    13.6140    12.1490  -999.2500  -999.2500  -999.2500
  891.0000   -39.9470    13.5480    12.0110  -999.2500  -999.2500  -999.2500
  891.5000   -42.0720    13.4820    11.8750  -999.2500  -999.2500  -999.2500
  892.0000   -36.5930    13.4130    11.8700  -999.2500  -999.2500  -999.2500
  892.5000   -40.1010    13.4520    11.9990  -999.2500  -999.2500  -999.2500
  893.0000   -38.9210    13.5280    11.8490  -999.2500  -999.2500  -999.2500
  893.5000   -39.2900    13.5890    11.6980  -999.2500  -999.2500  -999.2500
  894.0000   -38.7310    13.5270    11.7020  -999.2500  -999.2500  -999.2500
  894.5000   -38.6590    13.4650    11.7510  -999.2500  -999.2500  -999.2500
  895.0000   -39.1660    13.4030    11.8750  -999.2500  -999.2500  -999.2500
  895.5000   -39.7590    13.4800    11.9980  -999.2500  -999.2500  -999.2500
  896.0000   -40.3290    13.5760    12.1210  -999.2500  -999.2500  -999.2500
  896.5000   -40.4830    13.6740    12.2440  -999.2500  -999.2500  -999.2500
  897.0000   -41.1520    13.7720    12.2990  -999.2500  -999.2500  -999.2500
  897.5000   -40.7270    13.7680    12.2430  -999.2500  -999.2500  -999.2500
  898.0000   -41.3360    13.6050    12.0480  -999.2500  -999.2500  -999.2500
  898.5000   -40.8840    13.4410    11.8590  -999.2500  -999.2500  -999.2500
  899.0000   -43.7020    13.2770    11.6710  -999.2500  -999.2500  -999.2500
  899.5000   -38.6300    13.1150    11.4830  -999.2500  -999.2500  -999.2500
  900.0000   -39.6090    12.9940    11.2930  -999.2500  -999.2500  -999.2500
  900.5000   -38.0310    13.0730    11.1310  -999.2500  -999.2500  -999.2500
  901.0000   -38.3440    13.2240    11.1930  -999.2500  -999.2500  -999.2500
  901.5000   -37.4390    13.5940    11.5060  -999.2500  -999.2500  -999.2500
  902.0000   -37.8920    14.1470    11.8110  -999.2500  -999.2500  -999.2500
  902.5000   -38.0870    14.5440    12.1150  -999.2500  -999.2500  -999.2500
  903.0000   -38.9700    14.6600    12.4200  -999.2500  -999.2500  -999.2500
  903.5000   -37.8650    14.7880    12.7270  -999.2500  -999.2500  -999.2500
  904.0000   -39.2300    14.3380    12.9150  -999.2500  -999.2500  -999.2500
  904.5000   -38.7860    13.7950    12.8140  -999.2500  -999.2500  -999.2500
  905.0000   -40.3880    13.4600    12.2520  -999.2500  -999.2500  -999.2500
  905.5000   -41.5350    13.3970    11.6840  -999.2500  -999.2500  -999.2500
  906.0000   -38.3950    13.3960    11.5350  -999.2500  -999.2500  -999.2500
  906.5000   -37.7570    13.3960    11.4250  -999.2500  -999.2500  -999.2500
  907.0000   -36.9720    13.3950    11.5320  -999.2500  -999.2500  -999.2500
  907.5000   -36.7520    13.3510    11.6320  -999.2500  -999.2500  -999.2500
  908.0000   -36.7060    13.0300    11.6090  -999.2500  -999.2500  -999.2500
  908.5000   -37.4320    12.9990    11.2810  -999.2500  -999.2500  -999.2500
  909.0000   -38.8640    12.9450    10.9590  -999.2500  -999.2500  -999.2500
  909.5000   -39.6280    12.9070    11.0510  -999.2500  -999.2500  -999.2500
  910.0000   -39.2360    12.6510    11.1070  -999.2500  -999.2500  -999.2500
  910.5000   -38.7050    12.3550    10.8990  -999.2500  -999.2500  -999.2500
  911.0000   -38.1720    12.1750    10.4810  -999.2500  -999.2500  -999.2500
  911.5000   -37.6370    12.0810    10.3050  -999.2500  -999.2500  -999.2500
  912.0000   -37.1130    12.0510    10.3100  -999.2500  -999.2500  -999.2500
  912.5000   -37.1870    12.0220    10.3460  -999.2500  -999.2500  -999.2500
  913.0000   -37.4690    11.9930    10.3810  -999.2500  -999.2500  -999.2500
  913.5000   -37.7570    11.9650    10.4160  -999.2500  -999.2500  -999.2500
  914.0000   -37.7720    11.9360    10.4510  -999.2500  -999.2500  -999.2500
  914.5000   -37.7720    11.9060    10.4860  -999.2500  -999.2500  -999.2500
  915.0000   -37.7710    11.9600    10.5390  -999.2500  -999.2500  -999.2500
  915.5000   -37.7500    12.0330    10.6240  -999.2500  -999.2500  -999.2500
  916.0000   -37.6340    12.1070    10.7080  -999.2500  -999.2500  -999.2500
  916.5000   -37.5180    12.1810    10.7920  -999.2500  -999.2500  -999.2500
  917.0000   -37.4010    12.2550    10.8770  -999.2500  -999.2500  -999.2500
  917.5000   -37.2860    12.3290    10.9610  -999.2500  -999.2500  -999.2500
  918.0000   -37.1930    12.4010    11.0420  -999.2500  -999.2500  -999.2500
  918.5000   -37.4170    12.4720    11.1170  -999.2500  -999.2500  -999.2500
  919.0000   -37.6410    12.6040    11.1930  -999.2500  -999.2500  -999.2500
  919.5000   -37.8670    12.6000    11.2690  -999.2500  -999.2500  -999.2500
