~VERSION INFORMATION
 VERS.                2.0:   CWLS LOG ASCII STANDARD - VERSION 2.0
 WRAP.                 NO:   ONE LINE PER DEPTH STEP
~WELL INFORMATION
#MNEM.UNIT      DATA TYPE    INFORMATION
#----------   ------------   ------------------------------
 STRT.F          212.0000:   START DEPTH
 STOP.F         3042.0000:   STOP DEPTH
 STEP.F            0.5000:   STEP LENGTH
 NULL.          -999.2500:   NO VALUE
 COMP.    FENIX & SCISSON:   COMPANY
 WELL.   FENIX "A" #74-28:   WELL
 FLD .             NPR #3:   FIELD
 LOC .      S28 T39N R78W:   LOCATION
 CNTY.            NATRONA:   COUNTY
 STAT.            WYOMING:   STATE
 CTRY. UNITED STATES OF AMERICA:   COUNTRY
 SRVC.              WELEX:   SERVICE COMPANY
 DATE.        03-AUG-1977:   LOGDATE
 API .     49025104080000:   API NUMBER
~CURVE INFORMATION
#MNEM.UNIT       API CODE    CURVE DESCRIPTION
#----------   ------------   ------------------------------
 DEPT.F                  :   
 SPR .MV     07 010 01 00:   SPONTANEOUS POTENTIAL
 ILD .OHMM   07 120 46 00:   INDUCTION LOG DEEP RESISTIVITY
 ILM .OHMM   07 120 44 00:   INDUCTION LOG MEDIUM RESISTIVITY
 SFLU.OHMM   07 220 01 00:   SPHERICALLY FOCUSED LOG UNAVERAGED RESISTIVITY
 CALD.IN     45 280 60 00:   CALIPER FROM DENSITY LOG
 GRD .GAPI   45 310 01 00:   GAMMA RAY FROM DENSITY LOG
 CORR.G/C3   45 356 01 00:   DENSITY CORRECTION
 RHOB.G/C3   45 350 01 00:   BULK DENSITY
~PARAMETER INFORMATION
#MNEM.UNIT          VALUE    DESCRIPTION
#----------   ------------   ------------------------------
 EKB .F         5050.0000:   Kelly bushing
 EGL .F         5040.0000:   Ground level
 EDF .F            0.0000:   Drilling floor
 TD  .F         3044.0000:   Total depth
 DATE.        03-AUG-1977:   Date logged
 CLNT.            A2DTECH:   Client Code
 SL  . 2310' FNL & 930' FEL:   Surface Location
 PD  .                 GL:   Permanent Datum
 EPD .F              5040:   Elevation Permanent Datum
 LMF .                 KB:   Log Measured From
 DMF .                 KB:   Drilling Measured From
 DAPD.F                10:   Feet Above Permanent Datum
 DD  .F              3044:   Depth driller
 DL  .F              3044:   Depth logger
 BLI .F              3042:   Bottom log interval
 TLI .F               238:   Top log interval
 CS1 .IN            8.625:   Casing size
 CBD1.      8.625" @ 220':   Casing driller 1
 CBL1.F               238:   Casing logger 1
 BS1 .IN            7.875:   Bit size
 BSD1.F              3044:   Depth drilled with bit1
 DFT .            KCL MUD:   Type fluid in hole
 DFV .                 35:   Viscosity
 DFPH.               10.5:   pH
 DFL .                7.2:   Fluid loss
 MSS .           FLOWLINE:   Source of sample
 RMS .OHMM           1.13:   Rm
 MST .F                84:   Rm Meas. temp.
 RMF .OHMM           0.77:   Rmf
 MFST.F                70:   Rmf Meas. temp.
 MFSS.           FANN KIT:   Source Rmf.
 MCSS.           FANN KIT:   Source Rmc.
 RMB .OHMM            .82:   Rm. at BHT
 BHT .F               118:   BHT.
 TCS .HRS               7:   Time Circ. stopped
 MRT .F               116:   Maximum recorded temp.
 LUN .               8611:   Logging unit number
 LUL .             CASPER:   Logging unit location
 ENGI.            C. DOAK:   Recorded By
 WITN.      W. PETTINGILL:   Witnessed by
 ORIG.         2.5" PRINT:   Origin of data
 UWI .     49025104080000:   Unique Well ID
 DICO. A2D TECHNOLOGIES, INC.:   Digitizing Company
~OTHER INFORMATION
~A   DEPT      SPR        ILD        ILM       SFLU         CALD       GRD       CORR        RHOB 
  212.0000  -999.2500  -999.2500  -999.2500  -999.2500     8.6710    83.7350    -0.4740     2.0090
  212.5000  -999.2500  -999.2500  -999.2500  -999.2500     8.6710    83.7350    -0.4600     2.0090
  213.0000  -999.2500  -999.2500  -999.2500  -999.2500     8.6710    83.7350    -0.4310     2.0090
  213.5000  -999.2500  -999.2500  -999.2500  -999.2500     8.6670    84.5380    -0.4030     2.0090
  214.0000  -999.2500  -999.2500  -999.2500  -999.2500     8.6630    86.0680    -0.3740     2.0090
  214.5000  -999.2500  -999.2500  -999.2500  -999.2500     8.6580    87.0770    -0.3460     2.0140
  215.0000  -999.2500  -999.2500  -999.2500  -999.2500     8.6540    88.1530    -0.3230     2.0390
  215.5000  -999.2500  -999.2500  -999.2500  -999.2500     8.6570    88.1690    -0.3140     2.0560
  216.0000  -999.2500  -999.2500  -999.2500  -999.2500     8.6480    87.9850    -0.2860     2.0780
  216.5000  -999.2500  -999.2500  -999.2500  -999.2500     8.6440    87.6570    -0.2410     2.1070
  217.0000  -999.2500  -999.2500  -999.2500  -999.2500     8.6390    89.2740    -0.1940     2.1490
  217.5000  -999.2500  -999.2500  -999.2500  -999.2500     8.6360    92.0540    -0.1450     2.2050
  218.0000  -999.2500  -999.2500  -999.2500  -999.2500     8.6320    94.7070    -0.0520     2.2460
  218.5000  -999.2500  -999.2500  -999.2500  -999.2500     8.6670    97.2370     0.0360     2.3190
  219.0000  -999.2500  -999.2500  -999.2500  -999.2500     8.7030    99.8560     0.1360     2.3780
  219.5000  -999.2500  -999.2500  -999.2500  -999.2500     8.7510   101.5380     0.1710     2.2880
  220.0000  -999.2500  -999.2500  -999.2500  -999.2500     8.8040   104.7310     0.1420     2.2960
  220.5000  -999.2500  -999.2500  -999.2500  -999.2500     9.1900   107.2100     0.1170     2.3500
  221.0000  -999.2500  -999.2500  -999.2500  -999.2500     9.6490   106.4920     0.1070     2.3780
  221.5000  -999.2500  -999.2500  -999.2500  -999.2500    10.0970   105.6750     0.1010     2.3980
  222.0000  -999.2500  -999.2500  -999.2500  -999.2500    10.5820   105.8430     0.0890     2.3990
  222.5000  -999.2500  -999.2500  -999.2500  -999.2500    10.9690   107.6810     0.0620     2.3980
  223.0000  -999.2500  -999.2500  -999.2500  -999.2500    11.3860   108.7100     0.0320     2.3980
  223.5000  -999.2500  -999.2500  -999.2500  -999.2500    11.8330   108.3720     0.0360     2.4240
  224.0000  -999.2500  -999.2500  -999.2500  -999.2500    12.1080   108.1710     0.0430     2.4560
  224.5000  -999.2500  -999.2500  -999.2500  -999.2500    12.0690   107.8520     0.0500     2.4700
  225.0000  -999.2500  -999.2500  -999.2500  -999.2500    12.0710   108.5350     0.0560     2.4700
  225.5000  -999.2500  -999.2500  -999.2500  -999.2500    12.0630   110.7220     0.0630     2.4720
  226.0000  -999.2500  -999.2500  -999.2500  -999.2500    12.0530   112.9330     0.0810     2.4790
  226.5000  -999.2500  -999.2500  -999.2500  -999.2500    12.0480   113.9520     0.0970     2.4850
  227.0000  -999.2500  -999.2500  -999.2500  -999.2500    12.0390   113.8130     0.1060     2.4810
  227.5000  -999.2500  -999.2500  -999.2500  -999.2500    12.0330   113.8660     0.1120     2.4720
  228.0000  -999.2500  -999.2500  -999.2500  -999.2500    12.0240   114.0550     0.1170     2.4600
  228.5000  -999.2500  -999.2500  -999.2500  -999.2500    12.0180   116.9890     0.1230     2.4420
  229.0000  -999.2500  -999.2500  -999.2500  -999.2500    12.0110   120.0280     0.1240     2.4170
  229.5000  -999.2500  -999.2500  -999.2500  -999.2500    11.9980   120.4940     0.1160     2.3820
  230.0000  -999.2500  -999.2500  -999.2500  -999.2500    12.0950   120.9210     0.0890     2.3680
  230.5000  -999.2500  -999.2500  -999.2500  -999.2500    11.7890   124.1260     0.0710     2.3940
  231.0000  -999.2500  -999.2500  -999.2500  -999.2500    11.1920   127.7470     0.0730     2.4160
  231.5000  -999.2500  -999.2500  -999.2500  -999.2500    10.6510   128.8810     0.0760     2.4010
  232.0000  -999.2500  -999.2500  -999.2500  -999.2500    10.0840   127.0650     0.0760     2.3730
  232.5000  -999.2500  -999.2500  -999.2500  -999.2500     9.8480   129.9490     0.0700     2.3580
  233.0000  -999.2500  -999.2500  -999.2500  -999.2500     9.8520   130.8780     0.0560     2.3590
  233.5000  -999.2500  -999.2500  -999.2500  -999.2500     9.8310   129.2590     0.0390     2.3610
  234.0000  -999.2500  -999.2500  -999.2500  -999.2500     9.8120   126.3740     0.0230     2.4080
  234.5000  -999.2500  -999.2500  -999.2500  -999.2500     9.7970   127.0440     0.0210     2.4530
  235.0000  -999.2500  -999.2500  -999.2500  -999.2500     9.7780   127.5170     0.0190     2.4550
  235.5000  -999.2500  -999.2500  -999.2500  -999.2500     9.7610   128.2340     0.0180     2.4570
  236.0000  -999.2500  -999.2500  -999.2500  -999.2500     9.7430   126.7920     0.0250     2.4590
  236.5000  -999.2500  -999.2500  -999.2500  -999.2500     9.7260   125.2600     0.0340     2.4700
  237.0000  -999.2500  -999.2500  -999.2500  -999.2500     9.7080   124.3000     0.0420     2.4770
  237.5000  -999.2500  -999.2500  -999.2500  -999.2500     9.6910   123.0020     0.0420     2.4790
  238.0000  -999.2500  -999.2500  -999.2500  1979.9740     9.6750   124.0420     0.0420     2.4810
  238.5000   -14.3750  -999.2500  -999.2500  1986.3804     9.6670   124.5560     0.0420     2.4800
  239.0000   -23.1050  -999.2500  -999.2500  1730.1312     9.6590   122.9080     0.0420     2.4800
  239.5000   -32.6000  -999.2500     1.3770  1314.5375     9.6520   123.9730     0.0420     2.4740
  240.0000   -38.3520  -999.2500     1.0080     2.8500     9.6450   126.5280     0.0390     2.4650
  240.5000   -43.5380  -999.2500     0.6690     3.2460     9.6370   126.5490     0.0350     2.4570
  241.0000   -45.5860  -999.2500     0.4990     3.9090     9.6300   125.6930     0.0320     2.4480
  241.5000   -47.6340  -999.2500     0.2390     4.4590     9.6220   128.7620     0.0280     2.4390
  242.0000   -48.6580  -999.2500     0.2450     3.9130     9.6150   129.4270     0.0250     2.4290
  242.5000   -50.4130  -999.2500     0.3450     4.6130     9.6080   128.0570     0.0210     2.4220
  243.0000   -51.6730  -999.2500     0.3430     5.6820     9.6000   129.3740     0.0180     2.4210
  243.5000   -53.8470  -999.2500     0.5860     5.5770     9.5930   131.0610     0.0180     2.4200
  244.0000   -55.4290  -999.2500     0.8270     5.7950     9.5860   130.3730     0.0180     2.4200
  244.5000   -56.5340  -999.2500     1.0410     5.9870     9.5780   129.4930     0.0180     2.4220
  245.0000   -57.4950  -999.2500     3.8410     6.1480     9.5710   130.4780     0.0180     2.4250
  245.5000   -58.5520  -999.2500     4.1390     6.2350     9.5640   131.4670     0.0210     2.4310
  246.0000   -59.6610  -999.2500     4.4700     6.3220     9.5550   132.5280     0.0300     2.4390
  246.5000   -60.9090  -999.2500     4.8030     6.4090     9.5620   131.7910     0.0400     2.4470
  247.0000   -62.1220     4.9950     5.1350     6.4740     9.5870   129.6180     0.0480     2.4530
  247.5000   -63.4470     5.2830     5.4670     6.5960     9.6100   130.1060     0.0570     2.4510
  248.0000   -64.5470     5.4740     5.7990     6.2170     9.6340   130.5580     0.0530     2.4380
  248.5000   -65.3320     5.2860     6.1220     5.6770     9.6570   127.8350     0.0490     2.4160
  249.0000   -66.2190     5.0850     5.6820     6.8460     9.6810   125.8250     0.0440     2.3960
  249.5000   -67.0320     4.9110     5.9300     6.4350     9.7040   125.0650     0.0400     2.4050
  250.0000   -68.0830     4.6880     6.0830     6.2370     9.7280   125.9400     0.0380     2.4320
  250.5000   -69.3820     4.6940     6.2370     6.5960     9.7520   127.4960     0.0460     2.4590
  251.0000   -70.5800     4.6280     6.2370     6.2970     9.7750   128.6950     0.0570     2.4690
  251.5000   -71.6710     4.2930     5.9230     5.7890     9.7990   127.7330     0.0670     2.4680
  252.0000   -72.4060     4.0120     5.4140     5.3490     9.8220   126.5700     0.0780     2.4540
