~VERSION INFORMATION
 VERS.                2.0:   CWLS LOG ASCII STANDARD - VERSION 2.0
 WRAP.                 NO:   ONE LINE PER DEPTH STEP
~WELL INFORMATION
#MNEM.UNIT      DATA TYPE    INFORMATION
#----------   ------------   ------------------------------
 STRT.F          637.0000:   START DEPTH
 STOP.F         3158.0000:   STOP DEPTH
 STEP.F            0.5000:   STEP LENGTH
 NULL.          -999.2500:   NO VALUE
 COMP.    FENIX & SCISSON:   COMPANY
 WELL.  FENIX "AX" #34-33:   WELL
 FLD .             NPR #3:   FIELD
 LOC .      S33 T39N R78W:   LOCATION
 CNTY.            NATRONA:   COUNTY
 STAT.            WYOMING:   STATE
 CTRY. UNITED STATES OF AMERICA:   COUNTRY
 SRVC.       SCHLUMBERGER:   SERVICE COMPANY
 DATE.        15-APR-1977:   LOGDATE
 API .     49025103450000:   API NUMBER
~CURVE INFORMATION
#MNEM.UNIT       API CODE    CURVE DESCRIPTION
#----------   ------------   ------------------------------
 DEPT.F                  :   
 CALD.IN     45 280 60 00:   CALIPER FROM DENSITY LOG
 GRD .GAPI   45 310 01 00:   GAMMA RAY FROM DENSITY LOG
 RHOB.G/C3   45 350 01 00:   BULK DENSITY
 CORR.G/C3   45 356 01 00:   DENSITY CORRECTION
 SPR .MV     07 010 01 00:   SPONTANEOUS POTENTIAL
 SFLU.OHMM   07 220 01 00:   SPHERICALLY FOCUSED LOG UNAVERAGED RESISTIVITY
 ILD .OHMM   07 120 46 00:   INDUCTION LOG DEEP RESISTIVITY
 ILM .OHMM   07 120 44 00:   INDUCTION LOG MEDIUM RESISTIVITY
~PARAMETER INFORMATION
#MNEM.UNIT          VALUE    DESCRIPTION
#----------   ------------   ------------------------------
 EKB .F         5196.0000:   Kelly bushing
 EGL .F         5185.0000:   Ground level
 EDF .F            0.0000:   Drilling floor
 TD  .F         3159.0000:   Total depth
 DATE.        15-APR-1977:   Date logged
 CLNT.            A2DTECH:   Client Code
 SL  . 2132' FNL & 1750' FWL:   Surface Location
 PD  .                 GL:   Permanent Datum
 EPD .F              5185:   Elevation Permanent Datum
 LMF .                 KB:   Log Measured From
 DMF .                 KB:   Drilling Measured From
 DAPD.F                11:   Feet Above Permanent Datum
 DD  .F              3156:   Depth driller
 DL  .F              3159:   Depth logger
 BLI .F              3153:   Bottom log interval
 TLI .F               637:   Top log interval
 CS1 .IN            8.625:   Casing size
 CBD1.      8.625" @ 637':   Casing driller 1
 CBL1.F               637:   Casing logger 1
 BS1 .IN            7.875:   Bit size
 BSD1.F              3156:   Depth drilled with bit1
 DFT .                FGM:   Type fluid in hole
 DFD .                7.5:   Density
 DFV .                 35:   Viscosity
 DFPH.                8.5:   pH
 DFL .                  9:   Fluid loss
 MSS .                PIT:   Source of sample
 RMS .OHMM            .48:   Rm
 MST .F                60:   Rm Meas. temp.
 RMF .OHMM            .28:   Rmf
 MFST.F                60:   Rmf Meas. temp.
 MFSS.               MEAS:   Source Rmf.
 RMB .OHMM            .24:   Rm. at BHT
 BHT .F               120:   BHT.
 TCS .HRS            0200:   Time Circ. stopped
 MRT .F               120:   Maximum recorded temp.
 LUN .               7680:   Logging unit number
 LUL .               CSPR:   Logging unit location
 ENGI.             TAYLOR:   Recorded By
 WITN.         PETTINGILL:   Witnessed by
 ORIG.           5" PRINT:   Origin of data
 UWI .     49025103450000:   Unique Well ID
 DICO. A2D TECHNOLOGIES, INC.:   Digitizing Company
 TLAB.               0530:   Time logger at bottom
~OTHER INFORMATION
~A   DEPT       CALD      GRD       RHOB       CORR        SPR         SFLU        ILD        ILM 
# ...
 1447.0000     9.0285    97.9612     2.5613     0.0214   -52.2241     7.2370     5.8777     5.6146
 1447.5000     9.0286    99.3533     2.5773     0.0304   -52.2256     7.1707     5.8889     5.6056
 1448.0000     9.0287   100.9428     2.5833     0.0394   -52.2268     6.9754     5.9001     5.5922
 1448.5000     9.0287   102.3324     2.5523     0.0334   -52.2282     6.7855     5.9113     5.5922
 1449.0000     9.0288   100.7452     2.5623     0.0364   -52.0314     6.7234     5.9225     5.6911
 1449.5000     9.0289    99.3553     2.5703     0.0364   -52.0579     6.7855     5.9338     5.8019
 1450.0000     9.0289    97.3697     2.5833     0.0364   -52.0844     7.1050     5.9450     5.8019
 1450.5000     9.0290    94.9870     2.5593     0.0194   -52.1109     7.3039     5.9563     5.8019
 1451.0000     9.0291    95.7819     2.5483     0.0054   -52.1374     7.5777     5.9642     5.8019
 1451.5000     9.0291    96.1797     2.5393     0.0054   -52.1639     7.7184     5.9642     5.7487
 1452.0000     9.0292    96.1805     2.5383     0.0104   -52.1904     7.3714     5.9435     5.6439
 1452.5000     9.0293    96.5779     2.5583     0.0284   -52.2169     6.9115     5.9228     5.5922
 1453.0000     9.0293    96.9757     2.5813     0.0694   -52.2417     6.9115     5.9022     5.5410
 1453.5000     9.0294    98.7635     2.5913     0.0784   -52.0445     6.8482     5.8817     5.6439
 1454.0000     9.0295   102.5374     2.5963     0.0564   -52.0457     6.8482     5.8555     5.5922
 1454.5000     9.0296   105.9140     2.5583     0.0374   -52.0463     6.8482     5.8555     5.5922
 1455.0000     9.0296   106.5101     2.5923     0.0494   -51.8498     6.7855     5.8019     5.5922
 1455.5000     9.0297   102.1417     2.5803     0.0534   -52.0136     6.7234     5.8087     5.5922
 1456.0000     9.0298    94.9931     2.5803     0.0655   -52.1774     6.7234     5.8155     5.5922
 1456.5000     9.0298    93.4033     2.5763     0.0525   -52.3412     6.7855     5.8223     5.5922
 1457.0000     9.0299    98.7671     2.5973     0.0495   -52.5050     6.7855     5.8291     5.5922
 1457.5000     9.0300   103.7322     2.6083     0.0505   -52.4534     6.8482     5.8359     5.5922
 1458.0000     9.0300   104.7256     2.6184     0.0675   -52.6534     6.8482     5.8427     5.5922
 1458.5000     9.0301   102.7402     2.6274     0.0605   -52.6549     6.7855     5.8496     5.5922
 1459.0000     9.0302   100.3578     2.5573     0.0305   -52.6563     6.7855     5.8555     5.5410
 1459.5000     9.0302    98.9683     2.5543     0.0155   -52.8563     6.7855     5.8555     5.5410
 1460.0000     9.0303    96.9833     2.5533     0.0195   -52.4607     6.8482     5.8555     5.5922
 1460.5000     9.0304    95.3951     2.5583     0.0275   -52.4621     6.9115     5.8555     5.6439
 1461.0000     9.0106    94.9985     2.5553     0.0235   -52.6630     6.9115     5.8555     5.6961
 1461.5000     9.0107    94.9991     2.5553     0.0225   -52.4651     6.9115     5.8555     5.7487
 1462.0000     9.0107    96.7867     2.5704     0.0255   -52.4665     7.1050     5.8555     5.7487
 1462.5000     9.0108    97.5815     2.5754     0.0295   -52.4674     6.9754     5.8555     5.7487
 1463.0000     9.0109    97.1849     2.5844     0.0385   -52.4694     6.9754     5.8555     5.7487
 1463.5000     9.0109    96.7883     2.6014     0.0455   -52.4712     6.9115     5.8555     5.7487
 1464.0000     9.0110    95.5960     2.6064     0.0375   -52.2861     6.9115     5.9096     5.6961
 1464.5000     9.0111    97.1864     2.5634     0.0205   -52.2744     6.9115     5.8986     5.6961
 1465.0000     9.0112   100.5623     2.5564     0.0205   -52.2764     7.0399     5.8875     5.6961
 1465.5000     9.0112   101.5540     2.5554     0.0145   -52.4767     7.0399     5.8765     5.6961
 1466.0000     9.0113    96.9895     2.5514     0.0095   -52.4779     7.0399     5.8655     5.7487
 1466.5000     9.0114    96.1958     2.5504     0.0205   -52.4793     6.9754     5.8545     5.7487
 1467.0000     9.0114    95.7993     2.5474     0.0245   -52.6796     6.9754     5.8436     5.7487
 1467.5000     9.0115    97.1896     2.5494     0.0275   -52.8796     6.9754     5.8326     5.7487
 1468.0000     9.0116    99.7711     2.5534     0.0405   -52.8811     6.9754     5.8217     5.6961
 1468.5000     9.0116    99.1759     2.5814     0.0415   -52.8822     6.7855     5.8108     5.6439
 1469.0000     9.0117    97.5883     2.5934     0.0405   -52.6854     6.7855     5.8019     5.6439
 1469.5000     9.0118    97.9859     2.5864     0.0195   -52.6869     6.9115     5.8019     5.5922
 1470.0000     9.0118    98.3821     2.5714     0.0406   -52.4898     7.1050     5.7948     5.5922
 1470.5000     9.0119    95.6045     2.5974     0.0516   -52.4913     6.7234     5.7878     5.5922
 1471.0000     9.0120    92.6271     2.6104     0.0576   -52.6913     6.6618     5.7808     5.5410
 1471.5000     8.9922    89.8483     2.6054     0.0356   -52.6927     6.7234     5.7738     5.5410
 1472.0000     8.9923    80.9142     2.6004     0.0296   -52.6942     6.9115     5.7669     5.5410
 1472.5000     9.0519    81.7102     2.6074     0.0105   -52.6956     7.2370     5.7599     5.5410
 1473.0000     9.0520    87.2694     2.5864     0.0386   -52.4986     8.0819     5.7529     5.5410
 1473.5000     9.0520    91.2403     2.5504     0.0276   -52.5000     7.7898     5.7487     5.4902
 1474.0000     9.0521    94.4158     2.5404     0.0226   -52.3030     7.1707     5.7487     5.4400
 1474.5000     9.0522    95.8074     2.5304     0.0396   -52.3045     6.4210     5.4400     5.3901
 1475.0000     9.0522    95.2124     2.5294     0.0406   -52.3062     6.3040     5.4400     5.3408
 1475.5000     9.0523    95.2129     2.5504     0.0626   -52.1092     6.4210     5.3920     5.2434
 1476.0000     9.0524    95.4120     2.5354     0.0146   -52.1103     6.6618     5.3901     5.1954
 1476.5000     9.0525    94.6185     2.5264     0.0226   -51.9136     6.6618     5.3408     5.1478
 1477.0000     9.0525    97.9936     2.5674     0.0286   -52.1135     6.3622     5.3408     5.1478
 1477.5000     9.0526    99.7807     2.5855     0.0206   -52.1150     6.0761     5.2918     5.1954
 1478.0000     9.0527    96.6053     2.5905     0.0226   -52.1165     6.0761     5.2918     5.1478
 1478.5000     9.0527    95.0177     2.5765     0.0136   -52.1179     6.3622     5.2918     5.1954
 1479.0000     9.0528    92.6351     2.5664     0.0156   -51.9209     6.6618     5.2918     5.1478
 1479.5000     9.0529    92.2383     2.5564     0.0186   -52.1208     6.7234     5.2918     5.1478
 1480.0000     9.0529    94.4238     2.5484     0.0146   -52.1223     6.7234     5.2918     5.1006
 1480.5000     9.0530    97.2018     2.5424     0.0166   -52.3225     6.6618     5.2918     5.1006
 1481.0000     9.0531    98.9902     2.5384     0.0166   -52.7207     6.6618     5.2918     5.1006
 1481.5000     9.0531    99.1892     2.5484     0.0076   -52.7221     6.4804     5.2918     5.0539
 1482.0000     9.0532    98.1960     2.5484     0.0156   -52.7236     6.5403     5.2918     5.0539
 1482.5000     9.0533    98.3946     2.5485     0.0146   -52.7250     6.4804     5.2547     5.0076
 1483.0000     9.0534    99.7862     2.5515     0.0076   -52.7265     6.3040     5.2179     5.0076
 1483.5000     9.0534    98.7943     2.5655     0.0186   -52.9264     6.0761     5.1813     4.9882
 1484.0000     9.0535    98.5962     2.5775     0.0387   -52.9279     6.1890     5.1478     4.9688
 1484.5000     9.0536    98.7949     2.5925     0.0387   -52.9293     6.0205     5.0539     4.9495
 1485.0000     9.0536   100.3837     2.5815     0.0347   -52.9308     6.0205     5.0539     4.9303
 1485.5000     9.0537   101.1764     2.5735     0.0307   -52.7338     6.0205     5.0398     4.9111
 1486.0000     9.0538    99.1937     2.5705     0.0347   -52.7352     6.0205     5.0258     4.8921
 1486.5000     9.0538    99.3927     2.5645     0.0277   -52.7367     6.0761     5.0076     4.8713
 1487.0000     9.0539    99.5917     2.5605     0.0337   -52.7381     6.0761     4.9618     4.8713
