~VERSION INFORMATION
 VERS.                2.0:   CWLS LOG ASCII STANDARD - VERSION 2.0
 WRAP.                 NO:   ONE LINE PER DEPTH STEP
~WELL INFORMATION
#MNEM.UNIT      DATA TYPE    INFORMATION
#----------   ------------   ------------------------------
 STRT.F          500.0000:   START DEPTH
 STOP.F         2517.0000:   STOP DEPTH
 STEP.F            0.5000:   STEP LENGTH
 NULL.          -999.2500:   NO VALUE
 COMP.    FENIX & SCISSON:   COMPANY
 WELL. FENIX & SCISSON SHX #46-33:   WELL
 FLD .  TEAPOT DOME NPR-3:   FIELD
 LOC .      S33 T39N R78W:   LOCATION
 CNTY.            NATRONA:   COUNTY
 STAT.            WYOMING:   STATE
 CTRY. UNITED STATES OF AMERICA:   COUNTRY
 SRVC.           BIRDWELL:   SERVICE COMPANY
 DATE.        04-APR-1979:   LOGDATE
 API .     49025107670000:   API NUMBER
~CURVE INFORMATION
#MNEM.UNIT       API CODE    CURVE DESCRIPTION
#----------   ------------   ------------------------------
 DEPT.F                  :   
 GRD .GAPI   45 310 01 00:   GAMMA RAY FROM DENSITY LOG
 CALD.IN     45 280 60 00:   CALIPER FROM DENSITY LOG
 CORR.G/C3   45 356 01 00:   DENSITY CORRECTION
 RHOB.G/C3   45 350 01 00:   BULK DENSITY
~PARAMETER INFORMATION
#MNEM.UNIT          VALUE    DESCRIPTION
#----------   ------------   ------------------------------
 EKB .F         5217.0000:   Kelly bushing
 EGL .F         5207.0000:   Ground level
 EDF .F            0.0000:   Drilling floor
 TD  .F         2630.0000:   Total depth
 CLNT.            A2DTECH:   Client Code
 SL  . 1955' FSL & 1970' FWL:   Surface Location
 PD  .                 GL:   Permanent Datum
 EPD .F              5207:   Elevation Permanent Datum
 LMF .                 KB:   Log Measured From
 DMF .                 KB:   Drilling Measured From
 DAPD.                 10:   Feet Above Permanent Datum
 DATE.        04-APR-1979:   Date Logged [DD-MMM-YYYY]
 DD  .F              2630:   Depth driller
 DL  .F              2517:   Depth logger
 BLI .F              2517:   Bottom log interval
 TLI .F               504:   Top log interval
 CS1 .              9.625:   Casing size
 CBD1.      9.625" @ 300':   Casing driller 1
 CBL1.IN              306:   Casing logger 1
 BS1 .IN            7.875:   Bit size
 BSD1.F              2630:   Depth drilled with bit1
 DFT .                OIL:   Type fluid in hole
 LUL .             CASPER:   Logging unit location
 ENGI.            ROLLINS:   Recorded By
 ORIG.           5" PRINT:   Origin of data
 UWI .     49025107670000:   Unique Well ID
 DICO. A2D TECHNOLOGIES ,INC.:   Digitizing Company
 WITN.              AMUND:   Witnessed by
~OTHER INFORMATION
~A   DEPT      GRD       CALD       CORR       RHOB   
# ...
 1960.0000    38.5160     9.8503     0.3075     2.6098
 1960.5000    37.9378     9.9416     0.3363     2.6024
 1961.0000    36.0223     9.9880     0.3666     2.6130
 1961.5000    35.1470     9.9710     0.3954     2.6522
 1962.0000    35.1631     9.7484     0.3851     2.6907
 1962.5000    34.8781     9.6931     0.2966     2.6840
 1963.0000    35.1955     9.7398     0.2668     2.6585
 1963.5000    36.2755     9.8461     0.2806     2.6255
 1964.0000    34.3358    10.0122     0.3037     2.6233
 1964.5000    35.5412     9.8939     0.3268     2.6287
 1965.0000    35.8643     9.8355     0.3451     2.6438
 1965.5000    34.5334     9.8071     0.3552     2.6928
 1966.0000    36.0594     9.8235     0.3027     2.7147
 1966.5000    37.9833     9.8400     0.2518     2.6644
 1967.0000    36.1337     9.8863     0.2355     2.6517
 1967.5000    35.0438     9.9028     0.2312     2.6494
 1968.0000    34.3211     9.8892     0.2375     2.6309
 1968.5000    31.3655     9.8608     0.2858     2.6121
 1969.0000    30.4861     9.8623     0.3281     2.6144
 1969.5000    35.7069     9.8638     0.3705     2.6205
 1970.0000    39.8836     9.8503     0.4173     2.6387
 1970.5000    41.2330     9.8200     0.4416     2.7073
 1971.0000    38.7272     9.7224     0.4493     2.7653
 1971.5000    37.2575     9.5553     0.3999     2.7714
 1972.0000    34.5991     9.8266     0.3340     2.7128
 1972.5000    26.8886     9.5287     0.3071     2.6895
 1973.0000    23.3346     9.4998     0.2878     2.6498
 1973.5000    31.3786     9.7711     0.3003     2.6318
 1974.0000    41.2016    10.0271     0.3289     2.6537
 1974.5000    44.4867     9.8190     0.2852     2.6598
 1975.0000    43.7600     9.8051     0.2980     2.6546
 1975.5000    42.7360     9.8519     0.3582     2.6785
 1976.0000    43.0494     9.8683     0.3073     2.7037
 1976.5000    44.2542     9.8698     0.2894     2.6700
 1977.0000    44.7162     9.8563     0.3077     2.6543
 1977.5000    44.5765     9.8428     0.3500     2.6799
 1978.0000    42.7337     9.7836     0.2886     2.6868
 1978.5000    40.2261     9.7410     0.2708     2.6538
 1979.0000    37.7178     9.7575     0.2785     2.6358
 1979.5000    36.7773     9.7892     0.3148     2.6321
 1980.0000    35.9019     9.8805     0.3602     2.6300
 1980.5000    33.6893    10.0167     0.3664     2.6714
 1981.0000    33.7054     9.7487     0.3125     2.6873
 1981.5000    33.7216     9.6454     0.2601     2.6347
 1982.0000    33.8864     9.6315     0.2498     2.6047
 1982.5000    34.1997     9.7082     0.2515     2.5905
 1983.0000    35.5532     9.7397     0.2502     2.5658
 1983.5000    40.3242     9.7561     0.2459     2.5123
 1984.0000    43.3121     9.7576     0.2556     2.4997
 1984.5000    42.1396     9.7441     0.2817     2.5173
 1985.0000    40.5213     9.7156     0.3060     2.5165
 1985.5000    40.2362     9.5973     0.3251     2.4729
 1986.0000    42.1881     9.6437     0.4667     2.4016
 1986.5000    43.8387     9.7657     0.4985     2.4378
 1987.0000    39.9916     9.8113     0.5000     2.5334
 1987.5000    33.6185     9.8129     0.5000     2.7141
 1988.0000    34.5262     9.8446     0.4991     2.7503
 1988.5000    35.8805     9.8610     0.3986     2.6097
 1989.0000    36.3416     9.8472     0.2921     2.4495
 1989.5000    34.2509     9.7592     0.3013     2.4104
 1990.0000    34.1451     9.8056     0.4940     2.4700
 1990.5000    38.4101     9.8520     0.5000     2.5491
 1991.0000    44.2855     9.8534     0.5000     2.5740
 1991.5000    46.2333     9.8549     0.5000     2.5869
 1992.0000    46.3940     9.8564     0.5000     2.6380
 1992.5000    45.5227     9.8728     0.5000     2.7195
 1993.0000    43.1614     9.8893     0.4999     2.7512
 1993.5000    39.0171     9.9057     0.4275     2.7152
 1994.0000    35.9129     9.9072     0.3159     2.6633
 1994.5000    36.0777     9.9087     0.2851     2.6251
 1995.0000    35.9453     9.8792     0.2764     2.6011
 1995.5000    34.7727     9.8349     0.2739     2.5831
 1996.0000    33.2990     9.8233     0.2877     2.5802
 1996.5000    34.6565     9.9449     0.3255     2.6171
 1997.0000    34.9658    10.0062     0.3513     2.6496
 1997.5000    33.9419    10.0077     0.3185     2.6572
 1998.0000    36.0423     9.9343     0.3051     2.6355
 1998.5000    37.5444     9.8905     0.3219     2.6329
 1999.0000    38.0063     9.8770     0.3312     2.6447
 1999.5000    36.5366     9.8789     0.3389     2.6500
 2000.0000    35.2155     9.8804     0.3421     2.6576
 2000.5000    34.6310     9.8818     0.3393     2.6560
 2001.0000    34.2077     9.8833     0.3260     2.6200
 2001.5000    34.4116    10.0067     0.3142     2.5863
 2002.0000    36.1623    10.1113     0.3054     2.5992
 2002.5000    36.9185    10.2150     0.3417     2.6209
 2003.0000    37.0770    10.0364     0.3436     2.6222
 2003.5000    36.0535     9.8129     0.2469     2.5773
 2004.0000    35.9149     9.7688     0.2275     2.5559
 2004.5000    36.2287     9.7252     0.2382     2.5526
 2005.0000    37.7278     9.6663     0.2639     2.5753
 2005.5000    41.0100     9.6225     0.2926     2.5807
 2006.0000    42.2120     9.6083     0.3319     2.5635
 2006.5000    43.8598     9.6545     0.3636     2.5719
 2007.0000    45.8047     9.7154     0.3668     2.5803
 2007.5000    46.8581     9.6865     0.3444     2.5707
 2008.0000    42.2651     9.1785     0.2904     2.5610
 2008.5000    40.7925     9.1494     0.2845     2.5649
 2009.0000    40.6568     9.1656     0.3027     2.5778
 2009.5000    40.6705     9.2415     0.3254     2.5742
 2010.0000    41.1295     9.3324     0.3436     2.5607
 2010.5000    42.0343     9.4083     0.3588     2.5217
 2011.0000    42.6419     9.4093     0.4251     2.5158
 2011.5000    42.9560     9.4103     0.4929     2.5438
 2012.0000    43.8732     9.4264     0.4976     2.5349
 2012.5000    44.0190     9.4274     0.4737     2.4989
 2013.0000    42.9758     9.4440     0.4618     2.4712
 2013.5000    41.5194     9.4744     0.4544     2.4081
 2014.0000    37.8181     9.4904     0.4862     2.3999
 2014.5000    41.6980     9.4914     0.4999     2.5551
 2015.0000    45.5746     9.4927     0.4985     2.6929
 2015.5000    46.1822     9.4938     0.4987     2.7336
 2016.0000    45.3040     9.4948     0.4988     2.7593
 2016.5000    44.7229     9.5108     0.4553     2.7135
 2017.0000    45.0334     9.4966     0.3427     2.6482
 2017.5000    45.4924     9.4979     0.3008     2.6400
 2018.0000    45.2085     9.5139     0.2859     2.6642
 2018.5000    45.5189     9.5150     0.2574     2.6448
 2019.0000    47.9096     9.5609     0.2365     2.6246
 2019.5000    49.8545     9.5769     0.2277     2.6044
 2020.0000    44.3700     9.5630     0.2263     2.5910
 2020.5000    42.8974     9.5640     0.2370     2.5715
 2021.0000    43.2079     9.5349     0.2646     2.5664
 2021.5000    46.1929     9.4912     0.3213     2.5755
 2022.0000    48.4350     9.4621     0.3823     2.5892
 2022.5000    43.3963     9.4185     0.4017     2.5698
 2023.0000    37.3174     9.4045     0.4140     2.5744
 2023.5000    35.8415     9.4056     0.4299     2.6197
 2024.0000    39.7214     9.4515     0.4652     2.6913
 2024.5000    40.3290     9.5573     0.4968     2.7395
 2025.0000    39.1536     9.3787     0.3288     2.6953
 2025.5000    33.8177     9.3349     0.2339     2.5840
 2026.0000    35.3168     9.3209     0.2131     2.5428
 2026.5000    38.8962     9.3070     0.2012     2.5143
 2027.0000    41.2869     9.3230     0.2269     2.4994
 2027.5000    43.3804     9.3542     0.2647     2.5559
 2028.0000    43.3937     9.4002     0.2182     2.5771
 2028.5000    40.7068     9.4461     0.2153     2.5411
 2029.0000    38.4842     9.4472     0.2185     2.5563
 2029.5000    37.4900     9.4183     0.2232     2.5639
 2030.0000    41.0200     9.4041     0.2248     2.5686
 2030.5000    43.6821     9.4204     0.2295     2.5724
 2031.0000    45.4630     9.4513     0.2417     2.5793
 2031.5000    40.3696     9.4673     0.2509     2.5855
 2032.0000    38.1540     9.4531     0.2600     2.5954
 2032.5000    36.2357     9.4392     0.2511     2.6188
