~VERSION INFORMATION
 VERS.                2.0:   CWLS LOG ASCII STANDARD - VERSION 2.0
 WRAP.                 NO:   ONE LINE PER DEPTH STEP
~WELL INFORMATION
#MNEM.UNIT      DATA TYPE    INFORMATION
#----------   ------------   ------------------------------
 STRT.F          484.0000:   START DEPTH
 STOP.F         4096.0000:   STOP DEPTH
 STEP.F            0.5000:   STEP LENGTH
 NULL.          -999.2500:   NO VALUE
 COMP.    FENIX & SCISSON:   COMPANY
 WELL. FENIX NPR "JX" #58-28:   WELL
 FLD .                NPR:   FIELD
 LOC .      S28 T39N R78W:   LOCATION
 CNTY.            NATRONA:   COUNTY
 STAT.            WYOMING:   STATE
 CTRY. UNITED STATES OF AMERICA:   COUNTRY
 SRVC.              WELEX:   SERVICE COMPANY
 DATE.        02-MAY-1978:   LOGDATE
 API .     49025107810000:   API NUMBER
~CURVE INFORMATION
#MNEM.UNIT       API CODE    CURVE DESCRIPTION
#----------   ------------   ------------------------------
 DEPT.F                  :   
 NPHI.DEC    42 890 03 00:   NEUTRON POROSITY SANDSTONE
 RHOB.G/C3   45 350 01 00:   BULK DENSITY
 CORR.G/C3   45 356 01 00:   DENSITY CORRECTION
 CALD.IN     45 280 60 00:   CALIPER FROM DENSITY LOG
 GRD .GAPI   45 310 01 00:   GAMMA RAY FROM DENSITY LOG
 SPR .MV     07 010 01 00:   SPONTANEOUS POTENTIAL
 ILD .OHMM   07 120 46 00:   DEEP INDUCTION RESISTIVITY
 SGRD.OHMM   07 220 05 00:   SHALLOW SHORT GUARD RESISTIVITY
 ILM .OHMM   07 120 44 00:   INDUCTION LOG MEDIUM RESISTIVITY
~PARAMETER INFORMATION
#MNEM.UNIT          VALUE    DESCRIPTION
#----------   ------------   ------------------------------
 EKB .F         5115.0000:   Kelly bushing
 EGL .F         5101.0000:   Ground level
 EDF .F            0.0000:   Drilling floor
 EPD .F         5101.0000:   Permanent datum
 TD  .F         4100.0000:   Total depth
 DATE.        02-MAY-1978:   Date logged
 CLNT.            A2DTECH:   Client Code
 SL  . 525' FSL & 2406' FEL:   Surface Location
 PD  .                 GL:   Permanent Datum
 DAPD.F                14:   Feet Above Permanent Datum
 DD  .F              4100:   Depth driller
 DL  .F              4098:   Depth logger
 BLI .F              4096:   Bottom log interval
 CS1 .IN            8.625:   Casing size
 CBD1.      8.625" @ 501':   Casing driller 1
 CBL1.F               500:   Casing logger 1
 BS1 .IN            7.875:   Bit size
 BSD1.F              4100:   Depth drilled with bit1
 DFT .            CHM GEL:   Type fluid in hole
 DFD .                9.4:   Density
 DFV .                 48:   Viscosity
 DFPH.                9.3:   pH
 DFL .                8.5:   Fluid loss
 MSS .           FLOWLINE:   Source of sample
 RMS .OHMM           1.24:   Rm
 MST .F                70:   Rm Meas. temp.
 RMF .OHMM            .57:   Rmf
 MFST.F                70:   Rmf Meas. temp.
 RMC .OHMM           1.48:   Rmc
 MCST.F                70:   Rmc Meas. temp.
 MFSS.               MEAS:   Source Rmf.
 MCSS.               MEAS:   Source Rmc.
 RMB .OHMM            .87:   Rm. at BHT
 BHT .F               123:   BHT.
 TCS .HRS               4:   Time Circ. stopped
 MRT .F               123:   Maximum recorded temp.
 LUN .               1892:   Logging unit number
 LUL .             CASPER:   Logging unit location
 ENGI.               REIN:   Recorded By
 WITN.           DINSMORE:   Witnessed by
 ORIG.         2.5" PRINT:   Origin of data
 UWI .     49025107810000:   Unique Well ID
 DICO. A2D TECHNOLOGIES, INC.:   Digitizing Company
 TLI .                500:   Top log interval
~OTHER INFORMATION
~A   DEPT       NPHI     RHOB       CORR       CALD         GRD       SPR        ILD       SGRD        ILM   
# ...
 3586.5000     0.3210     2.1410     0.0430     8.3580   101.2400    -7.6950     2.6330     2.8660     2.8050
 3587.0000     0.3250     2.0350     0.0500     8.3580   101.3030    -7.0970     2.5060     2.4510     2.5510
 3587.5000     0.3300     1.9960     0.0580     8.3590   101.6320    -6.4840     2.3790     3.6820     2.2960
 3588.0000     0.3340     1.9840     0.0650     8.3580   101.8700    -5.8680     2.2520     2.9390     2.0750
 3588.5000     0.3390     1.9520     0.0740     8.3560   103.8600    -5.2660     2.1250     2.1170     2.0080
 3589.0000     0.3430     1.8270     0.0660     8.4060   106.5660    -4.6720     1.9980     1.5080     1.9490
 3589.5000     0.3320     1.8380     0.0610     8.6090   108.9650    -4.0010     1.8720     1.7460     1.8900
 3590.0000     0.3230     2.0060     0.0720     8.8320   108.2520    -4.2500     1.7450     1.9830     1.8230
 3590.5000     0.3180     2.2080     0.0720     9.1310   106.7350    -5.0400     1.6320     2.8420     1.9240
 3591.0000     0.3210     2.2270     0.0710     9.2380   105.7940    -5.7690     1.7570     2.7900     2.1270
 3591.5000     0.3200     2.2550     0.0730     8.9980   107.0230    -6.4720     1.8690     3.0250     2.3300
 3592.0000     0.3160     2.3010     0.0740     9.0250   109.0940    -7.2000     1.9820     3.4400     2.5330
 3592.5000     0.3120     2.3760     0.1030     9.2160   112.5110    -7.9600     2.0940     3.7510     2.7360
 3593.0000     0.3170     2.4440     0.1100     9.2020   115.6720    -8.3040     2.2070     3.8210     2.8990
 3593.5000     0.3260     2.4250     0.1190     8.9750   119.1150    -8.2000     2.3190     3.6030     3.0180
 3594.0000     0.3350     2.4100     0.1270     8.7550   118.8160    -8.1400     2.4320     3.4030     3.1170
 3594.5000     0.3380     2.3790     0.1350     8.6410   118.3400    -8.0780     2.5440     3.2030     3.0060
 3595.0000     0.3410     2.3520     0.1450     8.6930   118.3830    -8.0080     2.4780     3.0030     2.9100
 3595.5000     0.3450     2.3200     0.1460     8.7300   118.9930    -7.9490     2.4120     2.8460     2.8140
 3596.0000     0.3420     2.2820     0.1480     8.8980   119.5160    -7.7920     2.3460     2.7390     2.7180
 3596.5000     0.3390     2.2440     0.1500     9.0640   119.9900    -7.4390     2.2810     2.6330     2.6220
 3597.0000     0.3360     2.2070     0.1520     9.2480   120.6170    -7.0860     2.2150     2.5260     2.5260
 3597.5000     0.3330     2.1630     0.1500     9.4500   119.5710    -6.7440     2.1490     2.4190     2.4300
 3598.0000     0.3300     2.1290     0.1380     9.6610   117.6940    -6.3950     2.0830     2.3130     2.3340
 3598.5000     0.3260     2.0830     0.1260     9.8710   115.9000    -6.0050     2.0180     2.1540     2.2380
 3599.0000     0.3210     2.1020     0.1230    10.0150   114.1160    -5.9010     1.9520     2.2010     2.1420
 3599.5000     0.3160     2.1230     0.1210    10.0300   112.3880    -5.5590     1.8860     2.2950     2.0460
 3600.0000     0.3110     2.1610     0.1190    10.3140   110.2740    -5.8990     1.8210     2.4060     1.9500
 3600.5000     0.3060     2.1990     0.1170    10.6000   112.2450    -6.3190     1.7570     2.3710     1.8570
 3601.0000     0.3000     2.2060     0.1150    10.6320   118.3080    -6.7850     1.7570     2.2760     1.8940
 3601.5000     0.2980     2.2090     0.1140    10.5770   120.0420    -7.2270     1.7570     2.2350     1.9500
 3602.0000     0.2960     2.2150     0.1020    10.3490   119.8770    -7.6620     1.7570     2.3790     2.0070
 3602.5000     0.2910     2.2540     0.0810    10.1490   118.4000    -8.0950     1.7290     2.5100     2.0630
 3603.0000     0.3000     2.2900     0.0750     9.9360   120.7960    -8.6150     1.7000     2.6390     2.0750
 3603.5000     0.3030     2.3190     0.0890     9.7260   124.6310    -8.1750     1.6710     2.4460     2.0530
 3604.0000     0.3080     2.2870     0.0990     9.3530   128.8170    -7.2250     1.6420     2.2560     1.9610
 3604.5000     0.3140     2.2600     0.0850     8.8870   132.7080    -6.3360     1.6130     2.0650     1.8690
 3605.0000     0.3190     2.2740     0.0890     8.6390   140.7540    -6.6840     1.5830     1.8750     1.7780
 3605.5000     0.3230     2.2950     0.1060     8.4800   153.2040    -7.0180     1.5540     1.7320     1.6860
 3606.0000     0.3250     2.3140     0.1120     8.6030   164.3130    -7.4610     1.5250     1.6670     1.5940
 3606.5000     0.3270     2.2970     0.1180     8.7210   169.9720    -7.2430     1.4960     1.6320     1.5360
 3607.0000     0.3280     2.2660     0.1240     8.8570   167.6140    -7.0120     1.4670     1.7380     1.5200
 3607.5000     0.3250     2.2810     0.1230     8.9840   167.1850    -6.7050     1.4370     1.8230     1.5040
 3608.0000     0.3230     2.3390     0.1240     9.1360   158.9610    -7.0480     1.4070     2.1660     1.4880
 3608.5000     0.3200     2.3700     0.1410     9.3410   133.9460    -7.4910     1.4410     2.4060     1.5230
 3609.0000     0.3180     2.3480     0.1390     9.5550   116.0340    -7.8880     1.4750     2.2720     1.5590
 3609.5000     0.3150     2.3330     0.1270     9.6590   117.3990    -7.8550     1.5090     2.1540     1.5950
 3610.0000     0.3130     2.3410     0.1210     9.5610   117.4660    -7.7560     1.5430     2.1800     1.6310
 3610.5000     0.3200     2.3510     0.1270     9.3670   115.6160    -7.6480     1.5780     2.2330     1.6680
 3611.0000     0.3200     2.3530     0.1270     9.3350   114.0840    -7.5430     1.6320     2.2760     1.7250
 3611.5000     0.3210     2.3350     0.1230     9.3670   117.1400    -7.4390     1.6280     2.2020     1.7200
 3612.0000     0.3280     2.3070     0.1190     9.3960   119.9620    -7.3330     1.6170     2.0370     1.7090
 3612.5000     0.3410     2.2800     0.1150     9.4220   122.6130    -7.2270     1.6070     2.0370     1.6980
 3613.0000     0.3390     2.2540     0.1100     9.4440   120.9430    -7.1210     1.5960     2.0240     1.6880
 3613.5000     0.3360     2.2290     0.1070     9.4030   118.0920    -7.0130     1.5860     2.0040     1.6770
 3614.0000     0.3330     2.1920     0.0990     9.3660   115.5780    -6.9090     1.5760     2.0000     1.6660
 3614.5000     0.3300     2.1520     0.0880     9.3260   113.2970    -6.8050     1.5650     2.0000     1.6550
 3615.0000     0.3270     2.1070     0.0780     9.2880   113.2610    -6.6730     1.5550     2.0420     1.6440
 3615.5000     0.3260     2.1660     0.0670     9.2490   114.3610    -6.4130     1.5440     2.0920     1.6320
 3616.0000     0.3390     2.2410     0.0670     9.2040   113.0470    -6.2130     1.6790     2.1420     1.8250
 3616.5000     0.3340     2.3160     0.0720     9.1340   111.8180    -7.2760     1.8260     2.4150     2.0350
 3617.0000     0.3300     2.3940     0.0770     9.0520   109.5620    -8.1290     1.9730     2.7580     2.2450
 3617.5000     0.3270     2.4160     0.0810     9.0940   107.4590    -8.6870     2.1210     2.9490     2.4790
 3618.0000     0.3220     2.4370     0.0840     9.1500   106.1880    -9.2520     2.2680     2.9490     2.7420
 3618.5000     0.3160     2.4320     0.0760     9.1220   105.5220    -9.8650     2.4150     2.9490     3.0050
 3619.0000     0.3100     2.4340     0.0680     9.0310   104.7550   -10.0850     2.5620     2.9840     3.2680
 3619.5000     0.3070     2.4520     0.0590     8.9470   102.6280   -10.4980     2.7100     3.9290     3.5320
 3620.0000     0.3100     2.4840     0.0560     8.8670    97.3020   -10.8570     2.8570     6.0670     3.7950
 3620.5000     0.3130     2.5300     0.0580     8.7340    91.6280   -11.2420     3.0040     5.7940     4.1910
 3621.0000     0.3170     2.5240     0.0590     8.5890    90.8600   -11.6120     3.1510     5.3750     4.1690
 3621.5000     0.3200     2.4960     0.0600     8.4480    94.2360   -11.9200     3.2980     4.9560     4.1240
 3622.0000     0.3240     2.4710     0.0620     8.4630    97.1230   -11.7230     3.4190     4.5370     4.0790
 3622.5000     0.3180     2.4450     0.0630     8.4820    99.7530   -11.5430     3.5690     4.1180     4.0340
