~VERSION INFORMATION
 VERS.                2.0:   CWLS LOG ASCII STANDARD - VERSION 2.0
 WRAP.                 NO:   ONE LINE PER DEPTH STEP
~WELL INFORMATION
#MNEM.UNIT      DATA TYPE    INFORMATION
#----------   ------------   ------------------------------
 STRT.F          520.0000:   START DEPTH
 STOP.F         3092.0000:   STOP DEPTH
 STEP.F            0.5000:   STEP LENGTH
 NULL.          -999.2500:   NO VALUE
 COMP.    FENIX & SCISSON:   COMPANY
 WELL. FENIX 87 "AX" #3-3:   WELL
 FLD .              N P R:   FIELD
 LOC .       S3 T38N R78W:   LOCATION
 CNTY.            NATRONA:   COUNTY
 STAT.            WYOMING:   STATE
 CTRY. UNITED STATES OF AMERICA:   COUNTRY
 SRVC.              WELEX:   SERVICE COMPANY
 DATE.        30-OCT-1980:   LOGDATE
 API .     49025108510000:   API NUMBER
~CURVE INFORMATION
#MNEM.UNIT       API CODE    CURVE DESCRIPTION
#----------   ------------   ------------------------------
 DEPT.F                  :   
 CALD.IN     45 280 60 00:   CALIPER FROM DENSITY LOG
 GRD .GAPI   45 310 01 00:   GAMMA RAY FROM DENSITY LOG
 RHOB.G/C3   45 350 01 00:   BULK DENSITY
 CORR.G/C3   45 356 01 00:   DENSITY CORRECTION
 SPR .MV     07 010 01 00:   SPONTANEOUS POTENTIAL
 ILD .OHMM   07 120 46 00:   DEEP INDUCTION RESISTIVITY
 ILM .OHMM   07 120 44 00:   INDUCTION LOG MEDIUM RESISTIVITY
 SGRD.OHMM   07 220 05 00:   SHALLOW SHORT GUARD RESISTIVITY
~PARAMETER INFORMATION
#MNEM.UNIT          VALUE    DESCRIPTION
#----------   ------------   ------------------------------
 EKB .F         5131.0000:   Kelly bushing
 EGL .F         5121.0000:   Ground level
 TD  .F         3095.0000:   Total depth
 DATE.        30-OCT-1980:   Date logged
 CLNT.            A2DTECH:   Client Code
 SL  . 910' FWL & 95' FEL:   Surface Location
 PD  .                 GL:   Permanent Datum
 EPD .F              5121:   Elevation Permanent Datum
 LMF .                 KB:   Log Measured From
 DMF .                 KB:   Drilling Measured From
 DD  .F              3095:   Depth driller
 DL  .F              3094:   Depth logger
 BLI .F              3092:   Bottom log interval
 TLI .F               525:   Top log interval
 CS1 .IN            9.625:   Casing size
 CBD1.      9.625" @ 525':   Casing driller 1
 CBL1.F               525:   Casing logger 1
 BS1 .IN            7.875:   Bit size
 DFT .          DISPERSED:   Type fluid in hole
 DFD .                  9:   Density
 DFV .                 40:   Viscosity
 DFPH.                 10:   pH
 DFL .                  8:   Fluid loss
 MSS .             MUDPIT:   Source of sample
 RMS .OHMM           2.40:   Rm
 MST .F                68:   Rm Meas. temp.
 MFST.F                68:   Rmf Meas. temp.
 RMC .OHMM            2.8:   Rmc
 MCST.F                68:   Rmc Meas. temp.
 MFSS.F              MEAS:   Source Rmf.
 RMB .OHMM           1.36:   Rm. at BHT
 BHT .F               120:   BHT.
 TCS .HRS             5.5:   Time Circ. stopped
 MRT .F               120:   Maximum recorded temp.
 LUN .               1891:   Logging unit number
 LUL .             CASPER:   Logging unit location
 ENGI.          PFERIMMER:   Recorded By
 WITN.              FIVAS:   Witnessed by
 ORIG.           5" PRINT:   Origin of data
 UWI .     49025108510000:   Unique Well ID
 DICO. A2D TECHNOLOGIES, INC.:   Digitizing Company
 DAPD.F                10:   Feet Above Permanent Datum
 BSD1.F              3095:   Depth drilled with bit1
 RMF .OHMM           1.92:   Rmf
 MCSS.               MEAS:   Source Rmc.
~OTHER INFORMATION
~A   DEPT     CALD        GRD       RHOB       CORR        SPR          ILD        ILM      SGRD  
# ...
  844.0000     9.4890    81.2980     2.4880     0.0190   -26.8550     7.5390     8.9190    10.6680
  844.5000     9.5020    80.5500     2.4750     0.0220   -26.8970     7.8210     9.0500    11.0420
  845.0000     9.5130    79.7800     2.4680     0.0260   -26.9400     8.0580     9.1810    11.4300
  845.5000     9.5210    79.0140     2.4610     0.0290   -26.9830     8.2940     9.3130    11.3010
  846.0000     9.5150    78.2520     2.4550     0.0320   -27.0250     8.5300     9.4440    11.1660
  846.5000     9.5080    77.5300     2.4480     0.0350   -27.0680     8.6610     9.5760    11.0150
  847.0000     9.5030    76.9890     2.4440     0.0310   -27.1110     8.7430     9.7070    11.1610
  847.5000     9.4790    76.9010     2.4430     0.0220   -27.1540     8.8660     9.8380    11.2980
  848.0000     9.4800    77.1780     2.4470     0.0210   -27.1960     8.9880     9.9700    11.4350
  848.5000     9.4820    77.5560     2.4520     0.0190   -27.2390     9.1100    10.1010    11.5730
  849.0000     9.4840    77.9330     2.4560     0.0170   -27.2820     9.2320    10.2320    11.7100
  849.5000     9.4860    78.3100     2.4610     0.0150   -27.3240     9.3540    10.3640    11.8470
  850.0000     9.4880    78.6860     2.4660     0.0170   -27.3670     9.4760    10.4950    11.9710
  850.5000     9.4890    79.0630     2.4700     0.0220   -27.3770     9.5990    10.6270    12.0820
  851.0000     9.4910    79.4400     2.4710     0.0260   -27.3570     9.7680    10.7580    12.1780
  851.5000     9.4930    79.8160     2.4680     0.0300   -27.3360     9.8580    10.9140    12.3080
  852.0000     9.4950    80.1930     2.4570     0.0340   -27.3160     9.8400    10.8270    12.1060
  852.5000     9.4970    80.5690     2.4520     0.0350   -27.2950     9.7550    10.7400    11.8550
  853.0000     9.4980    80.9460     2.4660     0.0320   -27.2740     9.6710    10.6530    11.6030
  853.5000     9.5000    81.3230     2.4750     0.0280   -27.2540     9.5860    10.5650    11.4300
  854.0000     9.5000    81.6990     2.4840     0.0250   -27.2330     9.5020    10.4780    11.5840
  854.5000     9.5000    82.0810     2.4930     0.0220   -27.2120     9.4170    10.3910    11.7520
  855.0000     9.5000    82.1200     2.5060     0.0220   -27.1980     9.3330    10.3040    11.4520
  855.5000     9.5000    81.9960     2.5230     0.0210   -27.3080     9.2480    10.2160    10.9140
  856.0000     9.5000    81.8680     2.5340     0.0210   -27.4210     9.1640    10.1290    11.0590
  856.5000     9.4970    81.7410     2.5310     0.0270   -27.5340     9.0790    10.0420    11.2170
  857.0000     9.4810    81.6140     2.5270     0.0340   -27.5390     8.9950     9.9550    11.3750
  857.5000     9.4640    81.4870     2.5250     0.0400   -27.4620     8.9100     9.8670    11.5370
  858.0000     9.4480    81.3680     2.5210     0.0470   -27.3850     8.8260     9.7800    11.5370
  858.5000     9.4320    80.6470     2.5160     0.0520   -27.3070     8.7420     9.6930    11.1010
  859.0000     9.4160    79.7110     2.5070     0.0490   -27.2290     8.6570     9.6060    10.6700
  859.5000     9.3990    78.7700     2.4990     0.0450   -27.1940     8.5600     9.5190    10.2390
  860.0000     9.3830    77.8340     2.4830     0.0400   -27.1930     8.4240     9.4310     9.9500
  860.5000     9.3670    76.8670     2.4590     0.0300   -27.1930     8.3470     9.3440     9.9500
  861.0000     9.3500    76.3450     2.4560     0.0200   -27.1930     8.3470     9.2570    10.1620
  861.5000     9.3470    77.0770     2.4670     0.0170   -27.1930     8.3470     9.2400    10.4350
  862.0000     9.3520    77.8880     2.4750     0.0180   -27.1930     8.4690     9.2400    10.7080
  862.5000     9.3580    78.7050     2.4830     0.0220   -27.2010     8.5670     9.2400    10.9810
  863.0000     9.3640    78.8680     2.4720     0.0280   -27.2270     8.6640     9.2400    11.2540
  863.5000     9.3700    78.6580     2.4570     0.0350   -27.2520     8.7620     9.3770    11.4300
  864.0000     9.3760    78.4450     2.4560     0.0410   -27.2770     8.8600     9.5220    11.0440
  864.5000     9.3820    78.2310     2.4560     0.0480   -27.3020     8.9580     9.6680    10.9140
  865.0000     9.3880    78.0180     2.4510     0.0520   -27.3280     9.0560     9.8140    11.2130
  865.5000     9.3940    77.8050     2.4450     0.0490   -27.3530     9.1540     9.9600    11.4510
  866.0000     9.4000    77.5910     2.4540     0.0470   -27.3780     9.3260    10.1060    11.6880
  866.5000     9.4060    77.3750     2.4670     0.0440   -27.3830     9.3260    10.2300    11.7520
  867.0000     9.4120    77.2190     2.4800     0.0330   -27.3700     9.2910    10.1680    11.6140
  867.5000     9.4180    77.8640     2.4840     0.0220   -27.3570     9.2610    10.1150    11.4700
  868.0000     9.4240    78.5350     2.4810     0.0210   -27.3440     9.2300    10.0620    11.3250
  868.5000     9.4300    79.2040     2.4870     0.0300   -27.3310     9.2000    10.0090    11.1480
  869.0000     9.4360    79.8730     2.4870     0.0380   -27.3180     9.1700     9.9550    11.1180
  869.5000     9.4410    80.5410     2.4830     0.0460   -27.3050     9.0800     9.9020    11.1470
  870.0000     9.4300    81.2260     2.4790     0.0370   -27.2920     8.9380     9.8580    11.2330
  870.5000     9.4170    80.7260     2.4900     0.0290   -27.2790     8.7970     9.8210    11.3200
  871.0000     9.4050    79.8000     2.4710     0.0200   -27.2660     8.6610     9.7840    11.4060
  871.5000     9.3930    78.8660     2.4450     0.0160   -27.2530     8.6610     9.7460    11.4930
  872.0000     9.3810    78.0320     2.4360     0.0180   -27.2410     8.6610     9.7080    11.6440
  872.5000     9.3700    77.8260     2.4420     0.0210   -27.2280     8.6610     9.6710    11.4800
  873.0000     9.3720    77.6040     2.4370     0.0220   -27.2150     8.6610     9.6330    11.3010
  873.5000     9.3950    77.3810     2.4290     0.0210   -27.2020     8.6610     9.5950    11.1220
  874.0000     9.4180    77.1580     2.4290     0.0230   -27.1890     8.6610     9.5570    10.9420
  874.5000     9.4400    76.9340     2.4390     0.0360   -27.1760     8.6610     9.5200    10.8130
  875.0000     9.4680    76.7100     2.4490     0.0430   -27.1630     8.6610     9.4960    10.8770
  875.5000     9.5010    76.4880     2.4590     0.0370   -27.1500     8.6610     9.5930    10.9510
  876.0000     9.5350    76.3510     2.4640     0.0320   -27.1370     8.6610     9.5870    11.0240
  876.5000     9.5470    76.4940     2.4520     0.0260   -27.1240     8.6610     9.5890    11.0970
  877.0000     9.5050    76.6290     2.4420     0.0210   -27.1110     8.6560     9.5880    11.1710
  877.5000     9.4630    76.7630     2.4310     0.0150   -27.0980     8.6310     9.5730    11.2440
  878.0000     9.4210    76.8980     2.4210     0.0150   -27.0850     8.6070     9.5570    11.3250
  878.5000     9.3870    77.0320     2.4110     0.0170   -27.0730     8.5820     9.5420    11.1860
  879.0000     9.4170    77.1620     2.4030     0.0180   -27.0600     8.5570     9.5270    11.0310
  879.5000     9.4400    77.7360     2.4020     0.0190   -27.0470     8.5330     9.5110    10.8750
  880.0000     9.4630    78.4740     2.4020     0.0200   -27.0340     8.5080     9.4960    10.8130
  880.5000     9.4850    79.2150     2.4140     0.0240   -27.0210     8.4840     9.4810    10.8130
  881.0000     9.5080    79.9560     2.4260     0.0310   -27.0080     8.4590     9.4650    10.8290
  881.5000     9.5300    80.6980     2.4380     0.0280   -26.9980     8.4340     9.4500    10.8530
  882.0000     9.5540    81.4260     2.4480     0.0230   -27.0070     8.4100     9.4340    10.8760
  882.5000     9.5550    81.6320     2.4560     0.0180   -27.0150     8.3850     9.4190    10.9000
  883.0000     9.5440    80.7890     2.4620     0.0150   -27.0230     8.3610     9.4130    10.9140
  883.5000     9.5330    79.9640     2.4700     0.0170   -27.0310     8.3470     9.4130    10.9140
  884.0000     9.5220    79.1350     2.4800     0.0190   -27.0400     8.2700     9.4130    10.9150
