~VERSION INFORMATION
 VERS.                2.0:   CWLS LOG ASCII STANDARD - VERSION 2.0
 WRAP.                 NO:   ONE LINE PER DEPTH STEP
~WELL INFORMATION
#MNEM.UNIT      DATA TYPE    INFORMATION
#----------   ------------   ------------------------------
 STRT.F           46.0000:   START DEPTH
 STOP.F         2736.5000:   STOP DEPTH
 STEP.F            0.5000:   STEP LENGTH
 NULL.          -999.2500:   NO VALUE
 COMP.          INTEX OIL:   COMPANY
 WELL. INTEX NPR 3 "AX" #72-20:   WELL
 FLD .             TEAPOT:   FIELD
 LOC .      S20 T39N R78W:   LOCATION
 CNTY.            NATRONA:   COUNTY
 STAT.            WYOMING:   STATE
 CTRY. UNITED STATES OF AMERICA:   COUNTRY
 SRVC.       SCHLUMBERGER:   SERVICE COMPANY
 DATE.        11-MAY-1966:   LOGDATE
 API .     49025095110000:   API NUMBER
~CURVE INFORMATION
#MNEM.UNIT       API CODE    CURVE DESCRIPTION
#----------   ------------   ------------------------------
 DEPT.F                  :   
 SPR .MV     05 010 01 00:   SPONTANEOUS POTENTIAL FROM RES.
 ILD .OHMM   05 120 46 00:   INDUCTION LOG DEEP
 ASN .OHMM   05 041 16 00:   AMPLIFIED SHORT NORMAL 16"
 CALD.IN     45 280 60 00:   CALIPER FROM DENSITY LOG
 CORR.G/C3   45 356 01 00:   DENSITY CORRECTION
 RHOB.G/C3   45 350 01 00:   BULK DENSITY
 GRD .GAPI   45 310 01 00:   GAMMA RAY FROM DENSITY LOG
~PARAMETER INFORMATION
#MNEM.UNIT          VALUE    DESCRIPTION
#----------   ------------   ------------------------------
 EKB .F         5042.3000:   Kelly bushing
 EGL .F         5032.0000:   Ground level
 EDF .F            0.0000:   Drilling floor
 EPD .F         5032.0000:   Permanent datum
 TD  .F         2740.0000:   Total depth
 DATE.        11-MAY-1966:   Date logged
 CLNT.            A2DTECH:   Client Code
 DAPD.F              10.3:   Feet Above Permanent Datum
 DD  .F              2740:   Depth driller
 DL  .F              2737:   Depth logger
 BLI .F              2736:   Bottom log interval
 TLI .F                88:   Top log interval
 CS1 .IN            10.75:   Casing size
 CBD1.       10.75" @ 24':   Casing driller 1
 BS1 .IN            7.875:   Bit size
 BSD1.F              2740:   Depth drilled with bit1
 DFT .           OIL EMUL:   Type fluid in hole
 DFD .                9.8:   Density
 DFV .                 58:   Viscosity
 MSS .         CIRCULATED:   Source of sample
 RMS .OHMM           3.04:   Rm
 MST .F                54:   Rm Meas. temp.
 RMF .OHMM           1.95:   Rmf
 MFST.F                55:   Rmf Meas. temp.
 MFSS.                 FR:   Source Rmf.
 RMB .OHMM           1.64:   Rm. at BHT
 BHT .F               100:   BHT.
 TCS .HRS               4:   Time Circ. stopped
 MRT .F               100:   Maximum recorded temp.
 LUN .               4507:   Logging unit number
 LUL .               CSPR:   Logging unit location
 ENGI.               HAUG:   Recorded By
 WITN.             TUTTLE:   Witnessed by
 ORIG.        2" 5" PRINT:   Origin of data
 UWI .     49025095110000:   Unique Well ID
 DICO. A2D TECHNOLOGIES, INC.:   Digitizing Company
~OTHER INFORMATION
~A   DEPT      SPR        ILD        ASN       CALD       CORR       RHOB         GRD  
# ...
 2321.0000   -39.3050    18.4330    23.8610     7.8030     0.0310     2.3370    91.4670
 2321.5000   -39.8840    18.3510    23.8700     7.7990     0.0380     2.3570    93.3710
 2322.0000   -39.6500    18.6180    23.8670     7.7920     0.0460     2.3760    93.1950
 2322.5000   -39.5480    19.0930    23.8730     7.8030     0.0560     2.3930    92.6730
 2323.0000   -39.3560    19.5150    23.8830     7.8280     0.0610     2.3970    92.8860
 2323.5000   -39.2150    19.9090    24.1900     7.8480     0.0560     2.3930    94.1580
 2324.0000   -38.2740    19.8990    24.6170     7.8660     0.0610     2.3830    95.6420
 2324.5000   -36.7980    19.8050    25.1120     7.8060     0.0680     2.3710    94.7870
 2325.0000   -37.1660    19.6630    25.6580     7.7500     0.0750     2.3630    92.0340
 2325.5000   -37.5560    18.8120    26.1390     7.6790     0.0730     2.3610    84.7220
 2326.0000   -38.0740    18.1000    25.4000     7.7040     0.0710     2.3770    77.3510
 2326.5000   -38.2170    17.2940    24.6060     7.7430     0.0680     2.3890    79.4730
 2327.0000   -37.9170    16.9720    23.7400     7.7460     0.0700     2.4040    87.2680
 2327.5000   -36.8820    17.0130    22.9470     7.7260     0.0780     2.4100    94.0470
 2328.0000   -35.4610    16.9900    22.1710     7.7080     0.0840     2.4080   101.0560
 2328.5000   -34.9160    16.9980    22.6870     7.6910     0.0910     2.4080   108.5540
 2329.0000   -34.7750    17.0690    23.7440     7.6700     0.0850     2.4040   113.1470
 2329.5000   -35.4540    17.9010    24.8390     7.6540     0.0690     2.4380   110.6820
 2330.0000   -36.0030    18.5370    25.9630     7.6400     0.0520     2.4620   103.1970
 2330.5000   -36.5910    18.7510    26.5450     7.7180     0.0390     2.4640    96.7930
 2331.0000   -35.2800    18.9050    25.9740     7.8080     0.0440     2.4580    89.8710
 2331.5000   -33.6980    18.9470    25.3210     7.8930     0.0530     2.4460    89.5620
 2332.0000   -32.1330    18.6420    25.8070     7.9770     0.0630     2.4260    90.4670
 2332.5000   -30.5070    18.2860    26.1700     7.8820     0.0730     2.4120    92.1210
 2333.0000   -30.4670    17.9470    26.0180     7.7770     0.0740     2.4080    94.8290
 2333.5000   -31.6280    17.5430    25.8550     7.6630     0.0710     2.4050    97.5990
 2334.0000   -32.6860    17.6200    25.6680     7.6220     0.0740     2.4030    95.5110
 2334.5000   -32.7370    18.2420    25.7630     7.6080     0.0800     2.4030    89.7750
 2335.0000   -32.7440    18.7960    26.2510     7.5930     0.0870     2.4020    91.3850
 2335.5000   -32.7930    19.3780    26.7320     7.5780     0.0860     2.4020    94.9350
 2336.0000   -33.7320    19.9330    27.2120     7.5620     0.0790     2.4010    97.9430
 2336.5000   -35.3600    20.5440    27.5970     7.5580     0.0690     2.3940    96.1790
 2337.0000   -35.3100    21.0330    27.9790     7.5650     0.0600     2.3730    94.6860
 2337.5000   -35.0980    21.9370    28.3550     7.5720     0.0490     2.3440    94.4060
 2338.0000   -34.7760    22.2760    28.8230     7.5780     0.0490     2.3360    95.2560
 2338.5000   -35.0270    22.5130    29.3690     7.5850     0.0720     2.3400    93.0930
 2339.0000   -35.6430    22.6940    29.9250     7.5910     0.0760     2.3420    90.3590
 2339.5000   -36.2070    22.9140    29.8280     7.5980     0.0810     2.3490    87.4930
 2340.0000   -36.7810    23.1130    29.7060     7.6040     0.0990     2.3630    84.4250
 2340.5000   -37.3460    23.3200    29.5680     7.6110     0.0920     2.3750    84.0990
 2341.0000   -37.5090    23.5190    29.4400     7.6170     0.0840     2.3700    84.9830
 2341.5000   -37.5610    23.7530    29.3110     7.6240     0.0920     2.3800    86.6670
 2342.0000   -38.2470    23.7840    29.1840     7.6300     0.1000     2.3910    87.2720
 2342.5000   -38.8860    23.4680    29.1600     7.6370     0.1090     2.4020    87.5230
 2343.0000   -39.1030    23.1890    29.2010     7.6430     0.1120     2.3970    87.5450
 2343.5000   -39.0740    22.8880    28.8330     7.6500     0.1020     2.3900    86.6230
 2344.0000   -39.0880    22.5970    28.0540     7.6560     0.0910     2.3920    87.9100
 2344.5000   -39.0800    22.3160    27.3450     7.6630     0.0870     2.4040    90.2340
 2345.0000   -39.0600    21.9640    26.5990     7.6700     0.0920     2.4160    93.6310
 2345.5000   -38.5410    21.7030    25.8830     7.6800     0.0870     2.4210    97.4240
 2346.0000   -37.9330    20.6890    25.0920     7.6970     0.0770     2.4240    98.3880
 2346.5000   -37.3070    19.2080    24.4850     7.7150     0.0670     2.4250    98.1330
 2347.0000   -37.0720    17.8710    23.8390     7.7710     0.0570     2.4180    98.0520
 2347.5000   -37.1160    16.5090    22.8290     7.8260     0.0480     2.4200    97.6610
 2348.0000   -37.0720    15.1410    21.3670     7.8820     0.0370     2.4210    99.1260
 2348.5000   -36.5820    13.7810    19.9060     7.9380     0.0310     2.4130   101.8600
 2349.0000   -34.3970    12.4260    18.1730     7.9970     0.0290     2.4090   104.5760
 2349.5000   -32.1370    11.0550    17.1610     8.0330     0.0350     2.4190   106.2630
 2350.0000   -30.3270    10.2130    15.9180     8.0350     0.0450     2.4500   103.8960
 2350.5000   -29.5970     9.7380    14.6750     8.0420     0.0540     2.4800   101.1070
 2351.0000   -29.1580     9.3360    13.6510     8.0480     0.0580     2.4790   100.7180
 2351.5000   -28.7530     9.1760    13.2510     8.0540     0.0500     2.4670   104.1080
 2352.0000   -28.3460     9.0350    12.9080     8.0600     0.0540     2.4640   107.1380
 2352.5000   -27.9280     8.8950    12.5730     8.0660     0.0530     2.4680   109.8380
 2353.0000   -27.5860     8.7590    12.2880     8.0720     0.0500     2.4710   112.1460
 2353.5000   -27.4500     8.6080    12.3200     8.0780     0.0470     2.4780   111.9120
 2354.0000   -27.3310     8.5690    12.3460     8.0840     0.0450     2.4850   110.5800
 2354.5000   -27.2160     8.6370    12.3870     8.0900     0.0420     2.4870   109.9930
 2355.0000   -27.1000     8.6900    12.4160     8.0960     0.0400     2.4820   109.7930
 2355.5000   -26.9860     8.7470    12.4500     8.1020     0.0440     2.4790   110.6940
 2356.0000   -26.8580     8.8050    12.4820     8.1040     0.0390     2.4790   110.7170
 2356.5000   -26.7790     8.8610    12.5150     8.0950     0.0270     2.4790   110.7320
 2357.0000   -26.7890     8.9180    12.5480     8.0860     0.0330     2.4870   110.7320
 2357.5000   -26.7850     8.9750    12.5810     8.0770     0.0480     2.4990   110.7800
 2358.0000   -26.7860     9.0320    12.6140     8.0680     0.0680     2.5090   111.5220
 2358.5000   -26.7840     9.0890    12.6470     8.0590     0.0640     2.5160   112.4020
 2359.0000   -26.7450     9.1450    12.6800     8.0500     0.0480     2.5110   113.4760
 2359.5000   -26.6980     9.2030    12.7130     8.0410     0.0320     2.4870   114.6110
 2360.0000   -26.6510     9.2580    12.7460     8.0320     0.0310     2.4970   115.5890
 2360.5000   -26.6040     9.3160    12.7790     8.0230     0.0440     2.5050   116.5100
 2361.0000   -26.5580     9.2880    12.8100     8.0140     0.0450     2.5010   114.0230
 2361.5000   -26.5080     9.2250    12.8510     8.0050     0.0350     2.4650   112.7860
 2362.0000   -26.4680     9.1650    12.8240     7.9960     0.0390     2.4660   111.5620
 2362.5000   -26.4110     9.1050    12.6740     7.9870     0.0490     2.4680   110.2590
 2363.0000   -26.3710     9.0440    12.5320     7.9780     0.0430     2.4700   109.4930
 2363.5000   -26.1090     8.9830    12.3860     7.9690     0.0360     2.4740   109.8410
 2364.0000   -25.8290     8.9230    12.2400     7.9600     0.0430     2.4880   113.2140
 2364.5000   -25.6090     8.8630    12.0960     7.9510     0.0570     2.5150   115.9870
 2365.0000   -25.6870     8.8020    11.9500     7.9420     0.0660     2.5110   116.0270
 2365.5000   -25.7510     8.7430    11.8020     7.9330     0.0540     2.4960   114.8260
 2366.0000   -25.8300     8.6790    11.7190     7.9250     0.0440     2.4740   114.5430
