~VERSION INFORMATION
 VERS.                2.0:   CWLS LOG ASCII STANDARD - VERSION 2.0
 WRAP.                 NO:   ONE LINE PER DEPTH STEP
~WELL INFORMATION
#MNEM.UNIT      DATA TYPE    INFORMATION
#----------   ------------   ------------------------------
 STRT.F          450.5000:   START DEPTH
 STOP.F         3173.5000:   STOP DEPTH
 STEP.F            0.5000:   STEP LENGTH
 NULL.          -999.2500:   NO VALUE
 COMP.    FENIX & SCISSON:   COMPANY
 WELL. FENIX & SCISSONNPR #72-TX-33:   WELL
 FLD .              N.P.R:   FIELD
 LOC .      S33 T39N R78W:   LOCATION
 CNTY.            NATRONA:   COUNTY
 STAT.            WYOMING:   STATE
 CTRY. UNITED STATES OF AMERICA:   COUNTRY
 SRVC.       SCHLUMBERGER:   SERVICE COMPANY
 DATE.        03-SEP-1981:   LOGDATE
 API .     49025108810000:   API NUMBER
~CURVE INFORMATION
#MNEM.UNIT       API CODE    CURVE DESCRIPTION
#----------   ------------   ------------------------------
 DEPT.F                  :   
 CALD.IN     45 280 60 00:   CALIPER FROM DENSITY LOG
 GRD .GAPI   45 310 01 00:   GAMMA RAY FROM DENSITY LOG
 DPHI.DEC    45 890 03 00:   
 RHOB.G/C3   45 350 01 00:   BULK DENSITY
 CORR.G/C3   45 356 01 00:   DENSITY CORRECTION
 SPR .MV     07 010 01 00:   SPONTANEOUS POTENTIAL
 SFL .OHMM   07 220 01 00:   SHALLOW FOCUSED LOG RESISTIVITY
 ILD .OHMM   07 120 46 00:   DEEP INDUCTION RESISTIVITY
 ILM .OHMM   07 120 44 00:   INDUCTION LOG MEDIUM RESISTIVITY
 TENR.LBS    07 635 01 00:   TENSION FROM RESISTIVITY
~PARAMETER INFORMATION
#MNEM.UNIT          VALUE    DESCRIPTION
#----------   ------------   ------------------------------
 EKB .F         5115.0000:   Kelly bushing
 EGL .F         5105.0000:   Ground level
 EDF .F            0.0000:   Drilling floor
 TD  .F         3162.0000:   Total depth
 DATE.        03-SEP-1981:   Date logged
 CLNT.            A2DTECH:   Client Code
 CTRY.                USA:   Country
 SL  . 808' FNL & 954' FEL:   Surface Location
 PD  .                 GL:   Permanent Datum
 EPD .F              5105:   Elevation Permanent Datum
 LMF .                 KB:   Log Measured From
 DMF .                 KB:   Drilling Measured From
 DAPD.F                10:   Feet Above Permanent Datum
 DD  .F              3162:   Depth driller
 DL  .F              3162:   Depth logger
 BLI .F              3158:   Bottom log interval
 TLI .F              1612:   Top log interval
 CS1 .IN            9.625:   Casing size
 CBD1.      9.625" @ 480':   Casing driller 1
 BS1 .IN            7.875:   Bit size
 BSD1.F              3162:   Depth drilled with bit1
 DFT .              WATER:   Type fluid in hole
 MSS .               TANK:   Source of sample
 RMS .OHMM            6.3:   Rm
 MST .F                73:   Rm Meas. temp.
 RMF .OHMM            6.3:   Rmf
 MFST.F                73:   Rmf Meas. temp.
 TCS .HRS            2200:   Time Circ. stopped
 TLAB.HRS            0300:   Time logger at bottom
 MRT .F               100:   Maximum recorded temp.
 LUN .               8039:   Logging unit number
 LUL .               CSPR:   Logging unit location
 ENGI.           C. PEARR:   Recorded By
 WITN.           R. SCOTT:   Witnessed by
 ORIG.         2.5" PRINT:   Origin of data
 UWI .     49025108810000:   Unique Well ID
 DICO. A2D TECHNOLOGIES, INC.:   Digitizing Company
~OTHER INFORMATION
~A   DEPT     CALD         GRD      DPHI       RHOB       CORR        SPR        SFL        ILD        ILM       TENR   
# ...
 1891.0000     8.5136   138.4671     0.1169     2.4773     0.0090   -41.1076    11.1771     7.6189     6.9702   449.7245
 1891.5000     8.5139   136.7276     0.1216     2.4734     0.0090   -41.1121    11.1713     7.6150     6.9558   449.5118
 1892.0000     8.5144   136.1531     0.1216     2.4793     0.0130   -41.1166    11.3427     7.6124     6.9415   449.2990
 1892.5000     8.5148   136.1577     0.1208     2.4832     0.0208   -41.1211    11.3694     7.6084     6.9272   449.0863
 1893.0000     8.5151   136.1646     0.1051     2.5047     0.0208   -41.1256    10.7608     7.6058     6.9129   448.8735
 1893.5000     8.5155   136.7505     0.1051     2.5028     0.0248   -41.1301    10.5623     7.6045     6.8987   448.6608
 1894.0000     8.5159   139.0829     0.1067     2.4989     0.0248   -41.1346    10.1831     7.4629     6.8845   448.4480
 1894.5000     8.4775   139.0875     0.1098     2.4715     0.0170   -41.1391    10.1778     7.4591     6.8703   448.2353
 1895.0000     8.4779   136.7689     0.1273     2.4637     0.0033   -41.1436    10.1743     7.4565     6.8501   448.0225
 1895.5000     8.5168   135.6107     0.1364     2.4559     0.0014   -41.1481    10.3548     7.4527     6.7261   447.8098
 1896.0000     8.5174   134.4549     0.1349     2.4539     0.0014   -41.1526    10.3512     7.1851     6.7238   447.5970
 1896.5000     8.4790   133.8781     0.1279     2.4657     0.0053   -41.1570    10.3458     7.3152     6.7204   447.3843
 1897.0000     8.4795   134.4663     0.1184     2.4775     0.0034   -41.1615    10.3422     7.4425     6.7170   447.1715
 1897.5000     8.4799   137.9614     0.1184     2.4813     0.0053   -41.1660    10.1514     7.4400     6.8373   446.9588
 1898.0000     8.4802   137.9660     0.1247     2.4774     0.0054   -41.1705    10.3314     7.4361     7.0856   446.7460
 1898.5000     8.5191   134.4847     0.1278     2.4696     0.0073   -41.1750    10.3278     7.4336     7.0832   446.5333
 1899.0000     8.5198   131.0011     0.1333     2.4599     0.0113   -41.1795    10.7030     7.4298     7.0796   446.3205
 1899.5000     8.5202   129.2638     0.1340     2.4560     0.0132   -41.1840    10.6993     7.4264     6.7033   446.1078
 1900.0000     8.4817   129.8498     0.1301     2.4521     0.0132   -41.1885    10.6937     7.4234     6.5798   445.8950
 1900.5000     8.4822   129.8566     0.1266     2.4681     0.0133   -41.1930    10.6888     7.4200     6.4969   445.6823
 1901.0000     8.5215   130.4433     0.1215     2.4776     0.0113   -41.1956    10.3033     7.4160     6.4632   445.3989
 1901.5000     8.5219   132.7760     0.1184     2.4854     0.0055   -41.2006     9.9330     7.4130     6.4540   445.1155
 1902.0000     8.4838   136.8501     0.1152     2.4952     0.0114   -41.2049     9.7490     7.4086     6.4502   444.8321
 1902.5000     8.4844   144.4144     0.1129     2.4992     0.0212   -41.2142     9.9231     7.4045     6.5653   444.5487
 1903.0000     8.4849   150.6329     0.1089     2.4972     0.0192   -40.8313    10.4706     7.4012     6.8031   444.2653
 1903.5000     8.4855   152.9649     0.1128     2.4816     0.0134   -40.8392    10.8523     7.3982     6.9203   443.9819
 1904.0000     8.4861   156.4627     0.1238     2.4738     0.0154   -40.8406    10.6513     7.3937     6.9189   443.6985
 1904.5000     8.5251   159.9604     0.1254     2.4699     0.0173   -40.8530    10.8415     7.5243     6.9162   443.4151
 1905.0000     8.4974   164.6171     0.1253     2.4679     0.0219   -40.5704    10.8350     7.5213     6.9106   443.1317
 1905.5000     8.4876   164.6271     0.1253     2.4680     0.0232   -40.4733    11.0286     7.7180     6.9092   442.8483
 1906.0000     8.4882   163.4680     0.1245     2.4719     0.0194   -40.4826    10.6301     7.7910     6.9065   442.5649
 1906.5000     8.4887   161.7377     0.1222     2.4758     0.0194   -40.4888    11.0154     7.7863     6.9023   442.2815
 1907.0000     8.4893   160.0008     0.1206     2.4758     0.0194   -40.4950    11.0110     7.9254     7.0255   441.9981
 1907.5000     8.4895   156.5237     0.1214     2.4661     0.0175   -40.5043    11.6186     7.9207     7.0213   441.7147
 1908.0000     8.5287   153.0434     0.1261     2.4583     0.0077   -40.5166    12.2622     8.0622     7.1466   441.4313
 1908.5000     8.4908   149.1362     0.1308     2.4603     0.0057   -40.1307    12.4788     8.0574     7.4055   441.4757
 1909.0000     8.4914   148.5597     0.1308     2.4622     0.0058   -40.1369    12.7017     8.0541     7.4025   441.8675
 1909.5000     8.4918   145.6608     0.1276     2.4583     0.0058   -40.1462    12.2428     8.0493     7.3981   442.4552
 1910.0000     8.4924   144.5032     0.1245     2.4525     0.0078   -40.1524    12.9209     8.0461     7.3936   442.8470
 1910.5000     8.4929   143.9290     0.1393     2.4505     0.0117   -40.1617    11.3762     8.0412     7.3892   443.0468
 1911.0000     8.4931   143.3526     0.1354     2.4525     0.0151   -40.1679    11.1677     8.0367     7.3849   443.5150
 1911.5000     8.4941   142.7785     0.1339     2.4545     0.0157   -40.1803    10.9608     7.8890     7.2523   444.0420
 1912.0000     8.4946   148.0154     0.1339     2.4526     0.0157   -40.1834    11.1566     7.8858     7.2465   444.5689
 1912.5000     8.4952   144.5335     0.1354     2.4526     0.0118   -40.1958    11.5610     7.8811     7.3759   445.0959
 1913.0000     8.4956   142.7950     0.1323     2.4604     0.0118   -40.1989    11.7676     7.8763     7.3714   445.6229
 1913.5000     8.4962   141.6422     0.1307     2.4624     0.0157   -40.2112    11.5496     7.8732     7.3670   446.1498
 1914.0000     8.4967   139.9014     0.1283     2.4663     0.0177   -40.2143    11.5427     8.0139     7.3640   446.6510
 1914.5000     8.4973   138.7465     0.1275     2.4644     0.0177   -40.2267    11.3311     8.0091     7.3611   447.1520
 1915.0000     8.4977   137.0081     0.1275     2.4625     0.0177   -40.2329    11.3243     8.1506     7.2233   447.6530
 1915.5000     8.4983   135.2722     0.1299     2.4605     0.0060   -40.2391    11.3198     8.1473     7.2204   448.1540
 1916.0000     8.4988   136.4391     0.1322     2.4547     0.0060   -40.2484    11.3131     7.9963     7.0881   448.2190
 1916.5000     8.4994   137.0273     0.1361     2.4527     0.0022   -40.2577    11.5152     7.9931     6.9582   448.7713
 1917.0000     8.4996   134.7081     0.1369     2.4547     0.0100   -40.2608    11.9327     7.7040     6.9540   449.3236
 1917.5000     8.5004   128.3246     0.1345     2.4547     0.0081   -40.2701    12.1459     7.5627     7.0753   449.8760
 1918.0000     8.5009   121.3579     0.1291     2.4645     0.0374   -40.2794    11.9185     7.4224     6.8210   450.4283
 1918.5000     8.5015   116.1369     0.1275     2.4665     0.0609   -40.2856    10.4975     7.4194     6.5759   450.9806
 1919.0000     8.5409   116.1420     0.1275     2.4548     0.0590   -39.9058     8.7537     7.4179     6.2259   451.5330
 1919.5000     8.5413   117.8925     0.1329     2.4489     0.0464   -39.9120     8.5931     7.6855     6.2222   452.0853
 1920.0000     8.6191   120.2212     0.1392     2.4529     0.0338   -39.9213     9.0674     7.6809     6.6853   452.7280
 1920.5000     8.5036   123.7142     0.1345     2.4549     0.0212   -39.9275    11.6790     8.1050     6.8046   467.3684
 1921.0000     8.5042   128.3689     0.1314     2.4529     0.0102   -39.9368    13.7381     8.4007     7.3111   473.0085
 1921.5000     8.5046   132.4400     0.1353     2.4392     0.0063   -39.9450    14.2391     8.7055     7.5775   473.6481
 1922.0000     8.5053   138.2560     0.1446     2.4373     0.0063   -39.9523    14.4907     9.0249     7.9971   474.2877
 1922.5000     8.5057   142.3268     0.1454     2.4393     0.0063   -39.6063    15.0162     9.6955     8.5907   474.3816
 1923.0000     8.5059   148.1424     0.1423     2.4432     0.0063   -39.5788    15.2846     9.6936     8.7458   475.2578
 1923.5000     8.5070   149.8282     0.1423     2.4413     0.0083   -39.5819    15.5546    10.2269     9.2265   475.3624
 1924.0000     8.5075   149.2508     0.1399     2.4452     0.0122   -39.5849    15.5485    10.7917     9.2215   475.0860
