~VERSION INFORMATION
 VERS.                2.0:   CWLS LOG ASCII STANDARD - VERSION 2.0
 WRAP.                 NO:   ONE LINE PER DEPTH STEP
~WELL INFORMATION
#MNEM.UNIT      DATA TYPE    INFORMATION
#----------   ------------   ------------------------------
 STRT.F         2299.0000:   START DEPTH
 STOP.F         3387.5000:   STOP DEPTH
 STEP.F            0.5000:   STEP LENGTH
 NULL.          -999.2500:   NO VALUE
 COMP. LAWRENCE ALLISON AND ASSOCIATES:   COMPANY
 WELL. 		  62-AX-3:   WELL
 FLD .                NPR:   FIELD
 LOC .       S3 T38N R78W:   LOCATION
 CNTY.            NATRONA:   COUNTY
 STAT.            WYOMING:   STATE
 CTRY. UNITED STATES OF AMERICA:   COUNTRY
 SRVC.      DRESSER ATLAS:   SERVICE COMPANY
 DATE.        14-JUN-1985:   LOGDATE
 API .     49025110330000:   API NUMBER
~CURVE INFORMATION
#MNEM.UNIT       API CODE    CURVE DESCRIPTION
#----------   ------------   ------------------------------
 DEPT.F                  :   
 NPHI.DEC    42 890 01 00:   NEUTRON POROSITY
 TEND.LBS    45 635 01 00:   TENSION
 RHOB.G/C3   45 350 01 00:   BULK DENSITY
 CORR.DEC    45 356 01 00:   CORRECTION
~PARAMETER INFORMATION
#MNEM.UNIT          VALUE    DESCRIPTION
#----------   ------------   ------------------------------
 EKB .F         5160.0000:   Kelly bushing
 EGL .F         5148.0000:   Ground level
 EDF .F            0.0000:   Drilling floor
 EPD .F         5148.0000:   Permanent datum
 TD  .F         3380.0000:   Total depth
 DATE.        14-JUN-1985:   Date logged
 CLNT.            A2DTECH:   Client Code
 PD  .                 GL:   Permanent Datum
 LMF .                 KB:   Log Measured From
 DMF .                 KB:   Drilling Measured From
 DL  .F              3380:   Depth logger
 BLI .F              3378:   Bottom log interval
 CS1 .IN            8.625:   Casing size
 CBD1.      8.625" @ 603':   Casing driller 1
 DFT .        KCL POLYMER:   Type fluid in hole
 ENGI.               MACK:   Recorded By
 WITN.             STRONG:   Witnessed by
 ORIG.       2.5"5" PRINT:   Origin of data
 UWI .     49025110330000:   Unique Well ID
 DICO. A2D TECHNOLOGIES, INC.:   Digitizing Company
 DAPD.F                12:   Feet Above Permanent Datum
 BS1 .IN            7.875:   Bit size
 DFD .                8.9:   Density
 DFV .                 46:   Viscosity
 DFPH.                8.5:   pH
 DFL .                9.6:   Fluid loss
 MSS .           FLOWLINE:   Source of sample
 RMS .OHMM           0.38:   Rm
 MST .F                74:   Rm Meas. temp.
 RMF .OHMM           0.29:   Rmf
 MFST.F                74:   Rmf Meas. temp.
 MFSS.               MEAS:   Source Rmf.
 RMC .OHMM           0.23:   Rmc
 MCST.F               120:   Rmc Meas. temp.
 MCSS.               MEAS:   Source Rmc.
 RMB .OHMM           0.23:   Rm. at BHT
 BHT .F               120:   BHT.
 TCS .                  8:   Time Circ. stopped
 MRT .                122:   Maximum recorded temp.
 LUN .            HL-6274:   Logging unit number
 LUL .               GLTE:   Logging unit location
~OTHER INFORMATION
~A     DEPTH         CORR         NPHI         RHOB         TEND
# ...
   3291.0000       0.0080       0.2359       2.4890       0.2829
   3291.5000       0.0120       0.2346       2.4920       0.2851
   3292.0000       0.0150       0.2342       2.5030       0.2876
   3292.5000       0.0070       0.2356       2.5100       0.2902
   3293.0000      -0.0010       0.2407       2.5040       0.2927
   3293.5000      -0.0100       0.2466       2.4990       0.2953
   3294.0000      -0.0050       0.2579       2.4930       0.2979
   3294.5000       0.0040       0.2587       2.4860       0.3004
   3295.0000       0.0080       0.2565       2.4770       0.3029
   3295.5000       0.0090       0.2553       2.4670       0.3032
   3296.0000       0.0100       0.2558       2.4630       0.3035
   3296.5000       0.0140       0.2603       2.4660       0.3038
   3297.0000       0.0190       0.2708       2.4690       0.3041
   3297.5000       0.0240       0.2813       2.4720       0.3044
   3298.0000       0.0210       0.2813       2.4760       0.3047
   3298.5000       0.0120       0.2782       2.4730       0.3050
   3299.0000       0.0040       0.2727       2.4680       0.3053
   3299.5000      -0.0050       0.2810       2.4690       0.3056
   3300.0000       0.0020       0.2810       2.4710       0.3059
   3300.5000       0.0140       0.2788       2.4680       0.3062
   3301.0000       0.0080       0.2763       2.4660       0.3065
   3301.5000       0.0000       0.2694       2.4680       0.3068
   3302.0000      -0.0040       0.2627       2.4730       0.3071
   3302.5000       0.0040       0.2592       2.4760       0.3074
   3303.0000       0.0120       0.2549       2.4760       0.3077
   3303.5000       0.0080       0.2488       2.4730       0.3080
   3304.0000       0.0040       0.2472       2.4680       0.3083
   3304.5000       0.0050       0.2492       2.4630       0.3086
   3305.0000       0.0090       0.2593       2.4630       0.3089
   3305.5000       0.0120       0.2792       2.4630       0.3092
   3306.0000       0.0050       0.2941       2.4630       0.3095
   3306.5000       0.0010       0.2874       2.4570       0.3098
   3307.0000       0.0010       0.2819       2.4500       0.3101
   3307.5000       0.0020       0.2788       2.4380       0.3104
   3308.0000       0.0030       0.2883       2.4330       0.3107
   3308.5000      -0.0120       0.2948       2.4360       0.3110
   3309.0000      -0.0140       0.2869       2.4400       0.3113
   3309.5000      -0.0140       0.2670       2.4440       0.3116
   3310.0000      -0.0140       0.2564       2.4490       0.3119
   3310.5000      -0.0090       0.2446       2.4690       0.3122
   3311.0000      -0.0030       0.2425       2.4770       0.3125
   3311.5000       0.0030       0.2522       2.4740       0.3128
   3312.0000       0.0000       0.2617       2.4660       0.3168
   3312.5000      -0.0030       0.2694       2.4660       0.3206
   3313.0000       0.0000       0.2705       2.4670       0.3245
   3313.5000      -0.0050       0.2671       2.4650       0.3283
   3314.0000      -0.0090       0.2566       2.4650       0.3322
   3314.5000      -0.0110       0.2642       2.4720       0.3360
   3315.0000      -0.0020       0.2623       2.4830       0.3399
   3315.5000       0.0060       0.2535       2.4960       0.3437
   3316.0000       0.0090       0.2261       2.4990       0.3475
   3316.5000      -0.0020       0.2215       2.4980       0.3514
   3317.0000      -0.0030       0.2212       2.4910       0.3552
   3317.5000       0.0040       0.2199       2.4840       0.3591
   3318.0000       0.0090       0.2216       2.4800       0.3629
   3318.5000       0.0080       0.2266       2.4830       0.3667
   3319.0000       0.0070       0.2286       2.4890       0.3706
   3319.5000       0.0090       0.2294       2.4950       0.3744
   3320.0000       0.0110       0.2290       2.5000       0.3783
   3320.5000       0.0140       0.2271       2.5020       0.3823
   3321.0000       0.0090       0.2243       2.4990       0.3836
   3321.5000       0.0010       0.2200       2.4920       0.3849
   3322.0000      -0.0040       0.2124       2.4880       0.3862
   3322.5000       0.0030       0.2123       2.4880       0.3875
   3323.0000       0.0090       0.2128       2.4890       0.3888
   3323.5000       0.0160       0.2118       2.4940       0.3901
   3324.0000       0.0230       0.2060       2.4980       0.3914
   3324.5000       0.0240       0.2073       2.5010       0.3927
   3325.0000       0.0150       0.2099       2.5040       0.3940
   3325.5000       0.0070       0.2086       2.5060       0.3953
   3326.0000       0.0000       0.2014       2.5010       0.3966
   3326.5000      -0.0060       0.2001       2.4970       0.3979
   3327.0000      -0.0030       0.2033       2.4920       0.3992
   3327.5000      -0.0020       0.2139       2.4950       0.4005
   3328.0000      -0.0060       0.2276       2.4970       0.4018
   3328.5000      -0.0090       0.2284       2.4990       0.4031
   3329.0000      -0.0120       0.2290       2.4980       0.4045
   3329.5000      -0.0150       0.2336       2.4930       0.4058
   3330.0000      -0.0080       0.2501       2.4930       0.4071
   3330.5000      -0.0010       0.2614       2.4940       0.4084
   3331.0000       0.0020       0.2731       2.4920       0.4097
   3331.5000      -0.0010       0.2819       2.4880       0.4110
   3332.0000       0.0020       0.2922       2.4790       0.4123
   3332.5000       0.0060       0.2959       2.4560       0.4136
   3333.0000       0.0100       0.2962       2.4460       0.4149
   3333.5000       0.0070       0.2974       2.4430       0.4162
   3334.0000       0.0010       0.2980       2.4380       0.4175
   3334.5000      -0.0310       0.3002       2.4230       0.4188
   3335.0000      -0.0500       0.3023       2.4200       0.4201
   3335.5000      -0.0440       0.3005       2.4260       0.4214
   3336.0000       0.0010       0.2938       2.4350       0.4244
   3336.5000      -0.0050       0.2929       2.4440       0.4288
   3337.0000      -0.0070       0.2938       2.4430       0.4333
   3337.5000      -0.0100       0.2854       2.4410       0.4377
   3338.0000      -0.0070       0.2521       2.4400       0.4422
   3338.5000      -0.0050       0.2404       2.4510       0.4466
   3339.0000      -0.0070       0.2392       2.4620       0.4510
   3339.5000      -0.0060       0.2374       2.4900       0.4555
   3340.0000      -0.0010       0.2308       2.4960       0.4599
   3340.5000      -0.0030       0.2140       2.5000       0.4644
   3341.0000      -0.0030       0.2085       2.5000       0.4688
   3341.5000       0.0000       0.2002       2.5050       0.4732
   3342.0000       0.0010       0.1960       2.5200       0.4777
   3342.5000      -0.0040       0.1948       2.5250       0.4821
   3343.0000      -0.0010       0.1972       2.5220       0.4866
   3343.5000       0.0020       0.2014       2.5160       0.4910
   3344.0000       0.0040       0.2071       2.5110       0.4954
   3344.5000       0.0010       0.2104       2.5050       0.4999
   3345.0000       0.0060       0.2098       2.5110       0.5028
   3345.5000       0.0120       0.2065       2.5210       0.5048
   3346.0000       0.0120       0.2067       2.5290       0.5068
   3346.5000       0.0090       0.2230       2.5190       0.5088
   3347.0000       0.0050       0.2285       2.5080       0.5109
   3347.5000       0.0020       0.2337       2.5010       0.5129
   3348.0000      -0.0020       0.2390       2.4990       0.5149
   3348.5000      -0.0060       0.2443       2.4950       0.5169
   3349.0000      -0.0110       0.2478       2.4890       0.5190
   3349.5000      -0.0140       0.2494       2.4820       0.5210
   3350.0000      -0.0090       0.2521       2.4710       0.5230
   3350.5000      -0.0100       0.2554       2.4610       0.5250
   3351.0000      -0.0100       0.2608       2.4500       0.5270
   3351.5000      -0.0040       0.2638       2.4460       0.5291
   3352.0000       0.0050       0.2699       2.4530       0.5311
   3352.5000       0.0210       0.2734       2.4580       0.5331
