~VERSION INFORMATION
 VERS.                2.0:   CWLS LOG ASCII STANDARD - VERSION 2.0
 WRAP.                 NO:   ONE LINE PER DEPTH STEP
~WELL INFORMATION
#MNEM.UNIT      DATA TYPE    INFORMATION
#----------   ------------   ------------------------------
 STRT.F           50.5000:   START DEPTH
 STOP.F         5694.0000:   STOP DEPTH
 STEP.F            0.5000:   STEP LENGTH
 NULL.          -999.2500:   NO VALUE
 COMP. LAWRENCE ALLISON AND ASSOCIATES WEST:   COMPANY
 WELL. LAWRENCE "TX" #57-28:   WELL
 FLD .        TEAPOT DOME:   FIELD
 LOC .      S28 T39N R78W:   LOCATION
 CNTY.            NATRONA:   COUNTY
 STAT.            WYOMING:   STATE
 CTRY. UNITED STATES OF AMERICA:   COUNTRY
 SRVC.       SCHLUMBERGER:   SERVICE COMPANY
 DATE.        26-FEB-1982:   LOGDATE
 API .     49025108850000:   API NUMBER
~CURVE INFORMATION
#MNEM.UNIT       API CODE    CURVE DESCRIPTION
#----------   ------------   ------------------------------
 DEPT.F                  :   
 GRR .GAPI   11 310 01 00:   GAMMA RAY FROM RES.
 CALD.IN     45 280 60 00:   CALIPER FROM DENSITY LOG
 TEND.LBS    45 635 01 00:   TENSION FORM DENSITY LOG
 CORR.G/C3   45 356 01 00:   DENSITY CORRECTION
 RHOB.G/C3   45 350 01 00:   BULK DENSITY
 NPHI.DEC    42 890 03 00:   NEUTRON POROSITY SANDSTONE
 TENR.LBS    06 635 01 00:   TENSION FROM RESISTIVITY
 SPR .MV     11 010 01 00:   SPONTANEOUS POTENTIAL FROM RES.
 LLS .OHMM   11 220 09 00:   LATEROLOG LOG SHALLOW
 LLD .OHMM   11 220 10 00:   LATEROLOG DEEP
 MSFL.OHMM   11 270 04 00:   MICRO SPHERICALLY FOCUSED
~PARAMETER INFORMATION
#MNEM.UNIT          VALUE    DESCRIPTION
#----------   ------------   ------------------------------
 EKB .F         5101.0000:   Kelly bushing
 EGL .F         5091.0000:   Ground level
 EDF .F            0.0000:   Drilling floor
 TD  .F         3248.0000:   Total depth
 CLNT.            A2DTECH:   Client Code
 SL  . 950' FSL & 2100' FEL:   Surface Location
 PD  .                 GL:   Permanent Datum
 EPD .F              5091:   Elevation Permanent Datum
 LMF .                 KB:   Log Measured From
 DMF .                 KB:   Drilling Measured From
 DAPD.F                10:   Feet Above Permanent Datum
 DATE.        26-FEB-1982:   Date Logged [DD-MMM-YYYY]
 DD  .F              3243:   Depth driller
 DL  .F              3248:   Depth logger
 BLI .F              3216:   Bottom log interval
 TLI .F                 0:   Top log interval
 CS1 .IN            9.625:   Casing size
 CBD1.      9.625" @ 401':   Casing driller 1
 CBL1.F               401:   Casing logger 1
 BS1 .IN            7.875:   Bit size
 BSD1.F              3243:   Depth drilled with bit1
 DFT .           CHEM GEL:   Type fluid in hole
 DFD .                8.9:   Density
 DFV .                 55:   Viscosity
 DFPH.                9.5:   pH
 DFL .                 10:   Fluid loss
 MSS .            MUD PIT:   Source of sample
 RMS .OHMM           1.82:   Rm
 MST .F                76:   Rm Meas. temp.
 RMF .OHMM           1.64:   Rmf
 MFST.F                75:   Rmf Meas. temp.
 MFSS.               MEAS:   Source Rmf.
 RMB .OHMM           1.15:   Rm. at BHT
 BHT .F               120:   BHT.
 TCS .HRS            1330:   Time Circ. stopped
 TLAB.HRS            1715:   Time logger at bottom
 MRT .F               120:   Maximum recorded temp.
 LUN .               8043:   Logging unit number
 LUL .               CSPR:   Logging unit location
 ENGI.             TAYLOR:   Recorded By
 WITN.       FIVAS/STRONG:   Witnessed by
 ORIG.      1" 2.5" PRINT:   Origin of data
 UWI .     49025108850000:   Unique Well ID
 DICO. A2D TECHNOLOGIES, INC.:   Digitizing Company
~OTHER INFORMATION
~A   DEPT       GRR      CALD       TEND       CORR       RHOB       NPHI       TENR        SPR        LLS        LLD       MSFL   
# ...
 2185.5000   112.9865    10.2246  1036.5853     0.1195     2.3460     0.3384   980.0000   -77.5410     3.2334     3.2294     3.0806
 2186.0000   115.3995    10.7147  1036.5853     0.0963     1.9696     0.3437   980.0000   -77.5555     2.7770     2.9233     1.8687
 2186.5000   117.8124    11.6602  1036.5853     0.0759     1.8070     0.3595   980.0000   -77.5700     2.6144     2.7285     1.6057
 2187.0000   120.8351    13.1215  1036.5853     0.0258     1.7631     0.3766   980.0000   -77.5846     2.7034     2.6833     1.9374
 2187.5000   122.7386    13.2585  1036.5853     0.0117     1.7655     0.4033   980.0000   -77.5994     3.1893     4.0038     3.1878
 2188.0000   124.4415    12.4259  1036.5853     0.0660     1.9555     0.3908   980.0000   -77.6147     4.0880     4.4697     3.8501
 2188.5000   125.8078    11.1097  1036.5853     0.1161     2.0088     0.3760   980.0000   -77.6300     3.8655     3.4331     3.6296
 2189.0000   126.8283    11.0781  1036.5853     0.1165     2.0179     0.3724   980.0000   -77.6453     3.3640     3.5269     4.3274
 2189.5000   126.7957    10.9240  1036.5853     0.0636     2.0375     0.3761   980.0000   -77.8017     4.3766     4.6162     5.3949
 2190.0000   127.3728    10.2178  1036.5853    -0.0013     2.1194     0.3719   980.0000   -78.4608     5.1893     5.6933     6.9143
 2190.5000   127.3467    10.0637  1036.5853     0.0056     2.3878     0.3457   980.0000   -78.9168     5.6005     5.7943     6.6281
 2191.0000   129.1499    10.0673  1036.5853     0.0620     2.5101     0.3208   980.0000   -78.9313     5.3774     5.2719     6.0049
 2191.5000   129.1238    10.0929  1036.5853     0.1633     2.4947     0.3245   980.0000   -78.9458     5.4473     5.1069     6.0542
 2192.0000   125.4065    10.0920  1036.5853     0.1695     2.4319     0.3405   980.0000   -78.9603     5.8243     5.3929     6.4217
 2192.5000   120.8578    10.0913  1036.5853     0.1293     2.4105     0.3513   980.0000   -78.9755     6.2372     5.9377     6.9243
 2193.0000   114.0062    10.1212  1036.5853     0.0882     2.4302     0.3484   980.0000   -78.6836     6.6794     6.6286     7.3748
 2193.5000   110.1170    10.1203  1036.5853     0.0152     2.4696     0.3421   980.0000   -78.7003     7.1528     7.0988     7.8930
 2194.0000   115.1339    10.1196  1036.5853     0.0121     2.4862     0.3215   980.0000   -78.7156     7.1336     7.1926     8.4514
 2194.5000   117.4113    10.1495  1036.5853     0.0254     2.4877     0.3067   980.0000   -78.7309     6.4808     6.6551     8.2144
 2195.0000   119.7818    10.2209  1036.5853     0.0483     2.4774     0.3089   980.0000   -78.7490     5.7561     5.9776     6.7631
 2195.5000   122.8045    10.5206  1036.5853     0.0840     2.4550     0.3150   980.0000   -78.7635     5.4556     5.6706     5.8722
 2196.0000   126.4369    10.7915  1036.5853     0.0882     2.4018     0.3266   980.0000   -78.7780     5.4430     5.6663     5.5636
 2196.5000   125.8011    10.7918  1036.5853     0.0826     2.3905     0.3454   980.0000   -78.7925     5.7881     5.7074     5.5786
 2197.0000   123.9163    10.5443  1036.5853     0.0877     2.4373     0.3639   980.0000   -79.1132     6.0293     5.9793     5.8187
 2197.5000   123.3079    10.3596  1036.5853     0.1059     2.4813     0.3661   980.0000   -79.1284     6.3680     6.4927     6.2762
 2198.0000   123.8936    10.1748  1036.5853     0.1116     2.4934     0.3461   980.0000   -79.2192     6.8195     6.9532     7.1439
 2198.5000   124.6900    10.0207  1036.5853     0.0514     2.4888     0.3300   980.0000   -79.5723     7.5135     7.7650     8.1595
 2199.0000   125.9451     9.8917  1036.5853     0.0244     2.4775     0.3209   980.0000   -79.7859     8.3805     8.4701     8.7368
 2199.5000   126.2470     9.7980  1018.3473     0.0091     2.4664     0.3268   980.0000   -79.8012     8.2600     9.2693     9.6173
 2200.0000   127.4347     9.7730  1006.0975     0.0075     2.4578     0.3326   980.0000   -79.4657     9.6574    10.2177    10.2977
 2200.5000   126.7988     9.7416  1007.1147    -0.0061     2.4523     0.3250   980.0000   -79.3389     9.4141     9.7651    10.4057
 2201.0000   126.1630     9.7406   977.4391    -0.0031     2.4491     0.3080   980.0000   -79.2252    10.1706    10.5845     9.6709
 2201.5000   123.6979     9.7399   978.3702     0.0014     2.4479     0.3013   980.0000   -79.2370     9.4570     9.6426     9.1559
 2202.0000   117.3290     9.7392   981.1113     0.0029     2.4515     0.3183   980.0000   -79.2477     8.3448     8.8673     8.9910
 2202.5000   108.5630     9.7385  1010.6706     0.0026     2.4575     0.3197   980.0000   -79.2584     8.8136     9.1098     9.2595
 2203.0000   105.5836     9.7377  1011.5852    -0.0024     2.4741     0.3171   980.0000   -79.2709     9.7031     9.7559    10.1044
 2203.5000   105.3008     9.7370  1012.5000    -0.0093     2.4892     0.3123   980.0000   -79.2810     9.9780    10.1625    11.9683
 2204.0000   106.7883     9.7362  1013.4146    -0.0052     2.4906     0.3044   980.0000   -79.2912    10.1009    10.2968    10.4061
 2204.5000   109.5039     9.7354  1044.8171    -0.0019     2.4876     0.3065   980.0000   -78.9954     9.9166     9.6229    10.8427
 2205.0000   113.1363     9.7331  1045.8840     0.0043     2.4856     0.3090   980.0000   -78.9806     9.6584     9.2270    11.7761
 2205.5000   116.1590     9.7322  1046.7561     0.0146     2.4815     0.3116   980.0000   -78.7100     9.1532     8.9707    11.0923
 2206.0000   119.7915     9.7313  1047.6278     0.0523     2.4701     0.3156   980.0000   -78.7217     8.7703     8.7216    10.3893
 2206.5000   123.4488     9.7304  1048.4995     0.0974     2.4394     0.3301   980.0000   -78.7324     8.6442     8.5977    10.4283
 2207.0000   128.5501     9.6986  1049.3903     0.0928     2.4028     0.3501   980.0000   -78.7431     8.9297     8.7244    10.9418
 2207.5000   133.5213     9.6977  1050.3049     0.0714     2.3993     0.3471   980.0000   -79.0615     9.5115     9.2799    11.5913
 2208.0000   136.7323     9.6662  1058.5365     0.0314     2.4571     0.3380   980.0000   -79.0717    10.3024    10.0390    12.2434
 2208.5000   139.0583     9.6653  1082.6218     0.0186     2.4646     0.3331  1006.8444   -79.0818    10.6470    10.4746    11.2641
 2209.0000   136.8068     9.6644  1083.5366     0.0155     2.4600     0.3253  1029.6000   -79.0917     9.6647    10.3441    10.5074
 2209.5000   133.1280     9.6635  1053.9634     0.0121     2.4492     0.3292  1052.3556   -79.1025     9.0085     9.5764    10.3589
 2210.0000   130.0590     9.6626  1055.0376     0.0009     2.4449     0.3445  1043.0000   -79.0624     8.8807     9.0561    10.3549
 2210.5000   126.3801     9.6310  1055.9098     0.0009     2.4532     0.3484  1017.4000   -78.8166     8.7547     8.8046    10.3649
 2211.0000   122.6768     9.6301  1056.7814     0.0082     2.4983     0.3447   991.8000   -78.8287     8.7507     8.5601    10.6961
 2211.5000   120.7040     9.6291  1027.1340     0.0142     2.5002     0.3365   980.0000   -78.8394     8.9926     8.4385    11.2233
 2212.0000   118.2522     9.5975  1028.0486     0.0144     2.4775     0.3260   980.0000   -78.8522     9.3822     8.9552    11.8392
 2212.5000   115.5225     9.5965  1028.9635     0.0081     2.4477     0.3242   980.0000   -78.5550     9.7889     9.7395    12.3698
 2213.0000   112.6640     9.5956  1029.8781    -0.0010     2.4446     0.3187   980.0000   -78.5667    10.0300    10.0892    12.6055
 2213.5000   108.4572     9.5947  1030.7927    -0.0070     2.4476     0.3041   980.0000   -78.5768     9.3547    10.0836    11.5320
 2214.0000   102.4477     9.5938  1031.7073    -0.0068     2.4521     0.3017   980.0000   -78.2812     9.2218     9.9374    10.3201
 2214.5000   101.2079     9.5929  1032.6218    -0.0037     2.4566     0.3031   980.0000   -78.2920     9.2165     9.2697     9.8968
 2215.0000   101.7974     9.5920  1033.7035     0.0000     2.4702     0.3067   980.0000   -78.3027     9.3411     8.7661     9.8929
 2215.5000   102.3869     9.5911  1034.5756     0.0117     2.5094     0.3098   980.0000   -78.3135     9.8672     9.0082    11.0207
