~VERSION INFORMATION
 VERS.                2.0:   CWLS LOG ASCII STANDARD - VERSION 2.0
 WRAP.                 NO:   ONE LINE PER DEPTH STEP
~WELL INFORMATION
#MNEM.UNIT      DATA TYPE    INFORMATION
#----------   ------------   ------------------------------
 STRT.F            0.5000:   START DEPTH
 STOP.F         4256.0000:   STOP DEPTH
 STEP.F            0.5000:   STEP LENGTH
 NULL.          -999.2500:   NO VALUE
 COMP. LAWRENCE-ALLISON & ASSOC:   COMPANY
 WELL. LAWRENCE "X" #64-15:   WELL
 FLD .        N.P.R. NO.3:   FIELD
 LOC .      S15 T38N R78W:   LOCATION
 CNTY.            NATRONA:   COUNTY
 STAT.            WYOMING:   STATE
 CTRY. UNITED STATES OF AMERICA:   COUNTRY
 SRVC.      DRESSER ATLAS:   SERVICE COMPANY
 DATE.        13-SEP-1984:   LOGDATE
 API .     49025111610000:   API NUMBER
~CURVE INFORMATION
#MNEM.UNIT       API CODE    CURVE DESCRIPTION
#----------   ------------   ------------------------------
 DEPT.F                  :   
 TENR.LBS    07 635 01 00:   TENSION FROM RESISTIVITY
 GRR .GAPI   07 310 01 00:   GAMMA RAY FROM RESISTIVITY
 RFOC.OHMM   07 220 04 00:   RESISTIVITY FOCUSED LOG RES.
 RILD.OHMM   07 120 46 00:   DEEP INDUCTION RESISTIVITY
 RILM.OHMM   07 120 44 00:   INDUCTION LOG MEDIUM RESISTIVITY
 SPR .MV     07 010 01 00:   SPONTANEOUS POTENTIAL
 DT  .US/F   60 520 00 00:   DELTA TIME
 TENS.LBS    60 635 01 00:   TENSION FROM SONIC
 CALD.IN     45 280 60 00:   CALIPER FROM DENSITY LOG
 TEND.LBS    45 635 01 00:   TENSION FORM DENSITY LOG
 CORR.G/C3   45 356 01 00:   DENSITY CORRECTION
 DEN .G/C3   45 350 01 00:   BULK DENSITY
 CNC .DEC    42 890 03 00:   NEUTRON POROSITY SANDSTONE
~PARAMETER INFORMATION
#MNEM.UNIT          VALUE    DESCRIPTION
#----------   ------------   ------------------------------
 EKB .F         5294.0000:   Kelly bushing
 EGL .F         5282.0000:   Ground level
 TD  .F         4256.0000:   Total depth
 CLNT.            A2DTECH:   Client Code
 SL  . 2299' FNL & 1785' FEL:   Surface Location
 PD  .                 GL:   Permanent Datum
 EPD .F              5282:   Elevation Permanent Datum
 LMF .                 KB:   Log Measured From
 DMF .                 KB:   Drilling Measured From
 DAPD.F                12:   Feet Above Permanent Datum
 DATE.        13-SEP-1984:   Date Logged [DD-MMM-YYYY]
 DD  .F              4256:   Depth driller
 DL  .F              4248:   Depth logger
 BLI .F              4246:   Bottom log interval
 TLI .F                 0:   Top log interval
 CS1 .IN            8.625:   Casing size
 CBD1.      8.625" @ 817':   Casing driller 1
 CBL1.F               814:   Casing logger 1
 BS1 .IN            7.875:   Bit size
 BSD1.F              4256:   Depth drilled with bit1
 DFT .            KCL-GEL:   Type fluid in hole
 DFD .                  9:   Density
 DFV .                 40:   Viscosity
 DFPH.                8.6:   pH
 DFL .               11.8:   Fluid loss
 MSS .            MUDTANK:   Source of sample
 RMS .OHMM           0.38:   Rm
 MST .F                74:   Rm Meas. temp.
 RMF .OHMM           0.31:   Rmf
 MFST.F                72:   Rmf Meas. temp.
 MFSS.               MEAS:   Source Rmf.
 RMC .OHMM           0.48:   Rmc
 MCST.F                74:   Rmc Meas. temp.
 MCSS.               CALC:   Source Rmc.
 RMB .OHMM           0.22:   Rm. at BHT
 BHT .F               134:   BHT.
 TCS .HRS               4:   Time Circ. stopped
 MRT .F               134:   Maximum recorded temp.
 LUN .            HL-6274:   Logging unit number
 LUL .           GILLETTE:   Logging unit location
 ENGI.             RAUTIO:   Recorded By
 WITN.            JOHNSON:   Witnessed by
 ORIG.        2" 5" PRINT:   Origin of data
 UWI .     49025111610000:   Unique Well ID
 DICO. A2D TECHNOLOGIES, INC.:   Digitizing Company
~OTHER INFORMATION
~A    DEPT    TENR         GRR      RFOC       RILD       RILM        SPR         DT       TENS       CALD       TEND       CORR        DEN        CNC   
# ...
 1482.5000   -71.8070    82.9027     9.7142     9.4932     9.4322   -27.4816    86.6553   -55.7769     8.9643   -54.8639    -0.0263     2.5333     0.2571
 1483.0000   -64.4346    83.5071     9.8719     9.6230     9.6312   -27.6344    86.0928   -55.7769     8.9650   -55.7769    -0.0353     2.5288     0.2400
 1483.5000   -64.5865    82.0063    10.1170     9.6872     9.7666   -27.7872    85.1974   -45.8167     8.9658   -55.7769    -0.0367     2.5258     0.2326
 1484.0000   -64.7642    79.0017    10.3313     9.7519     9.7679   -28.2412    84.3759   -55.7769     8.9665   -57.9681    -0.0322     2.5266     0.2350
 1484.5000   -64.9106    78.4024    10.6234     9.6767     9.7692   -28.9964    83.5545   -47.6760     8.9673   -65.7371    -0.0185     2.5334     0.2354
 1485.0000   -65.0571    82.3158    10.6993     9.4797     9.7705   -29.6010    82.5078   -45.8167     8.9680   -55.7769     0.0108     2.5458     0.2360
 1485.5000   -65.2036    84.7532    10.4812     9.3468     9.6376   -29.7538    81.6102   -35.8566     8.9688   -55.7769     0.0371     2.5531     0.2390
 1486.0000   -65.3501    86.8331     9.8293     9.1522     9.3763   -29.7560    82.2163   -35.8566     8.9695   -55.7769     0.0221     2.5524     0.2408
 1486.5000   -65.4966    88.0396     9.4520     8.9616     9.0589   -29.5897    84.7823   -52.3240     8.9700   -55.7769    -0.0170     2.5456     0.2423
 1487.0000   -65.6430    88.0426     9.9926     8.7749     8.8738   -29.1580    85.5285   -45.3857     8.9700   -56.4165    -0.0365     2.5426     0.2414
 1487.5000   -58.2707    86.8425     9.9946     8.5922     8.7531   -29.0096    86.2095   -46.2261     8.9700   -55.7539    -0.0169     2.5426     0.2351
 1488.0000   -50.8983    85.9431     9.3930     8.4717     8.6341   -28.8612    87.0397   -55.4680     8.9700   -55.8240    -0.0171     2.5412     0.2311
 1488.5000   -51.0814    84.7431     8.4687     8.3529     8.5757   -28.7128    88.6207   -39.0438     8.9700   -55.7769    -0.0199     2.5374     0.2399
 1489.0000   -51.2279    83.5430     8.3535     8.2358     8.5772   -28.8662    89.2246   -35.8566     8.9700   -45.8167    -0.0063     2.5344     0.2532
 1489.5000   -58.8932    82.3429     8.8313     8.1695     8.4592   -28.8684    87.6535   -35.8566     8.9700   -55.7769    -0.0048     2.5307     0.2571
 1490.0000   -66.5584    81.1229     9.5978     8.1176     8.3454   -28.8706    86.4567   -41.0857     8.9700   -64.7055    -0.0078     2.5247     0.2568
 1490.5000   -74.2237    79.6427    10.0068     8.1154     8.2251   -29.0234    85.5602   -53.5857     8.9700   -62.9162    -0.0122     2.5232     0.2523
 1491.0000   -74.3702    79.3441     9.7937     8.1132     8.1200   -29.0256    85.3393   -45.8167     8.9700   -61.1269    -0.0137     2.5353     0.2466
 1491.5000   -74.5167    81.4531     9.3420     8.1110     8.1213   -29.0283    85.8237   -35.8566     8.9700   -59.3377    -0.0137     2.5632     0.2460
 1492.0000   -74.6631    85.6665     9.1519     8.1089     8.1224   -29.1811    87.0759   -37.5356     8.9700   -57.5484    -0.0121     2.5761     0.2457
 1492.5000   -74.8120    84.4664     9.0275     8.1067     8.1235   -29.1833    88.5818   -44.6784     8.9700   -55.7769    -0.0106     2.5656     0.2457
 1493.0000   -74.9624    83.2656     9.1556     8.0486     8.1246   -29.0344    88.5862   -35.8566     8.9700   -56.1845    -0.0076     2.5566     0.2473
 1493.5000   -75.1392    83.2693     9.2851     8.0464     8.1257   -28.8865    88.5906   -45.8167     8.9700   -65.3207     0.0045     2.5521     0.2499
 1494.0000   -75.2856    85.6782     9.3514     8.0442     8.0708   -28.5875    88.5949   -45.8167     8.9700   -65.8271     0.0121     2.5491     0.2523
 1494.5000   -75.4321    90.2185     9.2887     8.0419     8.0719   -28.4391    88.8996   -45.8167     8.9700   -65.7371     0.0166     2.5476     0.2514
 1495.0000   -75.5785    91.6998     8.9747     8.0393     8.0732   -28.4413    89.2043   -45.8167     8.9688   -65.7371     0.0166     2.5444     0.2499
 1495.5000   -68.1696    94.7103     8.7273     8.0930     8.0743   -28.4435    89.2838   -45.8167     8.9669   -75.6972     0.0137     2.5386     0.2505
 1496.0000   -68.3527    99.5252     8.6132     8.0908     8.0754   -28.4458    89.2793   -35.8566     8.9651   -75.6972     0.0062     2.5326     0.2520
 1496.5000   -68.4992   101.3327     8.7961     8.0886     8.0765   -28.5991    89.1435   -35.8566     8.9632   -75.6972     0.0002     2.5311     0.2511
 1497.0000   -68.6466    95.3206     8.9825     8.1432     8.1336   -28.9025    88.7725   -35.8566     8.9613   -75.6972     0.0047     2.5357     0.2487
 1497.5000   -61.2733    88.1054     9.0467     8.1976     8.1912   -29.0553    88.4766   -35.8566     8.9595   -75.7470     0.0108     2.5358     0.2496
 1498.0000   -46.4188    87.7351     9.1109     8.2518     8.3063   -29.0575    88.1056   -35.8566     8.9576   -72.6872     0.0032     2.5342     0.2484
 1498.5000   -46.5653    90.5173     9.2402     8.3644     8.4233   -29.0597    87.8097   -35.8566     8.9557   -66.4725    -0.0012     2.5343     0.2463
 1499.0000   -46.7117    90.5203     9.5674     8.4788     8.6009   -29.2125    87.8891   -35.8566     8.9539   -65.7371    -0.0012     2.5358     0.2445
 1499.5000   -46.8582    86.3134     9.7701     8.4765     8.6620   -29.3653    87.8183   -35.8566     8.9520   -65.7371    -0.0042     2.5388     0.2421
 1500.0000   -47.0047    82.1058     8.8698     8.4742     8.6032   -29.6687    87.8228   -35.8566     8.9502   -65.7371    -0.0079     2.5431     0.2403
 1500.5000   -54.6700    81.5064     8.5108     8.5308     8.6046   -29.9721    87.8273   -35.8566     8.9483   -65.7371    -0.0131     2.5525     0.2424
 1501.0000   -62.3474    85.7206     9.2500     8.5279     8.6050   -30.1249    87.7576   -45.8167     8.9464   -55.7769    -0.0070     2.5585     0.2445
 1501.5000   -62.8933    89.6336     9.5141     8.6451     8.6054   -29.6753    87.0112   -45.8167     8.9446   -55.7769    -0.0009     2.5555     0.2463
 1502.0000   -63.5068    87.8320     9.5549     8.7627     8.6058   -28.9250    80.0337   -45.6424     8.9427   -55.7769     0.0083     2.5525     0.2469
 1502.5000   -64.1204    85.7289     9.4235     8.7603     8.6063   -28.4754    67.3503   -44.3865     8.9409   -55.7946     0.0399     2.5555     0.2442
 1503.0000   -64.7340    87.2364     8.6313     8.8807     8.6666   -28.3265    41.0785   -43.1284     8.9390   -55.9983     0.0535     2.5672     0.2403
 1503.5000   -65.3475    90.5476     8.5131     8.9067     8.7273   -28.5489    40.3310   -41.8700     8.9371   -55.3035     0.0551     2.5842     0.2391
 1504.0000   -65.9611    92.3550     9.3152     8.8266     8.7279   -28.7920    40.3365   -40.6125     8.9353   -43.3409     0.0506     2.5917     0.2397
 1504.5000   -66.5747    94.1625     9.6798     8.7397     8.6683   -29.0352    48.2988   -39.3551     8.9334   -35.8566     0.0417     2.5872     0.2409
 1505.0000   -67.1882    95.3684     9.8684     8.7362     8.7292   -29.4153    64.7780   -38.0976     8.9315   -43.0279     0.0294     2.5721     0.2436
 1505.5000   -67.8018    92.9244     9.9158     8.7326     8.7298   -29.7024    88.5489   -36.8401     8.9298   -50.5428     0.0118     2.5566     0.2475
 1506.0000   -68.4154    92.0660     9.7128     8.7291     8.7304   -29.7053    92.7575   -45.8167     8.9306   -58.0578    -0.0138     2.5283     0.2500
 1506.5000   -69.0289    95.3779     9.3184     8.6653     8.7310   -29.7082    91.0352   -45.8167     8.9450   -65.7371    -0.0363     2.5200     0.2515
 1507.0000   -69.6425    97.4861     8.8771     8.6610     8.7316   -29.5598    86.9855   -35.5254     8.9504   -75.6972    -0.0452     2.5177     0.2511
 1507.5000   -70.2560    98.9928     8.6895     8.6575     8.7927   -29.4122    85.7125   -36.8310     8.9501   -72.4104    -0.0421     2.5230     0.2485
 1508.0000   -70.8696    90.8754     9.1923     8.7150     8.7933   -29.2652    86.0183   -43.7178     8.9500   -69.0704    -0.0248     2.5283     0.2497
