~VERSION INFORMATION
 VERS.                2.0:   CWLS LOG ASCII STANDARD - VERSION 2.0
 WRAP.                 NO:   ONE LINE PER DEPTH STEP
~WELL INFORMATION
#MNEM.UNIT      DATA TYPE    INFORMATION
#----------   ------------   ------------------------------
 STRT.F           50.0000:   START DEPTH
 STOP.F         3270.0000:   STOP DEPTH
 STEP.F            0.5000:   STEP LENGTH
 NULL.          -999.2500:   NO VALUE
 COMP.   LAWRENCE ALLISON:   COMPANY
 WELL. LAWRENCE NPR 3 "AX" #12-11:   WELL
 FLD .                NPR:   FIELD
 LOC .      S11 T38N R78W:   LOCATION
 CNTY.            NATRONA:   COUNTY
 STAT.            WYOMING:   STATE
 CTRY. UNITED STATES OF AMERICA:   COUNTRY
 SRVC.      DRESSER ATLAS:   SERVICE COMPANY
 DATE.        18-JUL-1985:   LOGDATE
 API .     49025110460000:   API NUMBER
~CURVE INFORMATION
#MNEM.UNIT       API CODE    CURVE DESCRIPTION
#----------   ------------   ------------------------------
 DEPT.F                  :   
 TEND.LBS    45 635 01 00:   TENSION FROM DENSITY LOG
 RHOB.G/C3   45 350 01 00:   BULK DENSITY
 CORR.G/C3   45 356 01 00:   DENSITY CORRECTION
 NPHI.DEC    42 890 03 00:   NEUTRON POROSITY SANDSTONE
 TENR.LBS    07 635 01 00:   TENSION
 GRR .GAPI   07 310 01 00:   GAMMA RAY FROM RESISTIVITY
 RFOC.OHMM   07 220 01 00:   RESISTIVITY FOCUSED LOG RES.
 RILD.OHMM   07 120 46 00:   INDUCTION LOG DEEP RESISTIVITY
 RILM.OHMM   07 120 44 00:   INDUCTION LOG MEDIUM RESISTIVITY
 SN  .OHMM   01 040 00 00:   SHORT NORMAL
 ILD .OHMM   07 120 46 00:   INDUCTION LOG DEEP RESISTIVITY
 TENS.LBS    60 635 01 00:   TENSION FROM SONIC LOG
 DT  .US/F   60 520 00 00:   DELTA TIME
 SPR .MV     07 010 01 00:   SPONTANEOUS POTENTIAL
~PARAMETER INFORMATION
#MNEM.UNIT          VALUE    DESCRIPTION
#----------   ------------   ------------------------------
 EKB .F         5152.0000:   Kelly bushing
 EGL .F         5140.0000:   Ground level
 EDF .F            0.0000:   Drilling floor
 TD  .F         3271.0000:   Total depth
 DATE.        18-JUL-1985:   Date logged
 CLNT.            A2DTECH:   Client Code
 SL  . 1050' FNL & 150' FWL:   Surface Location
 PD  .                 GL:   Permanent Datum
 EPD .F              5140:   Elevation Permanent Datum
 LMF .                 KB:   Log Measured From
 DMF .                 KB:   Drilling Measured From
 DAPD.F                12:   Feet Above Permanent Datum
 DD  .F              3271:   Depth driller
 DL  .F              3262:   Depth logger
 BLI .F              3259:   Bottom log interval
 CS1 .IN            8.625:   Casing size
 CBD1.      8.625" @ 560':   Casing driller 1
 CBL1.F               560:   Casing logger 1
 BS1 .IN            7.875:   Bit size
 BSD1.F              3271:   Depth drilled with bit1
 DFT .            GEL/KCL:   Type fluid in hole
 DFD .                8.8:   Density
 DFV .                 40:   Viscosity
 DFPH.                  8:   pH
 DFL .                  8:   Fluid loss
 MSS .           MUD/TANK:   Source of sample
 RMS .OHMM            .31:   Rm
 MST .F                82:   Rm Meas. temp.
 RMF .OHMM            .25:   Rmf
 MFST.F                82:   Rmf Meas. temp.
 RMC .OHMM            .39:   Rmc
 MCST.F                82:   Rmc Meas. temp.
 MFSS.               MEAS:   Source Rmf.
 MCSS.               CALC:   Source Rmc.
 RMB .OHMM           .198:   Rm. at BHT
 BHT .F               128:   BHT.
 TCS .HRS               3:   Time Circ. stopped
 MRT .F               128:   Maximum recorded temp.
 LUN .            HL-6274:   Logging unit number
 LUL .           GILLETTE:   Logging unit location
 ENGI.             RAUTIO:   Recorded By
 WITN.             STRONG:   Witnessed by
 ORIG.           5" PRINT:   Origin of data
 UWI .     49025110460000:   Unique Well ID
 DICO. A2D TECHNOLOGIES, INC.:   Digitizing Company
~OTHER INFORMATION
~A   DEPT     TEND       RHOB       CORR       NPHI       TENR        GRR       RFOC       RILD       RILM           SN        ILD     TENS         DT         SPR  
# ...
 2818.5000   -45.4540     2.5510     0.0120     0.2100   -55.3260    93.6390    10.1130     9.5060     9.6810  -999.2500  -999.2500   -72.2460    75.2070    65.2290
 2819.0000   -45.8390     2.5550     0.0120     0.2170   -55.8160    98.1040     9.5940     9.5060     9.8620  -999.2500  -999.2500   -71.7170    76.0650    64.9440
 2819.5000   -45.7370     2.5540    -0.0050     0.2190   -56.3070    99.8680     9.7580     9.4590     9.6940  -999.2500  -999.2500   -71.1880    76.7620    64.6580
 2820.0000   -45.2050     2.5470    -0.0120     0.2120   -56.7980    98.8080    10.3250     9.3440     9.4870  -999.2500  -999.2500   -70.6590    76.9930    64.3720
 2820.5000   -44.6720     2.5370    -0.0020     0.2080   -57.2890    94.6590    10.2340     9.2290     9.2790  -999.2500  -999.2500   -70.1300    77.2240    64.1950
 2821.0000   -44.1400     2.5410     0.0010     0.2050   -57.7800    89.9270    10.0190     9.1630     9.0710  -999.2500  -999.2500   -69.6010    77.4010    64.8360
 2821.5000   -43.6070     2.5480     0.0060     0.2270   -58.2710    88.1680     9.7720     8.8260     8.5890  -999.2500  -999.2500   -69.0720    77.5510    65.5250
 2822.0000   -43.0750     2.5560     0.0130     0.2590   -58.7610    87.6720    10.4730     8.2990     7.9510  -999.2500  -999.2500   -68.5430    77.3890    66.2150
 2822.5000   -42.5430     2.5420     0.0160     0.2780   -59.2520    97.7190    11.2150     7.7710     7.3140  -999.2500  -999.2500   -68.0140    77.1020    66.9030
 2823.0000   -42.0100     2.5280     0.0220     0.2890   -59.7430   108.4590     9.6970     7.2430     6.6760  -999.2500  -999.2500   -67.4850    78.8280    67.5830
 2823.5000   -41.4780     2.5160     0.0150     0.2790   -60.2340   118.9690     8.2640     6.7160     6.0390  -999.2500  -999.2500   -66.9550    80.7780    68.2120
 2824.0000   -40.9450     2.5070     0.0050     0.2690   -60.7250   121.2700     6.8320     6.1880     5.4290  -999.2500  -999.2500   -66.4260    83.7970    68.3450
 2824.5000   -40.4130     2.5010    -0.0040     0.2730   -61.2160   123.8980     5.5300     5.6610     5.2010  -999.2500  -999.2500   -65.8970    86.9620    68.3530
 2825.0000   -39.8800     2.5000    -0.0140     0.2690   -61.7070   127.6970     5.5750     5.1620     5.0830  -999.2500  -999.2500   -65.7370    88.2930    68.3540
 2825.5000   -39.3480     2.5020    -0.0140     0.2760   -62.1970   128.2630     5.6320     5.1360     4.9080  -999.2500  -999.2500   -65.7370    88.7550    68.3530
 2826.0000   -38.8150     2.5100    -0.0090     0.2700   -62.6880   124.5750     5.6840     5.1180     5.0260  -999.2500  -999.2500   -65.7370    87.9740    68.3530
 2826.5000   -38.2830     2.5150    -0.0030     0.2700   -63.1790   120.5590     5.8520     5.1000     5.2330  -999.2500  -999.2500   -65.7370    87.1100    68.3530
 2827.0000   -37.7510     2.5120     0.0010     0.2690   -63.6700   117.7140     6.0870     5.0820     5.2200  -999.2500  -999.2500   -65.7370    86.5420    68.3530
 2827.5000   -37.2180     2.5040     0.0000     0.2690   -64.1610   117.5820     6.4050     5.0640     5.1960  -999.2500  -999.2500   -65.7370    86.0920    68.3510
 2828.0000   -36.6860     2.4960    -0.0070     0.2630   -64.6520   119.0950     6.3050     5.0450     5.1710  -999.2500  -999.2500   -65.7370    86.2700    68.1950
 2828.5000   -36.1530     2.4900    -0.0140     0.2630   -65.1420   121.1700     6.1710     4.9910     5.1460  -999.2500  -999.2500   -65.7370    86.6910    67.8250
 2829.0000   -44.1290     2.4840    -0.0170     0.2700   -65.5530   120.7590     6.0370     4.9410     5.1220  -999.2500  -999.2500   -65.7370    87.1120    67.4580
 2829.5000   -56.6420     2.4870    -0.0140     0.2920   -65.4490   120.2690     5.9020     4.8920     5.0970  -999.2500  -999.2500   -65.7370    87.5330    67.0910
 2830.0000   -69.1540     2.5010    -0.0020     0.2840   -65.3400   119.7130     5.7680     4.8420     5.0720  -999.2500  -999.2500   -65.7370    87.9540    66.7230
 2830.5000   -75.6070     2.5000    -0.0080     0.2730   -65.2310   121.4550     5.6320     4.7930     5.0480  -999.2500  -999.2500   -65.7370    88.3750    66.3580
 2831.0000   -75.0380     2.4950    -0.0200     0.2630   -65.1230   123.6170     5.5960     4.7430     5.0230  -999.2500  -999.2500   -65.7370    88.7960    65.9910
 2831.5000   -74.4700     2.4850    -0.0300     0.2670   -65.0140   125.5520     5.5590     4.6930     4.9980  -999.2500  -999.2500   -65.7370    89.2290    65.5730
 2832.0000   -73.9010     2.4900    -0.0200     0.2710   -64.9050   126.2800     5.5300     4.6440     4.9980  -999.2500  -999.2500   -65.7370    89.5870    65.2330
 2832.5000   -73.3320     2.5060     0.0060     0.2720   -64.7970   125.6480     5.6330     4.6440     4.9980  -999.2500  -999.2500   -65.7370    89.5920    65.3740
 2833.0000   -72.7630     2.5230     0.0110     0.2730   -64.6880   124.1550     5.7590     4.6720     4.9970  -999.2500  -999.2500   -65.7370    89.3600    65.5670
 2833.5000   -72.1950     2.5310     0.0140     0.2740   -64.5790   122.5020     5.8850     4.7170     5.0460  -999.2500  -999.2500   -65.7370    88.7980    65.7640
 2834.0000   -71.6260     2.5320     0.0090     0.2820   -64.4710   122.1680     6.0060     4.7610     5.0300  -999.2500  -999.2500   -65.7370    88.5080    65.6260
 2834.5000   -71.0570     2.5270    -0.0030     0.2880   -64.3620   123.3530     5.9910     4.8050     5.0150  -999.2500  -999.2500   -65.7370    88.6060    65.3320
 2835.0000   -70.4880     2.5240    -0.0060     0.2990   -64.2530   125.6430     5.9560     4.8500     4.9980  -999.2500  -999.2500   -65.7370    89.0060    65.0390
 2835.5000   -69.9200     2.5230     0.0010     0.2920   -64.1450   125.7850     5.9220     4.8940     5.0230  -999.2500  -999.2500   -65.7370    89.4060    64.7730
 2836.0000   -69.3510     2.5210     0.0080     0.2800   -64.0360   124.1440     5.8540     4.9390     5.0750  -999.2500  -999.2500   -65.7370    89.6440    64.6240
 2836.5000   -68.7820     2.5180     0.0110     0.2810   -63.9270   122.4910     5.8970     4.9830     5.1270  -999.2500  -999.2500   -65.7370    89.6270    64.8000
 2837.0000   -68.2130     2.5170     0.0120     0.2830   -63.8190   122.9190     5.8430     5.0280     5.1800  -999.2500  -999.2500   -65.7370    89.6090    65.0410
 2837.5000   -67.6450     2.5160     0.0130     0.2800   -63.7100   123.5200     5.8430     5.0720     5.2320  -999.2500  -999.2500   -65.7370    89.5910    65.2800
 2838.0000   -67.0760     2.5140     0.0070     0.2710   -63.6020   122.4060     5.9300     5.1160     5.2840  -999.2500  -999.2500   -75.6970    89.5730    65.5180
 2838.5000   -66.5070     2.5060     0.0000     0.2730   -63.4930   119.1460     5.9960     5.1380     5.3300  -999.2500  -999.2500   -75.3700    89.5550    65.7550
 2839.0000   -65.9200     2.4930    -0.0090     0.2760   -63.3840   117.3520     6.0630     5.1270     5.3300  -999.2500  -999.2500   -74.9630    89.6870    65.9930
 2839.5000   -66.5220     2.4830    -0.0210     0.2630   -63.2760   118.2970     6.1300     5.1050     5.3050  -999.2500  -999.2500   -74.5570    89.8530    66.2300
 2840.0000   -67.1440     2.4800    -0.0290     0.2640   -63.1670   119.6140     6.1740     5.0830     5.2820  -999.2500  -999.2500   -74.1500    90.0200    66.4680
 2840.5000   -67.7660     2.4870    -0.0220     0.2640   -63.0580   120.9760     6.1240     5.0610     5.2590  -999.2500  -999.2500   -73.7440    90.1870    66.5660
 2841.0000   -68.3880     2.4970    -0.0130     0.2650   -62.9500   120.7660     6.0810     5.0390     5.2360  -999.2500  -999.2500   -73.3370    90.3530    66.4720
 2841.5000   -69.0090     2.5020     0.0050     0.2750   -62.8410   119.5760     6.0060     5.0170     5.2130  -999.2500  -999.2500   -72.9310    90.5200    66.3170
 2842.0000   -69.6310     2.5020     0.0050     0.2860   -62.7320   117.3230     5.8430     4.9980     5.1910  -999.2500  -999.2500   -72.5240    90.6370    66.1600
 2842.5000   -70.2530     2.4970    -0.0050     0.2890   -62.6240   116.8930     5.8430     4.8910     5.1230  -999.2500  -999.2500   -72.1170    90.5910    66.0020
