~VERSION INFORMATION
 VERS.                2.0:   CWLS LOG ASCII STANDARD - VERSION 2.0
 WRAP.                 NO:   ONE LINE PER DEPTH STEP
~WELL INFORMATION
#MNEM.UNIT      DATA TYPE    INFORMATION
#----------   ------------   ------------------------------
 STRT.F          211.5000:   START DEPTH
 STOP.F         3103.0000:   STOP DEPTH
 STEP.F            0.5000:   STEP LENGTH
 NULL.          -999.2500:   NO VALUE
 COMP.    FENIX & SCISSON:   COMPANY
 WELL. FENIX NPR 3 "AX" #38-10:   WELL
 FLD .  TEAPOT DOME - NPR:   FIELD
 LOC .      S10 T38N R78W:   LOCATION
 CNTY.            NATRONA:   COUNTY
 STAT.            WYOMING:   STATE
 CTRY. UNITED STATES OF AMERICA:   COUNTRY
 SRVC.           BIRDWELL:   SERVICE COMPANY
 DATE.        01-JUL-1978:   LOGDATE
 API .     49025106550000:   API NUMBER
~CURVE INFORMATION
#MNEM.UNIT       API CODE    CURVE DESCRIPTION
#----------   ------------   ------------------------------
 DEPT.F                  :   
 CALD.IN     45 280 60 00:   CALIPER FROM DENSITY LOG
 GRD .GAPI   45 310 01 00:   GAMMA RAY FROM DENSITY LOG
 RHOB.G/C3   45 350 01 00:   BULK DENSITY
 CORR.G/C3   45 356 01 00:   DENSITY CORRECTION
 NPOR.DEC    42 890 03 00:   ALPHA PROCESSED NEUTRON POROSITY
 SPR .MV     05 010 01 00:   SPONTANEOUS POTENTIAL
 SN  .OHMM   05 040 00 00:   SHORT NORMAL
 ILD .OHMM   05 120 46 00:   DEEP INDUCTION RESISTIVITY
~PARAMETER INFORMATION
#MNEM.UNIT          VALUE    DESCRIPTION
#----------   ------------   ------------------------------
 EKB .F         5240.0000:   Kelly bushing
 EGL .F         5230.0000:   Ground level
 TD  .F         3103.0000:   Total depth
 DATE.        01-JUL-1978:   Date logged
 CLNT.            A2DTECH:   Client Code
 SL  . 200' FSL & 2100' FWL:   Surface Location
 PD  .                 GL:   Permanent Datum
 EPD .F              5230:   Elevation Permanent Datum
 LMF .                 KB:   Log Measured From
 DMF .                 KB:   Drilling Measured From
 DAPD.F                10:   Feet Above Permanent Datum
 DD  .F              3100:   Depth driller
 DL  .F              3103:   Depth logger
 BLI .F              3096:   Bottom log interval
 TLI .F               228:   Top log interval
 CS1 .IN            8.625:   Casing size
 CBD1.      8.625" @ 224':   Casing driller 1
 CBL1.F               228:   Casing logger 1
 BS1 .IN            7.875:   Bit size
 BSD1.F              3100:   Depth drilled with bit1
 DFT .            MUD/GEL:   Type fluid in hole
 DFD .                8.7:   Density
 DFV .                 31:   Viscosity
 DFPH.               10.5:   pH
 DFL .                  7:   Fluid loss
 MSS .           FLOWLINE:   Source of sample
 BHT .F               109:   BHT.
 TCS .HRS             4.5:   Time Circ. stopped
 MRT .F               109:   Maximum recorded temp.
 LUN .               2958:   Logging unit number
 LUL .               CASP:   Logging unit location
 ENGI.             MILLER:   Recorded By
 ORIG.      2.5" 5" PRINT:   Origin of data
 UWI .     49025106550000:   Unique Well ID
 DICO. A2D TECHNOLOGIES, INC.:   Digitizing Company
~OTHER INFORMATION
~A   DEPT     CALD         GRD      RHOB       CORR       NPOR        SPR         SN        ILD   
# ...
 2682.0000    10.4264    64.1328     2.4569     0.0344     0.2438    -9.6201    20.6664    23.0752
 2682.5000    10.4262    64.1308     2.4571     0.0544     0.2128    -9.6201    20.8586    21.8391
 2683.0000    10.4260    64.1289     2.4690     0.0624     0.2104    -9.6201    20.4802    20.8600
 2683.5000    10.4259    64.5217     2.4718     0.0604     0.2105    -9.6201    20.2943    20.6706
 2684.0000    10.4454    66.0986     2.4639     0.0584     0.2073    -9.6201    20.2956    20.4827
 2684.5000    10.4255    66.2940     2.4609     0.0484     0.2049    -9.6201    19.9275    20.2970
 2685.0000    10.4253    65.1079     2.4611     0.0406     0.2049    -9.6201    19.7468    20.4858
 2685.5000    10.4251    63.9215     2.4403     0.0326     0.2042    -9.6201    19.7481    20.4874
 2686.0000    10.4446    62.7354     2.4343     0.0286     0.2018    -9.6201    19.2126    20.4888
 2686.5000    10.4247    62.7334     2.4363     0.0228     0.2113   -10.2135    18.8640    20.4902
 2687.0000    10.4245    62.9288     2.4353     0.0228     0.2193   -10.6091    18.6927    20.3042
 2687.5000    10.4440    62.9269     2.4324     0.0228     0.2217   -10.6091    18.3536    19.5728
 2688.0000    10.4241    63.3197     2.4334     0.0248     0.2217   -11.0047    17.8558    18.8678
 2688.5000    10.4436    64.1072     2.4403     0.0268     0.2201   -10.8069    17.2127    18.0219
 2689.0000    10.4237    65.8815     2.4533     0.0328     0.2146   -11.5981    16.7458    17.2138
 2689.5000    10.4431    67.6558     2.4620     0.0368     0.2114   -12.1915    16.4420    16.7469
 2690.0000    10.4430    69.0354     2.4610     0.0368     0.2011   -11.7959    15.7050    16.1437
 2690.5000    10.4429    68.6387     2.4620     0.0388     0.1987   -12.9827    15.0008    15.4205
 2691.0000    10.4426    68.6368     2.4702     0.0408     0.1980   -13.1805    14.5939    15.4211
 2691.5000    10.4424    68.8484     2.4821     0.0408     0.1972   -13.1805    14.5949    15.1413
 2692.0000    10.4225    70.4269     2.4901     0.0388     0.1956   -13.1805    14.5959    15.0038
 2692.5000    10.4223    74.7492     2.4782     0.0330     0.1932   -13.5762    14.7316    15.0048
 2693.0000    10.4221    77.1329     2.4742     0.0250     0.1948   -13.7740    14.7325    15.0052
 2693.5000    10.4219    74.9604     2.4752     0.0230     0.1996   -13.7740    14.8695    15.0068
 2694.0000    10.4217    75.3528     2.4722     0.0230     0.2163   -13.3784    14.8705    15.1463
 2694.5000    10.4215    76.3376     2.4713     0.0230     0.2187   -13.7740    14.7355    15.2872
 2695.0000    10.4213    73.5553     2.4762     0.0230     0.2267   -13.7740    14.6017    15.0098
 2695.5000    10.4211    69.4084     2.4802     0.0230     0.2331   -13.7740    14.3367    14.6026
 2696.0000    10.4209    67.2355     2.4802     0.0232     0.2498   -13.5762    13.9480    14.3377
 2696.5000    10.4207    67.4471     2.4703     0.0232     0.2601   -14.1696    13.8214    14.2077
 2697.0000    10.4205    68.4331     2.4632     0.0232     0.2609   -14.1696    13.3235    13.9499
 2697.5000    10.4203    77.1155     2.4582     0.0272     0.2610   -14.1696    13.0817    13.5715
 2698.0000    10.4201    77.5082     2.4763     0.0370     0.2586   -14.1696    13.3252    13.3202
 2698.5000    10.4199    77.1112     2.4833     0.0490     0.2538   -14.3674    12.2683    12.8782
 2699.0000    10.4197    76.7145     2.4922     0.0510     0.2467   -14.3674    11.8264    12.4509
 2699.5000    10.3998    79.2787     2.4823     0.0490     0.2443   -14.3674    11.6118    11.9366
 2700.0000    10.3996    89.9342     2.4744     0.0472     0.2372   -15.1586    11.6125    11.8279
 2700.5000    10.3994    90.7256     2.4744     0.0396     0.2388   -14.4547    11.4045    11.8288
 2701.0000    10.4197    88.3591     2.4751     0.0392     0.2563   -13.9718    11.6126    12.0474
 2701.5000    10.4199    86.7820     2.4771     0.0412     0.2587   -13.1805    12.1586    12.3842
 2702.0000    10.3806    85.5993     2.4871     0.0372     0.2610   -12.7849    12.7303    12.9664
 2702.5000    11.0321    83.4308     2.4624     0.0332     0.2626   -11.5981    13.9555    13.5761
 2703.0000    10.2232    81.2616     2.4455     0.0232     0.2634   -10.8069    15.8714    14.7465
 2703.5000    10.2036    71.7725     2.4455     0.0172     0.2666   -10.6091    17.5596    18.2684
 2704.0000    10.2038    71.5771     2.4395     0.0132     0.2666   -10.4113    18.3852    24.2208
 2704.5000    10.2040    74.1634     2.4286     0.0192     0.2627    -9.6201    19.6066    24.4444
 2705.0000    10.2041    74.1642     2.4286     0.0232     0.2356    -9.2245    19.7876    24.4444
 2705.5000    10.2043    66.6489     2.4316     0.0290     0.2213    -8.4333    19.7876    24.2208
 2706.0000    10.2046    58.5588     2.4296     0.0330     0.2126    -8.2355    19.9703    23.9993
 2706.5000    10.1653    51.2582     2.4166     0.0330     0.2126    -6.6531    19.7876    23.9993
 2707.0000    10.0865    49.0890     2.4017     0.0310     0.2126    -5.8619    19.7876    23.7798
 2707.5000    10.0867    48.1040     2.3896     0.0310     0.2118    -5.4663    19.6066    23.3467
 2708.0000    10.0869    48.8954     2.3797     0.0310     0.2086    -5.4663    19.7876    23.3467
 2708.5000    10.0871    50.0816     2.3928     0.0330     0.2078    -5.2685    19.7876    23.1332
 2709.0000    10.0873    49.6892     2.3958     0.0330     0.2062    -4.8729    19.7876    23.1332
 2709.5000    10.0875    49.6911     2.3928     0.0310     0.2078    -4.8729    19.8376    23.1332
 2710.0000    10.0877    49.5131     2.3898     0.0330     0.2174    -4.8729    19.8878    23.1332
 2710.5000    10.0879    51.2740     2.3878     0.0328     0.2198    -4.6751    19.9381    23.3467
 2711.0000    10.0881    52.4602     2.3898     0.0348     0.2174    -4.8729    19.6066    23.1332
 2711.5000    10.0883    52.4621     2.3947     0.0328     0.2118    -5.0707    19.6066    22.7119
 2712.0000    10.0885    52.2667     2.3977     0.0328     0.1991    -5.4663    19.6066    22.5042
 2712.5000    10.0887    51.8739     2.4037     0.0348     0.1927    -6.0597    19.6066    21.8923
 2713.0000    10.0889    52.8627     2.4166     0.0348     0.1848    -6.4553    19.6066    21.8923
 2713.5000    10.0891    54.6410     2.4226     0.0328     0.1776    -6.8509    19.6066    22.0944
 2714.0000    10.0893    55.0377     2.4225     0.0328     0.1768    -6.4553    19.4273    22.2984
 2714.5000    10.0895    55.4343     2.4305     0.0328     0.1920    -7.8399    19.6066    23.1332
 2715.0000    10.0897    54.8442     2.4285     0.0328     0.2031    -8.0377    19.7876    24.8978
 2715.5000    10.0899    55.4382     2.4245     0.0328     0.2071    -8.4333    19.9703    25.3596
 2716.0000    10.0901    59.0111     2.4166     0.0288     0.2278    -8.0377    20.5285    25.8300
 2716.5000    10.0903    58.4201     2.4434     0.0268     0.2349    -8.6311    20.1546    25.5937
 2717.0000    10.0905    54.4575     2.4573     0.0248     0.2357    -8.6311    20.1546    25.8300
 2717.5000    10.1104    52.0909     2.4652     0.0248     0.2381    -8.6311    20.1546    26.0684
 2718.0000    10.0909    51.3034     2.4859     0.0248     0.2381    -8.8289    19.7876    25.3596
 2718.5000    10.0911    50.3188     2.4780     0.0366     0.2357    -9.0267    19.6066    25.5937
 2719.0000    10.0913    51.7024     2.4571     0.0446     0.2294    -9.2245    19.4273    24.2208
 2719.5000    10.0915    53.4803     2.4424     0.0466     0.2254    -9.2245    19.4273    24.2208
 2720.0000    10.0917    54.4691     2.4374     0.0544     0.2151    -8.4333    19.6066    22.9216
 2720.5000    10.0919    51.9055     2.4314     0.0604     0.2095    -7.6421    19.2496    21.6631
 2721.0000    10.0921    52.6970     2.4235     0.0544     0.2031    -7.6421    19.2496    21.6921
 2721.5000    10.0923    54.0805     2.4245     0.0484     0.2016    -7.6421    19.4273    21.4936
 2722.0000    10.0924    57.0431     2.4245     0.0404     0.1833    -7.6421    19.4273    21.4936
