~VERSION INFORMATION
 VERS.                2.0:   CWLS LOG ASCII STANDARD - VERSION 2.0
 WRAP.                 NO:   ONE LINE PER DEPTH STEP
~WELL INFORMATION
#MNEM.UNIT      DATA TYPE    INFORMATION
#----------   ------------   ------------------------------
 STRT.F          387.0000:   START DEPTH
 STOP.F         2921.0000:   STOP DEPTH
 STEP.F            0.5000:   STEP LENGTH
 NULL.          -999.2500:   NO VALUE
 COMP.    FENIX & SCISSON:   COMPANY
 WELL.  FENIX  "A" #21-28:   WELL
 FLD .          N.P.R. #3:   FIELD
 LOC .      S28 T39N R78W:   LOCATION
 CNTY.            NATRONA:   COUNTY
 STAT.            WYOMING:   STATE
 CTRY. UNITED STATES OF AMERICA:   COUNTRY
 SRVC.       SCHLUMBERGER:   SERVICE COMPANY
 DATE.        30-APR-1977:   LOGDATE
 API .     49025103550000:   API NUMBER
~CURVE INFORMATION
#MNEM.UNIT       API CODE    CURVE DESCRIPTION
#----------   ------------   ------------------------------
 DEPT.F                  :   
 SPR .MV     07 010 01 00:   SPONTANEOUS POTENTIAL
 ILD .OHMM   07 120 46 00:   DEEP INDUCTION RESISTIVITY
 ILM .OHMM   07 120 44 00:   INDUCTION LOG MEDIUM RESISTIVITY
 LL8 .OHMM   07 220 08 00:   LATEROLOG-8 RES.
 GRD .GAPI   45 310 01 00:   GAMMA RAY FROM DENSITY LOG
 CALD.IN     45 280 60 00:   CALIPER FROM DENSITY LOG
 CORR.G/C3   45 356 01 00:   DENSITY CORRECTION
 RHOB.G/C3   45 350 01 00:   BULK DENSITY
~PARAMETER INFORMATION
#MNEM.UNIT          VALUE    DESCRIPTION
#----------   ------------   ------------------------------
 EKB .F         4977.0000:   Kelly bushing
 EGL .F         4967.0000:   Ground level
 EDF .F            0.0000:   Drilling floor
 TD  .F         2922.0000:   Total depth
 CLNT.            A2DTECH:   Client Code
 SL  . 330' FNL & 990' FWL:   Surface Location
 DATE.        30-APR-1977:   Date Logged [DD-MMM-YYYY]
 DD  .F              2915:   Depth driller
 DL  .F              2922:   Depth logger
 BLI .F              2916:   Bottom log interval
 TLI .F               394:   Top log interval
 CS1 .              8.625:   Casing size
 CBD1.      8.625" @ 390':   Casing driller 1
 CBL1.IN              394:   Casing logger 1
 BS1 .IN            7.875:   Bit size
 BSD1.F              2915:   Depth drilled with bit1
 DFT .            KCL MUD:   Type fluid in hole
 DFD .                8.9:   Density
 DFV .                 87:   Viscosity
 DFPH.                8.5:   pH
 DFL .                9.6:   Fluid loss
 MSS .                PIT:   Source of sample
 RMS .OHMM           0.25:   Rm
 MST .F                70:   Rm Meas. temp.
 RMF .OHMM           0.22:   Rmf
 MFST.F                70:   Rmf Meas. temp.
 MFSS.               MEAS:   Source Rmf.
 RMC .OHMM           0.38:   Rmc
 MCST.F                70:   Rmc Meas. temp.
 MCSS.               CALC:   Source Rmc.
 RMB .OHMM           0.09:   Rm. at BHT
 BHT .F               109:   BHT.
 TCS .HRS            1800:   Time Circ. stopped
 TLAB.HRS            2200:   Time logger at bottom
 MRT .F               109:   Maximum recorded temp.
 LUN .                711:   Logging unit number
 LUL .             CASPER:   Logging unit location
 ENGI.              SYLER:   Recorded By
 WITN.         PETTINGILL:   Witnessed by
 ORIG.           5" PRINT:   Origin of data
 UWI .     49025103550000:   Unique Well ID
 DICO. A2D TECHNOLOGIES, INC.:   Digitizing Company
 PD  .                 GL:   Permanent Datum
 EPD .F              4967:   Elevation Permanent Datum
 LMF .                 KB:   Log Measured From
 DMF .                 KB:   Drilling Measured From
 DAPD.F                10:   Feet Above Permanent Datum
~OTHER INFORMATION
~A   DEPT      SPR        ILD        ILM        LL8         GRD      CALD       CORR       RHOB   
# ...
  873.0000   -10.7493    10.6283    10.8389    10.5569   112.5185     9.0205     0.0229     2.5499
  873.5000   -10.5922    10.6313    10.7632    10.5606   114.5604     9.0064     0.0199     2.5577
  874.0000   -10.5861    10.5600    10.5412    10.5642   116.7578     9.0080     0.0362     2.5693
  874.5000   -10.4290    10.4899    10.4677    10.5679   115.8447     9.0095     0.0448     2.5702
  875.0000   -10.4229    10.4202    10.4670    10.4984   113.8430     9.0110     0.0418     2.5601
  875.5000   -10.4169    10.4238    10.4663    10.5021   113.3915     8.9966     0.0303     2.5408
  876.0000   -10.4097    10.3542    10.4656    10.5057   114.0387     8.9985     0.0350     2.5416
  876.5000   -10.4037    10.3575    10.5376    10.5093   116.3916     9.0001     0.0428     2.5510
  877.0000   -10.3977    10.2880    10.6840    10.5130   118.2780     9.0016     0.0390     2.5541
  877.5000   -10.3917    10.2916    10.7575    10.5166   121.2530     9.0032     0.0280     2.5540
  878.0000   -10.3857    10.2944    10.6086    10.4475   118.3181     9.0203     0.0151     2.5477
  878.5000   -10.3797    10.2972    10.4620    10.3790   115.8499     9.0219     0.0129     2.5418
  879.0000   -10.5262    10.3001    10.3891    10.3108   115.7138     9.0234     0.0173     2.5427
  879.5000   -10.6713    10.2316    10.3166    10.2432   115.1124     9.0250     0.0317     2.5543
  880.0000   -10.9674    10.2345    10.2447    10.2468   113.5773     9.0265     0.0488     2.5730
  880.5000   -10.9599    10.1666    10.2440    10.1794   113.5974     9.0280     0.0396     2.5692
  881.0000   -10.9539    10.1694    10.2433    10.1830   113.6175     9.0297     0.0172     2.5622
  881.5000   -10.9478    10.1019    10.3140    10.1865   113.4820     9.0312     0.0088     2.5530
  882.0000   -10.9418    10.0321    10.3131    10.1901   114.6223     9.0331     0.0127     2.5445
  882.5000   -10.9358     9.8993    10.3841    10.1936   116.9752     9.0346     0.0221     2.5461
  883.0000   -10.9298     9.7595    10.3117    10.1979   118.2229     9.0361     0.0183     2.5492
  883.5000   -10.9238     9.6259    10.1692    10.0603   118.2286     9.0533     0.0091     2.5508
  884.0000   -10.9178     9.4380     9.8907     9.8567   118.4499     9.0548     0.0091     2.5462
  884.5000   -10.9118     9.3754     9.4875     9.7244   119.8781     9.0720     0.0108     2.5385
  885.0000   -10.9058     9.2494     9.2918     9.5276   122.1813     9.0891     0.0163     2.5362
  885.5000   -10.8998     9.1874     9.2270     9.4651   122.8235     9.1063     0.0210     2.5378
  886.0000   -10.8938     9.1264     9.1627     9.2727   123.1546     9.1078     0.0149     2.5363
  886.5000   -10.8878     9.0658     9.0988     9.1467   124.1078     9.1250     0.0126     2.5331
  887.0000   -11.0343     9.0056     9.0354     9.0262   125.2165     9.1265     0.0119     2.5294
  887.5000   -10.8758     8.9465     8.9724     9.0294   125.7032     9.1593     0.0197     2.5279
  888.0000   -10.8698     8.9489     8.9098     9.0325   125.5678     9.1764     0.0245     2.5373
  888.5000   -10.8637     8.9514     8.9092     9.0356   124.6547     9.1935     0.0230     2.5428
  889.0000   -11.1599     8.8914     8.8471     9.0387   124.9858     9.1951     0.0246     2.5475
  889.5000   -11.4562     8.8944     8.8465     8.9793   127.6498     9.1966     0.0295     2.5522
  890.0000   -11.6012     8.8350     8.7848     8.9832   129.5361     9.1982     0.0348     2.5592
  890.5000   -11.5950     8.8375     8.7236     8.9234   131.1114     9.1841     0.0290     2.5631
  891.0000   -11.5890     8.8400     8.6628     8.8649   131.4425     9.1857     0.0149     2.5368
  891.5000   -11.7341     8.7813     8.6024     8.8687   130.2184     9.1716     0.0134     2.5244
  892.0000   -11.8792     8.7838     8.6018     8.8097   125.8839     9.1576     0.0119     2.5237
  892.5000   -11.8731     8.7862     8.5419     8.8135   118.2785     9.1435     0.0104     2.5276
  893.0000   -11.8671     8.7891     8.5413     8.8165   120.9474     9.1450     0.0098     2.5289
  893.5000   -11.8611     8.7915     8.5407     8.8196   123.7669     9.1288     0.0098     2.5297
  894.0000   -11.8551     8.7939     8.5996     8.8226   125.0312     9.1013     0.0107     2.5305
  894.5000   -12.0001     8.7963     8.5989     8.8257   122.2519     9.0877     0.0108     2.5317
  895.0000   -11.9939     8.7988     8.5983     8.8901   120.4007     9.0892     0.0124     2.5333
  895.5000   -11.9879     8.8012     8.5977     8.8932   121.0479     9.0748     0.0140     2.5364
  896.0000   -11.9819     8.8649     8.5971     8.9581   123.2452     9.0455     0.0156     2.5388
  896.5000   -11.9758     8.9290     8.6564     8.9612   125.5981     9.0470     0.0165     2.5381
  897.0000   -11.9698     8.9937     8.7159     9.0894   126.8624     9.0326     0.0158     2.5358
  897.5000   -11.9626     9.1853     8.7758     9.0925   126.1049     9.0345     0.0159     2.5335
  898.0000   -12.1091     9.3810     8.8361     9.2226   123.6366     9.0361     0.0152     2.5295
  898.5000   -12.1016     9.5146     8.9587     9.2899   122.2570     9.0216     0.0145     2.5257
  899.0000   -11.9445     9.7173     9.2097     9.4228   121.3440     9.0236     0.0138     2.5267
  899.5000   -11.9385     9.7877     9.5998     9.5576   120.7420     9.0251     0.0123     2.5329
  900.0000   -11.6111     9.8578    10.0759     9.5812   120.4510     9.0266     0.0124     2.5291
  900.5000   -11.3224     9.5246     9.4679     9.6965   119.2961     9.0282     0.0157     2.5315
  901.0000   -11.4690     9.4602     9.1463     9.4347   118.1411     9.0294     0.0187     2.5494
  901.5000   -11.4615     9.3318     8.8969     9.3074   115.9951     9.0212     0.0188     2.5572
  902.0000   -11.6081     9.2056     9.0844     9.1818   115.0748     9.0143     0.0189     2.5518
  902.5000   -11.4497     9.2075     9.2116     9.1202   115.7183     9.0075     0.0180     2.5459
  903.0000   -11.4437     9.2094     8.9605     9.1234   117.2906     9.0006     0.0144     2.5393
  903.5000   -11.5903     9.2113     8.8379     9.1259   118.5519     8.9947     0.0122     2.5316
  904.0000   -11.5829     9.2132     8.8386     9.1284   120.1243     8.9662     0.0046     2.5272
  904.5000   -11.5769     9.2151     8.9006     9.1944   121.6966     8.9684     0.0015     2.5155
  905.0000   -11.5710     9.1529     8.9631     9.2609   121.8650     8.9706     0.0024     2.5099
  905.5000   -11.5650     9.1552     8.9637     9.2634   120.1756     8.9566     0.0064     2.5142
  906.0000   -11.5589     9.1571     8.9025     9.2659   116.3047     8.9750     0.0126     2.5235
  906.5000   -11.7042     9.1590     8.7711     9.2685   115.0777     8.9772     0.0181     2.5296
  907.0000   -11.6968     9.0976     8.6008     9.2069   114.9350     8.9794     0.0205     2.5317
  907.5000   -11.6909     9.0995     8.4244     9.1459   116.6671     8.9815     0.0191     2.5309
  908.0000   -11.5339     9.0383     8.2518     9.1484   119.9502     8.9993     0.0130     2.5231
  908.5000   -11.5279     8.9778     8.0828     9.0873   119.1897     9.0015     0.0131     2.5068
  909.0000   -11.5220     8.8560     7.8082     8.9653   119.8289     9.0193     0.0178     2.5031
  909.5000   -11.5160     8.7358     7.5953     8.9052   122.6454     9.0215     0.0233     2.5133
  910.0000   -11.5101     8.6772     7.8636     8.7250   125.3064     9.0705     0.0288     2.5257
  910.5000   -11.5041     8.5594     8.0292     8.6073   125.4748     9.1195     0.0398     2.5319
  911.0000   -11.4982     8.5020     8.1417     8.4910   124.5630     9.1685     0.0610     2.5374
  911.5000   -11.4922     8.5690     8.1989     8.4934   122.2474     9.2643     0.1216     2.5506
  912.0000   -11.4863     8.7530     8.2564     8.5549   120.5537     9.4225     0.1530     2.5677
  912.5000   -11.4804     8.8076     8.2570     8.6766   117.9270     9.5963     0.1244     2.5111
  913.0000   -11.4743     8.8097     8.1439     8.8025   114.8337     9.4736     0.0436     2.4816
