~VERSION INFORMATION
 VERS.                2.0:   CWLS LOG ASCII STANDARD - VERSION 2.0
 WRAP.                 NO:   ONE LINE PER DEPTH STEP
~WELL INFORMATION
#MNEM.UNIT      DATA TYPE    INFORMATION
#----------   ------------   ------------------------------
 STRT.F           50.0000:   START DEPTH
 STOP.F         2832.5000:   STOP DEPTH
 STEP.F            0.5000:   STEP LENGTH
 NULL.          -999.2500:   NO VALUE
 COMP.    FENIX & SCISSON:   COMPANY
 WELL. FENIX NPR 3 "AX" #87-20:   WELL
 FLD .              N P R:   FIELD
 LOC .      S20 T39N R78W:   LOCATION
 CNTY.            NATRONA:   COUNTY
 STAT.            WYOMING:   STATE
 CTRY. UNITED STATES OF AMERICA:   COUNTRY
 SRVC.           BIRDWELL:   SERVICE COMPANY
 DATE.        01-AUG-1978:   LOGDATE
 API .     49025106780000:   API NUMBER
~CURVE INFORMATION
#MNEM.UNIT       API CODE    CURVE DESCRIPTION
#----------   ------------   ------------------------------
 DEPT.F                  :   
 CALD.IN     45 280 60 00:   CALIPER FROM DENSITY LOG
 CORR.G/C3   45 356 01 00:   DENSITY CORRECTION
 GRD .GAPI   45 310 01 00:   GAMMA RAY FROM DENSITY LOG
 RHOB.G/C3   45 350 01 00:   BULK DENSITY
 SPR .MV     05 010 01 00:   SPONTANEOUS POTENTIAL
 ILD .OHMM   05 120 46 00:   DEEP INDUCTION RESISTIVITY
 SN  .OHMM   05 040 00 00:   SHORT NORMAL
~PARAMETER INFORMATION
#MNEM.UNIT          VALUE    DESCRIPTION
#----------   ------------   ------------------------------
 EKB .F         5007.0000:   Kelly bushing
 EGL .F         4997.0000:   Ground level
 EDF .F            0.0000:   Drilling floor
 EPD .F            0.0000:   Permanent datum
 TD  .F         2832.0000:   Total depth
 DATE.        01-AUG-1978:   Date logged
 CLNT.            A2DTECH:   Client Code
 SL  . 940' FSL & 200' FEL:   Surface Location
 PD  .                 GL:   Permanent Datum
 DD  .F              2825:   Depth driller
 DL  .F              2832:   Depth logger
 BLI .F              2826:   Bottom log interval
 CS1 .IN            8.625:   Casing size
 CBD1.      8.625" @ 140':   Casing driller 1
 CBL1.F               240:   Casing logger 1
 BS1 .IN            7.875:   Bit size
 DFT .            KCL/GEL:   Type fluid in hole
 DFD .                  9:   Density
 DFV .                 34:   Viscosity
 DFL .                  8:   Fluid loss
 MSS .           FLOWLINE:   Source of sample
 RMS .OHMM            1.5:   Rm
 MST .F                70:   Rm Meas. temp.
 RMF .OHMM            .70:   Rmf
 MFST.F                72:   Rmf Meas. temp.
 RMC .OHMM            2.2:   Rmc
 MCST.F                75:   Rmc Meas. temp.
 MFSS.               MEAS:   Source Rmf.
 TCS .HRS               6:   Time Circ. stopped
 LUN .               3007:   Logging unit number
 LUL .               CASP:   Logging unit location
 ENGI.            POINTER:   Recorded By
 WITN.              AMEND:   Witnessed by
 ORIG.           5" PRINT:   Origin of data
 UWI .     49025106780000:   Unique Well ID
 DICO. A2D TECHNOLOGIES, INC.:   Digitizing Company
 DAPD.                 10:   Feet Above Permanent Datum
 BSD1.F              2825:   Depth drilled with bit1
 LMF .                 KB:   Log Measured From
 DMF .                 KB:   Drilling Measured From
 TLI .F               140:   Top log interval
~OTHER INFORMATION
~A   DEPT     CALD       CORR         GRD      RHOB        SPR        ILD         SN   
# ...
  505.0000     9.7300     0.1400   106.8340     2.5540   -23.2980     8.1720     7.1060
  505.5000     9.7280     0.1340   106.4900     2.5580   -23.4100     8.1850     7.0980
  506.0000     9.7460     0.1190   104.9970     2.5580   -23.4370     8.1970     7.0900
  506.5000     9.7450     0.1090   105.0210     2.5470   -23.2070     8.2090     7.0820
  507.0000     9.7450     0.1120   105.7050     2.5350   -22.9730     8.2220     7.0740
  507.5000     9.7480     0.1190   104.7440     2.5220   -22.8640     8.2340     7.0660
  508.0000     9.7510     0.1270   104.3480     2.5310   -22.8120     8.2470     7.0570
  508.5000     9.7540     0.1350   104.5170     2.5330   -22.7600     8.2590     7.0490
  509.0000     9.7570     0.1410   106.5640     2.5320   -22.7150     8.2710     7.0410
  509.5000     9.7600     0.1440   108.5950     2.5330   -22.8230     8.2840     7.0330
  510.0000     9.7630     0.1440   109.9680     2.5380   -23.4490     8.2960     7.0250
  510.5000     9.7640     0.1450   101.5150     2.5370   -23.3020     8.3080     7.0170
  511.0000     9.7410     0.1480   102.8770     2.5350   -23.1360     8.3120     7.0090
  511.5000     9.7170     0.1500    99.3800     2.5370   -22.9820     8.1880     7.0000
  512.0000     9.6920     0.1520    96.8590     2.5430   -23.0140     8.0220     6.9930
  512.5000     9.7070     0.1490    97.2890     2.5440   -23.5470     7.8560     6.9500
  513.0000     9.7380     0.1460    98.1690     2.5430   -24.0300     7.6550     6.7670
  513.5000     9.7380     0.1440    99.0380     2.5480   -24.0040     7.4380     6.5840
  514.0000     9.7280     0.1460    99.6360     2.5390   -23.9240     7.2240     6.4010
  514.5000     9.8000     0.1480    99.2770     2.5370   -23.8540     7.0110     6.2180
  515.0000     9.7980     0.1500    98.6540     2.5360   -24.0290     6.7980     6.0340
  515.5000     9.7890     0.1490    98.0600     2.5370   -24.2290     6.6690     5.8510
  516.0000     9.7890     0.1470    98.5100     2.5390   -24.4290     6.5760     5.6960
  516.5000     9.9040     0.1470   101.1100     2.5350   -24.3260     6.5140     5.5780
  517.0000     9.9230     0.1490   103.6490     2.5260   -24.0620     6.4430     5.4570
  517.5000     9.9230     0.1500   106.1270     2.5180   -23.7960     6.3710     5.4220
  518.0000     9.9230     0.1490   107.2460     2.5310   -23.5230     6.3000     5.3870
  518.5000     9.9230     0.1480   102.5470     2.5470   -23.5620     6.2600     5.3510
  519.0000     9.9230     0.1470   101.4590     2.5490   -23.6850     6.2260     5.3150
  519.5000     9.9230     0.1470   100.4140     2.5500   -23.8120     6.2030     5.2790
  520.0000     9.9250     0.1390   102.9940     2.5480   -23.8100     6.0420     5.2480
  520.5000     9.9290     0.1310   105.2810     2.5290   -23.6790     5.8920     5.2030
  521.0000     9.9330     0.1240   106.4470     2.5270   -23.8580     5.7430     5.1590
  521.5000     9.9370     0.1170   109.2950     2.5260   -24.1940     5.5580     5.1140
  522.0000     9.9410     0.1110   112.1440     2.5240   -22.7170     5.5700     5.0690
  522.5000     9.9450     0.1080   113.2400     2.5070   -22.4740     5.5910     5.0240
  523.0000     9.9490     0.1060   110.7580     2.4930   -22.4730     5.6120     4.9800
  523.5000     9.9530     0.1050   112.7920     2.4810   -22.4720     5.6330     5.0940
  524.0000     9.9590     0.1310   111.1620     2.4520   -22.4840     5.6540     5.2310
  524.5000     9.9700     0.1530   111.5260     2.4600   -22.8910     5.7420     5.3690
  525.0000    10.0980     0.1410   113.0370     2.4940   -23.3210     5.9150     5.5070
  525.5000     9.9190     0.1260   113.8850     2.5360   -23.6780     6.0880     5.6450
  526.0000     9.8980     0.1110   110.9070     2.5320   -23.7860     6.2030     5.7820
  526.5000     9.8840     0.1040   109.3450     2.5280   -23.9070     6.2030     5.8720
  527.0000     9.8700     0.1010   110.1360     2.5280   -24.0290     6.2030     5.8720
  527.5000     9.8550     0.1060   108.5620     2.5220   -24.1500     6.2030     5.8720
  528.0000     9.8440     0.1100   106.9910     2.5160   -24.2360     6.2030     5.8720
  528.5000     9.8400     0.1130   108.8730     2.5180   -24.0530     6.2030     5.8720
  529.0000     9.8350     0.1140   111.7660     2.5210   -23.8740     6.2030     5.8720
  529.5000     9.8300     0.1140   114.6740     2.5220   -24.2650     6.2030     5.8720
  530.0000     9.8250     0.0980   115.2880     2.5240   -24.2900     6.2030     5.8720
  530.5000     9.8240     0.0880   114.1510     2.5220   -23.8350     6.2030     5.8720
  531.0000     9.8160     0.0870   115.3940     2.5070   -23.8080     6.2030     5.8750
  531.5000     9.8080     0.0870   116.6050     2.4920   -24.0380     6.2030     5.8880
  532.0000     9.7990     0.1020   117.8180     2.4770   -24.2560     6.2150     5.9000
  532.5000     9.7900     0.1130   119.0200     2.4830   -24.0810     6.2820     5.9120
  533.0000     9.7820     0.1120   120.2340     2.4930   -23.8130     6.3490     5.9240
  533.5000     9.7730     0.1130   121.2550     2.4890   -23.5360     6.4170     5.9360
  534.0000     9.7640     0.1160   124.6410     2.4910   -23.5070     6.4840     5.9480
  534.5000     9.7550     0.1250   128.6770     2.5060   -23.5810     6.5030     5.9600
  535.0000     9.7450     0.1310   124.7670     2.5100   -23.6700     6.5180     5.9720
  535.5000     9.7660     0.1320   124.3090     2.5200   -24.0920     6.5340     5.9840
  536.0000     9.7680     0.1320   125.8010     2.5290   -24.4620     6.5530     5.9960
  536.5000     9.7710     0.1320   128.0330     2.5290   -24.2090     6.4250     6.0080
  537.0000     9.7730     0.1350   130.7150     2.5220   -24.0480     6.3140     6.0200
  537.5000     9.7760     0.1430   133.2010     2.5150   -24.0170     6.3070     6.0330
  538.0000     9.7780     0.1510   134.7810     2.5170   -23.9850     6.2990     6.0350
  538.5000     9.7800     0.1580   133.9820     2.5220   -23.9550     6.2910     6.0350
  539.0000     9.7830     0.1580   130.2820     2.5260   -23.9240     6.2840     6.0350
  539.5000     9.7850     0.1580   129.4970     2.5250   -23.8930     6.2760     6.0350
  540.0000     9.7970     0.1600   128.6880     2.5190   -23.8640     6.2680     6.0350
  540.5000     9.8110     0.1660   127.8930     2.5170   -23.9560     6.2600     6.0350
  541.0000     9.8240     0.1720   127.1920     2.5180   -24.0570     6.2600     6.0350
  541.5000     9.8140     0.1730   124.1930     2.5210   -24.1580     6.2600     6.0350
  542.0000     9.7980     0.1690   120.6200     2.5190   -24.2550     6.2600     6.0350
  542.5000     9.7820     0.1530   118.5170     2.5170   -24.2580     6.2600     6.0350
  543.0000     9.7660     0.1400   117.1780     2.5160   -24.2570     6.2600     6.0350
  543.5000     9.7500     0.1340   115.8110     2.5170   -24.2580     6.2600     6.0350
  544.0000     9.7520     0.1280   118.1600     2.5170   -24.2670     6.2600     6.0350
  544.5000     9.7620     0.1280   120.1430     2.5100   -23.8200     6.2600     6.0350
  545.0000     9.7720     0.1320   117.6880     2.4970   -23.6680     6.2600     6.0350
  545.5000     9.7820     0.1390   117.0490     2.4980   -23.6620     6.2630     6.0390
  546.0000     9.7880     0.1390   117.9630     2.5030   -23.6600     6.2940     6.0450
  546.5000     9.7930     0.1360   117.9630     2.5290   -23.7430     6.3240     6.0510
  547.0000     9.7970     0.1330   114.8940     2.5230   -23.8470     6.3550     6.0570
  547.5000     9.8020     0.1310   111.4770     2.5230   -23.9510     6.3850     6.0630
  548.0000     9.8070     0.1340   108.0450     2.5250   -24.0560     6.4160     6.0690
  548.5000     9.8110     0.1330   105.3510     2.5260   -24.1610     6.4460     6.0750
  549.0000     9.8160     0.1310   103.6200     2.5370   -24.2500     6.4930     6.0810
  549.5000     9.8210     0.1280   101.6360     2.5470   -24.6010     6.4850     6.0870
  550.0000     9.8250     0.1260   106.5990     2.5420   -25.0430     6.4680     6.0990
