~VERSION INFORMATION
 VERS.                2.0:   CWLS LOG ASCII STANDARD - VERSION 2.0
 WRAP.                 NO:   ONE LINE PER DEPTH STEP
~WELL INFORMATION
#MNEM.UNIT      DATA TYPE    INFORMATION
#----------   ------------   ------------------------------
 STRT.F           11.0000:   START DEPTH
 STOP.F         3368.0000:   STOP DEPTH
 STEP.F            0.5000:   STEP LENGTH
 NULL.          -999.2500:   NO VALUE
 COMP. LAWRENCE ALLISON AND ASSOC.:   COMPANY
 WELL. LAWRENCE NPR "AX" #3-11:   WELL
 FLD .                NPR:   FIELD
 LOC .      S11 T38N R78W:   LOCATION
 CNTY.            NATRONA:   COUNTY
 STAT.            WYOMING:   STATE
 CTRY. UNITED STATES OF AMERICA:   COUNTRY
 SRVC.      DRESSER ATLAS:   SERVICE COMPANY
 DATE.        17-JAN-1986:   LOGDATE
 API .     49025110540000:   API NUMBER
~CURVE INFORMATION
#MNEM.UNIT       API CODE    CURVE DESCRIPTION
#----------   ------------   ------------------------------
 DEPT.F                  :   
 TEND.LBS    45 635 01 00:   TENSION FROM DENSITY LOG
 DEN .G/C3   45 350 01 00:   BULK DENSITY
 CORR.G/C3   45 356 01 00:   DENSITY CORRECTION
 CNC .DEC    42 890 03 00:   NEUTRON PORISITY SANDSTONE
 TENR.LBS    07 635 01 00:   TENSION FROM RESISTIVITY
 CALR.IN     07 280 01 00:   CALIPER FROM RESISTIVITY
 SPR .MV     07 010 01 00:   SPONTANEOUS POTENTIAL
 GRR .GAPI   07 310 01 00:   GAMMA RAY FROM RESISTIVITY
 RFOC.OHMM   07 220 04 00:   RESISTIVITY FOCUSED LOG RES.
 RILD.OHMM   07 120 46 00:   INDUCTION LOG DEEP RESISTIVITY
 RILM.OHMM   07 120 44 00:   INDUCTION LOG MEDIUM RESISTIVITY
 TENS.LBS    60 635 01 00:   TENSION FROM SONIC
 AC  .US/F   60 250 00 00:   ACCOUSTIC
~PARAMETER INFORMATION
#MNEM.UNIT          VALUE    DESCRIPTION
#----------   ------------   ------------------------------
 EKB .F         5195.5000:   Kelly bushing
 EGL .F         5183.2000:   Ground level
 EDF .F         5194.5000:   Drilling floor
 TD  .F         3360.0000:   Total depth
 DATE.        17-JAN-1986:   Date logged
 CLNT.            A2DTECH:   Client Code
 SL  . 2389' FSL & 461'FWL:   Surface Location
 PD  .                 GL:   Permanent Datum
 EPD .F            5183.2:   Elevation Permanent Datum
 LMF .                 KB:   Log Measured From
 DMF .                 KB:   Drilling Measured From
 DAPD.F              12.3:   Feet Above Permanent Datum
 DD  .F              3360:   Depth driller
 DL  .F              3358:   Depth logger
 BLI .F              3356:   Bottom log interval
 TLI .F               575:   Top log interval
 CS1 .IN            8.625:   Casing size
 CBD1.      8.625" @ 575':   Casing driller 1
 CBL1.F               575:   Casing logger 1
 BS1 .IN            7.875:   Bit size
 BSD1.F              3360:   Depth drilled with bit1
 DFT .        POLYMER-KCL:   Type fluid in hole
 DFD .                  9:   Density
 DFV .                 36:   Viscosity
 DFPH.                  9:   pH
 DFL .                9.5:   Fluid loss
 MSS .           FLOWLINE:   Source of sample
 RMS .OHMM           .633:   Rm
 MST .F                68:   Rm Meas. temp.
 RMF .OHMM           .475:   Rmf
 MFST.F                68:   Rmf Meas. temp.
 RMC .OHMM           .791:   Rmc
 MCST.F                68:   Rmc Meas. temp.
 RMB .OHMM            .44:   Rm. at BHT
 BHT .F                98:   BHT.
 TCS .HRS               4:   Time Circ. stopped
 MRT .F                98:   Maximum recorded temp.
 LUN .               6264:   Logging unit number
 LUL .               GLTE:   Logging unit location
 ENGI.             MILLER:   Recorded By
 WITN.             STRONG:   Witnessed by
 ORIG.        2" 5" PRINT:   Origin of data
 UWI .     49025110540000:   Unique Well ID
 DICO. A2D TECHNOLOGIES, INC.:   Digitizing Company
~OTHER INFORMATION
~A   DEPT     TEND        DEN       CORR        CNC       TENR       CALR        SPR         GRR      RFOC       RILD       RILM       TENS         AC   
# ...
  947.0000  -999.2500  -999.2500  -999.2500  -999.2500  -111.7070     9.5180   -45.0350    89.7890     8.3400     7.9110     8.0810  -104.3600    91.2070
  947.5000  -999.2500  -999.2500  -999.2500  -999.2500  -112.6950     9.5260   -45.5180    88.2370     8.3150     7.8970     8.0580  -103.7610    91.3060
  948.0000  -999.2500  -999.2500  -999.2500  -999.2500  -113.6830     9.5300   -45.5380    86.9910     8.2890     7.8830     8.0360  -103.1610    91.4230
  948.5000  -999.2500  -999.2500  -999.2500  -999.2500  -114.7290     9.5170   -45.5590    87.3510     8.2640     7.8690     8.0130  -102.5610    91.5500
  949.0000  -999.2500  -999.2500  -999.2500  -999.2500  -113.4430     9.5030   -45.5990    91.0010     8.2380     7.8550     7.9900  -101.9610    91.4330
  949.5000  -999.2500  -999.2500  -999.2500  -999.2500  -112.0760     9.4890   -45.6400    92.0760     8.2120     7.8410     7.9670  -101.3620    91.3200
  950.0000  -999.2500  -999.2500  -999.2500  -999.2500  -110.7080     9.4750   -45.6800    91.7910     8.1870     7.8270     7.9440  -100.7620    91.2070
  950.5000  -999.2500  -999.2500  -999.2500  -999.2500  -109.3410     9.4610   -45.7200    91.7660     8.1610     7.8130     7.9210  -100.1620    91.2800
  951.0000  -999.2500  -999.2500  -999.2500  -999.2500  -107.9740     9.4470   -45.8800    94.6120     8.1350     7.7990     7.8980   -99.5630    91.5500
  951.5000  -999.2500  -999.2500  -999.2500  -999.2500  -106.6070     9.4330   -46.0960    95.7670     8.1100     7.7860     7.8750   -98.9630    91.7750
  952.0000  -999.2500  -999.2500  -999.2500  -999.2500  -105.2400     9.4200   -46.3140    94.3290     8.0840     7.7720     7.8520   -98.3630    92.0050
  952.5000  -999.2500  -999.2500  -999.2500  -999.2500  -104.0410     9.4050   -46.5150    90.8600     8.0580     7.7660     7.8380   -97.7640    92.2500
  953.0000  -999.2500  -999.2500  -999.2500  -999.2500  -102.9500     9.4030   -46.3060    89.4410     8.0850     7.7660     7.8380   -97.1640    91.9720
  953.5000  -999.2500  -999.2500  -999.2500  -999.2500  -101.8590     9.4030   -46.0740    91.6430     8.1110     7.7660     7.8380   -96.5640    91.6500
  954.0000  -999.2500  -999.2500  -999.2500  -999.2500  -100.7680     9.4030   -45.7590    93.3480     8.1370     7.7660     7.8380   -95.9650    91.4700
  954.5000  -999.2500  -999.2500  -999.2500  -999.2500   -99.6770     9.4090   -45.1830    94.5370     8.1630     7.7660     7.8380   -95.3650    91.3670
  955.0000  -999.2500  -999.2500  -999.2500  -999.2500   -98.5860     9.4300   -44.6270    91.9240     8.1900     7.7660     7.8380   -94.6890    91.4110
  955.5000  -999.2500  -999.2500  -999.2500  -999.2500   -97.4950     9.4500   -43.9540    88.6950     8.2080     7.7260     7.8380   -97.5700    91.4550
  956.0000  -999.2500  -999.2500  -999.2500  -999.2500   -96.4040     9.4700   -43.1640    88.3930     8.1790     7.6670     7.8380  -100.8680    91.4990
  956.5000  -999.2500  -999.2500  -999.2500  -999.2500   -95.3130     9.4910   -42.5580    91.6060     8.1520     7.6080     7.8380  -104.1670    91.5500
  957.0000  -999.2500  -999.2500  -999.2500  -999.2500   -94.6890     9.5110   -42.9260    97.1900     8.1250     7.5500     7.8280  -107.4650    91.7810
  957.5000  -999.2500  -999.2500  -999.2500  -999.2500   -94.6890     9.5310   -43.2710    97.3580     8.0980     7.4910     7.7830  -110.7630    92.0580
  958.0000  -999.2500  -999.2500  -999.2500  -999.2500   -94.6890     9.5520   -43.8600    93.0520     8.0710     7.4330     7.7370  -114.0610    92.3340
  958.5000  -999.2500  -999.2500  -999.2500  -999.2500   -94.6890     9.5720   -44.4870    89.7230     8.0440     7.3740     7.6920  -117.3600    92.6110
  959.0000  -999.2500  -999.2500  -999.2500  -999.2500   -94.6890     9.5810   -45.1200    90.1810     8.0170     7.3380     7.6470  -120.6580    92.9500
  959.5000  -999.2500  -999.2500  -999.2500  -999.2500   -94.6890     9.5810   -45.7640    92.1120     7.9900     7.3210     7.6010  -124.7490    92.8500
  960.0000  -999.2500  -999.2500  -999.2500  -999.2500   -94.6890     9.5810   -46.1610    92.3630     7.9630     7.3040     7.5560  -123.5930    92.5800
  960.5000  -999.2500  -999.2500  -999.2500  -999.2500   -94.6890     9.5810   -46.4880    90.6800     7.9360     7.2860     7.5110  -122.0710    92.2240
  961.0000  -999.2500  -999.2500  -999.2500  -999.2500   -94.6890     9.5810   -46.8120    89.1540     7.9110     7.2690     7.4650  -120.5490    91.9500
  961.5000  -999.2500  -999.2500  -999.2500  -999.2500   -94.6890     9.5810   -47.1370    89.9100     7.8510     7.2520     7.4200  -119.0270    91.9500
  962.0000  -999.2500  -999.2500  -999.2500  -999.2500   -94.6890     9.5810   -47.4630    91.4990     7.7950     7.2340     7.3750  -117.5040    91.9500
  962.5000  -999.2500  -999.2500  -999.2500  -999.2500   -94.6890     9.5810   -47.4860    93.0030     7.7390     7.2170     7.3480  -115.9820    92.4250
  963.0000  -999.2500  -999.2500  -999.2500  -999.2500   -94.7620     9.5810   -47.4490    92.7680     7.6830     7.2040     7.4100  -114.4600    92.8200
  963.5000  -999.2500  -999.2500  -999.2500  -999.2500   -95.1580     9.5810   -47.4090    91.0710     7.6240     7.1920     7.4610  -112.9370    93.2150
  964.0000  -999.2500  -999.2500  -999.2500  -999.2500   -95.5540     9.5810   -47.3710    91.1140     7.6850     7.1800     7.5120  -111.4150    93.4800
  964.5000  -999.2500  -999.2500  -999.2500  -999.2500   -95.9500     9.5810   -47.3420    92.7070     7.7490     7.1680     7.5630  -109.8930    93.3860
  965.0000  -999.2500  -999.2500  -999.2500  -999.2500   -96.3460     9.5810   -46.8270    97.5830     7.8130     7.1560     7.6150  -108.3710    93.1320
  965.5000  -999.2500  -999.2500  -999.2500  -999.2500   -96.7420     9.5850   -46.1450    99.2710     7.9110     7.1440     7.6660  -106.8480    92.8780
  966.0000  -999.2500  -999.2500  -999.2500  -999.2500   -97.1380     9.5890   -45.4590   100.0060     7.8900     7.1320     7.7170  -105.3260    92.6500
  966.5000  -999.2500  -999.2500  -999.2500  -999.2500   -97.5340     9.5920   -44.7730   100.6030     7.8460     7.1200     7.7660  -104.9400    92.5500
  967.0000  -999.2500  -999.2500  -999.2500  -999.2500   -97.9300     9.5960   -44.0880   100.5820     7.8020     7.1080     7.6890  -105.3280    92.6930
  967.5000  -999.2500  -999.2500  -999.2500  -999.2500   -98.3260     9.6000   -43.4000    98.6350     7.7590     7.0960     7.6140  -105.7160    92.7880
  968.0000  -999.2500  -999.2500  -999.2500  -999.2500   -98.7220     9.6040   -42.6930    96.3360     7.7150     7.0820     7.5390  -106.1040    92.8500
  968.5000  -999.2500  -999.2500  -999.2500  -999.2500   -99.1180     9.6080   -42.9700    93.2750     7.6710     7.1030     7.4650  -106.4920    93.1820
  969.0000  -999.2500  -999.2500  -999.2500  -999.2500   -99.5140     9.6110   -43.4800    92.4260     7.6240     7.1310     7.4160  -106.8800    93.4980
  969.5000  -999.2500  -999.2500  -999.2500  -999.2500   -99.9090     9.6150   -43.9980    93.0370     7.6650     7.1590     7.4320  -107.2680    93.5020
  970.0000  -999.2500  -999.2500  -999.2500  -999.2500  -100.3050     9.6190   -44.5160    93.6130     7.7080     7.1870     7.4430  -107.6560    93.2170
  970.5000  -999.2500  -999.2500  -999.2500  -999.2500  -100.7010     9.6200   -45.0350    94.1840     7.7660     7.2140     7.4550  -108.0450    92.9310
  971.0000  -999.2500  -999.2500  -999.2500  -999.2500  -101.0970     9.6180   -45.5720    93.7570     7.7380     7.2420     7.4660  -108.4330    92.6460
  971.5000  -999.2500  -999.2500  -999.2500  -999.2500  -101.4930     9.6160   -45.8880    91.2360     7.6960     7.2780     7.4850  -108.8210    92.3500
  972.0000  -999.2500  -999.2500  -999.2500  -999.2500  -101.8890     9.6130   -46.1360    88.6900     7.6540     7.2670     7.4700  -109.2090    92.2500
  972.5000  -999.2500  -999.2500  -999.2500  -999.2500  -102.2850     9.6110   -46.3790    89.2470     7.6130     7.2460     7.4370  -109.5970    92.3570
