~VERSION INFORMATION
 VERS.                2.0:   CWLS LOG ASCII STANDARD - VERSION 2.0
 WRAP.                 NO:   ONE LINE PER DEPTH STEP
~WELL INFORMATION
#MNEM.UNIT      DATA TYPE    INFORMATION
#----------   ------------   ------------------------------
 STRT.F           48.0000:   START DEPTH
 STOP.F         3235.5000:   STOP DEPTH
 STEP.F            0.5000:   STEP LENGTH
 NULL.          -999.2500:   NO VALUE
 COMP.    TESORO PEROLEUM:   COMPANY
 WELL. TESORO P46 T 28 N.P.R. #3-28:   WELL
 FLD .        TEAPOT DOME:   FIELD
 LOC .      S28 T39N R78W:   LOCATION
 CNTY.            NATRONA:   COUNTY
 STAT.            WYOMING:   STATE
 CTRY. UNITED STATES OF AMERICA:   COUNTRY
 SRVC.      DRESSER ATLAS:   SERVICE COMPANY
 DATE.        17-SEP-1975:   LOGDATE
 API .     49025102530000:   API NUMBER
~CURVE INFORMATION
#MNEM.UNIT       API CODE    CURVE DESCRIPTION
#----------   ------------   ------------------------------
 DEPT.F                  :   
 CALD.IN     45 280 60 00:   CALIPER FROM DENSITY LOG
 RHOB.G/C3   45 350 01 00:   BULK DENSITY
 CORR.G/C3   45 356 01 00:   DENSITY CORRECTION
 TEND.LBS    45 635 01 00:   TENSION FORM DENSITY LOG
 NPHI.DEC    42 890 03 00:   NEUTRON POROSITY SANDSTONE
 SPR .MV     07 010 01 00:   SPONTANEOUS POTENTIAL
 ILD .OHMM   07 120 46 00:   DEEP INDUCTION RESISTIVITY
 ILM .OHMM   07 120 44 00:   INDUCTION LOG MEDIUM RESISTIVITY
 SFL .OHMM   07 220 01 00:   SHALLOW FOCUSED LOG RESISTIVITY
 GRD .GAPI   45 310 01 00:   GAMMA RAY FROM DENSITY LOG
~PARAMETER INFORMATION
#MNEM.UNIT          VALUE    DESCRIPTION
#----------   ------------   ------------------------------
 EKB .F         5088.0000:   Kelly bushing
 EGL .F         5075.0000:   Ground level
 TD  .F         3218.0000:   Total depth
 CLNT.            A2DTECH:   Client Code
 SL  . 2310' FWL & 1650' FSL:   Surface Location
 PD  .                 GL:   Permanent Datum
 EPD .F              5075:   Elevation Permanent Datum
 LMF .                 KB:   Log Measured From
 DMF .                 KB:   Drilling Measured From
 DAPD.F                13:   Feet Above Permanent Datum
 DATE.        17-SEP-1975:   Date Logged [DD-MMM-YYYY]
 DD  .F              3218:   Depth driller
 DL  .F              3217:   Depth logger
 BLI .F              3215:   Bottom log interval
 TLI .F               395:   Top log interval
 CS1 .IN            8.625:   Casing size
 CBD1.      8.625" @ 393':   Casing driller 1
 CBL1.F               395:   Casing logger 1
 BS1 .IN            7.875:   Bit size
 BSD1.F              3218:   Depth drilled with bit1
 DFT .           CHEM GEL:   Type fluid in hole
 DFD .                9.5:   Density
 DFV .                 60:   Viscosity
 DFPH.                9.5:   pH
 DFL .                 11:   Fluid loss
 MSS .           FLOWLINE:   Source of sample
 RMS .OHMM           0.55:   Rm
 MST .F                60:   Rm Meas. temp.
 RMF .OHMM           0.48:   Rmf
 MFST.F                62:   Rmf Meas. temp.
 MFSS.               MEAS:   Source Rmf.
 RMC .OHMM            1.6:   Rmc
 MCST.F                62:   Rmc Meas. temp.
 MCSS.               MEAS:   Source Rmc.
 RMB .OHMM            0.3:   Rm. at BHT
 BHT .F               112:   BHT.
 TCS .HRS               5:   Time Circ. stopped
 MRT .F               112:   Maximum recorded temp.
 LUN .               6008:   Logging unit number
 LUL .              GLTTE:   Logging unit location
 ENGI.            MILHOAN:   Recorded By
 WITN.               WOLF:   Witnessed by
 ORIG.           5" PRINT:   Origin of data
 UWI .     49025102530000:   Unique Well ID
 DICO. A2DTECHNOLOGIES,INC.:   Digitizing Company
~OTHER INFORMATION
~A   DEPT     CALD       RHOB       CORR       TEND       NPHI         SPR         ILD        ILM        SFL      GRD   
# ...
 2962.5000     9.3433     2.5087     0.0064  1407.3513     0.2783   -22.5446     3.2188     3.3234     3.6477    85.8776
 2963.0000     9.3455     2.4997     0.0051  1410.8759     0.2762   -22.5417     3.1757     3.2784     3.7007    86.3857
 2963.5000     9.3318     2.4908     0.0022  1409.3016     0.2792   -22.5387     3.1559     3.2115     3.7544    82.5758
 2964.0000     9.3340     2.4893     0.0024  1407.8550     0.2826   -22.3863     3.1353     3.1898     3.7562    85.4826
 2964.5000     9.3355     2.4977     0.0025  1421.4500     0.2852   -22.3834     3.0938     3.1251     3.7059    83.5989
 2965.0000     9.3373     2.5038     0.0027  1435.0699     0.2891   -22.5300     3.0531     3.0828     3.6564    82.6606
 2965.5000     9.3393     2.5047     0.0014  1433.5348     0.2908   -22.5264     3.0126     3.0410     3.5837    82.2090
 2966.0000     9.3410     2.5010     0.0016  1431.7378     0.2893   -22.8218     2.9725     3.0421     3.5088    82.7241
 2966.5000     9.3277     2.4951     0.0017  1430.5133     0.2872   -22.8182     2.8929     3.0429     3.4110    82.7523
 2967.0000     9.3296     2.4892     0.0019  1428.7760     0.2814   -22.8153     2.8514     3.0224     3.3697    82.7806
 2967.5000     9.3313     2.4840     0.0021  1434.8796     0.2763   -22.8124     2.7782     3.0023     3.4429    83.2886
 2968.0000     9.3247     2.4896     0.0024  1441.2902     0.2784   -22.8095     2.7413     2.9616     3.4929    83.3168
 2968.5000     9.3199     2.5001     0.0039  1454.5442     0.2802   -22.6577     2.7428     2.9625     3.4462    82.8642
 2969.0000     9.3131     2.5053     0.0041  1453.0637     0.2792   -22.5060     2.7443     2.9429     3.3766    81.4543
 2969.5000     9.3084     2.5092     0.0072  1451.6614     0.2768   -22.5030     2.7458     2.9232     3.3310    80.5229
 2970.0000     9.2951     2.5123     0.0074  1450.1511     0.2910   -22.3313     2.7473     2.9241     3.3798    80.3114
 2970.5000     9.2819     2.5139     0.0091  1448.6205     0.2891   -22.1989     2.7488     2.8843     3.4770    81.3345
 2971.0000     9.2541     2.5140     0.0107  1447.1299     0.2912   -21.8984     2.7124     2.8653     3.4067    81.8142
 2971.5000     9.2259     2.5133     0.0109  1445.6196     0.2886   -21.8955     2.7139     2.8462     3.3147    81.8424
 2972.0000     9.1972     2.5111     0.0111  1444.1088     0.2791   -21.8926     2.6779     2.8470     3.2027    82.1106
 2972.5000     9.1694     2.5097     0.0121  1442.3265     0.2773   -21.8897     2.6608     2.8478     3.2492    83.0983
 2973.0000     9.1412     2.5083     0.0145  1441.0873     0.2751   -21.8868     2.6424     2.8684     3.2964    83.1266
 2973.5000     9.1200     2.5069     0.0146  1439.7350     0.2769   -22.1815     2.5728     2.8692     3.3443    82.9149
 2974.0000     9.0975     2.5055     0.0148  1453.3595     0.2796   -22.1786     2.5040     2.8501     3.3459    82.9432
 2974.5000     9.0720     2.5032     0.0149  1471.2013     0.2850   -22.4964     2.4367     2.8115     3.2104    83.6911
 2975.0000     9.0438     2.5026     0.0151  1465.1331     0.2838   -22.7928     2.3712     2.7353     3.2647    83.7193
 2975.5000     9.0301     2.5073     0.0137  1463.5291     0.2849   -23.0627     2.3395     2.6609     3.3511    83.7476
 2976.0000     9.0169     2.5088     0.0124  1455.9915     0.2861   -23.0590     2.2769     2.5885     3.3059    85.2151
 2976.5000     9.0036     2.4969     0.0111  1445.6196     0.2930   -23.0561     2.2464     2.5181     3.1286    86.9225
 2977.0000     8.9754     2.4744     0.0097  1444.1036     0.2936   -23.0532     2.2167     2.4842     2.9194    87.2251
 2977.5000     8.9472     2.4647     0.0099  1442.5980     0.2957   -22.7527     2.2182     2.5197     2.8009    88.9051
 2978.0000     8.9044     2.4633     0.0101  1432.4366     0.2990   -22.7498     2.2349     2.5204     2.7635    89.8928
 2978.5000     8.8462     2.4672     0.0102  1424.4713     0.2935   -22.4493     2.2832     2.5922     2.9033    90.6407
 2979.0000     8.7726     2.4748     0.0119  1422.9604     0.2881   -22.2975     2.3816     2.6476     3.0499    91.1487
 2979.5000     8.7281     2.4846     0.0136  1421.2233     0.2799   -22.1458     2.4843     2.7041     3.4112    91.4169
 2980.0000     8.6866     2.4892     0.0137  1419.9396     0.2766   -22.1328     2.6302     2.8202     3.6337    91.2052
 2980.5000     8.6583     2.4991     0.0139  1403.3231     0.2793   -21.8423     2.8239     2.9824     3.5851    86.4359
 2981.0000     8.6301     2.5099     0.0171  1401.6744     0.2799   -21.8387     3.0653     3.2241     3.4640    81.6665
 2981.5000     8.6136     2.5185     0.0188  1400.1938     0.2708   -21.8358     3.2876     3.4830     3.5143    81.2138
 2982.0000     8.5962     2.5280     0.0204  1398.7916     0.2672   -21.8329     3.5016     3.6356     3.5654    83.1623
 2982.5000     8.5754     2.5356     0.0206  1397.2809     0.2629   -21.8300     3.7295     3.8893     3.6454    84.6383
 2983.0000     8.5626     2.5402     0.0208  1395.7507     0.2557   -21.8271     3.9175     4.2586     3.8457    82.2592
 2983.5000     8.5490     2.5433     0.0209  1379.1541     0.2454   -22.0077     4.1149     4.5350     4.2800    82.3214
 2984.0000     8.5512     2.5404     0.0166  1377.6433     0.2402   -22.1190     4.1747     4.6642     4.6555    82.3157
 2984.5000     8.5379     2.5337     0.0122  1376.1332     0.2394   -22.1160     4.1770     4.7309     4.9938    81.6314
 2985.0000     8.5247     2.5270     0.0093  1374.6224     0.2409   -22.1131     4.0366     4.4142     5.2459    81.8995
 2985.5000     8.5265     2.5218     0.0095  1372.8696     0.2411   -22.1101     3.7417     3.7888     5.2845    82.4075
 2986.0000     8.5137     2.5167     0.0097  1371.6010     0.2489   -22.1291     3.4444     3.2521     5.0010    83.8750
 2986.5000     8.5304     2.5107     0.0098  1369.9078     0.2664   -22.4020     3.0400     2.8901     4.6993    89.6604
 2987.0000     8.5922     2.4942     0.0100  1368.4272     0.2904   -22.3983     2.8137     2.7344     3.7359    95.4458
 2987.5000     8.6839     2.4565     0.0041  1367.0695     0.2982   -22.3954     2.7243     2.7162     2.3931    99.7919
 2988.0000     8.7606     2.2854    -0.0019  1365.5590     0.2789   -22.3925     2.8422     2.7550     2.2499   110.1350
 2988.5000     8.8073     2.1341     0.0558  1363.8607     0.2578   -22.3896     2.9648     2.9135     3.0782   114.7209
 2989.0000     8.6442     2.1500     0.0107  1362.5376     0.2404   -22.3867     3.1359     3.2135     3.9301   108.2724
 2989.5000     8.5110     2.1682    -0.0058  1361.0271     0.2274   -22.3838     3.5309     3.6242     4.0716   102.6732
 2990.0000     8.4378     2.2111     0.0970  1359.4175     0.2268   -22.2320     3.9756     4.3381     6.1305    93.8574
 2990.5000     8.4243     2.4227     0.0444  1358.0057     0.2277   -22.0803     4.5389     5.1243     6.0830    82.2173
 2991.0000     8.3964     2.5650     0.0053  1356.2087     0.2264   -22.0774     5.2182     5.6895     5.4639    75.2890
 2991.5000     8.3986     2.5733     0.0160  1354.9851     0.2234   -22.2233     5.7144     6.0167     5.3156    73.1513
 2992.0000     8.4003     2.5794     0.0207  1353.3704     0.2234   -22.3692     6.3454     6.2749     5.6237    73.6663
 2992.5000     8.4171     2.5810     0.0209  1351.7664     0.2234   -22.3656     6.6652     6.4537     6.1170    72.7351
 2993.0000     8.4338     2.5804     0.0211  1350.2852     0.2239   -22.5122     6.7621     6.5459     6.2929    70.8442
 2993.5000     8.4506     2.5767     0.0182  1348.9426     0.2275   -22.6574     6.8605     6.5477     6.3392    70.6256
 2994.0000     8.4672     2.5730     0.0154  1347.4319     0.2320   -22.6545     6.8643     6.4586     5.8342    71.8603
 2994.5000     8.4691     2.5692     0.0140  1345.8427     0.2431   -22.6516     6.8213     6.3273     5.9603    72.8480
 2995.0000     8.4709     2.5642     0.0142  1344.4108     0.2365   -22.4998     6.6843     6.1984     5.8398    73.8358
 2995.5000     8.4876     2.5628     0.0128  1342.8809     0.2398   -22.4970     6.4149     6.1144     5.5645    74.3438
