~VERSION INFORMATION
 VERS.                2.0:   CWLS LOG ASCII STANDARD - VERSION 2.0
 WRAP.                 NO:   ONE LINE PER DEPTH STEP
~WELL INFORMATION
#MNEM.UNIT      DATA TYPE    INFORMATION
#----------   ------------   ------------------------------
 STRT.F           54.0000:   START DEPTH
 STOP.F         5201.0000:   STOP DEPTH
 STEP.F            0.5000:   STEP LENGTH
 NULL.          -999.2500:   NO VALUE
 COMP.   TESORO PETROLEUM:   COMPANY
 WELL. TESORO DX NPR-3 #51-26:   WELL
 FLD .        TEAPOT DOME:   FIELD
 LOC .      S26 T38N R78W:   LOCATION
 CNTY.            NATRONA:   COUNTY
 STAT.            WYOMING:   STATE
 CTRY. UNITED STATES OF AMERICA:   COUNTRY
 SRVC.      DRESSER ATLAS:   SERVICE COMPANY
 DATE.        27-AUG-1976:   LOGDATE
 API .     49025102680000:   API NUMBER
~CURVE INFORMATION
#MNEM.UNIT       API CODE    CURVE DESCRIPTION
#----------   ------------   ------------------------------
 DEPT.F                  :   
 GRD .GAPI   45 310 01 00:   GAMMA RAY FROM DENSITY LOG
 CALD.IN     45 280 60 00:   CALIPER FROM DENSITY LOG
 CORR.G/C3   45 356 01 00:   DENSITY CORRECTION
 RHOB.G/C3   45 350 01 00:   BULK DENSITY
 SPR .MV     07 010 01 00:   SPONTANEOUS POTENTIAL
 ILD .OHMM   07 120 46 00:   DEEP INDUCTION RESISTIVITY
 ILM .OHMM   07 120 44 00:   INDUCTION LOG MEDIUM RESISTIVITY
 RFOC.OHMM   07 220 04 00:   RESISTIVITY FOCUSED LOG RES.
 TEND.LBS    45 635 01 00:   TENSION FORM DENSITY LOG
 NPHI.DEC    42 890 03 00:   NEUTRON POROSITY SANDSTONE
~PARAMETER INFORMATION
#MNEM.UNIT          VALUE    DESCRIPTION
#----------   ------------   ------------------------------
 EKB .F         5453.5000:   Kelly bushing
 EGL .F         5442.0000:   Ground level
 EDF .F         5452.0000:   Drilling floor
 EPD .F            0.0000:   Permanent datum
 TD  .F         5193.0000:   Total depth
 CLNT.            A2DTECH:   Client Code
 SL  . 2000' FEL & 600' FNL:   Surface Location
 PD  .                 GL:   Permanent Datum
 DAPD.F              11.5:   Feet Above Permanent Datum
 DATE.        27-AUG-1976:   Date Logged [DD-MMM-YYYY]
 DD  .F              5193:   Depth driller
 DL  .F              5193:   Depth logger
 BLI .F              5191:   Bottom log interval
 TLI .F              1726:   Top log interval
 CS1 .IN            8.625:   Casing size
 CBD1.     8.625" @ 1724':   Casing driller 1
 CBL1.F              1726:   Casing logger 1
 BS1 .IN            7.875:   Bit size
 BSD1.F              5193:   Depth drilled with bit1
 DFT .           CHEM GEL:   Type fluid in hole
 DFD .                9.2:   Density
 DFV .                 65:   Viscosity
 DFPH.                 10:   pH
 DFL .                5.8:   Fluid loss
 MSS .           FLOWLINE:   Source of sample
 RMS .OHMM           1.70:   Rm
 MST .F                71:   Rm Meas. temp.
 RMF .OHMM              1:   Rmf
 MFST.F                68:   Rmf Meas. temp.
 MFSS.               MEAS:   Source Rmf.
 RMC .OHMM           1.30:   Rmc
 MCST.F                66:   Rmc Meas. temp.
 MCSS.               MEAS:   Source Rmc.
 RMB .OHMM           0.85:   Rm. at BHT
 BHT .F               142:   BHT.
 TCS .HRS               6:   Time Circ. stopped
 MRT .F               142:   Maximum recorded temp.
 LUN .               6145:   Logging unit number
 LUL .              GLTTE:   Logging unit location
 ENGI.        GOULD-HOYER:   Recorded By
 WITN.        WOLF-CARTER:   Witnessed by
 ORIG.           5" PRINT:   Origin of data
 UWI .     49025102680000:   Unique Well ID
 DICO. A2D TECHNOLOGIES, INC.:   Digitizing Company
~OTHER INFORMATION
~A   DEPT      GRD       CALD       CORR       RHOB        SPR         ILD        ILM      RFOC       TEND       NPHI   
# ...
 1729.0000    53.2889     7.9652    -0.6049     2.4094   -37.7626   414.5706   825.8811     6.6945    97.6931     0.3249
 1729.5000    53.0682     7.9826    -0.5203     2.2382   -37.9029    97.3944   129.1876     6.1657   186.7775     0.3114
 1730.0000    58.5734     9.0302    -0.1724     2.4115   -38.0377     2.0880     2.0594     4.4298   110.9445     0.3087
 1730.5000    71.2156     9.1520     0.1399     2.4292   -38.0267     7.8560     3.3499     3.8343   149.5232     0.3141
 1731.0000    80.0483     9.1992     0.1595     2.2656   -38.1670    14.5216     4.0078     3.3188   101.4897     0.3249
 1731.5000    79.3572     9.2613     0.1642     2.1875   -38.3046    15.2453     3.6912     3.0148    18.3780     0.3360
 1732.0000    77.2375     9.3695     0.1147     2.0000   -38.7365    32.3503     1.9411     2.6095   182.4250     0.3510
 1732.5000    79.0358     9.7293     0.1058     2.0000   -39.4685    57.7663     1.9425     2.4368    91.3818     0.3582
 1733.0000    79.1945    10.0750     0.0804     2.0000   -39.9034     2.6640     1.9438     2.3878    90.5112     0.3631
 1733.5000    74.2768    10.3460     0.0294     2.0000   -40.1894     1.5452     1.9858     2.4225    89.6407     0.3626
 1734.0000    70.9036    10.0947    -0.0562     2.0000   -40.4755     1.6561     2.3128     2.6696    88.7556     0.3717
 1734.5000    70.6887     9.7240    -0.0651     2.0000   -40.7616     1.8247     2.8663     3.1087    87.6819     0.3576
 1735.0000    70.2415     9.5141    -0.0620     2.0000   -40.8992     1.9422     3.3155     4.4526    86.8114     0.3245
 1735.5000    69.3123     9.2816    -0.0603     2.0252   -40.8878     2.4735     3.5302     4.9748    78.4446     0.3034
 1736.0000    68.8593     9.2242    -0.0462     2.0944   -41.0257     3.0856     3.6566     4.9091    70.0778     0.2974
 1736.5000    68.6386     9.2714    -0.0140     2.2485   -41.0119     3.7704     3.9750     4.6159   106.6885     0.2803
 1737.0000    69.6199     9.6917     0.0439     2.4334   -41.1523     4.1275     4.3210     4.8135   113.3434     0.2724
 1737.5000    74.4050     9.9329     0.0470     2.4080   -41.1385     4.4537     4.5693     5.0892    97.4514     0.2746
 1738.0000    79.7456    10.1333     0.0396     2.4058   -40.9788     4.5786     4.8319     5.4180    96.5518     0.2760
 1738.5000    82.0714    10.1615     0.0307     2.4081   -40.6706     4.6467     5.0744     5.6111    95.4926     0.2685
 1739.0000    82.3375     9.9854     0.0309     2.4127   -40.5110     4.9170     5.2925     5.4927    94.6221     0.2652
 1739.5000    83.5511     9.9424     0.0295     2.4160   -40.5000     5.3083     5.4443     5.3890    93.7515     0.2715
 1740.0000    86.9077     9.9000     0.0311     2.4347   -40.6403     5.5301     5.4105     5.4355    85.3847     0.2757
 1740.5000    82.8832     9.9478     0.0388     2.4626   -41.0723     5.6411     5.3770     5.6622    84.5142     0.2676
 1741.0000    79.0969     9.9502     0.0434     2.4484   -41.3612     5.6042     5.5351     5.5109    76.1474     0.2591
 1741.5000    78.9944     9.8929     0.0511     2.4387   -41.7075     5.5298     5.5733     5.4375    75.2768     0.2639
 1742.0000    80.8099     9.8361     0.0603     2.4313   -41.9316     5.4183     5.4262     5.5547    89.1811     0.2687
 1742.5000    82.0338     9.9281     0.0683     2.4269   -42.2169     5.4202     5.4675     5.6738    88.3106     0.2738
 1743.0000    83.5118    10.0648     0.0906     2.4240   -42.8002     5.4596     5.5091     5.7160   102.6502     0.2804
 1743.5000    85.6472    10.1418     0.0892     2.4233   -43.0863     5.4993     5.5129     5.7189   101.5622     0.2754
 1744.0000    89.9560    10.1121     0.0773     2.4242   -42.9267     5.5012     5.6320     5.7219   108.4055     0.2720
 1744.5000    89.5030    10.1322     0.0639     2.4250   -42.9157     5.4652     5.6749     5.7248   114.8136     0.2782
 1745.0000    86.9072    10.2093     0.0671     2.4078   -42.6075     5.2454     5.6397     5.6876   121.4393     0.2836
 1745.5000    79.7875    10.3603     0.0807     2.4041   -42.4479     5.1044     5.4522     5.5747   120.5398     0.2806
 1746.0000    81.9535    10.1991     0.0689     2.4275   -42.4368     5.0706     5.3802     5.4257   119.4806     0.2683
 1746.5000    85.5481    10.1567     0.0494     2.4201   -42.2771     5.0728     5.3468     5.3905   111.1138     0.2644
 1747.0000    88.4285    10.1746     0.0571     2.4157   -42.2660     5.1096     5.3514     5.3562   102.7470     0.2671
 1747.5000    86.4582    10.1615     0.0482     2.4338   -42.1062     5.2183     5.3921     5.6248   109.5903     0.2684
 1748.0000    81.8140    10.0749     0.0257     2.4294   -41.9465     5.3292     5.4708     5.7453   101.0059     0.2664
 1748.5000    80.4028    10.2862     0.0169     2.4099   -41.7846     5.4051     5.5506     5.8282    92.6391     0.2716
 1749.0000    83.0508    10.3221     0.0172     2.4010   -41.7736     5.4444     5.5928     5.8715    76.7615     0.2752
 1749.5000    82.1216    10.1657     0.0217     2.4064   -41.6139     5.5219     5.7137     5.8745    75.6880     0.2724
 1750.0000    80.9485     9.8462     0.0233     2.4440   -41.7543     5.5621     5.5619     5.7175    74.8175     0.2628
 1750.5000    80.7336     9.9083     0.0219     2.4621   -41.6462     5.6025     5.4894     5.6421    88.9395     0.2579
 1751.0000    83.9125    10.0898     0.0221     2.4562   -41.5625     5.6044     5.4933     5.6483    80.5727     0.2501
 1751.5000    80.0715    10.1513     0.0207     2.4586   -41.6909     5.5673     5.4971     5.7661    72.2058     0.2456
 1752.0000    83.4996     9.9453     0.0163     2.4654   -41.9677     5.4229     5.5397     5.7691    71.3353     0.2477
 1752.5000    86.5556     9.9478     0.0210     2.4542   -42.1199     5.2782     5.5044     5.7726    77.9610     0.2547
 1753.0000    85.6350     9.9507     0.0377     2.4566   -42.3728     5.0320     5.1065     5.7351    84.5867     0.2693
 1753.5000    84.4699     9.9531     0.0483     2.4744   -42.3507     4.7644     4.8602     5.6602   100.1488     0.2711
 1754.0000    80.6858     9.8659     0.0454     2.4913   -42.4808     4.5110     4.6145     5.6241   105.2620     0.2801
 1754.5000    78.5684     9.8378     0.0475     2.4854   -42.4555     4.3604     4.3689     5.3617   104.1738     0.2842
 1755.0000    86.9334     9.8109     0.0446     2.4742   -42.5888     4.2440     4.1627     4.5822   103.3032     0.2884
 1755.5000    88.6255     9.8134     0.0524     2.4727   -42.5634     4.2171     4.3522     4.1916    94.9364     0.2878
 1756.0000    88.8890     9.8462     0.0691     2.4713   -42.5432     4.2194     4.5918     4.8147    94.0659     0.2860
 1756.5000    87.2478     9.8784     0.0497     2.4293   -42.5229     4.3403     4.7234     5.6073    78.2028     0.2872
 1757.0000    82.7494    10.0599     0.0348     2.3573   -42.3536     4.4642     4.8925     6.1796    77.3323     0.2950
 1757.5000    83.7271    10.4050     0.0320     2.2988   -42.1842     4.7200     5.1027     6.3127    76.4617     0.2934
 1758.0000    88.5145     9.8557     0.0353     2.3218   -42.0111     5.0251     5.3588     6.2731    90.5837     0.2824
 1758.5000    90.2065     9.7642     0.0399     2.4248   -41.8423     5.3870     5.6277     6.0604    89.4955     0.2667
 1759.0000    89.2859     9.6372     0.0431     2.4898   -41.8220     5.7351     5.9101     6.4574    88.6251     0.2613
 1759.5000    85.5018     9.5650     0.0388     2.4779   -41.8017     5.9396     6.2954     6.9228    95.4685     0.2628
 1760.0000    87.6701     9.5674     0.0284     2.4705   -41.7814     6.1514     6.4735     7.0232    94.3803     0.2652
 1760.5000    88.8796     9.5996     0.0316     2.4751   -41.9108     6.2834     6.3461     6.9312    86.0135     0.2594
 1761.0000    86.7621     9.6619     0.0303     2.4819   -42.0380     6.2436     6.3504     6.8393    85.1429     0.2522
 1761.5000    86.7939     9.7244     0.0214     2.4940   -42.2383     6.2911     6.3987     6.7497    84.2579     0.2483
 1762.0000    86.8193     9.7268     0.0111     2.4896   -42.4428     6.3819     6.5821     6.8015    83.1842     0.2477
