~VERSION INFORMATION
 VERS.                2.0:   CWLS LOG ASCII STANDARD - VERSION 2.0
 WRAP.                 NO:   ONE LINE PER DEPTH STEP
~WELL INFORMATION
#MNEM.UNIT      DATA TYPE    INFORMATION
#----------   ------------   ------------------------------
 STRT.F          742.0000:   START DEPTH
 STOP.F         3406.0000:   STOP DEPTH
 STEP.F            0.5000:   STEP LENGTH
 NULL.          -999.2500:   NO VALUE
 COMP. FENIX & SCISSON - US NAVY:   COMPANY
 WELL.   FENIX "AX" #85-4:   WELL
 FLD .      NPR - WILDCAT:   FIELD
 LOC .       S4 T38N R78W:   LOCATION
 CNTY.            NATRONA:   COUNTY
 STAT.            WYOMING:   STATE
 CTRY. UNITED STATES OF AMERICA:   COUNTRY
 SRVC.              WELEX:   SERVICE COMPANY
 DATE.        03-MAY-1977:   LOGDATE
 API .     49025103520000:   API NUMBER
~CURVE INFORMATION
#MNEM.UNIT       API CODE    CURVE DESCRIPTION
#----------   ------------   ------------------------------
 DEPT.F                  :   
 SNP .DEC    41 890 00 00:   SIDEWALL NEUTRON POROSITY
 GR  .GAPI   30 310 01 00:   GAMMA RAY
 SPR .MV     07 010 01 00:   SPONTANEOUS POTENTIAL
 RXO .OHMM   11 220 01 00:   FLUSHED ZONE RESISTIVITY
 GURD.OHMM   07 220 05 00:   GUARD LOG RESISTIVITY
 CALD.IN     45 280 60 00:   CALIPER FROM DENSITY LOG
 RHOB.G/C3   45 350 01 00:   BULK DENSITY
 GRD .GAPI   45 310 01 00:   GAMMA RAY FROM DENSITY LOG
 CORR.G/C3   45 356 01 00:   DENSITY CORRECTION
~PARAMETER INFORMATION
#MNEM.UNIT          VALUE    DESCRIPTION
#----------   ------------   ------------------------------
 EKB .F         5254.0000:   Kelly bushing
 EGL .F         5240.0000:   Ground level
 EDF .F            0.0000:   Drilling floor
 TD  .F         3467.0000:   Total depth
 DATE.        03-MAY-1977:   Date logged
 CLNT.            A2DTECH:   Client Code
 SL  . 2200' FSL & 100' FEL:   Surface Location
 PD  .                 GL:   Permanent Datum
 EPD .F              5240:   Elevation Permanent Datum
 LMF .                 KB:   Log Measured From
 DMF .                 KB:   Drilling Measured From
 DAPD.F                14:   Feet Above Permanent Datum
 DD  .F              3647:   Depth driller
 DL  .F              3404:   Depth logger
 BLI .F              3402:   Bottom log interval
 TLI .F               720:   Top log interval
 CS1 .IN            8.625:   Casing size
 CBD1.      8.625" @ 720':   Casing driller 1
 CBL1.F               760:   Casing logger 1
 BS1 .IN            7.875:   Bit size
 BSD1.F              3467:   Depth drilled with bit1
 DFT .            KCL/MUD:   Type fluid in hole
 DFD .                9.1:   Density
 DFV .                 36:   Viscosity
 DFPH.                  8:   pH
 DFL .                  5:   Fluid loss
 MSS .           FLOWLINE:   Source of sample
 RMS .OHMM            .30:   Rm
 MST .F                66:   Rm Meas. temp.
 RMF .OHMM            .21:   Rmf
 MFST.F                66:   Rmf Meas. temp.
 RMC .OHMM            .49:   Rmc
 MCST.F                66:   Rmc Meas. temp.
 MFSS.               FANN:   Source Rmf.
 MCSS.                KIT:   Source Rmc.
 RMB .OHMM            .18:   Rm. at BHT
 BHT .F               107:   BHT.
 TCS .HRS             2.5:   Time Circ. stopped
 MRT .F               107:   Maximum recorded temp.
 LUN .               8611:   Logging unit number
 LUL .             CASPER:   Logging unit location
 ENGI.            C. DOAK:   Recorded By
 WITN.      B. HARRINGTON:   Witnessed by
 ORIG.     2.5", 5" PRINT:   Origin of data
 UWI .     49025103520000:   Unique Well ID
 DICO. A2D TECHNOLOGIES, INC.:   Digitizing Company
~OTHER INFORMATION
~A   DEPT        SNP       GR        SPR        RXO       GURD         CALD       RHOB       GRD       CORR  
# ...
 3005.0000     0.1850   131.5600   -43.8090     6.6270     5.3100     8.5390     2.5340   109.9330     0.0180
 3005.5000     0.1810   130.2410   -43.8240     6.7240     5.3100     8.5390     2.5260   109.3460     0.0160
 3006.0000     0.1850   128.9580   -43.8380     6.6040     5.3100     8.5390     2.5260   108.9540     0.0130
 3006.5000     0.1920   131.8720   -43.8530     6.4850     5.2910     8.5390     2.5260   107.8660     0.0100
 3007.0000     0.1990   132.8670   -43.8680     6.5290     5.2440     8.5390     2.5250   108.6970     0.0070
 3007.5000     0.2050   132.3240   -43.8820     6.6030     5.1960     8.5390     2.5230   109.8950     0.0050
 3008.0000     0.2060   124.8200   -43.8970     6.5400     5.1490     8.5390     2.5170   111.1550     0.0050
 3008.5000     0.2030   122.8880   -43.9110     6.4350     5.1210     8.5390     2.5050   112.3370     0.0050
 3009.0000     0.1990   124.1440   -43.9260     6.3300     5.1210     8.5390     2.4930   113.5640     0.0070
 3009.5000     0.1970   126.8820   -43.9410     6.2250     5.1210     8.5390     2.4940   114.7840     0.0090
 3010.0000     0.2050   126.7980   -43.9460     6.1410     5.1210     8.5390     2.4980   115.9770     0.0110
 3010.5000     0.2160   125.3610   -43.9450     6.1000     4.9410     8.5390     2.5000   117.2310     0.0140
 3011.0000     0.2250   123.9680   -43.9450     5.9970     4.7230     8.5390     2.4980   118.4130     0.0160
 3011.5000     0.2230   127.9900   -43.9450     5.8940     4.5920     8.5390     2.5000   119.3570     0.0170
 3012.0000     0.2190   128.8910   -43.9450     5.7920     4.5920     8.5390     2.5040   117.8960     0.0110
 3012.5000     0.2150   128.7360   -43.9450     5.6380     4.5920     8.5390     2.5090   116.7420     0.0060
 3013.0000     0.2130   130.3240   -43.9450     5.6590     4.5090     8.5390     2.5070   115.3280     0.0000
 3013.5000     0.2110   131.6140   -43.9450     5.8150     4.4040     8.5390     2.4950   118.2890    -0.0050
 3014.0000     0.2080   127.2070   -43.9450     5.9210     4.1930     8.5390     2.4840   120.6180    -0.0100
 3014.5000     0.2030   126.2050   -43.9450     5.3860     4.2530     8.5390     2.4770   121.2220    -0.0140
 3015.0000     0.1980   129.4860   -43.9450     5.0280     4.4040     8.5390     2.4840   118.7890    -0.0080
 3015.5000     0.1940   131.3670   -43.9450     5.5640     4.5550     8.5390     2.4940   116.3530    -0.0020
 3016.0000     0.2000   132.8230   -43.9450     6.0300     4.6760     8.5390     2.5050   113.8100     0.0040
 3016.5000     0.2010   129.3210   -43.9450     6.0120     4.6760     8.5390     2.5060   111.3510     0.0100
 3017.0000     0.1940   124.8080   -43.9450     5.9670     4.6760     8.5390     2.5020   108.6760     0.0130
 3017.5000     0.1950   122.8550   -43.9450     5.9210     4.6760     8.5390     2.4970   107.2150     0.0090
 3018.0000     0.1980   128.1810   -43.9450     6.0620     4.8140     8.5390     2.4930   108.4760     0.0050
 3018.5000     0.1940   130.0280   -43.9450     6.2970     4.9030     8.5390     2.4940   109.5950     0.0080
 3019.0000     0.1910   131.3840   -43.9450     6.6030     4.9380     8.5390     2.4990   110.7330     0.0090
 3019.5000     0.2030   131.2980   -43.9450     6.5640     4.8940     8.5390     2.5040   111.9630     0.0090
 3020.0000     0.2150   129.8490   -43.9450     6.4670     4.7620     8.5400     2.5040   111.6450     0.0090
 3020.5000     0.2040   128.1200   -43.9450     6.3700     4.8490     8.5390     2.5060   110.8980     0.0090
 3021.0000     0.1990   129.4670   -43.9450     6.1410     5.0010     8.5370     2.5090   110.1600     0.0090
 3021.5000     0.2000   128.5960   -43.9450     6.3850     5.2140     8.5100     2.5150   109.4370     0.0090
 3022.0000     0.2010   129.3940   -43.9450     7.3640     5.1050     8.4840     2.5180   108.7010     0.0090
 3022.5000     0.1970   130.7260   -43.9450     7.0970     4.9220     8.4570     2.4990   108.7530     0.0050
 3023.0000     0.1910   132.0700   -43.9450     6.4300     4.8490     8.4300     2.4800   111.2300    -0.0090
 3023.5000     0.1870   132.7890   -43.9450     6.0300     5.1280     8.4210     2.4610   111.6710    -0.0250
 3024.0000     0.1900   133.0770   -43.9450     6.0300     5.4070     8.4210     2.4410   110.1080    -0.0400
 3024.5000     0.1920   132.0920   -43.9450     6.1640     5.4070     8.4210     2.4210   108.6680    -0.0560
 3025.0000     0.1860   131.2530   -43.9450     6.2530     5.4070     8.4210     2.4100   107.0050    -0.0720
 3025.5000     0.1910   130.1300   -43.9450     9.1580     5.5060     8.4210     2.4320   107.2130    -0.0780
 3026.0000     0.1950   128.8970   -43.9450     8.4350     5.3100     8.4210     2.4520   108.7970    -0.0330
 3026.5000     0.2000   127.8900   -43.9450     7.2310     4.9250     8.4240     2.5240   110.2060     0.0260
 3027.0000     0.2020   127.1880   -43.9450     7.1010     4.3480     8.4310     2.5470   111.6160     0.0420
 3027.5000     0.2070   127.2310   -43.9450     7.0370     4.3480     8.4370     2.5440   113.0250     0.0400
 3028.0000     0.2100   129.3640   -43.9450     6.9730     4.4280     8.4430     2.5390   114.5700     0.0380
 3028.5000     0.2040   132.7220   -43.9450     7.2340     4.5090     8.4500     2.5360   114.6910     0.0360
 3029.0000     0.1990   133.0810   -43.9460     7.3640     4.5090     8.4560     2.5320   113.4680     0.0330
 3029.5000     0.1940   131.6190   -43.9450     7.3640     4.4890     8.4620     2.5280   112.4090     0.0300
 3030.0000     0.1890   130.5800   -43.9460     7.3640     4.4280     8.4680     2.5240   111.3260     0.0290
 3030.5000     0.1840   130.7950   -43.9470     7.3640     4.5700     8.4740     2.5330   110.2250     0.0250
 3031.0000     0.1820   131.2920   -44.0140     7.3640     4.9270     8.4810     2.5420   109.1500     0.0270
 3031.5000     0.1820   129.3860   -44.0960     8.2050     5.2830     8.4870     2.5510   108.0460     0.0310
 3032.0000     0.1760   128.8390   -44.1780     9.3250     5.7100     8.4930     2.5520   106.9800     0.0350
 3032.5000     0.1660   130.1290   -44.2590     9.1140     5.5420     8.4990     2.5580   105.8750     0.0390
 3033.0000     0.1580   124.8360   -44.3410     8.5860     5.3310     8.5050     2.5670   104.7340     0.0430
 3033.5000     0.1640   123.2990   -44.4230     8.0590     5.1210     8.5120     2.5680   104.1940     0.0450
 3034.0000     0.1700   126.3480   -44.5050     7.6360     5.2140     8.5180     2.5690   105.9950     0.0450
 3034.5000     0.1760   129.6540   -44.5860     7.9810     5.3100     8.5240     2.5580   107.7620     0.0410
 3035.0000     0.1710   131.4520   -44.6670     8.4130     5.5280     8.5310     2.5430   109.7630     0.0360
 3035.5000     0.1680   132.3310   -44.7520     8.6720     5.7470     8.5350     2.5290   110.8510     0.0310
 3036.0000     0.1630   130.8840   -44.8290     8.5310     5.9210     8.5600     2.5130   110.4050     0.0260
 3036.5000     0.1690   130.5170   -44.9120     8.2950     5.5890     8.6040     2.5030   111.6910     0.0210
 3037.0000     0.1770   132.5450   -45.0060     8.0600     5.3120     8.6450     2.5060   113.6980     0.0170
 3037.5000     0.1850   135.0790   -45.0440     7.8250     5.0350     8.6580     2.5090   114.7360     0.0200
 3038.0000     0.1910   136.6560   -45.4670     7.6360     4.7580     8.6570     2.5130   114.3500     0.0220
 3038.5000     0.2100   136.4370   -45.9800     6.9950     4.3480     8.6570     2.5170   114.1470     0.0250
 3039.0000     0.2160   137.6030   -46.3940     6.4610     4.0430     8.6580     2.5160   117.6890     0.0280
 3039.5000     0.2100   139.0470   -46.8080     6.1410     3.5880     8.6570     2.4970   121.8620     0.0300
 3040.0000     0.2160   136.8290   -47.2350     4.9890     2.9850     8.6580     2.4770   126.2220     0.0320
 3040.5000     0.2290   135.6120   -47.6510     3.8370     2.1410     8.6570     2.4580   130.4760     0.0280
 3041.0000     0.2190   141.2080   -48.0730     2.9160     2.1610     8.6580     2.4390   133.5780     0.0230
