~VERSION INFORMATION
 VERS.                2.0:   CWLS LOG ASCII STANDARD - VERSION 2.0
 WRAP.                 NO:   ONE LINE PER DEPTH STEP
~WELL INFORMATION
#MNEM.UNIT      DATA TYPE    INFORMATION
#----------   ------------   ------------------------------
 STRT.F            0.5000:   START DEPTH
 STOP.F         1380.0000:   STOP DEPTH
 STEP.F            0.5000:   STEP LENGTH
 NULL.          -999.2500:   NO VALUE
 COMP.       FLUOR DANIEL:   COMPANY
 WELL. FLUOR 84 "X" #1-14:   WELL
 FLD .          N.P.R. #3:   FIELD
 LOC .      S14 T38N R78W:   LOCATION
 CNTY.            NATRONA:   COUNTY
 STAT.            WYOMING:   STATE
 CTRY. UNITED STATES OF AMERICA:   COUNTRY
 SRVC.     ATLAS WIRELINE:   SERVICE COMPANY
 DATE.        24-AUG-1994:   LOGDATE
 API .     49025226370000:   API NUMBER
~CURVE INFORMATION
#MNEM.UNIT       API CODE    CURVE DESCRIPTION
#----------   ------------   ------------------------------
 DEPT.F                  :   
 GRR .GAPI   07 310 01 00:   GAMMA RAY FROM RESISTIVITY
 RILD.OHMM   07 120 46 00:   INDUCTION LOG DEEP RESISTIVITY
 RILM.OHMM   07 120 44 00:   INDUCTION LOG MEDIUM RESISTIVITY
 TENR.LBS    07 635 01 00:   TENSION FROM RESISTIVITY
~PARAMETER INFORMATION
#MNEM.UNIT          VALUE    DESCRIPTION
#----------   ------------   ------------------------------
 EKB .F         5326.0000:   Kelly bushing
 EGL .F         5316.0000:   Ground level
 EDF .F         5325.0000:   Drilling floor
 TD  .F         1368.0000:   Total depth
 CLNT.            A2DTECH:   Client Code
 PD  .                 GL:   Permanent Datum
 EPD .F              5316:   Elevation Permanent Datum
 LMF .                 KB:   Log Measured From
 DMF .                 KB:   Drilling Measured From
 DAPD.F                10:   Feet Above Permanent Datum
 DATE.        24-AUG-1994:   Date Logged [DD-MMM-YYYY]
 DD  .F              1368:   Depth driller
 DL  .F              1364:   Depth logger
 BLI .F              1356:   Bottom log interval
 TLI .F                 0:   Top log interval
 CS1 .IN            9.625:   Casing size
 CBD1.       9.625" @ 56':   Casing driller 1
 CBL1.F                56:   Casing logger 1
 BS1 .IN             8.75:   Bit size
 BSD1.F              1368:   Depth drilled with bit1
 DFT .                AIR:   Type fluid in hole
 LUN .            HL 6530:   Logging unit number
 LUL .             CASPER:   Logging unit location
 WITN.        GARY STRONG:   Witnessed by
 ORIG.         2.5" PRINT:   Origin of data
 UWI .     49025226370000:   Unique Well ID
 DICO. A2D TECHNOLOGIES, INC.:   Digitizing Company
 SL  . 2551' FNL & 575' FEL:   Surface Location
~OTHER INFORMATION
~A    DEPT      GRR      RILD       RILM       TENR   
# ...
 1241.5000   100.9491    10.0609     9.8888    59.9703
 1242.0000   105.7365    10.1992    10.0231    60.1190
 1242.5000   108.1287    10.1978    10.0261    60.2678
 1243.0000   103.9280    10.3382    10.1634    60.4167
 1243.5000    99.7030    10.3365    10.2944    60.5655
 1244.0000    95.5449    10.3351    10.2915    69.4416
 1244.5000    97.9372    10.3337    10.2887    75.7441
 1245.0000    97.9041    10.3323    10.2859    75.9225
 1245.5000    96.6968    10.3309    10.2830    76.0708
 1246.0000    96.1317    10.3294    10.2802    91.1001
 1246.5000    97.5299    10.3280    10.2774   106.1294
 1247.0000   101.6308    10.1852    10.1179   106.2777
 1247.5000   103.3085    10.1838     9.8393   106.4260
 1248.0000   103.3054     9.9055     9.7187   106.5743
 1248.5000   103.3024     9.9041     9.5832   106.7226
 1249.0000   102.5294     9.7671     9.7135   106.8709
 1249.5000   100.7159     9.6321     9.7320   107.0193
 1250.0000    98.2039     9.7644     9.9792   107.1676
 1250.5000    94.6937     9.7631     9.9762   107.3159
 1251.0000    91.7964     9.8974     9.9735   107.4642
 1251.5000    90.7099     9.8959     9.9708   107.6125
 1252.0000    93.6124     9.8946     9.9680   107.7608
 1252.5000    98.4280     9.8932     9.9653   107.9091
 1253.0000   102.2196     9.8919     9.8263   108.0357
 1253.5000   102.6740     9.8905     9.7934   108.2058
 1254.0000   101.7603     9.7538     9.6866   108.3541
 1254.5000    99.6737     9.7524     9.6840   108.5024
 1255.0000   100.6087     9.7511     9.5489   108.6507
 1255.5000   102.0633     9.7497     9.5463   108.7990
 1256.0000   102.0599     9.7484     9.5437   108.9474
 1256.5000   102.0569     9.7470     9.5410   123.9767
 1257.0000   101.8563     9.8810     9.5384   124.1249
 1257.5000    99.6404     9.8797     9.6684   124.2733
 1258.0000    96.4469     9.8783     9.6653   124.4047
 1258.5000    98.5094     9.8769     9.6626   130.3572
 1259.0000   100.4711     9.8756     9.6600   139.5992
 1259.5000   102.2713     9.8742     9.6573   139.7475
 1260.0000   103.2341     9.8729     9.6547   139.8958
 1260.5000    97.5949     9.8715     9.6520   140.0441
 1261.0000    97.2395     9.8701     9.6493   125.2976
 1261.5000    99.2159     9.8688     9.6467   125.4598
 1262.0000   101.9598     9.8674     9.6440   110.7271
 1262.5000   104.9650     9.8661     9.6414   110.8754
 1263.0000   107.3713     9.8647     9.6387   111.0238
 1263.5000   110.6650     9.8633     9.6361   111.1721
 1264.0000   111.8884     9.8620     9.6868   111.3204
 1264.5000   111.5898     9.8606     9.8196   111.4687
 1265.0000   110.6786     9.8593     9.8969   111.6170
 1265.5000   110.3862     9.8579     9.8942   111.7654
 1266.0000   110.7065     9.8565     9.8915   111.9136
 1266.5000   110.9790     9.8552     9.8887   112.0620
 1267.0000   111.3134     9.8538     9.7508   112.2103
 1267.5000   112.2607     9.8525     9.6149   112.3586
 1268.0000   114.6670     9.8511     9.6122   112.5069
 1268.5000   117.5533     9.8497     9.5472   112.6552
 1269.0000   118.7479     9.8484     9.4756   112.8036
 1269.5000   118.7449     9.8257     9.3434   112.9519
 1270.0000   118.1432     9.7109     9.3409   113.1002
 1270.5000   113.9486     9.5766     9.4041   113.2485
 1271.0000   113.7405     9.5512     9.4651   113.3968
 1271.5000   114.5419     9.4428     9.4625   113.5451
 1272.0000   114.5385     9.4415     9.4599   113.6934
 1272.5000   112.7391     9.5714     9.4573   113.8418
 1273.0000   111.5385     9.5700     9.4547   128.8710
 1273.5000   110.9367     9.5686     9.4521   129.0193
 1274.0000   112.1313     9.5673     9.4495   129.1676
 1274.5000   113.9248     9.5660     9.4469   129.3160
 1275.0000   116.9158     9.5646     9.4443   129.4643
 1275.5000   119.3080     9.5633     9.4417   129.6131
 1276.0000   117.5086     9.5620     9.3095   129.7619
 1276.5000   114.5117     9.5607     9.3070   129.9107
 1277.0000   112.1135     9.5594     9.1772   130.0595
 1277.5000   112.7096     9.4272     9.0493   130.2083
 1278.0000   112.1075     9.2968     9.0468   130.3571
 1278.5000   112.7033     9.2955     8.9206   130.5060
 1279.0000   113.8980     9.1670     8.7962   130.6547
 1279.5000   117.4878     9.0402     8.7938   130.8036
 1280.0000   121.0776     8.7931     8.6712   129.9608
 1280.5000   121.2207     8.7909     8.5503   116.2148
 1281.0000   119.2753     8.6684     8.5084   116.3690
 1281.5000   119.2136     8.5504     8.4288   116.5178
 1282.0000   121.0657     8.5493     8.3113   116.6667
 1282.5000   119.8652     8.5481     8.1954   118.3028
 1283.0000   118.6646     8.4299     8.0811   131.8452
 1283.5000   119.8592     8.4220     7.9684   131.9940
 1284.0000   121.6526     8.0861     7.7499   133.9291
 1284.5000   122.8473     7.9660     7.5373   147.1726
 1285.0000   123.4431     7.7474     7.3306   147.3214
 1285.5000   123.4401     7.5348     7.0321   147.4702
 1286.0000   124.6424     7.4297     6.7457   147.6190
 1286.5000   126.4282     7.2153     6.4710   147.7679
 1287.0000   126.4251     6.7216     6.0389   150.2997
 1287.5000   127.0210     6.0705     5.7930   162.9464
 1288.0000   127.6488     5.2301     5.4811   163.0952
 1288.5000   128.9287     4.6899     5.1860   163.2440
 1289.0000   133.4588     4.3931     4.6439   148.4980
 1289.5000   145.7142     4.3413     4.1015   148.6607
 1290.0000   161.2585     4.3507     4.3326   148.8095
 1290.5000   167.7217     4.4110     4.7696   148.9583
 1291.0000   145.2758     4.4722     5.2507   149.1071
 1291.5000   134.1344     4.5463     5.7803   152.5296
 1292.0000   124.4965     4.8182     6.2763   164.2857
 1292.5000   121.6020     5.2664     7.0051   167.9106
 1293.0000   125.2934     6.1973     7.7117   179.4643
 1293.5000   125.7877     7.1158     7.8166   194.4940
 1294.0000   124.5868     7.6809     7.8143   209.5238
 1294.5000   125.3056     7.9790     7.9205   224.5536
 1295.0000   127.4960     8.1736     8.0281   209.8016
 1295.5000   131.3847     8.1724     8.1372   191.0209
 1296.0000   138.7779     8.1712     8.2478   180.3364
 1296.5000   134.5939     8.2837     8.4756   176.2355
 1297.0000   126.0182     8.3150     8.4733   165.7520
 1297.5000   121.5723     8.5130     8.7075   165.9226
 1298.0000   124.7346     8.6663     8.8257   166.0714
 1298.5000   124.2024     8.9078     8.9456   166.2202
 1299.0000   122.1617     9.0622     8.9432   166.3690
 1299.5000   122.3513     9.1153     9.0647   166.5179
 1300.0000   126.3463     9.3897     9.0836   166.6667
 1300.5000   123.3465     9.6489     9.3412   166.8155
 1301.0000   120.3467     9.9152     9.6061   166.9643
 1301.5000   119.5471    10.0498     9.8784   167.1131
 1302.0000   120.9338    10.0471    10.0200   167.2619
 1302.5000   120.3292    10.0444    10.1244   167.4107
 1303.0000   120.3194    10.1808    10.1212   167.5595
 1303.5000   119.0819    10.1779    10.1184   167.7083
 1304.0000   118.5150    10.1751    10.1157   167.8571
 1304.5000   120.0242    10.1723    10.1129   168.0060
 1305.0000   123.1133    10.0306    10.1101   174.1071
 1305.5000   126.8021    10.0279    10.1068   183.1845
 1306.0000   129.2705    10.0251    10.1041   183.3333
 1306.5000   125.9022    10.0224    10.1014   183.4821
 1307.0000   120.6466     9.8823     9.9611   183.6310
 1307.5000   118.4731     9.8797     9.9584   183.7797
 1308.0000   118.4671     9.8770     9.8200   198.8095
 1308.5000   118.4600     9.8744     9.8174   198.9583
 1309.0000   117.8554     9.8718     9.6810   199.1071
 1309.5000   118.4484     9.8692     9.6886   199.2559
 1310.0000   121.4365     9.8665     9.8095   199.4048
 1310.5000   122.0299     9.8638     9.6730   199.5535
 1311.0000   121.4249     9.8611     9.6703   199.7024
 1311.5000   122.0179     9.8584     9.6677   208.8757
 1312.0000   124.4390     9.8557     9.6650   208.7585
 1312.5000   125.5991     9.8082     9.6624   223.5481
 1313.0000   124.3952     9.6627     9.5280   223.4269
 1313.5000   123.6726     9.5195     9.5254   223.3206
 1314.0000   123.0338     9.3783     9.3930   223.2143
