~VERSION INFORMATION
 VERS.                2.0:   CWLS LOG ASCII STANDARD - VERSION 2.0
 WRAP.                 NO:   ONE LINE PER DEPTH STEP
~WELL INFORMATION
#MNEM.UNIT      DATA TYPE    INFORMATION
#----------   ------------   ------------------------------
 STRT.F          200.5000:   START DEPTH
 STOP.F         3164.0000:   STOP DEPTH
 STEP.F            0.5000:   STEP LENGTH
 NULL.          -999.2500:   NO VALUE
 COMP. FENIX & SCISSON U.S NAVY:   COMPANY
 WELL. FENIX & SCISSON "A" #83-4:   WELL
 FLD .              NPR-3:   FIELD
 LOC .       S4 T38N R78W:   LOCATION
 CNTY.            NATRONA:   COUNTY
 STAT.            WYOMING:   STATE
 CTRY. UNITED STATES OF AMERICA:   COUNTRY
 SRVC.       SCHLUMBERGER:   SERVICE COMPANY
 DATE.        25-MAY-1977:   LOGDATE
 API .     49025103660000:   API NUMBER
~CURVE INFORMATION
#MNEM.UNIT       API CODE    CURVE DESCRIPTION
#----------   ------------   ------------------------------
 DEPT.F                  :   
 CALD.IN     45 280 60 00:   CALIPER FROM DENSITY LOG
 GRD .GAPI   45 310 01 00:   GAMMA RAY FROM DENSITY LOG
 RHOB.G/C3   45 350 01 00:   BULK DENSITY
 CORR.G/C3   45 356 01 00:   DENSITY CORRECTION
 SPR .MV     07 010 01 00:   SPONTANEOUS POTENTIAL
 SFLU.OHMM   07 220 01 00:   SPHERICALLY FOCUSED LOG UNAVERAGED RESISTIVITY
 ILD .OHMM   07 120 46 00:   DEEP INDUCTION RESISTIVITY
 ILM .OHMM   07 120 44 00:   INDUCTION LOG MEDIUM RESISTIVITY
~PARAMETER INFORMATION
#MNEM.UNIT          VALUE    DESCRIPTION
#----------   ------------   ------------------------------
 EKB .F         5163.0000:   Kelly bushing
 EGL .F         5149.0000:   Ground level
 EDF .F            0.0000:   Drilling floor
 EPD .F            0.0000:   Permanent datum
 TD  .F         3173.0000:   Total depth
 DATE.        25-MAY-1977:   Date logged
 CLNT.            A2DTECH:   Client Code
 SL  . 1650' FNL & 330 ' FEL:   Surface Location
 PD  .                 GL:   Permanent Datum
 DAPD.F                14:   Feet Above Permanent Datum
 DD  .F              3173:   Depth driller
 DL  .F              3157:   Depth logger
 BLI .F              3165:   Bottom log interval
 TLI .F               200:   Top log interval
 CS1 .IN            8.625:   Casing size
 CBD1.      8.625" @ 204':   Casing driller 1
 CBL1.F               220:   Casing logger 1
 BS1 .IN            7.875:   Bit size
 BSD1.F              3173:   Depth drilled with bit1
 DFT .            KCL MUD:   Type fluid in hole
 DFD .                8.8:   Density
 DFV .                 37:   Viscosity
 DFPH.                7.5:   pH
 DFL .                4.4:   Fluid loss
 MSS .           FLOWLINE:   Source of sample
 RMS .OHMM            .39:   Rm
 MST .F                79:   Rm Meas. temp.
 RMF .OHMM            .31:   Rmf
 MFST.F                79:   Rmf Meas. temp.
 RMC .OHMM            .63:   Rmc
 MCST.F                79:   Rmc Meas. temp.
 MFSS.           FANN KIT:   Source Rmf.
 MCSS.           FANN KIT:   Source Rmc.
 RMB .OHMM            .27:   Rm. at BHT
 BHT .F               112:   BHT.
 TCS .HRS             2.5:   Time Circ. stopped
 MRT .F               112:   Maximum recorded temp.
 LUN .               8611:   Logging unit number
 LUL .             CASPER:   Logging unit location
 ENGI.            C. DOAK:   Recorded By
 WITN.      B. HARRINGTON:   Witnessed by
 ORIG.       2.5"5" PRINT:   Origin of data
 UWI .     49025103660000:   Unique Well ID
 DICO. A2D TECHNOLOGIES, INC.:   Digitizing Company
~OTHER INFORMATION
~A   DEPT     CALD        GRD         RHOB     CORR        SPR       SFLU        ILD        ILM   
# ...
 2711.5000     8.6181   101.7813     2.5059     0.0195   -40.8901     9.2411     8.5934     5.3594
 2712.0000     8.5791   102.5625     2.5099     0.0194   -40.4987     8.9114     7.8473     5.3594
 2712.5000     8.5791   102.5625     2.5158     0.0194   -40.4971     8.9114     7.8473     5.4576
 2713.0000     8.5791   102.5625     2.5177     0.0194   -40.4948     9.0748     7.8473     5.4576
 2713.5000     8.5791   103.3438     2.5177     0.0194   -40.4932     8.4387     7.8473     5.5577
 2714.0000     8.5791   107.2500     2.5138     0.0233   -40.4909     9.9376     7.9911     5.5577
 2714.5000     8.5791   108.8125     2.5256     0.0273   -40.4893     9.5830     7.9911     5.6596
 2715.0000     8.5791   108.8125     2.5276     0.0233   -40.4870     8.5934     8.1376     5.7634
 2715.5000     8.5791   107.2500     2.5276     0.0233   -40.4854     8.7510     8.2868     5.8690
 2716.0000     8.5791   110.3750     2.5236     0.0293   -40.4831    10.8825     8.2868     5.8690
 2716.5000     8.5791   111.9375     2.5217     0.0293   -40.4816     9.2411     8.2868     5.8690
 2717.0000     8.6181   111.9375     2.5197     0.0293   -40.4792     8.9114     8.2868     5.8690
 2717.5000     8.6181   111.9375     2.5177     0.0332   -40.8668    10.1198     7.9911     5.6596
 2718.0000     8.5791   111.1563     2.5177     0.0253   -40.4753     9.4105     7.5673     5.5577
 2718.5000     8.5791   111.1563     2.4961     0.0332   -40.4738     8.2868     7.4310     5.2629
 2719.0000     8.5791   111.9375     2.4882     0.0292   -40.4715     8.2868     7.0369     5.1682
 2719.5000     8.5400   114.2813     2.4587     0.0292   -40.8590     8.2868     6.9102     4.8059
 2720.0000     8.5791   118.9688     2.4430     0.0292   -40.0785     8.7510     6.4259     4.5510
 2720.5000     8.5400   122.0938     2.4292     0.0193   -40.0769     8.7510     6.4259     4.3886
 2721.0000     8.5400   124.4375     2.4213     0.0292   -40.0746     8.2868     6.3102     4.0075
 2721.5000     8.5400   126.7813     2.3918     0.0331   -40.0730     7.4310     5.7623     3.5290
 2722.0000     8.5791   128.3438     2.3682     0.0449   -39.6816     6.4259     5.3584     3.3418
 2722.5000     8.5791   129.6875     2.3388     0.0449   -39.6801     5.4567     4.3879     2.8897
 2723.0000     8.5791   129.6875     2.2797     0.0488   -39.2886     5.5567     4.0069     2.6872
 2723.5000     8.5791   127.5625     2.2404     0.0527   -38.8980     4.5157     3.2811     2.2818
 2724.0000     8.5791   120.5313     2.1716     0.0685   -37.3392     3.8099     2.5909     2.2408
 2724.5000     8.6181   109.5938     2.1244     0.0527   -36.9486     3.2145     2.4535     2.0462
 2725.0000     8.5791   101.7813     2.1067     0.0252   -36.5572     2.7121     2.3660     2.0462
 2725.5000     8.5791    97.0938     2.0871     0.0252   -36.5556     2.4093     2.3660     2.0837
 2726.0000     8.5009    93.9688     2.3215    -0.0220   -36.5533     2.4985     2.4093     2.2818
 2726.5000     8.5009    96.3125     2.5256     0.0094   -36.5517     8.2868    46.5472     2.5446
 2727.0000     8.4619    97.8750     2.5335     0.0133   -36.1603    21.3129    46.5472     2.9767
 2727.5000     8.4619    97.8750     2.5374     0.0173   -36.1587    22.1015     7.5673     3.4821
 2728.0000     8.4228    98.6563     2.5413     0.0212   -36.1564    19.8192     7.5673     4.3886
 2728.5000     8.4619    98.6563     2.5335     0.0251   -36.1548    18.7679    10.4942     5.9766
 2729.0000     8.5009    97.8750     2.5295     0.0330   -35.7634    17.7725    11.0820     6.2939
 2729.5000     8.5009    97.0938     2.5275     0.0329   -35.7619    16.8298    11.7028     9.0262
 2730.0000     8.5009    97.8750     2.5334     0.0369   -35.3704    16.2293    13.5333     9.7608
 2730.5000     8.5009    97.8750     2.5413     0.0369   -35.3689    16.2293    14.5533    11.7053
 2731.0000     8.4619    98.6563     2.5295     0.0308   -34.9774    17.1383    15.6502    11.7053
 2731.5000     8.5009    98.6563     2.5217     0.0308   -34.9751    17.4525    15.9372    11.2877
 2732.0000     8.5009    99.4375     2.5177     0.0230   -34.5845    17.4525    16.2293    10.8849
 2732.5000     8.5009    99.4375     2.5177     0.0230   -34.5821    17.4525    16.5268    10.4965
 2733.0000     8.5009    99.4375     2.5177     0.0190   -34.5806    17.1383    16.2293    10.8849
 2733.5000     8.4619   100.2188     2.5197     0.0151   -34.1891    18.4301    16.2293    10.8849
 2734.0000     8.4228   101.7813     2.5236     0.0151   -33.7985    20.5525    18.0983    10.8849
 2734.5000     8.4228   101.0000     2.5354     0.0151   -33.7961    24.6468    19.8192    11.0845
 2735.0000     8.4228   101.0000     2.5452     0.0268   -33.7946    24.2031    19.8192    11.0845
 2735.5000     8.4228   100.2188     2.5472     0.0328   -33.7923    19.4624    18.0983    10.8849
 2736.0000     8.4228    98.6563     2.5472     0.0328   -33.4016    17.4525    17.1383    10.1220
 2736.5000     8.4228    98.6563     2.5335     0.0289   -33.3993    17.7725    16.5268     9.9397
 2737.0000     8.4228    98.6563     2.5256     0.0210   -33.3977    18.0983    17.7725     9.9397
 2737.5000     8.4619    97.8750     2.5217     0.0210   -33.0063    19.8192    18.0983     9.9397
 2738.0000     8.4619    98.6563     2.5217     0.0210   -33.0047    20.5525    18.4301     9.9397
 2738.5000     8.5009    98.6563     2.5079     0.0210   -33.0024    23.7673    18.4301    10.4965
 2739.0000     8.5009    97.8750     2.5079     0.0210   -32.6117    20.9293    17.7725    10.8825
 2739.5000     8.4619    98.6563     2.5079     0.0210   -32.6094    18.0983    17.4525    10.6866
 2740.0000     8.4619    97.8750     2.5079     0.0209   -32.2188    18.0983    17.4525    10.6866
 2740.5000     8.4619    97.0938     2.4902     0.0209   -31.8273    18.7679    17.7725    10.6866
 2741.0000     8.4619    96.3125     2.4902     0.0209   -31.8258    19.4624    18.4301    10.6866
 2741.5000     8.4619    97.0938     2.4961     0.0209   -31.8234    20.9293    18.7679    10.8825
 2742.0000     8.5009    93.9688     2.4961     0.0188   -31.8219    21.7037    20.9293    10.8825
 2742.5000     8.4619    91.6250     2.4863     0.0188   -31.3515    20.9293    22.9193    11.0820
 2743.0000     8.5009    88.2813     2.4843     0.0188   -30.9616    20.9293    25.0986    11.4921
 2743.5000     8.5009    83.8125     2.4863     0.0188   -30.5702    20.9293    26.5044    11.4921
 2744.0000     8.5009    87.7188     2.4863     0.0188   -30.5686    20.1825    26.0273    11.7028
 2744.5000     8.4619    88.5000     2.4902     0.0188   -30.5663    19.4624    24.6468    11.9173
 2745.0000     8.5009    89.2813     2.4961     0.0188   -31.3429    17.1383    24.6468    12.1385
 2745.5000     8.5400    90.0625     2.5000     0.0188   -31.3406    17.1383    26.0273    12.3610
 2746.0000     8.4619    90.0625     2.5040     0.0187   -31.8063    18.7679    31.2122    12.3610
 2746.5000     8.5009    90.8438     2.5020     0.0187   -32.1931    22.1015    29.0246    12.3610
 2747.0000     8.5009    92.4063     2.5020     0.0187   -32.1916    22.5067    29.0246    12.3610
 2747.5000     8.4228    95.5313     2.5040     0.0187   -32.1892    21.7037    29.0246    12.3610
 2748.0000     8.4619    97.0938     2.5040     0.0187   -32.9659    23.7673    29.0246    11.9199
 2748.5000     8.5009    97.0938     2.5000     0.0187   -32.9635    19.8192    31.2122    12.3610
 2749.0000     8.4619    97.0938     2.4981     0.0247   -32.8830    19.8192    28.5097    12.1385
 2749.5000     8.4619    97.0938     2.4902     0.0129   -32.8815    19.8192    27.9965    11.9199
 2750.0000     8.5009    95.5313     2.4784     0.0129   -32.8799    20.5525    27.9965    11.4946
 2750.5000     8.4619    95.5313     2.4804     0.0129   -33.2667    22.9193    27.9965    11.7053
 2751.0000     8.4619    94.7500     2.4863     0.0129   -33.7324    20.5525    27.9965    11.7053
 2751.5000     8.4619    96.3125     2.4961     0.0128   -33.7301    19.4624    27.9965    11.4946
