~VERSION INFORMATION
 VERS.                2.0:   CWLS LOG ASCII STANDARD - VERSION 2.0
 WRAP.                 NO:   ONE LINE PER DEPTH STEP
~WELL INFORMATION
#MNEM.UNIT      DATA TYPE    INFORMATION
#----------   ------------   ------------------------------
 STRT.F           16.0000:   START DEPTH
 STOP.F         2834.0000:   STOP DEPTH
 STEP.F            0.5000:   STEP LENGTH
 NULL.          -999.2500:   NO VALUE
 COMP.    FENIX & SCISSON:   COMPANY
 WELL. FENIX NPR 3 "AX" #14-21:   WELL
 FLD .              N P R:   FIELD
 LOC .      S21 T39N R78W:   LOCATION
 CNTY.            NATRONA:   COUNTY
 STAT.            WYOMING:   STATE
 CTRY. UNITED STATES OF AMERICA:   COUNTRY
 SRVC.           BIRDWELL:   SERVICE COMPANY
 DATE.        26-JUL-1978:   LOGDATE
 API .     49025106740000:   API NUMBER
~CURVE INFORMATION
#MNEM.UNIT       API CODE    CURVE DESCRIPTION
#----------   ------------   ------------------------------
 DEPT.F                  :   
 GRD .GAPI   45 310 01 00:   GAMMA RAY FROM DENSITY LOG
 CALD.IN     45 280 60 00:   CALIPER FROM DENSITY LOG
 RHOB.G/C3   45 350 01 00:   BULK DENSITY
 CORR.G/C3   45 356 01 00:   DENSITY CORRECTION
 SPR .MV     05 010 01 00:   SPONTANEOUS POTENTIAL
 ILD .OHMM   05 120 46 00:   DEEP INDUCTION RESISTIVITY
 SN  .OHMM   05 040 00 00:   SHORT NORMAL
~PARAMETER INFORMATION
#MNEM.UNIT          VALUE    DESCRIPTION
#----------   ------------   ------------------------------
 EKB .F         4998.0000:   Kelly bushing
 EGL .F         4988.0000:   Ground level
 EDF .F            0.0000:   Drilling floor
 EPD .F            0.0000:   Permanent datum
 TD  .F         2850.0000:   Total depth
 DATE.        26-JUL-1978:   Date logged
 CLNT.            A2DTECH:   Client Code
 SL  . 2640' FNL & 500' FWL:   Surface Location
 PD  .                 GL:   Permanent Datum
 DD  .F              2850:   Depth driller
 DL  .F              2838:   Depth logger
 BLI .F              2832:   Bottom log interval
 CS1 .IN            8.625:   Casing size
 CBD1.      8.625" @ 208':   Casing driller 1
 BS1 .IN            7.875:   Bit size
 DFT .            MUD/GEL:   Type fluid in hole
 DFD .                9.4:   Density
 DFV .                 37:   Viscosity
 DFPH.                 11:   pH
 TCS .HRS               4:   Time Circ. stopped
 LUN .               2958:   Logging unit number
 LUL .               CASP:   Logging unit location
 ENGI.             MILLER:   Recorded By
 WITN.           MCGINLEY:   Witnessed by
 ORIG.           5" PRINT:   Origin of data
 UWI .     49025106740000:   Unique Well ID
 DICO. A2D TECHNOLOGIES, INC.:   Digitizing Company
 DAPD.                 12:   Feet Above Permanent Datum
 BSD1.               3950:   Depth drilled with bit1
 MCSS.               CALC:   Source Rmc.
 TLI .F               230:   Top log interval
~OTHER INFORMATION
~A   DEPT       GRD      CALD       RHOB       CORR        SPR        ILD         SN   
# ...
 2791.5000   113.9570     7.2380     2.4900     0.2260   -33.9160     5.1460     5.4360
 2792.0000   113.9230     7.2500     2.4930     0.2250   -33.8660     5.0610     5.2760
 2792.5000   114.0910     7.2520     2.5040     0.2230   -33.7260     4.9760     5.1170
 2793.0000   115.8200     7.2550     2.4980     0.2240   -33.5830     4.8910     4.9570
 2793.5000   117.9380     7.2570     2.4880     0.2250   -33.6100     4.8060     4.8600
 2794.0000   119.6660     7.2590     2.4810     0.2270   -33.6640     4.7220     4.9070
 2794.5000   120.0560     7.2620     2.4820     0.2280   -33.7190     4.6430     4.9600
 2795.0000   118.8150     7.2640     2.4780     0.2270   -33.7740     4.6300     5.0130
 2795.5000   117.9140     7.2660     2.4740     0.2270   -33.8290     4.6180     5.0410
 2796.0000   119.2900     7.2690     2.4700     0.2280   -33.8840     4.6050     5.0410
 2796.5000   121.7510     7.2580     2.4690     0.2300   -33.9440     4.5930     5.0160
 2797.0000   124.3050     7.2360     2.4680     0.2330   -33.8070     4.5810     4.9930
 2797.5000   124.5710     7.2150     2.4670     0.2400   -33.5890     4.5680     4.9690
 2798.0000   121.1910     7.1930     2.4770     0.2390   -33.3690     4.5590     4.9460
 2798.5000   115.9400     7.1710     2.4870     0.2390   -33.1720     4.5590     4.9230
 2799.0000   110.8290     7.1480     2.4940     0.2390   -33.1680     4.6060     4.9000
 2799.5000   106.5880     7.1250     2.4930     0.2420   -33.1690     4.6740     4.8770
 2800.0000   107.5790     7.1100     2.4910     0.2460   -33.1690     4.7410     4.8600
 2800.5000   108.1070     7.1860     2.4930     0.2500   -33.1690     4.8080     5.1050
 2801.0000   107.1180     7.1540     2.4980     0.2530   -33.1690     4.8760     5.2940
 2801.5000   111.4200     7.0750     2.5020     0.2520   -33.1690     4.9500     5.4830
 2802.0000   114.5240     7.1090     2.5040     0.2460   -33.1690     4.9500     5.6720
 2802.5000   114.9740     7.1300     2.5050     0.2400   -33.1690     4.9500     5.7540
 2803.0000   116.8610     7.0370     2.5060     0.2360   -33.1690     4.9110     5.7810
 2803.5000   116.9500     7.0150     2.4980     0.2360   -33.1690     4.8330     5.5640
 2804.0000   116.5530     7.0340     2.4900     0.2360   -33.1700     4.7550     5.3670
 2804.5000   116.4080     6.9940     2.4870     0.2360   -33.1690     4.6760     5.2210
 2805.0000   116.9510     7.0690     2.4910     0.2360   -33.1450     4.5980     5.1940
 2805.5000   117.6710     7.1520     2.4880     0.2350   -32.9490     4.5450     5.2050
 2806.0000   119.9300     7.1490     2.4830     0.2350   -32.7790     4.4960     5.0650
 2806.5000   122.5390     7.1430     2.4860     0.2350   -32.8000     4.4480     4.9500
 2807.0000   124.1500     7.1370     2.4830     0.2350   -32.8230     4.4000     4.9500
 2807.5000   124.4330     7.1320     2.4770     0.2350   -32.8460     4.3560     4.9500
 2808.0000   124.0260     7.1310     2.4880     0.2350   -32.8680     4.4120     4.8490
 2808.5000   119.2820     7.1300     2.5000     0.2350   -32.8900     4.4740     4.7050
 2809.0000   113.4070     7.1580     2.4870     0.2360   -32.9130     4.5180     4.5180
 2809.5000   112.1630     7.1700     2.4800     0.2360   -32.9350     4.4820     4.5800
 2810.0000   111.2370     7.1550     2.4920     0.2340   -32.9580     4.4540     4.7040
 2810.5000   109.6200     7.1390     2.4990     0.2340   -32.9800     4.4260     4.8160
 2811.0000   108.2510     7.1240     2.4970     0.2340   -33.0030     4.3980     4.8690
 2811.5000   107.8520     7.1330     2.5000     0.2340   -33.0250     4.3560     4.9160
 2812.0000   106.8460     7.2090     2.5070     0.2340   -33.0470     4.3940     4.9990
 2812.5000   103.7320     7.2110     2.5090     0.2350   -33.0700     4.4770     5.1620
 2813.0000   100.6680     7.2100     2.5020     0.2350   -33.0920     4.7820     5.3260
 2813.5000    97.5470     7.2100     2.4990     0.2350   -33.1150     5.1220     5.4730
 2814.0000    97.6660     7.2100     2.5010     0.2350   -33.1370     5.4610     6.0150
 2814.5000    99.2820     7.2100     2.4950     0.2350   -33.1590     5.8010     6.5090
 2815.0000   104.5360     7.2100     2.4890     0.2390   -33.1160     6.1060     7.0020
 2815.5000   109.6820     7.2100     2.4860     0.2450   -33.0230     6.2450     7.4950
 2816.0000   113.3200     7.2100     2.4950     0.2450   -32.9290     6.3330     7.7420
 2816.5000   114.9970     7.2120     2.5040     0.2440   -32.8350     6.3070     7.4670
 2817.0000   112.6730     7.1910     2.5050     0.2440   -32.7310     6.2860     7.1310
 2817.5000   111.5580     7.1770     2.5060     0.2440   -32.6070     6.2760     7.0070
 2818.0000   113.5360     7.1590     2.5080     0.2450   -32.4840     6.0570     6.8210
 2818.5000   116.3810     7.1580     2.5110     0.2450   -32.3590     5.7320     6.5850
 2819.0000   113.4150     7.1690     2.5070     0.2450   -32.2350     5.4080     6.3490
 2819.5000   100.6150     7.1800     2.5020     0.2450   -31.9940     5.1760     6.1140
 2820.0000   108.6220     7.1930     2.4980     0.2450   -31.8060     5.1590     5.9960
 2820.5000   116.8960     7.1450     2.5070     0.2450   -31.8590     5.1420     5.9960
 2821.0000   118.8230     7.1050     2.5050     0.2440   -31.9070     5.1250     5.9960
 2821.5000   115.1330     7.0720     2.5030     0.2440   -31.9550     5.1080     5.9390
 2822.0000   114.1560     7.0730     2.5060     0.2440   -32.0040     5.0900     5.8760
 2822.5000   114.7170     7.0780     2.5090     0.2440   -32.0520     5.0730     5.8120
 2823.0000   115.4960     7.0850     2.5060     0.2430   -32.1010     5.0560     5.7060
 2823.5000   116.8000     7.0940     2.5040     0.2430   -32.1490     5.0410     5.5570
 2824.0000   117.0500     7.0600     2.5060     0.2430   -32.1980     4.9370     5.4230
 2824.5000   114.2720     7.0350     2.5090     0.2420   -32.2460     4.7900     5.4040
 2825.0000   110.9480     7.0070     2.5130     0.2410   -32.2950     4.6770     5.3860
 2825.5000   112.9940     7.0090     2.5110     0.2410   -32.3430     4.6460     5.3500
 2826.0000   115.0010     7.2210     2.5050     0.2400   -32.3830     4.6150     5.2710
 2826.5000   112.4010     6.4630     2.5080     0.2390   -32.3820     4.5840     5.1920
 2827.0000   110.9270     6.6960     2.4940     0.2390   -32.3820     4.5540     5.1130
 2827.5000   113.3690     6.2210     2.4970     0.2400   -32.3800     4.5230     5.0350
 2828.0000   115.4830  -999.2500     2.4840     0.2460   -32.5700     4.4920     4.9950
 2828.5000   113.7970  -999.2500     2.4740     0.2520   -32.8740     4.4690     5.0000
 2829.0000   113.6420  -999.2500     2.4790     0.2520   -33.1590     4.4520     5.0050
 2829.5000   112.0300  -999.2500     2.4760     0.2540   -32.9970     4.4360     5.0090
 2830.0000   111.1000  -999.2500     2.4580     0.2670   -32.1110     4.4200     5.0130
 2830.5000   113.0220  -999.2500     2.4500     0.2800   -31.9610     4.4030     5.0170
 2831.0000   115.3060  -999.2500     2.4720     0.2870   -32.2190     4.3870     5.0210
 2831.5000   113.6030  -999.2500     2.4730     0.2890   -32.4580     4.3700     5.0250
 2832.0000   109.4750  -999.2500     2.4980     0.2970   -34.1100     4.3540     5.0290
 2832.5000  -999.2500  -999.2500  -999.2500     0.3080   -34.3990     4.3380     5.0330
 2833.0000  -999.2500  -999.2500  -999.2500  -999.2500   -32.2550     4.3210     5.0370
 2833.5000  -999.2500  -999.2500  -999.2500  -999.2500   -32.3090  -999.2500     5.0410
 2834.0000  -999.2500  -999.2500  -999.2500  -999.2500  -999.2500  -999.2500     5.0410
