~VERSION INFORMATION
 VERS.                2.0:   CWLS LOG ASCII STANDARD - VERSION 2.0
 WRAP.                 NO:   ONE LINE PER DEPTH STEP
~WELL INFORMATION
#MNEM.UNIT      DATA TYPE    INFORMATION
#----------   ------------   ------------------------------
 STRT.F            4.0000:   START DEPTH
 STOP.F         5696.0000:   STOP DEPTH
 STEP.F            0.5000:   STEP LENGTH
 NULL.          -999.2500:   NO VALUE
 COMP.       FLUOR DANIEL:   COMPANY
 WELL.   FLUOR "X" #72-10:   WELL
 FLD .             NPR #3:   FIELD
 LOC .      S10 T38N R78W:   LOCATION
 CNTY.            NATRONA:   COUNTY
 STAT.            WYOMING:   STATE
 CTRY. UNITED STATES OF AMERICA:   COUNTRY
 SRVC.      WESTERN ATLAS:   SERVICE COMPANY
 DATE.        26-SEP-1996:   LOGDATE
 API .     49025228080000:   API NUMBER
~CURVE INFORMATION
#MNEM.UNIT       API CODE    CURVE DESCRIPTION
#----------   ------------   ------------------------------
 DEPT.F                  :   
 GRR .GAPI   07 310 01 00:   GAMMA RAY FROM RESISTIVITY
 SPR .MV     07 010 01 00:   SPONTANEOUS POTENTIAL
 CALR.IN     07 280 01 00:   CALIPER FROM RESISTIVITY
 RD  .OHMM   07 220 10 00:   RESISTIVITY DEEP
 RS  .OHMM   07 220 09 00:   RESISTIVITY SHALLOW
 TENR.LBS    07 635 01 00:   TENSION FROM RESISTIVITY
~PARAMETER INFORMATION
#MNEM.UNIT          VALUE    DESCRIPTION
#----------   ------------   ------------------------------
 EKB .F         5178.0000:   Kelly bushing
 EGL .F         5168.0000:   Ground level
 EDF .F         5177.0000:   Drilling floor
 TD  .F         5698.0000:   Total depth
 CLNT.            A2DTECH:   Client Code
 SL  . 687' FNL & 1002' FEL:   Surface Location
 PD  .                 GL:   Permanent Datum
 EPD .F              5168:   Elevation Permanent Datum
 LMF .                 KB:   Log Measured From
 DMF .                 KB:   Drilling Measured From
 DAPD.F                10:   Feet Above Permanent Datum
 DATE.        26-SEP-1996:   Date Logged [DD-MMM-YYYY]
 DD  .F              5698:   Depth driller
 DL  .F              5697:   Depth logger
 BLI .F              5685:   Bottom log interval
 CS1 .IN            9.625:   Casing size
 CBD1.      9.625" @ 526':   Casing driller 1
 CBL1.F               526:   Casing logger 1
 BS1 .IN             8.75:   Bit size
 BSD1.F              5698:   Depth drilled with bit1
 DFT .               CHEM:   Type fluid in hole
 DFD .                9.1:   Density
 DFV .                 60:   Viscosity
 DFPH.                9.5:   pH
 DFL .                7.6:   Fluid loss
 MSS .               CIRC:   Source of sample
 RMS .OHMM           0.82:   Rm
 MST .F                64:   Rm Meas. temp.
 RMF .OHMM           0.64:   Rmf
 MFST.F                64:   Rmf Meas. temp.
 MFSS.               CALC:   Source Rmf.
 RMC .OHMM           1.08:   Rmc
 MCST.F                64:   Rmc Meas. temp.
 MCSS.               CALC:   Source Rmc.
 RMB .OHMM           0.29:   Rm. at BHT
 BHT .F               183:   BHT.
 TCS .HRS               5:   Time Circ. stopped
 MRT .F               183:   Maximum recorded temp.
 LUN .            HL-6530:   Logging unit number
 LUL .             CASPER:   Logging unit location
 ENGI.           BROWNLOW:   Recorded By
 ORIG.        2" 5" PRINT:   Origin of data
 UWI .     49025228080000:   Unique Well ID
 WITN.              HARDY:   Witnessed by
 DICO. A2D TECHNOLOGIES, INC.:   Digitizing Company
~OTHER INFORMATION
~A  DEPTH      GRR        SPR       CALR         RD         RS       TENR
# ...
 1200.0000    95.1807   -60.6918     9.8180     9.3262     7.7874   -40.1050
 1200.5000    93.4018   -60.5299     9.8193     9.3938     7.8432   -32.5213
 1201.0000    92.8164   -60.5158     9.8205     9.5272     7.8991   -32.4513
 1201.5000    92.8448   -60.6579     9.8061     9.6625     7.9004   -24.8851
 1202.0000    97.0843   -60.7944     9.7922     9.7997     7.9017   -17.3014
 1202.5000    96.2091   -61.2349     9.7932     9.8703     7.8412   -12.8938
 1203.0000    91.1113   -61.6726     9.7944     9.4051     7.5839     4.8726
 1203.5000    86.9171   -61.9219     9.7954     9.0867     7.4292    -2.6237
 1204.0000    89.3494   -62.2247     9.7810     8.9011     7.1702   -17.6162
 1204.5000    92.9922   -62.5548     9.7671     8.6600     7.0310   -40.1049
 1205.0000    94.8221   -62.9967     9.7530     8.5427     6.9358   -47.6012
 1205.5000    93.0376   -63.4385     9.7237     8.6645     7.0341   -47.6012
 1206.0000    89.1446   -63.1248     9.6981     8.7268     7.1364   -31.9117
 1206.5000    86.7633   -62.9642     9.6685     8.8507     7.2352   -17.6162
 1207.0000    85.8767   -62.6530     9.6389     8.9149     7.3887   -10.1199
 1207.5000    90.1219   -62.3418     9.6093     8.9169     7.4416   -10.1199
 1208.0000    94.3614   -62.3293     9.5925     9.0436     7.5996   -17.6162
 1208.5000    95.5946   -62.3193     9.5938     9.1720     7.7613   -40.1049
 1209.0000    94.1056   -62.1587     9.5493     9.3114     7.8168   -40.1049
 1209.5000    95.6400   -61.9981     9.5352     9.5005     7.8728   -32.6087
 1210.0000    99.2771   -61.9880     9.5364     9.4370     7.8743   -17.6162
 1210.5000   100.8115   -61.8275     9.5375     9.3740     7.8759   -10.1199
 1211.0000    99.9305   -61.9681     9.5385     9.1793     7.8778   -17.6162
 1211.5000    98.4472   -61.9563     9.5397     8.9965     7.6638   -25.1124
 1212.0000    95.2415   -61.8745     9.5559     8.9183     7.5593   -40.1049
 1212.5000    93.3984   -61.7846     9.6175     8.7752     7.3543   -39.4777
 1213.0000    88.9482   -61.6220     9.6791     8.6322     7.0563   -17.6162
 1213.5000    85.9504   -61.6120     9.7258     8.4679     6.9601   -10.1199
 1214.0000    85.3587   -61.6020     9.7571     8.4116     6.9134     4.8726
 1214.5000    87.1856   -61.5919     9.7884     8.5319     7.0605   -10.1432
 1215.0000    90.2136   -61.5795     9.7894     8.6533     7.1605   -25.1124
 1215.5000    93.2399   -61.7226     9.7905     8.7158     7.2121   -25.1124
 1216.0000    95.9649   -61.7101     9.7917     8.7794     7.2135   -32.6087
 1216.5000    98.0876   -61.8509     9.7927     8.8428     7.2652   -40.1049
 1217.0000    99.3535   -61.8404     9.7783     8.9067     7.3702   -47.6012
 1217.5000    99.9269   -61.8282     9.7796     8.9090     7.6299   -55.0975
 1218.0000    98.4351   -61.8182     9.7654     8.9114     7.7380   -47.6012
 1218.5000    95.7385   -61.9613     9.7667     8.7909     7.7934   -40.1049
 1219.0000    92.6968   -62.0994     9.7677     8.6721     7.4773   -32.6087
 1219.5000    91.8513   -62.0870     9.7687     8.4376     7.2242   -47.6012
 1220.0000    92.1703   -62.0770     9.7697     8.1522     6.9793   -55.0975
 1220.5000    93.3894   -62.0670     9.7407     7.8764     6.7897   -62.5937
 1221.0000    93.7067   -62.0570     9.7263     8.1570     6.8383   -70.0900
 1221.5000    94.0239   -62.0276     9.6821     8.4471     7.0360   -32.6087
 1222.0000    94.0381   -61.4321     9.6528     8.7474     7.2820   -17.6162
 1222.5000    92.5463   -60.8197     9.6235     8.8720     7.4883   -17.6162
 1223.0000    88.3437   -60.3579     9.5793     8.9361     7.7005   -25.1124
 1223.5000    87.1531   -60.1964     9.5500     9.0012     7.8096   -33.6840
 1224.0000    93.4962   -60.1848     9.5356     9.0663     7.8658   -40.1049
 1224.5000    96.8237   -60.3279     9.5217     9.0686     7.8674   -32.6087
 1225.0000    97.4404   -60.6166     9.5381     9.0710     7.8146   -47.6012
 1225.5000    98.0762   -60.9078     9.5391     9.0740     7.8161   -70.0900
 1226.0000   100.7856   -61.3497     9.5553     9.0764     7.7099   -77.5862
 1226.5000   102.0047   -61.7890     9.5714     9.0788     7.7118   -47.6012
 1227.0000    99.6093   -61.9321     9.5724     9.1444     7.7134   -25.1124
 1227.5000    95.1055   -62.2233     9.5737     9.2148     7.7149   -17.6162
 1228.0000    93.3125   -62.3615     9.5747     9.3422     7.7701   -62.5937
 1228.5000    97.8484   -62.3489     9.5757     9.4752     7.8806   -77.5862
 1229.0000    99.0674   -62.1883     9.5767     9.4122     7.9370   -77.5862
 1229.5000    96.0696   -61.8771     9.5777     9.2208     7.9385   -62.5937
 1230.0000    92.3897   -61.4153     9.5790     9.0961     7.8307   -47.6012
 1230.5000    89.4752   -60.9403     9.5757     9.0357     7.6710   -40.1049
 1231.0000    88.8834   -60.6398     9.5656     9.0386     7.5668   -55.0975
 1231.5000    90.7085   -60.6298     9.5517     9.3600     7.6214   -62.5937
 1232.0000    94.9556   -60.9236     9.5527     9.6259     7.9468   -47.6012
 1232.5000    95.2550   -61.2123     9.5539     9.8999     8.0037   -40.1049
 1233.0000    92.5620   -61.3504     9.5549    10.0408     8.1174   -17.6162
 1233.5000    89.5642   -61.4910     9.5559    10.1838     8.4055   -17.6162
 1234.0000    87.4700   -61.3304     9.5873    10.3287     8.7038   -25.1124
 1234.5000    86.5806   -61.1698     9.5885    10.4758     8.8886   -40.1049
 1235.0000    86.5984   -61.1596     9.6198    10.6256     8.9526   -10.1199
 1235.5000    88.4199   -61.2979     9.6511    10.4820     8.7094    -2.6237
 1236.0000    91.1450   -61.8903     9.6824    10.1979     8.4728   -32.6087
 1236.5000    92.4018   -62.1815     9.7289     9.9214     8.3576   -56.0258
 1237.0000    93.5866   -62.3223     9.7605     9.7873     8.2442   -77.5862
 1237.5000    94.2033   -62.3097     9.7766     9.7906     8.2462   -77.5862
 1238.0000    93.6151   -62.2997     9.7928     9.8115     8.3052   -25.1124
 1238.5000    92.7128   -62.1391     9.8089     9.8639     8.3069   -17.6162
 1239.0000    92.4388   -61.9785     9.8253     9.9352     8.3085   -32.6087
 1239.5000    92.7578   -61.8178     9.8264     9.9384     8.2531   -55.0975
 1240.0000    93.9769   -61.6548     9.8273     9.9411     8.1973   -70.0900
 1240.5000    95.1959   -61.6448     9.8283     9.8743     8.0305   -47.6012
 1241.0000    95.8161   -61.4842     9.8294     9.8093     7.9765   -32.6087
 1241.5000    95.5292   -61.6250     9.8306     9.6767     7.9945   -40.1049
 1242.0000    94.3386   -61.6145     9.8316     9.8834     8.4354   -55.0975
 1242.5000    88.0275   -61.4517     9.8172    10.0939     8.6744   -77.5862
 1243.0000    85.5646   -61.2911     9.8185    10.1668     8.6761   -47.6012
 1243.5000    84.7428   -61.2811     9.8198    10.1695     8.5551   -17.6162
 1244.0000    88.9774   -61.1205     9.8359    10.1722     8.4420   -17.6162
 1244.5000    92.6061   -60.9575     9.8369    10.0353     8.3274   -17.6162
 1245.0000    94.7392   -60.9488     9.8531     9.8313     8.0455   -32.8640
 1245.5000    95.9514   -60.7876     9.8541     9.5648     7.8814   -62.5937
 1246.0000    95.9657   -60.6263     9.8705     9.3055     7.6676   -77.5862
 1246.5000    95.0763   -60.6160     9.8866     9.1798     7.5631   -77.5862
 1247.0000    93.2833   -60.4532     9.9028     9.3759     7.6176   -77.5862
 1247.5000    91.1927   -60.4432     9.9190     9.5755     7.9429   -70.0900
 1248.0000    90.9021   -60.4332     9.9200     9.8475     8.2928   -55.0975
 1248.5000    91.8236   -60.2726     9.9364     9.9877     8.5764   -40.1049
 1249.0000    92.7414   -60.4132     9.9374     9.9212     8.4595   -32.6087
 1249.5000    92.4237   -60.5538     9.9535     9.7201     8.0049   -32.6087
 1250.0000    91.8663   -61.1437     9.9697     9.4567     7.6801   -47.6012
 1250.5000    91.8841   -61.7362     9.9859     9.3289     7.6820   -47.6012
 1251.0000    93.4044   -62.0431     9.9871     9.1969     7.8451   -40.1049
 1251.5000    96.1432   -62.4667     9.9981     9.0784     7.9562   -24.9343
