~VERSION INFORMATION
 VERS.                2.0:   CWLS LOG ASCII STANDARD - VERSION 2.0
 WRAP.                 NO:   ONE LINE PER DEPTH STEP
~WELL INFORMATION
#MNEM.UNIT      DATA TYPE    INFORMATION
#----------   ------------   ------------------------------
 STRT.F            9.5000:   START DEPTH
 STOP.F         3154.0000:   STOP DEPTH
 STEP.F            0.5000:   STEP LENGTH
 NULL.          -999.2500:   NO VALUE
 COMP. LAWRENCE ALISON AND ASSOCIATES:   COMPANY
 WELL. LAWRENCE "X" #86-3:   WELL
 FLD .          N.P.R. #3:   FIELD
 LOC .       S3 T38N R78W:   LOCATION
 CNTY.            NATRONA:   COUNTY
 STAT.            WYOMING:   STATE
 CTRY. UNITED STATES OF AMERICA:   COUNTRY
 SRVC.       DRESSER ALAS:   SERVICE COMPANY
 DATE.        13-JUN-1986:   LOGDATE
 API .     49025110920000:   API NUMBER
~CURVE INFORMATION
#MNEM.UNIT       API CODE    CURVE DESCRIPTION
#----------   ------------   ------------------------------
 DEPT.F                  :   
 CALD.IN     45 280 60 00:   CALIPER FROM DENSITY LOG
 RHOB.G/C3   45 350 01 00:   BULK DENSITY
 CORR.G/C3   45 356 01 00:   DENSITY CORRECTION
 CNC .DEC    42 890 03 00:   NEUTRON PORISITY LIMESTONE
 SPR .MV     07 010 01 00:   SPONTANEOUS POTENTIAL
 GRR .GAPI   07 310 01 00:   GAMMA RAY FROM RESISTIVITY
 RFOC.OHMM   07 220 04 00:   RESISTIVITY FOCUSED LOG RES.
 ILD .OHMM   07 120 46 00:   DEEP INDUCTION RESISTIVITY
 ILM .OHMM   07 120 44 00:   INDUCTION LOG MEDIUM RESISTIVITY
 TENR.LBS    07 635 01 00:   TENSION FROM RESISTIVITY
~PARAMETER INFORMATION
#MNEM.UNIT          VALUE    DESCRIPTION
#----------   ------------   ------------------------------
 EKB .F         5153.0000:   Kelly bushing
 EGL .F         5142.0000:   Ground level
 EDF .F         5151.0000:   Drilling floor
 TD  .F         3151.0000:   Total depth
 DATE.        13-JUN-1986:   Date logged
 CLNT.            A2DTECH:   Client Code
 SL  . 1450' FSL & 144' FEL:   Surface Location
 PD  .                 GL:   Permanent Datum
 EPD .F              5142:   Elevation Permanent Datum
 LMF .                 KB:   Log Measured From
 DMF .                 KB:   Drilling Measured From
 DAPD.F                11:   Feet Above Permanent Datum
 DD  .F              3151:   Depth driller
 DL  .F              3151:   Depth logger
 BLI .F              3146:   Bottom log interval
 TLI .F                11:   Top log interval
 CS1 .IN            8.625:   Casing size
 CBD1.      8.625" @ 584':   Casing driller 1
 CBL1.F               592:   Casing logger 1
 BS1 .IN            7.875:   Bit size
 BSD1.F              3151:   Depth drilled with bit1
 DFT .            KCL-GEL:   Type fluid in hole
 DFD .                8.8:   Density
 DFV .                 35:   Viscosity
 DFPH.                8.5:   pH
 DFL .               15.5:   Fluid loss
 MSS .           FLOWLINE:   Source of sample
 RMS .OHMM           0.49:   Rm
 MST .F                80:   Rm Meas. temp.
 RMF .OHMM           0.38:   Rmf
 MFST.F                80:   Rmf Meas. temp.
 RMC .OHMM           0.61:   Rmc
 MCST.F                80:   Rmc Meas. temp.
 MFSS.               MEAS:   Source Rmf.
 MCSS.               CALC:   Source Rmc.
 RMB .OHMM           0.37:   Rm. at BHT
 BHT .F               112:   BHT.
 TCS .HRS            0.37:   Time Circ. stopped
 MRT .F               112:   Maximum recorded temp.
 LUN .            HL-6274:   Logging unit number
 LUL .           GILLETTE:   Logging unit location
 WITN.             STRONG:   Witnessed by
 ORIG.           5" PRINT:   Origin of data
 UWI .     49025110920000:   Unique Well ID
 DICO. A2D TECHNOLOGIES, INC.:   Digitizing Company
~OTHER INFORMATION
~A    DEPT    CALD       RHOB       CORR        CNC        SPR        GRR       RFOC        ILD        ILM       TENR   
# ...
  612.5000  -999.2500  -999.2500  -999.2500  -999.2500  -106.7002    98.3147     5.9064     6.3207     5.4500   -55.5940
  613.0000  -999.2500  -999.2500  -999.2500  -999.2500  -106.2974    99.1203     6.0720     6.4384     5.8145   -55.4695
  613.5000  -999.2500  -999.2500  -999.2500  -999.2500  -105.2885   101.5415     6.5377     7.3971     6.0897   -55.3451
  614.0000  -999.2500  -999.2500  -999.2500  -999.2500  -104.2797   104.1709     6.7419     7.5352     6.3776   -55.2205
  614.5000  -999.2500  -999.2500  -999.2500  -999.2500  -103.0690   104.5739     6.8675     7.8191     6.6177   -55.0960
  615.0000  -999.2500  -999.2500  -999.2500  -999.2500  -104.0781   101.1305     6.9952     8.2648     6.8034   -54.9716
  615.5000  -999.2500  -999.2500  -999.2500  -999.2500  -104.2834    99.1078     7.1252     8.4968     6.9944   -54.8471
  616.0000  -999.2500  -999.2500  -999.2500  -999.2500  -104.2847    96.6811     7.3252     8.7353     7.0589   -54.7225
  616.5000  -999.2500  -999.2500  -999.2500  -999.2500  -103.6798    91.4260     7.4378     8.8157     7.2570   -54.5980
  617.0000  -999.2500  -999.2500  -999.2500  -999.2500  -103.2483    90.6154     7.7169     8.9795     7.3917   -64.5339
  617.5000  -999.2500  -999.2500  -999.2500  -999.2500  -102.8168    92.6332     7.8604     9.0619     7.5290   -64.4095
  618.0000  -999.2500  -999.2500  -999.2500  -999.2500  -103.0775    96.6711     7.9320     9.1452     7.7403   -64.2849
  618.5000  -999.2500  -999.2500  -999.2500  -999.2500  -103.0789    98.4933     7.8956     9.3152     7.8115   -74.2208
  619.0000  -999.2500  -999.2500  -999.2500  -999.2500  -103.0808    94.0459     7.8594     9.2393     7.8107   -64.0360
  619.5000  -999.2500  -999.2500  -999.2500  -999.2500  -103.0815    97.4717     7.8233     9.1554     7.7376   -63.9115
  620.0000  -999.2500  -999.2500  -999.2500  -999.2500  -103.2848    98.2773     7.7832     9.0725     7.6654   -63.7869
  620.5000  -999.2500  -999.2500  -999.2500  -999.2500  -103.2858    94.6379     7.7107     9.0719     7.6649   -53.5772
  621.0000  -999.2500  -999.2500  -999.2500  -999.2500  -103.6913    91.8071     7.7816     9.0705     7.6636   -53.4526
  621.5000  -999.2500  -999.2500  -999.2500  -999.2500  -103.6926    88.3758     7.8530     9.0697     7.6629   -53.3282
  622.0000  -999.2500  -999.2500  -999.2500  -999.2500  -103.6938    89.5870     7.8521     9.0687     7.6621   -53.2037
  622.5000  -999.2500  -999.2500  -999.2500  -999.2500  -103.8971    98.4729     7.8514     9.0675     7.6610   -53.0792
  623.0000  -999.2500  -999.2500  -999.2500  -999.2500  -103.6963    95.0295     7.7780     9.1341     7.6601   -52.9547
  623.5000  -999.2500  -999.2500  -999.2500  -999.2500  -103.2935    93.4108     7.7773     9.1339     7.6593   -52.8302
  624.0000  -999.2500  -999.2500  -999.2500  -999.2500  -103.0925    93.8124     7.7056     9.1329     7.5178   -52.7057
  624.5000  -999.2500  -999.2500  -999.2500  -999.2500  -102.8910    95.8301     7.8730     9.0474     7.3110   -52.5812
  625.0000  -999.2500  -999.2500  -999.2500  -999.2500  -102.2639    97.8478     7.5859     8.8800     7.3775   -52.4567
  625.5000  -999.2500  -999.2500  -999.2500  -999.2500  -101.6369    95.0170     6.9137     8.7160     7.3770   -52.3322
  626.0000  -999.2500  -999.2500  -999.2500  -999.2500  -100.8760    92.9943     6.7860     8.3979     7.5142   -52.2077
  626.5000  -999.2500  -999.2500  -999.2500  -999.2500  -100.4727    90.1635     6.9123     8.3971     7.5133   -52.0833
  627.0000  -999.2500  -999.2500  -999.2500  -999.2500  -100.2722    91.7772     7.1725     8.3964     7.5124   -62.0191
  627.5000  -999.2500  -999.2500  -999.2500  -999.2500  -100.2735    94.6030     7.1712     8.3950     7.5119   -71.9549
  628.0000  -999.2500  -999.2500  -999.2500  -999.2500  -100.6788    97.8328     7.1707     8.5507     7.5107   -71.8305
  628.5000  -999.2500  -999.2500  -999.2500  -999.2500  -100.8813   105.1026     7.1702     8.5505     7.5100   -71.7060
  629.0000  -999.2500  -999.2500  -999.2500  -999.2500  -102.0614   106.5213     7.1697     8.5491     7.5090   -71.5815
  629.5000  -999.2500  -999.2500  -999.2500  -999.2500  -104.1168    99.4410     7.1682     8.5483     7.5082   -71.4569
  630.0000  -999.2500  -999.2500  -999.2500  -999.2500  -105.1282    94.1860     7.0135     8.6271     7.5073   -71.3325
  630.5000  -999.2500  -999.2500  -999.2500  -999.2500  -105.9375    92.5673     7.0134     8.6263     7.5066   -71.1831
  631.0000  -999.2500  -999.2500  -999.2500  -999.2500  -106.5448    95.3931     7.0773     8.6249     7.5052   -71.0586
  631.5000  -999.2500  -999.2500  -999.2500  -999.2500  -106.5463    98.2189     7.3430     8.7046     7.4357   -70.9341
  632.0000  -999.2500  -999.2500  -999.2500  -999.2500  -106.9514    99.4285     7.4110     8.7030     7.3663   -70.8096
  632.5000  -999.2500  -999.2500  -999.2500  -999.2500  -108.1647   100.2341     7.4790     8.7831     7.1633   -70.6852
  633.0000  -999.2500  -999.2500  -999.2500  -999.2500  -109.5801   102.8639     7.5481     8.7823     7.0310   -70.5606
  633.5000  -999.2500  -999.2500  -999.2500  -999.2500  -111.6016    96.5928     7.5704     8.7809     7.0303   -70.4361
  634.0000  -999.2500  -999.2500  -999.2500  -999.2500  -113.0170    87.5039     7.5928     8.7798     7.0292   -70.3116
  634.5000  -999.2500  -999.2500  -999.2500  -999.2500  -113.6240    88.5070     7.6153     8.7792     7.2262   -70.1872
  635.0000  -999.2500  -999.2500  -999.2500  -999.2500  -114.4334    90.5232     7.6378     8.7780     7.0930   -70.0626
  635.5000  -999.2500  -999.2500  -999.2500  -999.2500  -114.8389    91.1889     7.6604     8.6959     7.0924   -69.9381
  636.0000  -999.2500  -999.2500  -999.2500  -999.2500  -115.0419    93.9591     7.6831     8.5350     7.0916   -69.8137
  636.5000  -999.2500  -999.2500  -999.2500  -999.2500  -115.2457    94.7662     7.7058     8.5347     7.0906   -59.6287
  637.0000  -999.2500  -999.2500  -999.2500  -999.2500  -114.4386    92.5344     7.7287     8.6129     7.0895   -59.5043
  637.5000  -999.2500  -999.2500  -999.2500  -999.2500  -114.6421    93.3400     7.7515     8.6117     7.2219   -59.3798
  638.0000  -999.2500  -999.2500  -999.2500  -999.2500  -113.6333    95.7617     7.8228     8.7718     7.4241   -59.2553
  638.5000  -999.2500  -999.2500  -999.2500  -999.2500  -113.2300    96.1623     7.8219     8.8529     7.4234   -79.2515
  639.0000  -999.2500  -999.2500  -999.2500  -999.2500  -112.2221    94.5446     7.8210     9.0170     7.4228   -79.1271
  639.5000  -999.2500  -999.2500  -999.2500  -999.2500  -112.2229    90.0967     7.8201     9.0164     7.4219   -79.0025
  640.0000  -999.2500  -999.2500  -999.2500  -999.2500  -111.9801    86.6669     7.8192     9.0147     7.4901   -78.8532
  640.5000  -999.2500  -999.2500  -999.2500  -999.2500  -111.6201    89.6887     7.8183     8.8701     7.4891   -68.6682
  641.0000  -999.2500  -999.2500  -999.2500  -999.2500  -111.8226    93.3225     7.8175     8.8691     7.4883   -58.4834
  641.5000  -999.2500  -999.2500  -999.2500  -999.2500  -112.2286    95.7443     7.8166     8.8681     7.4874   -58.3589
  642.0000  -999.2500  -999.2500  -999.2500  -999.2500  -112.2291    98.1660     7.8157     8.8672     7.4866   -58.2344
  642.5000  -999.2500  -999.2500  -999.2500  -999.2500  -112.0283    98.5676     7.8148     8.8662     7.4857   -78.2306
  643.0000  -999.2500  -999.2500  -999.2500  -999.2500  -111.4233    95.7368     7.8139     8.9450     7.5543   -88.1665
  643.5000  -999.2500  -999.2500  -999.2500  -999.2500  -110.8187    91.6939     7.8131     9.0252     7.6241   -77.9817
  644.0000  -999.2500  -999.2500  -999.2500  -999.2500  -110.6179    88.4586     8.2855     9.1748     7.8380   -77.8572
  644.5000  -999.2500  -999.2500  -999.2500  -999.2500  -110.4167    89.2642     8.2849     9.1741     7.8373   -67.6723
  645.0000  -999.2500  -999.2500  -999.2500  -999.2500  -110.4184    92.8980     8.0571     9.0049     7.7637   -67.5478
  645.5000  -999.2500  -999.2500  -999.2500  -999.2500  -110.4199    95.7238     7.8351     9.1022     7.6912   -67.4233
