~VERSION INFORMATION
 VERS.                2.0:   CWLS LOG ASCII STANDARD - VERSION 2.0
 WRAP.                 NO:   ONE LINE PER DEPTH STEP
~WELL INFORMATION
#MNEM.UNIT      DATA TYPE    INFORMATION
#----------   ------------   ------------------------------
 STRT.F          794.0000:   START DEPTH
 STOP.F         2828.0000:   STOP DEPTH
 STEP.F            0.5000:   STEP LENGTH
 NULL.          -999.2500:   NO VALUE
 COMP.           U S NAVY:   COMPANY
 WELL. U S NAVY NPR 3 "A" #10-33:   WELL
 FLD .        TEAPOT DOME:   FIELD
 LOC .      S33 T39N R78W:   LOCATION
 CNTY.            NATRONA:   COUNTY
 STAT.            WYOMING:   STATE
 CTRY. UNITED STATES OF AMERICA:   COUNTRY
 SRVC.         MCCULLOUGH:   SERVICE COMPANY
 DATE.        25-JUL-1968:   LOGDATE
 API .     49025102180000:   API NUMBER
~CURVE INFORMATION
#MNEM.UNIT       API CODE    CURVE DESCRIPTION
#----------   ------------   ------------------------------
 DEPT.F                  :   
 GRN .GAPI   35 310 01 00:   GAMMA RAY
 NEUT.NAPI   35 330 01 00:   NEUTRON
 TEMP.DEG    99 000 00 00:   TEMPERATURE AT TOOL
~PARAMETER INFORMATION
#MNEM.UNIT          VALUE    DESCRIPTION
#----------   ------------   ------------------------------
 EKB .F            0.0000:   Kelly bushing
 EGL .F            0.0000:   Ground level
 EDF .F            0.0000:   Drilling floor
 EPD .F            0.0000:   Permanent datum
 TD  .F         2829.0000:   Total depth
 DATE.        25-JUL-1968:   Date logged
 CLNT.            A2DTECH:   Client Code
 DL  .F              2829:   Depth logger
 BLI .F              2825:   Bottom log interval
 TLI .F               800:   Top log interval
 DFT .                DRY:   Type fluid in hole
 TCS .HRS               2:   Time Circ. stopped
 ENGI.           KIMBERRY:   Recorded By
 ORIG.        2" 5" PRINT:   Origin of data
 UWI .     49025102180000:   Unique Well ID
 DICO. A2D TECHNOLOGIES, INC.:   Digitizing Company
~OTHER INFORMATION
~A   DEPT       GRN      NEUT       TEMP   
# ...
 1522.0000    56.6050   505.6510  -999.2500
 1522.5000    57.5560   526.8870  -999.2500
 1523.0000    57.6440   531.4300  -999.2500
 1523.5000    57.2890   528.7860  -999.2500
 1524.0000    57.2870   520.7650  -999.2500
 1524.5000    57.2660   501.8400  -999.2500
 1525.0000    58.3210   500.1600  -999.2500
 1525.5000    60.4680   484.7060  -999.2500
 1526.0000    61.6160   465.6220  -999.2500
 1526.5000    61.5430   460.7530  -999.2500
 1527.0000    61.6480   468.2450  -999.2500
 1527.5000    61.5770   475.7420  -999.2500
 1528.0000    61.6060   476.4920  -999.2500
 1528.5000    60.3280   475.4940  -999.2500
 1529.0000    59.4180   476.8660  -999.2500
 1529.5000    60.4540   475.7040  -999.2500
 1530.0000    62.1020   472.9020  -999.2500
 1530.5000    63.6100   468.7220  -999.2500
 1531.0000    63.8570   467.4380  -999.2500
 1531.5000    63.3390   463.4550  -999.2500
 1532.0000    63.2210   457.8480  -999.2500
 1532.5000    63.7790   454.8980  -999.2500
 1533.0000    64.0540   452.2400  -999.2500
 1533.5000    64.2710   455.0360  -999.2500
 1534.0000    64.6680   461.9550  -999.2500
 1534.5000    65.4520   455.1600  -999.2500
 1535.0000    65.4720   459.5240  -999.2500
 1535.5000    64.4580   460.1480  -999.2500
 1536.0000    62.1880   468.6230  -999.2500
 1536.5000    60.9220   478.0960  -999.2500
 1537.0000    62.8160   482.6650  -999.2500
 1537.5000    63.0290   482.4720  -999.2500
 1538.0000    61.5600   475.3950  -999.2500
 1538.5000    59.9410   477.0400  -999.2500
 1539.0000    60.0320   479.0650  -999.2500
 1539.5000    60.7570   477.6590  -999.2500
 1540.0000    61.0320   481.6220  -999.2500
 1540.5000    61.1620   486.0460  -999.2500
 1541.0000    61.0590   481.8410  -999.2500
 1541.5000    61.2580   447.2640  -999.2500
 1542.0000    61.4300   438.5190  -999.2500
 1542.5000    60.1890   437.7930  -999.2500
 1543.0000    59.2780   448.7920  -999.2500
 1543.5000    60.5320   455.9100  -999.2500
 1544.0000    59.8080   456.8110  -999.2500
 1544.5000    61.5620   460.5210  -999.2500
 1545.0000    62.2750   464.1900  -999.2500
 1545.5000    62.2620   465.0740  -999.2500
 1546.0000    61.7060   468.4900  -999.2500
 1546.5000    61.7110   473.9530  -999.2500
 1547.0000    62.8370   465.5420  -999.2500
 1547.5000    64.0150   458.0490  -999.2500
 1548.0000    64.2950   452.0790  -999.2500
 1548.5000    62.2520   453.7290  -999.2500
 1549.0000    62.5370   462.6220  -999.2500
 1549.5000    62.8860   474.7540  -999.2500
 1550.0000    63.1970   486.7900  -999.2500
 1550.5000    63.7400   495.3450  -999.2500
 1551.0000    64.2730   495.0020  -999.2500
 1551.5000    64.8620   489.1790  -999.2500
 1552.0000    64.9440   484.0130  -999.2500
 1552.5000    63.8720   482.9790  -999.2500
 1553.0000    60.9200   485.5840  -999.2500
 1553.5000    61.4050   488.3750  -999.2500
 1554.0000    60.7620   491.3800  -999.2500
 1554.5000    59.5540   494.6630  -999.2500
 1555.0000    59.9770   504.1210  -999.2500
 1555.5000    61.2460   515.8480  -999.2500
 1556.0000    61.1180   516.4490  -999.2500
 1556.5000    61.8280   516.8610  -999.2500
 1557.0000    61.8600   519.4450  -999.2500
 1557.5000    62.3530   525.0650  -999.2500
 1558.0000    63.6360   515.2930  -999.2500
 1558.5000    64.7110   488.2970  -999.2500
 1559.0000    64.2030   466.8930  -999.2500
 1559.5000    62.6110   464.3770  -999.2500
 1560.0000    63.1990   473.0980  -999.2500
 1560.5000    63.1620   459.4890  -999.2500
 1561.0000    61.8590   464.9740  -999.2500
 1561.5000    60.5120   450.0260  -999.2500
 1562.0000    59.8630   433.2630  -999.2500
 1562.5000    59.6260   434.6880  -999.2500
 1563.0000    60.7550   441.7770  -999.2500
 1563.5000    61.4580   450.6380  -999.2500
 1564.0000    62.3920   456.9540  -999.2500
 1564.5000    63.3680   462.4620  -999.2500
 1565.0000    64.3710   469.1350  -999.2500
 1565.5000    64.7020   483.8510  -999.2500
 1566.0000    63.8560   492.5260  -999.2500
 1566.5000    64.7590   476.1670  -999.2500
 1567.0000    64.8920   468.8290  -999.2500
 1567.5000    66.5400   464.1930  -999.2500
 1568.0000    68.3720   454.8930  -999.2500
 1568.5000    69.3250   456.7200  -999.2500
 1569.0000    67.5650   457.2820  -999.2500
 1569.5000    66.1870   459.8580  -999.2500
 1570.0000    66.1450   471.0760  -999.2500
 1570.5000    66.4380   478.5180  -999.2500
 1571.0000    67.8070   481.8860  -999.2500
 1571.5000    68.7530   475.2590  -999.2500
 1572.0000    67.1930   467.7980  -999.2500
 1572.5000    66.0440   466.1500  -999.2500
 1573.0000    65.8760   472.6770  -999.2500
 1573.5000    64.1310   491.5810  -999.2500
 1574.0000    65.9510   497.0470  -999.2500
 1574.5000    67.1490   483.8950  -999.2500
 1575.0000    67.3150   478.7020  -999.2500
 1575.5000    67.2900   470.8050  -999.2500
 1576.0000    67.1720   456.0130  -999.2500
 1576.5000    67.4350   438.5800  -999.2500
 1577.0000    68.0500   435.3160  -999.2500
 1577.5000    68.0560   440.0880  -999.2500
 1578.0000    68.9410   455.1860  -999.2500
 1578.5000    70.9850   468.3420  -999.2500
 1579.0000    71.7210   469.8450  -999.2500
 1579.5000    71.6300   469.7150  -999.2500
 1580.0000    70.6150   465.0760  -999.2500
 1580.5000    69.8110   482.3660  -999.2500
 1581.0000    71.0170   494.4050  -999.2500
 1581.5000    71.5120   499.6380  -999.2500
 1582.0000    71.1600   500.0540  -999.2500
 1582.5000    70.9540   498.2670  -999.2500
 1583.0000    72.2320   488.8140  -999.2500
 1583.5000    73.4610   480.1190  -999.2500
 1584.0000    74.4220   473.7850  -999.2500
 1584.5000    75.2850   476.3580  -999.2500
 1585.0000    75.1070   479.2260  -999.2500
 1585.5000    75.4990   484.4910  -999.2500
 1586.0000    74.9470   493.7710  -999.2500
 1586.5000    72.8430   497.4390  -999.2500
 1587.0000    72.1370   499.3540  -999.2500
 1587.5000    73.4880   503.3830  -999.2500
 1588.0000    75.0050   484.0310  -999.2500
 1588.5000    75.8170   462.8120  -999.2500
 1589.0000    76.6020   464.3700  -999.2500
 1589.5000    76.5590   464.4730  -999.2500
 1590.0000    75.4490   461.1110  -999.2500
 1590.5000    73.8620   462.7050  -999.2500
 1591.0000    73.2430   466.8000  -999.2500
 1591.5000    72.1960   470.9660  -999.2500
 1592.0000    70.8910   468.7120  -999.2500
 1592.5000    69.8300   469.3820  -999.2500
 1593.0000    69.3030   464.3270  -999.2500
 1593.5000    68.9640   464.4080  -999.2500
 1594.0000    68.2950   467.1580  -999.2500
 1594.5000    68.1810   473.4700  -999.2500
 1595.0000    70.3230   474.6030  -999.2500
 1595.5000    72.3580   465.1450  -999.2500
 1596.0000    72.5430   465.0160  -999.2500
 1596.5000    71.9490   472.0130  -999.2500
 1597.0000    72.5800   478.7760  -999.2500
 1597.5000    71.9810   472.4370  -999.2500
 1598.0000    70.4470   463.0370  -999.2500
 1598.5000    71.7060   456.0100  -999.2500
 1599.0000    72.5310   451.6980  -999.2500
 1599.5000    72.6510   447.8990  -999.2500
 1600.0000    71.7650   442.9440  -999.2500
 1600.5000    69.7310   448.7320  -999.2500
 1601.0000    67.6690   452.8920  -999.2500
 1601.5000    66.8800   456.3350  -999.2500
 1602.0000    67.8250   460.0970  -999.2500
 1602.5000    68.7030   439.1140  -999.2500
 1603.0000    67.8510   438.4510  -999.2500
 1603.5000    66.0230   437.7120  -999.2500
 1604.0000    66.9290   431.3410  -999.2500
 1604.5000    67.6530   431.5730  -999.2500
 1605.0000    68.6260   443.9130  -999.2500
 1605.5000    70.2360   453.0660  -999.2500
 1606.0000    70.2480   459.2840  -999.2500
 1606.5000    71.9280   467.3920  -999.2500
 1607.0000    72.5470   474.8430  -999.2500
 1607.5000    70.7110   479.0690  -999.2500
 1608.0000    69.2610   475.6230  -999.2500
 1608.5000    68.6180   451.3630  -999.2500
 1609.0000    69.5410   449.7260  -999.2500
 1609.5000    70.2550   454.3060  -999.2500
 1610.0000    69.9340   458.4770  -999.2500
 1610.5000    68.8750   476.1260  -999.2500
 1611.0000    68.5740   478.0620  -999.2500
 1611.5000    69.5820   476.6180  -999.2500
 1612.0000    69.8550   472.5930  -999.2500
 1612.5000    67.2040   475.7820  -999.2500
