~VERSION INFORMATION
 VERS.                2.0:   CWLS LOG ASCII STANDARD - VERSION 2.0
 WRAP.                 NO:   ONE LINE PER DEPTH STEP
~WELL INFORMATION
#MNEM.UNIT      DATA TYPE    INFORMATION
#----------   ------------   ------------------------------
 STRT.F           40.0000:   START DEPTH
 STOP.F         3032.5000:   STOP DEPTH
 STEP.F            0.5000:   STEP LENGTH
 NULL.          -999.2500:   NO VALUE
 COMP.   TESORO PETROLEUM:   COMPANY
 WELL. TESORO NPR 3 "AX" #51-15:   WELL
 FLD .        TEAPOT DOME:   FIELD
 LOC .      S15 T38N R78W:   LOCATION
 CNTY.            NATRONA:   COUNTY
 STAT.            WYOMING:   STATE
 CTRY. UNITED STATES OF AMERICA:   COUNTRY
 SRVC.       SCHLUMBERGER:   SERVICE COMPANY
 DATE.        21-JUL-1969:   LOGDATE
 API .     49025100240000:   API NUMBER
~CURVE INFORMATION
#MNEM.UNIT       API CODE    CURVE DESCRIPTION
#----------   ------------   ------------------------------
 DEPT.F                  :   
 CALD.IN     45 280 60 00:   CALIPER FROM DENSITY LOG
 GRD .GAPI   45 310 01 00:   GAMMA RAY FROM DENSITY LOG
 RHOB.G/C3   45 350 01 00:   BULK DENSITY
 CORR.G/C3   45 356 01 00:   DENSITY CORRECTION
 GR  .GAPI   35 310 01 00:   GAMMA RAY FROM GAMMA RAY LOG
 SPR .MV     05 010 01 00:   SPONTANEOUS POTENTIAL
 ASN .OHMM   05 041 16 00:   AMPLIFIED SHORT NORMAL 16"
 ILD .OHMM   05 120 46 00:   DEEP INDUCTION RESISTIVITY
~PARAMETER INFORMATION
#MNEM.UNIT          VALUE    DESCRIPTION
#----------   ------------   ------------------------------
 EKB .F         5235.0000:   Kelly bushing
 EGL .F         5222.0000:   Ground level
 EDF .F            0.0000:   Drilling floor
 TD  .F         3027.0000:   Total depth
 DATE.        21-JUL-1969:   Date logged
 CLNT.            A2DTECH:   Client Code
 SL  . 2000' FEL & 660' FNL:   Surface Location
 PD  .                 GL:   Permanent Datum
 EPD .F              5222:   Elevation Permanent Datum
 LMF .                 KB:   Log Measured From
 DMF .                 KB:   Drilling Measured From
 DAPD.F                13:   Feet Above Permanent Datum
 DD  .F              3027:   Depth driller
 DL  .F              3025:   Depth logger
 BLI .F              3024:   Bottom log interval
 TLI .F              2604:   Top log interval
 CS1 .IN            10.75:   Casing size
 CBD1.      10.75" @ 622':   Casing driller 1
 BS1 .IN                9:   Bit size
 BSD1.F              3027:   Depth drilled with bit1
 DFT .          FRESH/GEL:   Type fluid in hole
 DFD .                9.7:   Density
 DFV .                 65:   Viscosity
 DFPH.                9.5:   pH
 DFL .                  7:   Fluid loss
 MSS .           FLOWLINE:   Source of sample
 RMS .OHMM           2.48:   Rm
 MST .F                80:   Rm Meas. temp.
 RMF .OHMM           2.80:   Rmf
 MFST.F                80:   Rmf Meas. temp.
 MFSS.               MEAS:   Source Rmf.
 RMB .OHMM           2.20:   Rm. at BHT
 BHT .F               106:   BHT.
 TCS .HRS               1:   Time Circ. stopped
 MRT .F               106:   Maximum recorded temp.
 LUN .               4507:   Logging unit number
 LUL .               CSPR:   Logging unit location
 ENGI.           CHAMPLIN:   Recorded By
 WITN.                MAY:   Witnessed by
 ORIG.           5" PRINT:   Origin of data
 UWI .     49025100240000:   Unique Well ID
 DICO. A2D TECHNOLOGIES, INC.:   Digitizing Company
~OTHER INFORMATION
~A   DEPT     CALD        GRD       RHOB       CORR         GR        SPR        ASN          ILD 
# ...
 2875.0000     9.2370   117.4840     2.5720     0.0130  -999.2500   -21.9210     7.8620     5.4060
 2875.5000     9.2360   119.3790     2.5750     0.0220  -999.2500   -21.9360     7.9880     5.4700
 2876.0000     9.2350   121.2770     2.5710     0.0280  -999.2500   -21.9160     8.1140     5.5340
 2876.5000     9.2340   123.1320     2.5530     0.0180  -999.2500   -21.9010     8.2260     5.5990
 2877.0000     9.2330   121.2200     2.5330     0.0020  -999.2500   -21.8840     8.2420     5.6630
 2877.5000     9.2320   115.8410     2.5310    -0.0060  -999.2500   -21.8680     8.2610     5.7270
 2878.0000     9.2270   111.2630     2.5350    -0.0040  -999.2500   -21.8510     8.2740     5.7910
 2878.5000     9.2210   111.8440     2.5430    -0.0010  -999.2500   -21.8350     8.2910     5.8550
 2879.0000     9.2150   113.3220     2.5490     0.0010  -999.2500   -21.8190     8.3080     5.9210
 2879.5000     9.2090   114.7240     2.5560     0.0110  -999.2500   -21.8020     8.3120     5.9810
 2880.0000     9.2030   114.8210     2.5630     0.0370  -999.2500   -21.7860     8.3310     6.0520
 2880.5000     9.1960   117.6780     2.5700     0.0320  -999.2500   -21.7690     8.3830     5.9900
 2881.0000     9.1950   119.6110     2.5690     0.0120  -999.2500   -21.7530     8.5130     5.8640
 2881.5000     9.2040   116.8210     2.5630     0.0040  -999.2500   -21.7370     8.6750     5.7460
 2882.0000     9.2120   113.8300     2.5650     0.0050  -999.2500   -21.7200     8.8180     5.6300
 2882.5000     9.2210   113.7860     2.5700     0.0100  -999.2500   -21.7040     8.8120     5.5080
 2883.0000     9.2290   116.4480     2.5790     0.0220  -999.2500   -21.6870     8.5770     5.3950
 2883.5000     9.2370   119.1990     2.5910     0.0340  -999.2500   -21.6710     8.2970     5.2690
 2884.0000     9.2460   121.0740     2.5860     0.0340  -999.2500   -21.6550     7.9760     5.2600
 2884.5000     9.2540   119.3070     2.5760     0.0210  -999.2500   -21.6380     7.7770     5.2620
 2885.0000     9.2630   116.4230     2.5900     0.0130  -999.2500   -21.6220     7.7530     5.3460
 2885.5000     9.2710   113.6350     2.5800     0.0240  -999.2500   -21.6050     7.6800     5.4410
 2886.0000     9.2710   112.9270     2.5540     0.0350  -999.2500   -21.5880     7.6830     5.5380
 2886.5000     9.2650   112.7920     2.5500     0.0230  -999.2500   -21.5730     7.6890     5.6330
 2887.0000     9.2600   112.5310     2.5620     0.0120  -999.2500   -21.5530     7.8410     5.7290
 2887.5000     9.2550   112.2440     2.5620     0.0110  -999.2500   -21.5480     7.9990     5.8250
 2888.0000     9.2490   111.9030     2.5540     0.0120  -999.2500   -21.4730     8.1780     5.9210
 2888.5000     9.2440   111.9250     2.5530     0.0070  -999.2500   -21.3500     8.2290     6.0170
 2889.0000     9.2380   109.9570     2.5520    -0.0040  -999.2500   -21.2420     8.2800     6.1130
 2889.5000     9.2330   105.0570     2.5520     0.0080  -999.2500   -21.1320     8.5270     6.2090
 2890.0000     9.2270   102.5850     2.5590     0.0210  -999.2500   -21.0180     8.8350     6.3050
 2890.5000     9.2220   105.6370     2.5690     0.0230  -999.2500   -20.9150     9.0920     6.4000
 2891.0000     9.2160   104.8640     2.5770     0.0290  -999.2500   -20.7850     9.1050     6.4960
 2891.5000     9.2110   104.1930     2.5840     0.0300  -999.2500   -20.8540     9.0950     6.5920
 2892.0000     9.2050   103.7480     2.5870     0.0290  -999.2500   -21.0750     9.0610     6.6850
 2892.5000     9.2000   106.5880     2.5980     0.0290  -999.2500   -21.2670     9.0320     6.7880
 2893.0000     9.1940   104.3910     2.5910     0.0310  -999.2500   -21.4700     9.0500     6.8490
 2893.5000     9.1980   106.5050     2.5770     0.0350  -999.2500   -21.6660     9.1240     6.8040
 2894.0000     9.2080   111.1960     2.5750     0.0390  -999.2500   -21.8690     9.1970     6.7250
 2894.5000     9.2170   111.4370     2.5720     0.0330  -999.2500   -21.9420     9.2040     6.6360
 2895.0000     9.2280   107.8830     2.5630     0.0210  -999.2500   -21.9340     9.1320     6.2050
 2895.5000     9.2290   106.7050     2.5710     0.0090  -999.2500   -21.9360     8.9130     5.6580
 2896.0000     9.2120   108.9570     2.5750     0.0020  -999.2500   -21.9360     8.3380     5.1180
 2896.5000     9.1970   113.2960     2.5810     0.0100  -999.2500   -21.9360     7.7680     4.5910
 2897.0000     9.1810   117.2620     2.5820     0.0270  -999.2500   -21.9360     7.1920     4.0060
 2897.5000     9.1660   120.1600     2.5890     0.0430  -999.2500   -21.9360     6.5820     3.5640
 2898.0000     9.1500   122.0950     2.5840     0.0590  -999.2500   -21.9360     5.9450     3.3510
 2898.5000     9.1340   132.6880     2.5730     0.0740  -999.2500   -21.9360     5.2440     3.1080
 2899.0000     9.1200   142.4530     2.5630     0.0890  -999.2500   -21.9360     4.7590     3.0610
 2899.5000     9.1030   149.5270     2.5190     0.1110  -999.2500   -21.9340     4.5580     3.2360
 2900.0000     9.0890   142.8060     2.4740     0.1030  -999.2500   -21.9380     4.7470     3.3100
 2900.5000     9.0760   134.0720     2.4800     0.0770  -999.2500   -21.9340     5.0560     3.6860
 2901.0000     9.1370   122.9850     2.5140     0.0540  -999.2500   -21.9300     5.8430     4.1710
 2901.5000     9.1950   113.0270     2.5500     0.0370  -999.2500   -21.7150     6.6090     4.6780
 2902.0000     9.2670   111.8270     2.5650     0.0260  -999.2500   -21.4370     7.4910     5.1750
 2902.5000     9.2720   110.8200     2.5740     0.0140  -999.2500   -21.1740     7.7750     5.6640
 2903.0000     9.2740   107.6560     2.5680     0.0070  -999.2500   -20.8720     8.0510     6.2000
 2903.5000     9.2720   104.0450     2.5600     0.0050  -999.2500   -20.8510     8.3120     6.4480
 2904.0000     9.2730   105.0580     2.5620     0.0020  -999.2500   -21.1250     8.5060     6.3630
 2904.5000     9.2730   107.2110     2.5700     0.0010  -999.2500   -21.3880     8.5070     6.3270
 2905.0000     9.2730   109.4370     2.5790     0.0030  -999.2500   -21.5580     8.3560     6.2720
 2905.5000     9.2730   110.8150     2.5760     0.0070  -999.2500   -21.5350     8.1480     6.2220
 2906.0000     9.2730   111.2270     2.5660     0.0110  -999.2500   -21.5430     7.9660     6.1750
 2906.5000     9.2730   111.6780     2.5600     0.0140  -999.2500   -21.5410     7.7680     6.1220
 2907.0000     9.2730   109.9900     2.5720     0.0170  -999.2500   -21.5400     7.6640     6.0750
 2907.5000     9.2730   110.3810     2.5850     0.0190  -999.2500   -21.5410     7.7430     6.0460
 2908.0000     9.2730   109.7010     2.5910     0.0220  -999.2500   -21.5400     7.8810     6.0280
 2908.5000     9.2730   108.3540     2.5980     0.0240  -999.2500   -21.5400     7.9980     5.6560
 2909.0000     9.2730   109.8420     2.5970     0.0260  -999.2500   -21.4980     7.9970     5.2220
 2909.5000     9.2730   110.3840     2.5860     0.0280  -999.2500   -21.4410     7.8010     4.8410
 2910.0000     9.2730   116.5290     2.5750     0.0300  -999.2500   -21.3870     7.5820     4.4760
 2910.5000     9.2730   126.5530     2.5770     0.0330  -999.2500   -21.3320     7.0410     4.1480
 2911.0000     9.2730   132.7750     2.5730     0.0200  -999.2500   -21.2720     6.4780     3.8150
 2911.5000     9.2730   139.5110     2.5500     0.0270  -999.2500   -21.2290     5.8830     3.5660
 2912.0000     9.2730   151.8000     2.5420     0.0440  -999.2500   -21.1410     5.3310     3.4690
 2912.5000     9.2730   164.3110     2.5430     0.0590  -999.2500   -21.3750     4.6950     3.4780
 2913.0000     9.2730   171.6040     2.5240     0.0660  -999.2500   -21.7790     4.6220     3.4830
 2913.5000     9.2730   181.1310     2.4990     0.0690  -999.2500   -22.1770     4.8320     3.4570
 2914.0000     9.2730   153.0970     2.5110     0.0670  -999.2500   -22.3190     5.1520     3.7030
 2914.5000     9.2730   136.9280     2.5640     0.0620  -999.2500   -22.3820     5.5710     4.3030
 2915.0000     9.2730   115.2750     2.5980     0.0570  -999.2500   -21.8460     6.3610     4.8660
