~VERSION INFORMATION
 VERS.                2.0:   CWLS LOG ASCII STANDARD - VERSION 2.0
 WRAP.                 NO:   ONE LINE PER DEPTH STEP
~WELL INFORMATION
#MNEM.UNIT      DATA TYPE    INFORMATION
#----------   ------------   ------------------------------
 STRT.F          200.0000:   START DEPTH
 STOP.F         3078.0000:   STOP DEPTH
 STEP.F            0.5000:   STEP LENGTH
 NULL.          -999.2500:   NO VALUE
 COMP.   FENIX & SCISSION:   COMPANY
 WELL. FENIX NPR 72 "A" #3-28:   WELL
 FLD .              NPR-3:   FIELD
 LOC .      S28 T39N R78W:   LOCATION
 CNTY.            NATRONA:   COUNTY
 STAT.            WYOMING:   STATE
 CTRY. UNITED STATES OF AMERICA:   COUNTRY
 SRVC.              WELEX:   SERVICE COMPANY
 DATE.        06-JUN-1977:   LOGDATE
 API .     49025103770000:   API NUMBER
~CURVE INFORMATION
#MNEM.UNIT       API CODE    CURVE DESCRIPTION
#----------   ------------   ------------------------------
 DEPT.F                  :   
 CORR.G/C3   45 356 01 00:   DENSITY CORRECTION
 RHOB.G/C3   45 350 01 00:   BULK DENSITY
 CALD.IN     45 280 60 00:   CALIPER FROM DENSITY LOG
 SPR .MV     07 010 01 00:   SPONTANEOUS POTENTIAL
 GURD.OHMM   07 220 05 00:   GUARD LOG RESISTIVITY
 ILM .OHMM   07 120 44 00:   INDUCTION LOG MEDIUM RESISTIVITY
 ILD .OHMM   07 120 46 00:   DEEP INDUCTION RESISTIVITY
 GRD .GAPI   45 310 01 00:   GAMMA RAY FROM DENSITY LOG
~PARAMETER INFORMATION
#MNEM.UNIT          VALUE    DESCRIPTION
#----------   ------------   ------------------------------
 EKB .F         5022.0000:   Kelly bushing
 EGL .F         5011.0000:   Ground level
 EDF .F            0.0000:   Drilling floor
 EPD .F         5011.0000:   Permanent datum
 TD  .F         3081.0000:   Total depth
 DATE.        06-JUN-1977:   Date logged
 CLNT.            A2DTECH:   Client Code
 SL  . 990' FNL & 990' FEL:   Surface Location
 PD  .                 GL:   Permanent Datum
 DAPD.F                11:   Feet Above Permanent Datum
 DD  .F              3041:   Depth driller
 DL  .F              3081:   Depth logger
 BLI .F              3079:   Bottom log interval
 TLI .F               200:   Top log interval
 CS1 .IN            8.625:   Casing size
 CBD1.      8.625" @ 200':   Casing driller 1
 CBL1.F               218:   Casing logger 1
 BS1 .IN            7.875:   Bit size
 BSD1.F              3041:   Depth drilled with bit1
 DFT .            KCL MUD:   Type fluid in hole
 DFD .                8.8:   Density
 DFV .                 38:   Viscosity
 DFPH.                7.5:   pH
 DFL .                5.8:   Fluid loss
 MSS .           FLOWLINE:   Source of sample
 RMS .OHMM           1.19:   Rm
 MST .F                89:   Rm Meas. temp.
 RMF .OHMM           1.05:   Rmf
 MFST.F                89:   Rmf Meas. temp.
 RMC .OHMM           2.17:   Rmc
 MCST.F                89:   Rmc Meas. temp.
 MFSS.               FANN:   Source Rmf.
 MCSS.                KIT:   Source Rmc.
 RMB .OHMM           0.98:   Rm. at BHT
 BHT .F               108:   BHT.
 TCS .HRS             2.5:   Time Circ. stopped
 MRT .F               108:   Maximum recorded temp.
 LUN .               8611:   Logging unit number
 LUL .             CASPER:   Logging unit location
 ENGI.          T. JOYNER:   Recorded By
 WITN.      W. PETTINGILL:   Witnessed by
 ORIG.           5" PRINT:   Origin of data
 UWI .     49025103770000:   Unique Well ID
 DICO. A2D TECHNOLOGIES, INC.:   Digitizing Company
~OTHER INFORMATION
~A   DEPT     CORR       RHOB         CALD      SPR       GURD        ILM        ILD         GRD  
# ...
 2468.0000     0.0030     2.4760     8.6740   -48.9930     5.8070     6.6020     7.0400   128.0930
 2468.5000     0.0030     2.4750     8.6790   -49.0040     6.1920     6.6740     7.1310   125.0630
 2469.0000     0.0030     2.4750     8.6810   -49.0150     6.7200     6.8410     7.2360   122.0740
 2469.5000     0.0030     2.4740     8.6840   -49.0270     7.2360     7.1050     7.0310   119.6220
 2470.0000     0.0020     2.4730     8.6860   -49.0380     7.3680     7.0920     6.7860   120.6670
 2470.5000     0.0020     2.4710     8.6880   -49.0490     7.3610     7.0630     6.7740   121.7990
 2471.0000     0.0020     2.4700     8.6910   -49.0600     7.3460     7.0340     6.7600   122.3450
 2471.5000     0.0020     2.4690     8.6930   -49.0710     7.3320     7.0050     6.7450   122.0120
 2472.0000     0.0020     2.4680     8.6950   -49.0820     7.3170     6.9760     6.7300   121.6730
 2472.5000     0.0020     2.4660     8.6980   -49.0930     7.3030     6.9470     6.6770   122.6450
 2473.0000     0.0020     2.4640     8.7000   -49.1040     7.2360     6.9180     6.6000   123.8020
 2473.5000     0.0010     2.4610     8.7000   -49.1160     7.1700     6.8740     6.5230   124.9690
 2474.0000    -0.0020     2.4620     8.7000   -49.0990     7.1470     6.8270     6.4460   126.1100
 2474.5000    -0.0040     2.4630     8.7000   -49.0760     7.1230     6.7810     6.3680   127.1380
 2475.0000    -0.0070     2.4620     8.7000   -49.0520     7.1050     6.7240     6.3070   126.4850
 2475.5000    -0.0060     2.4610     8.7000   -49.0290     7.1700     6.7830     6.4320   125.8850
 2476.0000    -0.0060     2.4610     8.7000   -49.0060     7.2250     6.8820     6.5360   125.5320
 2476.5000    -0.0060     2.4630     8.7000   -48.9820     7.2630     6.9800     6.6400   126.3850
 2477.0000    -0.0050     2.4660     8.7000   -48.9590     7.2960     7.0610     6.7450   127.1820
 2477.5000    -0.0050     2.4690     8.7000   -48.9360     7.4180     7.1150     6.8490   125.5510
 2478.0000    -0.0040     2.4710     8.7000   -48.9130     7.6330     7.1700     6.9530   122.3360
 2478.5000    -0.0030     2.4740     8.7000   -48.8890     7.9590     7.5660     7.2540   119.1210
 2479.0000    -0.0020     2.4730     8.7000   -48.8660     8.2840     7.9680     7.6080   115.8870
 2479.5000    -0.0010     2.4720     8.7000   -48.8430     8.6100     8.3690     7.9610   112.7280
 2480.0000     0.0000     2.4750     8.6930   -48.8190     8.9350     8.7700     8.3150   113.3120
 2480.5000     0.0010     2.4770     8.6850   -48.7960     9.2680     9.1000     8.5340   114.5070
 2481.0000     0.0020     2.4800     8.6760   -48.7730     9.3240     9.0530     8.5340   116.3460
 2481.5000     0.0030     2.4820     8.6680   -48.7490     9.3810     9.0140     8.5340   118.6060
 2482.0000     0.0040     2.4840     8.6610   -48.7260     9.4390     8.9750     8.5340   120.5610
 2482.5000     0.0040     2.4850     8.6640   -48.7030     9.4390     8.9340     8.5340   120.3990
 2483.0000     0.0050     2.4860     8.6670   -48.6800     9.4390     8.9190     8.5340   120.2940
 2483.5000     0.0060     2.4870     8.6690   -48.6560     9.4390     8.9040     8.5340   120.2020
 2484.0000     0.0060     2.4880     8.6720   -48.6330     9.4390     8.8880     8.5340   120.2740
 2484.5000     0.0070     2.4900     8.6750   -48.6100     9.4390     8.8720     8.5340   121.2630
 2485.0000     0.0070     2.4910     8.6780   -48.5860     9.4180     8.8560     8.5140   122.2460
 2485.5000     0.0080     2.4930     8.6800   -48.5630     9.3950     8.8280     8.4930   123.2200
 2486.0000     0.0090     2.4960     8.6830   -48.5400     9.3720     8.7830     8.4720   122.7290
 2486.5000     0.0090     2.5000     8.6860   -48.5370     9.3490     8.7390     8.4510   120.0080
 2487.0000     0.0100     2.5020     8.6890   -48.5490     9.3230     8.6920     8.4300   117.3210
 2487.5000     0.0100     2.5010     8.6920   -48.5620     9.2960     8.6620     8.4090   114.6460
 2488.0000     0.0110     2.4960     8.6950   -48.5750     9.2680     8.6300     8.3890   112.9260
 2488.5000     0.0110     2.4920     8.6980   -48.5880     9.2180     8.5980     8.3350   114.0460
 2489.0000     0.0110     2.4870     8.7000   -48.6010     9.1630     8.5660     8.2530   116.5470
 2489.5000     0.0100     2.4820     8.7000   -48.6130     9.1040     8.5350     8.1720   119.1470
 2490.0000     0.0100     2.4820     8.7000   -48.6260     9.0440     8.5030     8.0900   120.0050
 2490.5000     0.0090     2.4880     8.7000   -48.6390     9.0060     8.4710     8.0040   118.8420
 2491.0000     0.0090     2.4940     8.7000   -48.6520     8.9870     8.4560     8.0200   117.4500
 2491.5000     0.0090     2.4990     8.7000   -48.6640     8.9670     8.4560     8.0380   116.0380
 2492.0000     0.0090     2.4950     8.7000   -48.6770     8.9470     8.4560     8.0550   114.6940
 2492.5000     0.0090     2.4900     8.7000   -48.6900     8.9340     8.4560     8.0730   117.4090
 2493.0000     0.0090     2.4840     8.7000   -48.7030     8.9540     8.4560     8.0910   117.7870
 2493.5000     0.0080     2.4810     8.7000   -48.7160     8.9720     8.4560     8.1150   117.4150
 2494.0000     0.0070     2.4780     8.7000   -48.7280     8.9890     8.4560     8.1400   119.6150
 2494.5000     0.0060     2.4740     8.7000   -48.7410     9.0070     8.4560     8.1520   122.0760
 2495.0000     0.0050     2.4720     8.7000   -48.7540     9.0240     8.4670     8.1520   122.3350
 2495.5000    -0.0010     2.4710     8.7000   -48.7670     9.0420     8.4820     8.1520   120.5790
 2496.0000    -0.0070     2.4700     8.6950   -48.7800     9.0600     8.4970     8.1520   120.3160
 2496.5000    -0.0080     2.4680     8.6870   -48.7920     9.0770     8.5120     8.1520   121.4170
 2497.0000    -0.0070     2.4670     8.6790   -48.8050     9.1000     8.5270     8.1520   122.4890
 2497.5000    -0.0060     2.4670     8.6700   -48.8180     9.0920     8.5400     8.1520   122.7720
 2498.0000    -0.0060     2.4680     8.6610   -48.8310     9.0810     8.5510     8.1510   120.8390
 2498.5000    -0.0050     2.4680     8.6670   -48.8440     9.0700     8.5620     8.1590   118.9770
 2499.0000    -0.0030     2.4680     8.6740   -48.8560     9.0590     8.5720     8.1840   117.0310
 2499.5000    -0.0010     2.4680     8.6810   -48.8690     9.0480     8.5830     8.2080   118.0720
 2500.0000     0.0000     2.4700     8.6880   -48.8820     9.0370     8.5940     8.2320   120.1490
 2500.5000     0.0010     2.4720     8.6950   -48.8950     9.0260     8.6050     8.2570   122.3190
 2501.0000     0.0020     2.4730     8.7000   -48.9090     9.0000     8.6130     8.2810   122.9980
 2501.5000     0.0030     2.4750     8.7000   -48.9180     8.8470     8.4040     8.3050   123.1990
 2502.0000     0.0030     2.4770     8.7000   -48.6420     8.7180     8.2450     8.3240   124.1620
 2502.5000     0.0020     2.4710     8.7000   -48.3340     8.5450     8.0850     8.3430   125.8410
 2503.0000     0.0000     2.4640     8.7000   -48.0160     8.3720     7.9260     8.3620   127.5680
 2503.5000    -0.0010     2.4580     8.7000   -48.0130     8.1990     7.7680     8.3770   128.9110
 2504.0000    -0.0020     2.4510     8.7000   -48.1060     7.6790     7.6220     8.2020   130.2620
 2504.5000    -0.0040     2.4440     8.7000   -48.2030     7.0310     7.4380     8.0450   130.8270
 2505.0000    -0.0050     2.4430     8.6970   -48.2990     6.6020     7.6120     8.0040   128.6420
 2505.5000    -0.0060     2.4470     8.6940   -48.3950     7.7980     7.8490     7.7510   126.6940
 2506.0000    -0.0060     2.4520     8.6900   -48.4910     8.6040     8.0040     7.4100   129.0580
 2506.5000    -0.0050     2.4570     8.6870   -48.5860     8.0060     7.6010     7.0690   131.3310
 2507.0000    -0.0010     2.4620     8.6830   -48.6830     7.7160     7.3020     6.8300   132.3860
 2507.5000     0.0020     2.4670     8.6810   -48.6750     7.7160     7.1420     6.7780   131.3360
 2508.0000     0.0040     2.4720     8.6870   -48.5880     7.6300     7.0920     6.7240   131.8280
