~VERSION INFORMATION
 VERS.                2.0:   CWLS LOG ASCII STANDARD - VERSION 2.0
 WRAP.                 NO:   ONE LINE PER DEPTH STEP
~WELL INFORMATION
#MNEM.UNIT      DATA TYPE    INFORMATION
#----------   ------------   ------------------------------
 STRT.F           31.0000:   START DEPTH
 STOP.F         2926.0000:   STOP DEPTH
 STEP.F            0.5000:   STEP LENGTH
 NULL.          -999.2500:   NO VALUE
 COMP. LAWERNCE ALLISON AND ASSOCIATES:   COMPANY
 WELL.   FENIX "X" #17-21:   WELL
 FLD .             NPR #3:   FIELD
 LOC .      S21 T39N R78W:   LOCATION
 CNTY.            NATRONA:   COUNTY
 STAT.            WYOMING:   STATE
 CTRY. UNITED STATES OF AMERICA:   COUNTRY
 SRVC.      WESTERN ATLAS:   SERVICE COMPANY
 DATE.        02-NOV-1987:   LOGDATE
 API .     49025111960000:   API NUMBER
~CURVE INFORMATION
#MNEM.UNIT       API CODE    CURVE DESCRIPTION
#----------   ------------   ------------------------------
 DEPT.F                  :   
 CALD.IN     45 280 60 00:   CALIPER FROM DENSITY LOG
 TEND.LBS    45 635 01 00:   TENSION FROM DENSITY LOG
 CORR.G/C3   45 356 01 00:   DENSITY CORRECTION
 RHOB.G/C3   45 350 01 00:   BULK DENSITY
 CNC .DEC    42 890 03 00:   NEUTRON POROSITY SANDSTONE
 SPR .MV     07 010 01 00:   SPONTANEOUS POTENTIAL
 GRR .GAPI   07 310 01 00:   GAMMA RAY FROM RESISTIVITY
 TENR.LBS    07 635 01 00:   TENSION FROM RESISTIVITY
 RFOC.OHMM   07 220 04 00:   RESISTIVITY FOCUSED LOG RES.
 RILD.OHMM   07 120 46 00:   DEEP INDUCTION RESISTIVITY
 RILM.OHMM   07 120 44 00:   INDUCTION LOG MEDIUM RESISTIVITY
~PARAMETER INFORMATION
#MNEM.UNIT          VALUE    DESCRIPTION
#----------   ------------   ------------------------------
 EKB .F         5006.0000:   Kelly bushing
 EGL .F         4995.0000:   Ground level
 EDF .F            0.0000:   Drilling floor
 TD  .F         2915.0000:   Total depth
 DATE.        02-NOV-1987:   Date logged
 CLNT.            A2DTECH:   Client Code
 SL  . 1824' FSL & 399' FWL:   Surface Location
 PD  .                 GL:   Permanent Datum
 DD  .F              2911:   Depth driller
 DL  .F              2915:   Depth logger
 BLI .F              2913:   Bottom log interval
 CS1 .IN            8.625:   Casing size
 CBD1.      8.625" @ 350':   Casing driller 1
 CBL1.F               350:   Casing logger 1
 BS1 .IN            7.875:   Bit size
 DFT .        KCL-POLYMER:   Type fluid in hole
 DFD .                8.8:   Density
 DFV .                 42:   Viscosity
 DFPH.                9.5:   pH
 DFL .                 11:   Fluid loss
 MSS .           FLOWLINE:   Source of sample
 RMS .OHMM           0.41:   Rm
 MST .F                78:   Rm Meas. temp.
 RMF .OHMM           0.29:   Rmf
 MFST.F                78:   Rmf Meas. temp.
 RMC .OHMM           0.51:   Rmc
 MCST.F                78:   Rmc Meas. temp.
 MFSS.               MEAS:   Source Rmf.
 RMB .OHMM           0.29:   Rm. at BHT
 BHT .F               108:   BHT.
 TCS .HRS               5:   Time Circ. stopped
 MRT .F               108:   Maximum recorded temp.
 LUN .            HL-6274:   Logging unit number
 LUL .           GILLETTE:   Logging unit location
 WITN.             STRONG:   Witnessed by
 ORIG.           5" PRINT:   Origin of data
 UWI .     49025111960000:   Unique Well ID
 DICO. A2D TECHNOLOGIES, INC.:   Digitizing Company
 DAPD.                 11:   Feet Above Permanent Datum
 BSD1.               2911:   Depth drilled with bit1
 MCSS.               CALC:   Source Rmc.
 EPD .               4995:   Elevation Permanent Datum
 LMF .                 KB:   Log Measured From
 DMF .                 KB:   Drilling Measured From
 TLI .                 11:   Top log interval
~OTHER INFORMATION
~A   DEPT     CALD       TEND       CORR       RHOB        CNC        SPR         GRR      TENR       RFOC       RILD       RILM   
# ...
 1037.5000  -999.2500  -999.2500  -999.2500  -999.2500  -999.2500   -25.0990    98.8350   -83.7320     9.3560     9.8260     9.6760
 1038.0000  -999.2500  -999.2500  -999.2500  -999.2500  -999.2500   -25.0970    99.6180   -83.6140     9.3730     9.8530     9.6990
 1038.5000  -999.2500  -999.2500  -999.2500  -999.2500  -999.2500   -25.0980   100.6230   -83.4970     9.3890     9.8800     9.7220
 1039.0000  -999.2500  -999.2500  -999.2500  -999.2500  -999.2500   -25.0990    99.9540   -83.3790     9.4050     9.9060     9.7460
 1039.5000  -999.2500  -999.2500  -999.2500  -999.2500  -999.2500   -25.0970    99.1660   -83.2610     9.4220     9.9330     9.7690
 1040.0000  -999.2500  -999.2500  -999.2500  -999.2500  -999.2500   -25.0960    98.0440   -83.1430     9.4350     9.9570     9.7800
 1040.5000  -999.2500  -999.2500  -999.2500  -999.2500  -999.2500   -25.1040    97.1170   -83.0250     9.4710     9.9110     9.6990
 1041.0000  -999.2500  -999.2500  -999.2500  -999.2500  -999.2500   -25.0190    96.1530   -82.9080     9.5210     9.7760     9.6260
 1041.5000  -999.2500  -999.2500  -999.2500  -999.2500  -999.2500   -24.8120    96.1280   -82.7900     9.5930     9.6410     9.5540
 1042.0000  -999.2500  -999.2500  -999.2500  -999.2500  -999.2500   -24.6160    96.9840   -82.6720     9.5440     9.5050     9.4810
 1042.5000  -999.2500  -999.2500  -999.2500  -999.2500  -999.2500   -24.4020    97.9250   -82.5540     9.2430     9.3700     9.4080
 1043.0000  -999.2500  -999.2500  -999.2500  -999.2500  -999.2500   -24.3540    99.0620   -82.4360     8.7850     9.2690     9.3360
 1043.5000  -999.2500  -999.2500  -999.2500  -999.2500  -999.2500   -24.4570    99.9240   -82.3190     8.8840     9.3110     9.2690
 1044.0000  -999.2500  -999.2500  -999.2500  -999.2500  -999.2500   -24.5430   102.0110   -82.2010     9.0930     9.3970     9.4370
 1044.5000  -999.2500  -999.2500  -999.2500  -999.2500  -999.2500   -24.6300   103.9810   -82.0830     9.3010     9.4830     9.5100
 1045.0000  -999.2500  -999.2500  -999.2500  -999.2500  -999.2500   -24.7210   104.7340   -81.9650     9.4370     9.5700     9.5900
 1045.5000  -999.2500  -999.2500  -999.2500  -999.2500  -999.2500   -24.8090   104.7750   -81.8470     9.4370     9.7800     9.6700
 1046.0000  -999.2500  -999.2500  -999.2500  -999.2500  -999.2500   -24.8980   105.7620   -81.7300     9.3890     9.7800     9.7500
 1046.5000  -999.2500  -999.2500  -999.2500  -999.2500  -999.2500   -24.9870   106.7090   -81.6120     9.3490     9.7650     9.7800
 1047.0000  -999.2500  -999.2500  -999.2500  -999.2500  -999.2500   -25.0750   103.0790   -81.4940     9.3080     9.7500     9.7160
 1047.5000  -999.2500  -999.2500  -999.2500  -999.2500  -999.2500   -25.1650    99.2980   -81.3760     9.2680     9.7360     9.6390
 1048.0000  -999.2500  -999.2500  -999.2500  -999.2500  -999.2500   -25.2520    99.3240   -81.2580     9.2270     9.7210     9.5620
 1048.5000  -999.2500  -999.2500  -999.2500  -999.2500  -999.2500   -25.3430   100.0760   -81.1410     9.1870     9.7060     9.4850
 1049.0000  -999.2500  -999.2500  -999.2500  -999.2500  -999.2500   -25.4340    99.0310   -81.0230     9.1470     9.6910     9.4080
 1049.5000  -999.2500  -999.2500  -999.2500  -999.2500  -999.2500   -25.4850    96.9480   -80.9050     9.1050     9.6760     9.3310
 1050.0000  -999.2500  -999.2500  -999.2500  -999.2500  -999.2500   -25.3210    95.7920   -80.7870     9.1050     9.6610     9.2690
 1050.5000  -999.2500  -999.2500  -999.2500  -999.2500  -999.2500   -25.1610    94.6810   -80.6690     9.1050     9.6460     9.2690
 1051.0000  -999.2500  -999.2500  -999.2500  -999.2500  -999.2500   -24.9920    93.6140   -80.5520     9.1050     9.6310     9.2690
 1051.5000  -999.2500  -999.2500  -999.2500  -999.2500  -999.2500   -24.8120    92.6980   -80.4340     9.1050     9.6150     9.2690
 1052.0000  -999.2500  -999.2500  -999.2500  -999.2500  -999.2500   -24.7000    95.2270   -80.3160     9.1050     9.6070     9.2690
 1052.5000  -999.2500  -999.2500  -999.2500  -999.2500  -999.2500   -24.7590    99.4780   -80.1980     9.1050     9.6070     9.1050
 1053.0000  -999.2500  -999.2500  -999.2500  -999.2500  -999.2500   -24.8080   101.9210   -80.0810     8.9380     9.4190     8.9860
 1053.5000  -999.2500  -999.2500  -999.2500  -999.2500  -999.2500   -24.8600   102.1730   -79.9630     8.7210     9.2550     8.8320
 1054.0000  -999.2500  -999.2500  -999.2500  -999.2500  -999.2500   -24.9150   100.7290   -79.8450     8.5040     9.0920     8.6770
 1054.5000  -999.2500  -999.2500  -999.2500  -999.2500  -999.2500   -24.9660    99.2770   -79.7270     8.2860     8.9290     8.5230
 1055.0000  -999.2500  -999.2500  -999.2500  -999.2500  -999.2500   -25.0190    99.1710   -79.6090     8.1790     8.7850     8.3680
 1055.5000  -999.2500  -999.2500  -999.2500  -999.2500  -999.2500   -25.0750    99.9410   -79.4920     8.1790     8.6290     8.3260
 1056.0000  -999.2500  -999.2500  -999.2500  -999.2500  -999.2500   -25.0900   102.4080   -79.3740     8.1790     8.6290     8.4610
 1056.5000  -999.2500  -999.2500  -999.2500  -999.2500  -999.2500   -25.0660   104.6600   -79.2560     8.5690     8.9380     8.7000
 1057.0000  -999.2500  -999.2500  -999.2500  -999.2500  -999.2500   -25.0460   107.2810   -79.1380     8.9690     9.1300     8.9390
 1057.5000  -999.2500  -999.2500  -999.2500  -999.2500  -999.2500   -25.0260   108.9590   -79.0200     9.0740     9.3230     9.1780
 1058.0000  -999.2500  -999.2500  -999.2500  -999.2500  -999.2500   -25.0050   105.3320   -78.9030     9.1790     9.5160     9.4370
 1058.5000  -999.2500  -999.2500  -999.2500  -999.2500  -999.2500   -24.9850    98.6170   -78.7850     9.2690     9.7800     9.6070
 1059.0000  -999.2500  -999.2500  -999.2500  -999.2500  -999.2500   -24.9640    94.9110   -78.6670     9.4370     9.7800     9.5580
 1059.5000  -999.2500  -999.2500  -999.2500  -999.2500  -999.2500   -24.9440    93.8920   -78.5490     9.4270     9.9570     9.4930
 1060.0000  -999.2500  -999.2500  -999.2500  -999.2500  -999.2500   -24.9230    95.9600   -78.4310     9.3790     9.8730     9.4290
 1060.5000  -999.2500  -999.2500  -999.2500  -999.2500  -999.2500   -24.9030    99.3650   -78.3140     9.3310     9.7690     9.3640
 1061.0000  -999.2500  -999.2500  -999.2500  -999.2500  -999.2500   -24.8830   100.8820   -78.1960     9.2830     9.6660     9.2990
 1061.5000  -999.2500  -999.2500  -999.2500  -999.2500  -999.2500   -24.8620   103.1160   -78.0780     9.2690     9.5630     9.2350
 1062.0000  -999.2500  -999.2500  -999.2500  -999.2500  -999.2500   -24.8420   105.5670   -77.9600     9.2690     9.4600     9.1700
 1062.5000  -999.2500  -999.2500  -999.2500  -999.2500  -999.2500   -24.8210   105.1000   -77.8420     9.2690     9.2690     9.1050
 1063.0000  -999.2500  -999.2500  -999.2500  -999.2500  -999.2500   -24.8010   103.1800   -77.7250     9.2120     9.1050     9.0220
 1063.5000  -999.2500  -999.2500  -999.2500  -999.2500  -999.2500   -24.7790   103.3920   -77.6070     8.9560     8.9440     8.8850
 1064.0000  -999.2500  -999.2500  -999.2500  -999.2500  -999.2500   -24.7600   103.9130   -77.4890     8.7000     8.7850     8.7490
 1064.5000  -999.2500  -999.2500  -999.2500  -999.2500  -999.2500   -24.7410   102.5220   -77.3710     8.4760     8.7850     8.6290
 1065.0000  -999.2500  -999.2500  -999.2500  -999.2500  -999.2500   -24.7100   101.6040   -77.2530     8.4760     8.7850     8.4760
 1065.5000  -999.2500  -999.2500  -999.2500  -999.2500  -999.2500   -24.7980   101.7500   -77.1360     8.4760     8.7850     8.4520
 1066.0000  -999.2500  -999.2500  -999.2500  -999.2500  -999.2500   -25.0220   105.1780   -77.0180     8.4760     8.7560     8.4100
 1066.5000  -999.2500  -999.2500  -999.2500  -999.2500  -999.2500   -25.2320   108.3760   -76.9000     8.4760     8.7190     8.3680
 1067.0000  -999.2500  -999.2500  -999.2500  -999.2500  -999.2500   -25.4560   108.3970   -76.7820     8.4760     8.6830     8.3250
 1067.5000  -999.2500  -999.2500  -999.2500  -999.2500  -999.2500   -25.6520   104.8160   -76.6650     8.4760     8.6460     8.2830
