~VERSION INFORMATION
 VERS.                2.0:   CWLS LOG ASCII STANDARD - VERSION 2.0
 WRAP.                 NO:   ONE LINE PER DEPTH STEP
~WELL INFORMATION
#MNEM.UNIT      DATA TYPE    INFORMATION
#----------   ------------   ------------------------------
 STRT.F            5.5000:   START DEPTH
 STOP.F         3261.0000:   STOP DEPTH
 STEP.F            0.5000:   STEP LENGTH
 NULL.          -999.2500:   NO VALUE
 COMP. LAWRENCE ALLISON & ASSOCIATES:   COMPANY
 WELL. LAWRENCE "X" #12-14:   WELL
 FLD .              NPR 3:   FIELD
 LOC .      S14 T38N R78W:   LOCATION
 CNTY.            NATRONA:   COUNTY
 STAT.            WYOMING:   STATE
 CTRY. UNITED STATES OF AMERICA:   COUNTRY
 SRVC.      DRESSER ATLAS:   SERVICE COMPANY
 DATE.        18-AUG-1986:   LOGDATE
 API .     49025111080000:   API NUMBER
~CURVE INFORMATION
#MNEM.UNIT       API CODE    CURVE DESCRIPTION
#----------   ------------   ------------------------------
 DEPT.F                  :   
 RILM.OHMM   07 120 44 00:   INDUCTION LOG MEDIUM RESISTIVITY
 GRR .GAPI   07 310 01 00:   GAMMA RAY FROM RESISTIVITY
 SPR .MV     07 010 01 00:   SPONTANEOUS POTENTIAL
 NPHI.DEC    42 890 03 00:   NEUTRON POROSITY SANDSTONE
 CALD.IN     45 280 60 00:   CALIPER FROM DENSITY LOG
 TEND.LBS    45 635 01 00:   TENSION FORM DENSITY LOG
 DRHO.G/C3   45 356 01 00:   DENSITY CORRECTION
 DEN .G/C3   45 350 01 00:   BULK DENSITY
 RILD.OHMM   07 120 46 00:   DEEP INDUCTION RESISTIVITY
 RFOC.OHMM   07 220 04 00:   RESISTIVITY FOCUSED LOG RES.
~PARAMETER INFORMATION
#MNEM.UNIT          VALUE    DESCRIPTION
#----------   ------------   ------------------------------
 EKB .F         5245.0000:   Kelly bushing
 EGL .F         5234.0000:   Ground level
 TD  .F         3250.0000:   Total depth
 CLNT.            A2DTECH:   Client Code
 SL  . 901' FNL & 485' FWL:   Surface Location
 PD  .                 GL:   Permanent Datum
 EPD .F              5234:   Elevation Permanent Datum
 LMF .                 KB:   Log Measured From
 DMF .                 KB:   Drilling Measured From
 DAPD.F                11:   Feet Above Permanent Datum
 DATE.        18-AUG-1986:   Date Logged [DD-MMM-YYYY]
 DD  .F              3250:   Depth driller
 DL  .F              3246:   Depth logger
 BLI .F              3244:   Bottom log interval
 TLI .F                 0:   Top log interval
 CS1 .IN            8.625:   Casing size
 CBD1.      8.625" @ 733':   Casing driller 1
 CBL1.F               735:   Casing logger 1
 BS1 .IN            7.875:   Bit size
 BSD1.F              3250:   Depth drilled with bit1
 DFT .            KCL-GEL:   Type fluid in hole
 DFD .                8.8:   Density
 DFV .                 36:   Viscosity
 DFPH.                8.5:   pH
 DFL .               12.8:   Fluid loss
 MSS .           FLOWLINE:   Source of sample
 RMS .OHMM          0.292:   Rm
 MST .F                73:   Rm Meas. temp.
 RMF .OHMM          0.224:   Rmf
 MFST.F                73:   Rmf Meas. temp.
 MFSS.               MEAS:   Source Rmf.
 RMC .OHMM          0.365:   Rmc
 MCST.F                73:   Rmc Meas. temp.
 MCSS.               CALC:   Source Rmc.
 RMB .OHMM          0.154:   Rm. at BHT
 BHT .F               138:   BHT.
 TCS .HRS               5:   Time Circ. stopped
 MRT .F               138:   Maximum recorded temp.
 LUN .            HL-6214:   Logging unit number
 LUL .           GILLETTE:   Logging unit location
 ENGI.             RAUTIO:   Recorded By
 WITN.             STRONG:   Witnessed by
 ORIG.        2" 5" PRINT:   Origin of data
 UWI .     49025111080000:   Unique Well ID
 DICO. A2D TECHNOLOGIES, INC.:   Digitizing Company
~OTHER INFORMATION
~A    DEPT    RILM         GRR       SPR       NPHI       CALD       TEND       DRHO        DEN       RILD       RFOC   
# ...
 2819.5000    14.6415    79.1497   -21.0006     0.2262     8.7155    65.7895     0.1001     2.4239    17.3132    13.9978
 2820.0000    14.4421    78.2519   -20.3909     0.2217     8.7152    65.7895     0.1075     2.4284    17.3161    14.2954
 2820.5000    14.4457    77.9580   -19.9333     0.2202     8.7148    65.7895     0.0909     2.4314    17.1977    14.1980
 2821.0000    14.5495    77.9639   -19.6263     0.2268     8.7179    65.7895     0.0743     2.4253    17.5636    13.7138
 2821.5000    14.6540    77.9699   -19.6204     0.2338     8.7294    65.7895     0.0804     2.4140    17.5499    13.3387
 2822.0000    14.6570    79.7841   -19.6145     0.2380     8.7291    65.7895     0.0894     2.4064    17.2052    13.4342
 2822.5000    14.7624    82.1996   -19.6074     0.2383     8.7439    65.7895     0.1049     2.3951    17.2081    13.8157
 2823.0000    15.2886    84.0126   -19.9042     0.2341     8.7436    65.7895     0.1106     2.3830    17.4518    14.7117
 2823.5000    16.1669    84.3197   -20.4994     0.2178     8.7737    65.7895     0.1075     2.3777    17.8219    13.9160
 2824.0000    17.4560    82.2170   -20.9454     0.2045     8.8037    65.7895     0.0713     2.3799    18.3282    13.5353
 2824.5000    19.3799    78.6084   -21.5420     0.1993     8.8336    65.7895     0.0592     2.3882    19.9278    13.6371
 2825.0000    21.9694    77.9121   -22.1386     0.1903     8.8333    65.7895     0.0502     2.4275    21.5167    15.2615
 2825.5000    21.6703    75.0070   -22.6063     0.1836     8.8179    65.7895     0.0442     2.5015    21.8213    20.8571
 2826.0000    20.6141    72.3020   -23.0305     0.1797     8.8024    65.7895     0.0426     2.5499    21.2256    35.9186
 2826.5000    18.8642    69.8982   -23.3259     0.1769     8.8021    73.3083     0.0502     2.5626    21.3768    37.4569
 2827.0000    17.6001    75.3257   -23.6213     0.1806     8.7866    73.3083     0.0562     2.4765    21.5290    30.6087
 2827.5000    16.8840    80.1508   -23.9153     0.2045     8.7863    80.8271     0.0592     2.4267    21.6824    19.4639
 2828.0000    16.4232    80.7590   -23.7589     0.2208     8.7861    80.8271     0.0592     2.3851    21.2371    13.3567
 2828.5000    15.8658    80.0090   -23.2969     0.2262     8.7857    58.2707     0.0592     2.3850    19.9500    13.7428
 2829.0000    15.4335    78.0598   -22.6916     0.2190     8.8006   -24.4361     0.0532     2.3896    17.8495    14.3314
 2829.5000    14.7864    78.6695   -22.0833     0.2150     8.8003   -99.8090     0.0442     2.3987    16.8854    14.6361
 2830.0000    14.2032    81.3861   -21.4751     0.2208     8.8303  -129.6992     0.0381     2.4047    16.7700    14.7404
 2830.5000    14.3059    85.3076   -20.8669     0.2277     8.8300   -62.0301     0.0380     2.4130    16.7728    14.6395
 2831.0000    14.3088    84.1086   -20.1081     0.2347     8.8297    28.1955     0.0503     2.4175    16.8922    14.5403
 2831.5000    14.3117    84.1145   -18.8975     0.2392     8.8294    80.8271     0.0532     2.4235    16.8945    14.3296
 2832.0000    14.4145    85.3265   -17.3773     0.2365     8.8291    20.6767     0.0411     2.4265    16.8968    13.9492
 2832.5000    14.5181    87.7420   -16.9265     0.2341     8.8288   -56.5101     0.0291     2.4187    16.7818    13.8543
 2833.0000    14.7245    88.3487   -16.7701     0.2362     8.8285  -129.6992     0.0306     2.4128    16.7842    13.8561
 2833.5000    14.9339    86.5488   -16.7643     0.2347     8.8281  -159.7744     0.0457     2.4053    17.1412    13.9549
 2834.0000    15.9026    81.7353   -16.7585     0.2241     8.8278  -159.7744     0.0592     2.4017    17.3839    13.9567
 2834.5000    17.4113    79.0303   -16.9033     0.2102     8.8276  -152.2556     0.0442     2.4079    17.8772    13.9586
 2835.0000    20.0144    78.4337   -17.3493     0.1984     8.8273  -159.7744     0.0381     2.4208    18.9036    14.0745
 2835.5000    23.0066    79.0434   -17.9580     0.1839     8.8421  -174.8120     0.0411     2.4489    22.5004    15.2865
 2836.0000    27.5734    76.9408   -18.6916     0.1609     8.8570  -189.8496     0.0396     2.5012    26.9685    20.0618
 2836.5000    30.4000    72.7297   -19.4388     0.1349     8.8566  -189.8496     0.0275     2.5626    28.9575    28.8247
 2837.0000    30.8323    68.8198   -20.3367     0.1171     8.8715  -189.8496     0.0074     2.6043    29.9461    45.3414
 2837.5000    30.6261    66.1134   -21.0839     0.1125     8.8864  -174.8120     0.0034     2.5984    29.7414   100.3425
 2838.0000    23.3536    67.3255   -21.2301     0.1228     8.9163  -159.7744    -0.0011     2.5705    29.5390    87.9413
 2838.5000    21.0438    71.2799   -21.3735     0.1552     8.9312  -144.7368    -0.0374     2.5238    28.7326    37.8456
 2839.0000    18.8310    77.5795   -21.0501     0.1766     8.9764  -129.6992    -0.0494     2.4453    26.9912    24.0659
 2839.5000    16.8509    80.2962   -20.3061     0.2150     8.9929  -144.7368    -0.0371     2.4046    23.3233    14.3733
 2840.0000    15.6127    80.9044   -19.5473     0.2311     9.0061  -159.7744     0.0170     2.3760    20.4363    13.2223
 2840.5000    14.9629    79.7054   -19.0897     0.2407     9.0057  -174.8120     0.0275     2.3747    18.9149    13.2241
 2841.0000    14.4692    78.8076   -19.3851     0.2365     9.0206  -167.2932    -0.0072     2.3763    17.9091    13.7904
 2841.5000    14.3710    79.1146   -19.5301     0.2292     9.0203  -159.7744    -0.0162     2.3757    17.2994    13.9974
 2842.0000    14.3747    79.7473   -19.8253     0.2224     9.0200  -167.2932    -0.0147     2.3750    16.8266    14.3835
 2842.5000    14.4779    83.0434   -20.1207     0.2211     9.0197  -174.8120    -0.0007     2.3843    16.8288    14.5873
 2843.0000    14.4808    86.0612   -20.2655     0.2214     9.0193  -189.8496     0.0351     2.3973    16.7138    15.1064
 2843.5000    14.5849    87.8743   -20.4103     0.2187     9.0190  -204.8872     0.0306     2.4027    16.7166    15.6440
 2844.0000    14.5878    88.7822   -20.5550     0.2178     9.0036  -204.8872     0.0170     2.3937    16.8357    15.2161
 2844.5000    14.5909    85.4748   -20.3986     0.2223     9.0185  -174.8120     0.0109     2.3833    16.8385    14.0907
 2845.0000    14.5944    85.1807   -20.0902     0.2270     9.0030  -159.7744     0.0108     2.3842    16.9584    13.4109
 2845.5000    15.0093    84.8855   -19.7810     0.2308     9.0179  -152.2556     0.0170     2.3881    16.9607    13.3349
 2846.0000    15.2226    84.5901   -19.6265     0.2353     9.0176  -144.7368     0.0245     2.3973    16.9630    13.4304
 2846.5000    15.1201    83.3925   -19.6195     0.2293     9.0324  -152.2556     0.0321     2.4095    16.9652    14.0056
 2847.0000    14.9142    81.8909   -19.6137     0.2208     9.0625  -174.8120     0.0306     2.4263    16.8497    15.6592
 2847.5000    14.5079    84.3078   -19.6079     0.2207     9.0015  -174.8120     0.0245     2.4325    16.7352    15.7708
 2848.0000    14.0148    87.0244   -19.3008     0.2251     8.9557  -174.8120     0.0230     2.4349    16.5060    15.0014
 2848.5000    13.7288    86.7291   -18.8432     0.2314     8.9100  -167.2932     0.0544     2.4342    16.5088    13.4398
 2849.0000    13.6357    84.3113   -18.3794     0.2371     8.8941  -167.2932     0.1196     2.4230    16.5110    12.4500
 2849.5000    13.5439    84.0298   -17.9265     0.2395     8.8487  -174.8120     0.1317     2.4118    16.1719    12.1937
 2850.0000    13.5473    85.5431   -17.7701     0.2401     8.8484  -174.8120     0.1302     2.4180    15.6208    12.5404
 2850.5000    13.6446    91.2718   -17.7643     0.2350     8.8481  -174.8120     0.1181     2.4242    15.1938    13.4471
 2851.0000    13.8386    93.6873   -17.7585     0.2335     8.8479  -182.6377     0.0833     2.4303    15.3021    13.7362
 2851.5000    14.0354    93.9943   -17.7527     0.2321     8.8476  -189.8496     0.0621     2.4229    15.5187    13.0601
 2852.0000    13.9408    89.7833   -17.7469     0.2268     8.8473  -212.4060     0.0560     2.4110    15.6297    12.9017
 2852.5000    13.9443    87.0782   -17.7410     0.2262     8.8470  -227.4436     0.0590     2.4050    15.9618    13.0850
