~VERSION INFORMATION
 VERS.                2.0:   CWLS LOG ASCII STANDARD - VERSION 2.0
 WRAP.                 NO:   ONE LINE PER DEPTH STEP
~WELL INFORMATION
#MNEM.UNIT      DATA TYPE    INFORMATION
#----------   ------------   ------------------------------
 STRT.F          206.0000:   START DEPTH
 STOP.F         2974.0000:   STOP DEPTH
 STEP.F            0.5000:   STEP LENGTH
 NULL.          -999.2500:   NO VALUE
 COMP.    FENIX & SCISSON:   COMPANY
 WELL.    FENIX AX #32-21:   WELL
 FLD .                NPR:   FIELD
 LOC .      S21 T39N R78W:   LOCATION
 CNTY.            NATRONA:   COUNTY
 STAT.            WYOMING:   STATE
 CTRY. UNITED STATES OF AMERICA:   COUNTRY
 SRVC.              WELEX:   SERVICE COMPANY
 DATE.        29-JUL-1977:   LOGDATE
 API .     49025104050000:   API NUMBER
~CURVE INFORMATION
#MNEM.UNIT       API CODE    CURVE DESCRIPTION
#----------   ------------   ------------------------------
 DEPT.F                  :   
 SPR .MV     07 010 01 00:   SPONTANEOUS POTENTIAL
 RILM.OHMM   07 120 44 00:   INDUCTION LOG MEDIUM RESISTIVITY
 RILD.OHMM   07 120 46 00:   INDUCTION LOG DEEP RESISTIVITY
 SGRD.OHMM   07 220 05 00:   SHALLOW GUARD LOG RESISTIVITY
 CALD.IN     45 280 60 00:   CALIPER FROM DENSITY LOG
 RHOB.G/C3   45 350 01 00:   BULK DENSITY
 DCOR.G/C3   45 356 01 00:   DENSITY CORRECTION
 GRD .GAPI   45 310 01 00:   GAMMA RAY FROM DENSITY LOG
~PARAMETER INFORMATION
#MNEM.UNIT          VALUE    DESCRIPTION
#----------   ------------   ------------------------------
 EKB .F         4995.0000:   Kelly bushing
 EGL .F         4985.0000:   Ground level
 EDF .F            0.0000:   Drilling floor
 EPD .F         4985.0000:   Permanent datum
 TD  .F         2978.0000:   Total depth
 DATE.        29-JUL-1977:   Date logged
 CLNT.            A2DTECH:   Client Code
 SL  . 1040' FNL & 1500' FWL:   Surface Location
 PD  .                 GL:   Permanent Datum
 LMF .                 KB:   Log Measured From
 DMF .                 KB:   Drilling Measured From
 DAPD.F                10:   Feet Above Permanent Datum
 DD  .F              2972:   Depth driller
 DL  .F              2978:   Depth logger
 BLI .F              2976:   Bottom log interval
 TLI .F               120:   Top log interval
 CS1 .IN            8.625:   Casing size
 CBD1.      8.625" @ 205':   Casing driller 1
 CBL1.F               220:   Casing logger 1
 BS1 .IN            7.875:   Bit size
 BSD1.F              2972:   Depth drilled with bit1
 DFT .                KCL:   Type fluid in hole
 DFD .                9.2:   Density
 DFV .                 43:   Viscosity
 DFPH.                 10:   pH
 DFL .                  8:   Fluid loss
 MSS .            MUD PIT:   Source of sample
 RMS .OHMM            .21:   Rm
 MST .F                91:   Rm Meas. temp.
 RMF .OHMM            .18:   Rmf
 MFST.F                91:   Rmf Meas. temp.
 RMC .OHMM            .23:   Rmc
 MCST.F                91:   Rmc Meas. temp.
 MFSS.               MEAS:   Source Rmf.
 MCSS.               MEAS:   Source Rmc.
 RMB .OHMM            .17:   Rm. at BHT
 BHT .F               110:   BHT.
 TCS .HRS               3:   Time Circ. stopped
 MRT .F               110:   Maximum recorded temp.
 LUN .               9685:   Logging unit number
 LUL .             CASPER:   Logging unit location
 ENGI.   T JOYNER/ E HOCH:   Recorded By
 WITN.         PETTINGILL:   Witnessed by
 ORIG.     2.5", 5" PRINT:   Origin of data
 UWI .     49025104050000:   Unique Well ID
 DICO. A2D TECHNOLOGIES, INC.:   Digitizing Company
~OTHER INFORMATION
~A   DEPT      SPR       RILM       RILD       SGRD       CALD       RHOB       DCOR         GRD  
# ...
 2555.0000   -54.6580     5.9350     5.3940     8.2630     8.2200     2.5080     0.0200   135.1330
 2555.5000   -54.5820     5.7680     5.1980     8.2910     8.2200     2.5160     0.0230   134.4110
 2556.0000   -54.4950     5.6940     5.2080     8.3180     8.2200     2.5230     0.0250   133.5940
 2556.5000   -54.4280     5.6830     5.2250     8.3460     8.2200     2.5300     0.0270   133.4370
 2557.0000   -54.2150     5.6710     5.2420     8.3740     8.2200     2.5330     0.0270   134.2860
 2557.5000   -53.8880     5.6600     5.2590     8.4010     8.2200     2.5290     0.0250   135.0730
 2558.0000   -53.5850     5.6490     5.2760     8.4290     8.2200     2.5230     0.0230   135.9100
 2558.5000   -53.2800     5.6370     5.2930     8.4570     8.2200     2.5180     0.0210   136.3850
 2559.0000   -52.9660     5.6260     5.3100     8.4840     8.2200     2.5120     0.0200   135.0950
 2559.5000   -52.6090     5.6150     5.3260     8.5120     8.2200     2.5100     0.0220   133.6920
 2560.0000   -52.1630     5.5970     5.3430     8.5560     8.2200     2.5110     0.0240   132.3390
 2560.5000   -51.7350     5.6230     5.3600     8.4890     8.2200     2.5060     0.0260   130.9560
 2561.0000   -51.2300     5.7010     5.3770     8.3200     8.2200     2.5040     0.0280   131.9660
 2561.5000   -50.8570     5.5030     5.3940     8.1500     8.2200     2.5150     0.0300   133.1120
 2562.0000   -50.4100     5.2570     5.4900     7.9470     8.2200     2.5230     0.0320   134.5440
 2562.5000   -49.9860     5.0100     5.5860     8.0330     8.2200     2.5230     0.0290   133.8550
 2563.0000   -49.5480     5.5740     5.7010     8.1400     8.2200     2.5160     0.0260   132.1350
 2563.5000   -49.1180     6.1380     5.8670     8.2460     8.2200     2.5090     0.0230   130.6160
 2564.0000   -48.6830     6.7280     6.0750     9.7260     8.2200     2.5120     0.0200   129.0560
 2564.5000   -48.2490     7.3190     6.2830    11.2060     8.2200     2.5170     0.0200   127.5170
 2565.0000   -47.8270     7.9100     6.4910    13.5740     8.2200     2.5200     0.0230   126.0030
 2565.5000   -47.3640     8.5000     6.6990    13.4270     8.2200     2.5150     0.0250   123.7830
 2566.0000   -47.3240     9.0910     6.9060    13.0620     8.2210     2.5040     0.0280   124.7840
 2566.5000   -47.5900     9.6820     7.1140    12.8420     8.2280     2.5040     0.0310   126.4450
 2567.0000   -47.8170    10.0060     7.3600    13.2080     8.2360     2.5050     0.0330   125.1050
 2567.5000   -48.0460    10.1520     7.6060    13.5740     8.2440     2.5070     0.0360   123.7930
 2568.0000   -48.2820    10.2980     7.8020    13.3600     8.2510     2.5010     0.0390   124.9450
 2568.5000   -48.5130    10.4440     7.8480    13.1460     8.2590     2.4950     0.0390   126.6440
 2569.0000   -48.7440    10.5900     7.8870    12.9330     8.2660     2.4920     0.0370   127.1830
 2569.5000   -48.9790    10.8860     7.9260    12.7190     8.2740     2.4900     0.0340   127.6310
 2570.0000   -49.2100    11.4070     7.9640    12.3770     8.2820     2.4870     0.0320   128.0490
 2570.5000   -49.4370    11.9280     8.0030    12.5580     8.2890     2.4890     0.0290   128.5650
 2571.0000   -49.6900    11.2860     8.0410    13.0110     8.2980     2.4930     0.0300   129.2230
 2571.5000   -49.8720    12.4300     8.0800    13.4640     8.2950     2.4960     0.0350   129.8830
 2572.0000   -50.3270    13.5740     8.0960    13.8260     8.2840     2.4980     0.0380   130.5500
 2572.5000  -999.2500  -999.2500  -999.2500  -999.2500     8.2740     2.5010     0.0430   131.2140
 2573.0000  -999.2500  -999.2500  -999.2500  -999.2500     8.2640     2.5030     0.0410   131.8770
 2573.5000  -999.2500  -999.2500  -999.2500  -999.2500     8.2540     2.5020     0.0350   132.5410
 2574.0000  -999.2500  -999.2500  -999.2500  -999.2500     8.2440     2.5010     0.0300   133.2060
 2574.5000   -52.1830    11.4980     7.7640    13.3300     8.2340     2.5050     0.0240   133.8670
 2575.0000   -52.9760    10.6270     7.6210    12.7470     8.2240     2.5110     0.0200   134.5320
 2575.5000   -53.7040    10.3180     7.4780    12.1750     8.2200     2.5160     0.0220   134.9930
 2576.0000   -54.8210     9.5700     7.3350    11.2590     8.2200     2.5220     0.0230   135.3430
 2576.5000   -57.0040     8.8360     7.1930    10.7050     8.2200     2.5220     0.0240   135.6480
 2577.0000   -58.1230     7.7360     6.9500    10.7050     8.2200     2.5220     0.0260   135.9900
 2577.5000   -57.4620     7.7630     6.9650    10.7490     8.2200     2.5260     0.0270   136.4700
 2578.0000   -56.1240     7.0140     6.6880    10.2810     8.2200     2.5310     0.0290   137.4710
 2578.5000   -54.6530     6.9680     6.4270     9.2840     8.2200     2.5310     0.0300   137.9780
 2579.0000   -54.1800     6.9240     6.1660     8.6170     8.2200     2.5350     0.0310   138.5530
 2579.5000   -54.3080     6.8860     5.7290     8.1250     8.2200     2.5280     0.0320   138.6380
 2580.0000   -54.3820     6.5850     5.7870     8.0210     8.2200     2.5180     0.0290   136.2080
 2580.5000   -54.4620     6.1790     5.9440     7.7970     8.2200     2.5150     0.0270   134.1750
 2581.0000   -54.5510     6.0540     5.8010     7.3230     8.2200     2.5240     0.0240   131.9830
 2581.5000   -54.6290     6.2810     5.6710     7.4900     8.2200     2.5310     0.0220   129.6550
 2582.0000   -54.7120     6.7600     5.6250     8.0950     8.2200     2.5310     0.0190   128.3470
 2582.5000   -54.7960     6.7350     5.6250     8.9400     8.2200     2.5260     0.0160   128.7610
 2583.0000   -54.8770     6.6750     5.6860    10.3180     8.2200     2.5220     0.0130   128.8710
 2583.5000   -54.9540     6.5170     5.7450    10.1260     8.2200     2.5190     0.0140   129.1070
 2584.0000   -54.9610     6.1900     5.8050     9.6060     8.2200     2.5320     0.0190   126.3880
 2584.5000   -54.9600     5.8360     5.8650     9.0860     8.2200     2.5420     0.0240   122.2980
 2585.0000   -54.9470     6.3610     5.9250     8.5660     8.2200     2.5460     0.0300   119.6150
 2585.5000   -54.7980     7.0140     5.9910     7.4110     8.2200     2.5520     0.0310   117.5270
 2586.0000   -54.6710     7.0440     6.0600     7.9210     8.2200     2.5450     0.0270   115.4070
 2586.5000   -54.5370     7.0790     6.1280     9.2410     8.2200     2.5500     0.0240   113.2330
 2587.0000   -54.4030     7.1150     6.1970     9.2410     8.2200     2.5590     0.0210   111.1150
 2587.5000   -54.2720     7.1440     6.2650     9.2410     8.2200     2.5560     0.0170   109.3540
 2588.0000   -54.1800     7.8850     6.4250     9.7650     8.2200     2.5530     0.0170   108.0120
 2588.5000   -54.3040     8.4290     6.6120    14.5040     8.2200     2.5530     0.0200   106.2570
 2589.0000   -54.4050     8.1250     6.7990    19.2780     8.2200     2.5510     0.0220   109.2210
 2589.5000   -54.5230     7.5120     6.9860    15.9420     8.2200     2.5420     0.0240   111.9430
 2590.0000   -54.5670     7.5510     7.2760    11.7350     8.2200     2.5340     0.0260   115.0270
 2590.5000   -54.5620     8.0730     7.2620    11.5860     8.2200     2.5440     0.0280   116.7880
 2591.0000   -54.5640     8.5950     7.2290    11.2730     8.2200     2.5390     0.0240   117.2630
 2591.5000   -54.5630     8.9070     7.1960    10.8800     8.2200     2.5280     0.0210   117.9060
 2592.0000   -54.5640     8.9070     7.1630    10.4860     8.2200     2.5320     0.0250   118.5130
 2592.5000   -54.5660     9.4050     7.1300    10.0920     8.2200     2.5420     0.0300   119.1080
 2593.0000   -54.5550    10.5100     7.0970     9.6570     8.2200     2.5500     0.0350   119.7240
 2593.5000   -54.6660    10.3180     7.0640     9.8190     8.2200     2.5590     0.0390   120.3260
 2594.0000   -54.9460     7.9770     7.0310    10.1430     8.2200     2.5530     0.0330   120.9340
 2594.5000   -55.2120     8.5540     6.9980    10.4670     8.2200     2.5420     0.0260   121.5420
 2595.0000   -55.4830     9.0720     6.9660    10.7910     8.2200     2.5310     0.0190   122.1180
