~VERSION INFORMATION
 VERS.                2.0:   CWLS LOG ASCII STANDARD - VERSION 2.0
 WRAP.                 NO:   ONE LINE PER DEPTH STEP
~WELL INFORMATION
#MNEM.UNIT      DATA TYPE    INFORMATION
#----------   ------------   ------------------------------
 STRT.F          200.0000:   START DEPTH
 STOP.F         3014.0000:   STOP DEPTH
 STEP.F            0.5000:   STEP LENGTH
 NULL.          -999.2500:   NO VALUE
 COMP.    FENIX & SCISSON:   COMPANY
 WELL. FENIX NPR 3 "AX" #45-28:   WELL
 FLD .                NPR:   FIELD
 LOC .      S28 T39N R78W:   LOCATION
 CNTY.            NATRONA:   COUNTY
 STAT.            WYOMING:   STATE
 CTRY. UNITED STATES OF AMERICA:   COUNTRY
 SRVC.              WELEX:   SERVICE COMPANY
 DATE.        30-SEP-1977:   LOGDATE
 API .     49025104230000:   API NUMBER
~CURVE INFORMATION
#MNEM.UNIT       API CODE    CURVE DESCRIPTION
#----------   ------------   ------------------------------
 DEPT.F                  :   
 SPR .MV     07 010 01 00:   SPONTANEOUS POTENTIAL
 TENR.LBS    07 635 01 00:   TENSION
 SFL .OHMM   07 220 01 00:   SHALLOW FOCUSED LOG RESISTIVITY
 ILD .OHMM   07 120 46 00:   INDUCTION LOG DEEP RESISTIVITY
 ILM .OHMM   07 120 44 00:   INDUCTION LOG MEDIUM RESISTIVITY
 TEND.LBS    45 635 01 00:   TENSION FROM DENSITY LOG
 CALD.IN     45 280 60 00:   CALIPER FROM DENSITY LOG
 RHOB.G/C3   45 350 01 00:   BULK DENSITY
 CORR.G/C3   45 356 01 00:   DENSITY CORRECTION
 GRD .GAPI   45 310 01 00:   GAMMA RAY FROM DENSITY LOG
~PARAMETER INFORMATION
#MNEM.UNIT          VALUE    DESCRIPTION
#----------   ------------   ------------------------------
 EKB .F         5075.0000:   Kelly bushing
 EGL .F         5065.0000:   Ground level
 EDF .F            0.0000:   Drilling floor
 E TD.F         3008.0000:   Total depth
 DATE.        30-SEP-1977:   Date logged
 CLNT.            A2DTECH:   Client Code
 SL  . 2210' FSL & 2310' FWL:   Surface Location
 PD  .                 GL:   Permanent Datum
 EPD .F              5065:   Elevation Permanent Datum
 LMF .                 KB:   Log Measured From
 DMF .                 KB:   Drilling Measured From
 DAPD.F                10:   Feet Above Permanent Datum
 DD  .F              3005:   Depth driller
 DL  .F              3008:   Depth logger
 BLI .F              3006:   Bottom log interval
 TLI .F               200:   Top log interval
 CS1 .IN            8.625:   Casing size
 CBD1.      8.625" @ 205':   Casing driller 1
 CBL1.F               220:   Casing logger 1
 BS1 .IN            7.875:   Bit size
 BSD1.F              3005:   Depth drilled with bit1
 DFT .            KCL/MUD:   Type fluid in hole
 DFD .                9.1:   Density
 DFV .                 38:   Viscosity
 DFPH.                 11:   pH
 DFL .                6.8:   Fluid loss
 MSS .           FLOWLINE:   Source of sample
 RMS .OHMM            .31:   Rm
 MST .F                78:   Rm Meas. temp.
 RMF .OHMM            .15:   Rmf
 MFST.F                78:   Rmf Meas. temp.
 RMC .OHMM           1.02:   Rmc
 MCST.F                78:   Rmc Meas. temp.
 MFSS.               FANN:   Source Rmf.
 MCSS.                KIT:   Source Rmc.
 RMB .OHMM            .20:   Rm. at BHT
 BHT .F               117:   BHT.
 TCS .HRS               3:   Time Circ. stopped
 MRT .F               117:   Maximum recorded temp.
 LUN .               8611:   Logging unit number
 LUL .             CASPER:   Logging unit location
 ENGI.         G. BENTSEN:   Recorded By
 WITN.         HARRINGTON:   Witnessed by
 ORIG.           5" PRINT:   Origin of data
 UWI .     49025104230000:   Unique Well ID
 DICO. A2D TECHNOLOGIES, INC.:   Digitizing Company
~OTHER INFORMATION
~A   DEPT      SPR        TENR       SFL        ILD        ILM       TEND       CALD       RHOB       CORR        GRD   
# ...
  769.5000   -59.0150   472.8990    12.2030     9.9640    10.5310   641.8000    10.2620     2.4940     0.0120    89.9570
  770.0000   -58.9000   473.1210    13.2920     9.8890    10.3660   641.9460    10.2530     2.4910     0.0160    88.8290
  770.5000   -58.7820   473.3430    15.3750     9.8220    10.2180   642.0930    10.2440     2.4890     0.0200    88.2610
  771.0000   -58.6260   473.5650    14.9290     9.7540    10.0690   642.2390    10.2350     2.4860     0.0230    89.6450
  771.5000   -58.4490   473.7870    14.0110     9.6920     9.9210   642.3850    10.2260     2.4800     0.0270    90.9760
  772.0000   -58.2730   474.0090    12.0330     8.8320     9.7820   642.5320    10.2140     2.4550     0.0300    92.3000
  772.5000   -58.0960   474.2310    10.4340     7.8080     8.9870   642.6780    10.1970     2.4210     0.0340    93.6760
  773.0000   -57.9200   474.4530    11.0280     6.8250     8.2380   642.8250    10.1800     2.3840     0.0380    92.0050
  773.5000   -57.7440   474.6740    10.4070     5.2460     7.4890   642.9710    10.1630     2.3270     0.0410    88.6770
  774.0000   -57.5660   474.8960     8.4570     2.8400     6.7390   643.1130    10.1460     2.2670     0.0450    85.3280
  774.5000   -57.3780   475.1180     6.1970     2.9510     5.9980   643.2450    10.1290     2.2010     0.0490    81.9630
  775.0000   -57.6740   475.3400     4.7620     3.3530     5.8340   643.3780    10.1120     2.1360     0.0480    78.7220
  775.5000   -58.0600   475.5620     5.4540     4.3880     6.2760   643.5100    10.0970     2.0690     0.0430    78.4310
  776.0000   -58.4510   475.7840     6.6160     5.4240     7.0170   643.6430    10.1400     2.0450     0.0380    78.2140
  776.5000   -58.8420   476.0060     7.7780     6.4590     7.7580   643.7750    10.4540     2.0670     0.0290    79.9090
  777.0000   -59.2320   476.2280     8.9410     7.2280     8.4990   643.9070    10.5670     2.1230     0.0180    81.9860
  777.5000   -59.6220   476.4500     9.8390     8.1620     9.2400   644.0400    10.4580     2.2370     0.0090    84.0170
  778.0000   -60.0130   476.6720    10.2540     9.0950     9.6890   644.1720    10.8790     2.3890     0.0040    88.9530
  778.5000   -60.4030   476.8930    11.0110     9.6810    10.1690   644.3050    11.0190     2.3840     0.0010    90.6280
  779.0000   -60.7930   477.1150    12.4500    10.1430    10.6480   644.4370    10.6020     2.3780    -0.0010    91.3240
  779.5000   -61.1840   477.3370    14.0190    10.6050    11.1280   644.5690    10.3430     2.4510    -0.0030    91.9830
  780.0000   -61.5730   477.5590    13.4280    10.9270    11.6560   644.7020    10.2220     2.4810    -0.0030    92.6260
  780.5000   -61.9280   477.7810    12.7790    10.6330    11.3880   644.8340    10.1020     2.4790    -0.0020    93.2680
  781.0000   -62.0180   478.0030    12.1290    10.4060    11.0900   644.9660     9.9820     2.4760    -0.0010    93.8740
  781.5000   -62.1000   478.2250    11.6290    10.1800    10.7910   645.0990     9.8620     2.4740     0.0000    93.3460
  782.0000   -62.1820   478.4470    11.5310     9.9540    10.4930   645.2310     9.7390     2.4740     0.0000    89.2580
  782.5000   -62.2640   478.6690    11.4330     9.6030    10.1950   645.3640     9.7050     2.4880     0.0010    90.8200
  783.0000   -62.3260   478.8910    11.3380     9.6250    10.1310   645.4960     9.7000     2.4990     0.0020    93.6060
  783.5000   -62.2700   479.1130    11.1490     9.6740    10.1090   645.6280     9.6950     2.4940     0.0030    95.9530
  784.0000   -62.2150   479.3340    10.9680     9.7230    10.0870   645.7610     9.6910     2.4920     0.0040    92.8950
  784.5000   -62.1600   479.5560    10.7870     9.7820    10.0590   645.8930     9.6860     2.4980     0.0050    89.9180
  785.0000   -62.1040   479.7780    10.6060     9.5710    10.1490   646.0260     9.6810     2.5040     0.0050    89.2520
  785.5000   -62.0460   480.0000    10.4240     9.3100     9.9960   646.1580     9.6770     2.5000     0.0060    89.5470
  786.0000   -61.9880   480.2220    10.2430     9.0490     9.7370   646.2900     9.6720     2.4950     0.0070    92.0160
  786.5000   -61.9290   480.4440    10.0560     8.7880     9.4790   646.4230     9.6680     2.5040     0.0080    92.9610
  787.0000   -61.9900   480.6660    10.3800     8.5170     9.2210   646.5550     9.6740     2.5140     0.0090    90.1680
  787.5000   -62.0700   480.8880    10.7140     8.5530     9.0020   646.6880     9.6810     2.5260     0.0100    88.0210
  788.0000   -62.1510   481.1100    11.0480     8.5900     9.0850   646.8200     9.6880     2.5210     0.0100    85.8530
  788.5000   -62.2310   481.3320    11.3180     8.6260     9.1580   646.9520     9.6950     2.5130     0.0110    84.2400
  789.0000   -62.3110   481.5530    11.1630     8.6630     9.2310   647.0850     9.7020     2.5040     0.0120    85.6840
  789.5000   -62.3920   481.7750    11.0080     8.7000     9.3030   647.2170     9.7080     2.4960     0.0120    87.5220
  790.0000   -62.4720   481.9970    10.8540     8.7370     9.3760   647.3500     9.7150     2.4960     0.0100    88.9630
  790.5000   -62.5520   482.2190    10.6990     8.8070     9.4480   647.4820     9.7220     2.4990     0.0080    88.6680
  791.0000   -62.6330   482.4410    10.5450     8.9090     9.5210   647.6140     9.7240     2.4940     0.0060    88.3490
  791.5000   -62.7120   482.6630    10.3380     9.0110     9.5930   647.7470     9.7060     2.4890     0.0040    90.9820
  792.0000   -62.5330   482.8850    10.7840     9.1140     9.7880   647.8790     9.6890     2.4790     0.0020    95.9630
  792.5000   -62.3150   483.1070    11.5380     9.1700    10.0020   648.0120     9.6710     2.4690     0.0000    94.4480
  793.0000   -62.0960   483.3290    12.2910     9.4230    10.2160   648.1440     9.6530     2.4650    -0.0020    91.7790
  793.5000   -61.8780   483.5510    13.0210     9.6650    10.4300   648.2760     9.6360     2.4750    -0.0030    89.0990
  794.0000   -61.6590   483.7730    12.4440     9.9070    10.6440   648.4090     9.6260     2.4860    -0.0020    87.7370
  794.5000   -61.4410   483.9940    11.5490    10.1480    10.8580   648.5410     9.6220     2.4980    -0.0010    88.8110
  795.0000   -61.2210   484.2160    11.7170    10.3380    11.0670   648.6740     9.6180     2.4980     0.0010    89.8550
  795.5000   -61.2010   484.4380    12.1320    10.4910    11.2570   648.8060     9.6140     2.4960     0.0020    90.8910
  796.0000   -61.3090   484.6600    12.5470    10.6340    11.4470   648.9380     9.6100     2.4970     0.0030    92.7640
  796.5000   -61.4170   484.8820    13.1420    10.7780    11.6370   649.0710     9.6090     2.4980     0.0050    95.3880
  797.0000   -61.5260   485.1040    13.0480    10.9270    11.8730   649.2030     9.6170     2.4940     0.0060    93.9260
  797.5000   -61.6360   485.3260    12.8810    10.7790    11.8090   649.3360     9.6270     2.4930     0.0070    91.3270
  798.0000   -61.7450   485.5480    12.7140    10.6250    11.7230   649.4680     9.6360     2.5080     0.0090    87.5370
  798.5000   -61.8540   485.7700    12.5470    10.4710    11.6380   649.6000     9.6450     2.5220     0.0100    88.9100
  799.0000   -61.9640   485.9920    12.4340    10.3170    11.5520   649.7330     9.6690     2.5210     0.0110    91.7980
  799.5000   -62.0730   486.2130    12.9390    10.1490    11.4660   649.8650     9.6990     2.5200     0.0130    94.9590
  800.0000   -62.1510   486.4350    13.5110    10.3200    11.3380   649.9970     9.7290     2.5170     0.0140    95.3820
  800.5000   -62.1980   486.6570    13.4300    10.5080    11.4220   650.1300     9.7580     2.5120     0.0140    94.8350
  801.0000   -62.2450   486.8790    13.2670    10.6960    11.5910   650.2620     9.7880     2.5080     0.0140    92.4770
  801.5000   -62.2910   486.9480    13.1050    10.8830    11.7610   650.3950     9.8190     2.5040     0.0140    90.1900
  802.0000   -62.2930   486.9480    12.9420    11.1310    11.9840   650.5270     9.8300     2.5090     0.0140    87.4970
  802.5000   -62.1570   486.9480    12.7790    10.9970    11.8320   650.6590     9.8380     2.5150     0.0140    88.7410
