~VERSION INFORMATION
 VERS.                2.0:   CWLS LOG ASCII STANDARD - VERSION 2.0
 WRAP.                 NO:   ONE LINE PER DEPTH STEP
~WELL INFORMATION
#MNEM.UNIT      DATA TYPE    INFORMATION
#----------   ------------   ------------------------------
 STRT.F          200.0000:   START DEPTH
 STOP.F         3160.0000:   STOP DEPTH
 STEP.F            0.5000:   STEP LENGTH
 NULL.          -999.2500:   NO VALUE
 COMP.    FENIX & SCISSON:   COMPANY
 WELL. FENIX NPR 3 "AX" #72-3:   WELL
 FLD .             TEAPOT:   FIELD
 LOC .       S3 T38N R78W:   LOCATION
 CNTY.            NATRONA:   COUNTY
 STAT.            WYOMING:   STATE
 CTRY. UNITED STATES OF AMERICA:   COUNTRY
 SRVC.           BIRDWELL:   SERVICE COMPANY
 DATE.        10-JAN-1978:   LOGDATE
 API .     49025105530000:   API NUMBER
~CURVE INFORMATION
#MNEM.UNIT       API CODE    CURVE DESCRIPTION
#----------   ------------   ------------------------------
 DEPT.F                  :   
 CALD.IN     45 280 60 00:   CALIPER FROM DENSITY LOG
 GRD .GAPI   45 310 01 00:   GAMMA RAY FROM DENSITY LOG
 DEN .LBS    45 635 01 00:   BUCK DENSITY
 CORR.G/C3   45 356 01 00:   DENSITY CORRECTION
 SPR .MV     07 010 01 00:   SPONTANEOUS POTENTIAL
 ILD .OHMM   07 120 46 00:   DEEP INDUCTION RESISTIVITY
 ILM .OHMM   07 120 44 00:   INDUCTION LOG MEDIUM RESISTIVITY
~PARAMETER INFORMATION
#MNEM.UNIT          VALUE    DESCRIPTION
#----------   ------------   ------------------------------
 EKB .F         5164.0000:   Kelly bushing
 EGL .F         5153.0000:   Ground level
 TD  .F         3157.0000:   Total depth
 DATE.        10-JAN-1978:   Date logged
 CLNT.            A2DTECH:   Client Code
 SL  . 900' FNL & 900' FEL:   Surface Location
 PD  .                 GL:   Permanent Datum
 EPD .F              5153:   Elevation Permanent Datum
 LMF .                 KB:   Log Measured From
 DMF .                 KB:   Drilling Measured From
 DAPD.F                11:   Feet Above Permanent Datum
 DD  .F              3156:   Depth driller
 DL  .F              3157:   Depth logger
 BLI .F              3157:   Bottom log interval
 TLI .F               200:   Top log interval
 CS1 .IN            8.625:   Casing size
 CBD1.      8.625" @ 222':   Casing driller 1
 CBL1.F               220:   Casing logger 1
 BS1 .IN            7.875:   Bit size
 BSD1.F              3156:   Depth drilled with bit1
 DFT .                KCL:   Type fluid in hole
 DFD .                8.5:   Density
 DFV .                 36:   Viscosity
 DFPH.                 10:   pH
 DFL .                8.8:   Fluid loss
 MSS .           FLOWLINE:   Source of sample
 RMS .OHMM            1.4:   Rm
 MST .F                66:   Rm Meas. temp.
 RMF .OHMM            .85:   Rmf
 MFST.F                74:   Rmf Meas. temp.
 RMC .OHMM            1.4:   Rmc
 MCST.F                72:   Rmc Meas. temp.
 MFSS.               MEAS:   Source Rmf.
 MCSS.               MEAS:   Source Rmc.
 RMB .OHMM            .83:   Rm. at BHT
 BHT .F               112:   BHT.
 TCS .HRS               4:   Time Circ. stopped
 MRT .F               112:   Maximum recorded temp.
 LUN .               2958:   Logging unit number
 LUL .             CASPER:   Logging unit location
 ENGI.            POINTER:   Recorded By
 WITN.         HARRINGTON:   Witnessed by
 ORIG.           5" PRINT:   Origin of data
 UWI .     49025105530000:   Unique Well ID
 DICO. A2D TECHNOLOGIES, INC.:   Digitizing Company
~OTHER INFORMATION
~A   DEPT     CALD        GRD          DEN     CORR        SPR        ILD        ILM   
# ...
  973.5000    10.0240    87.1590     2.4845     0.0569   -46.5319    12.5355    13.4935
  974.0000    10.0243    88.3510     2.4845     0.0570   -46.3266    12.5385    13.4967
  974.5000    10.0246    89.7413     2.4855     0.0570   -46.5197    12.5403    13.4998
  975.0000    10.0249    89.7440     2.4865     0.0570   -46.5137    12.5444    13.5030
  975.5000    10.0252    89.3504     2.4875     0.0570   -46.5076    12.5474    13.5056
  976.0000    10.0255    87.5696     2.4865     0.0570   -46.5016    12.5504    13.6343
  976.5000    10.0258    85.9859     2.4715     0.0571   -46.4955    12.5534    13.7636
  977.0000    10.0261    85.9886     2.4665     0.0571   -46.2902    12.6724    13.8942
  977.5000    10.0264    85.9913     2.4685     0.0571   -45.6865    12.6754    14.0260
  978.0000    10.0267    86.5887     2.4706     0.0571   -45.4825    12.6784    14.1590
  978.5000    10.0270    88.1774     2.4686     0.0571   -45.0780    12.6814    14.2933
  979.0000    10.0273    88.1801     2.4756     0.0572   -45.0719    12.6844    14.2966
  979.5000    10.0276    87.3898     2.4796     0.0572   -45.0659    12.6874    14.4322
  980.0000    10.0279    86.0047     2.4806     0.0572   -45.0598    12.6904    14.4356
  980.5000    10.0282    85.4127     2.4756     0.0572   -45.0538    12.6934    14.4390
  981.0000    10.0285    85.2171     2.4786     0.0632   -45.0477    12.6964    14.4424
  981.5000    10.0288    85.6163     2.4766     0.0673   -45.2408    12.6995    14.1823
  982.0000    10.0291    87.4034     2.4766     0.0733   -45.4340    12.7025    14.1857
  982.5000    10.0294    89.1907     2.4796     0.0793   -45.6271    12.7055    14.1890
  983.0000    10.0297    90.5814     2.4747     0.0953   -46.0195    12.5920    14.1917
  983.5000    10.0300    92.1705     2.4707     0.1033   -46.0134    12.5944    14.0650
  984.0000    10.0303    92.9664     2.4667     0.1114   -46.0074    12.3677    13.9394
  984.5000    10.0306    92.7710     2.4687     0.1174   -46.0013    12.6004    13.8150
  985.0000    10.0309    90.7908     2.4697     0.1174   -46.1945    12.6034    13.8183
  985.5000    10.0312    89.0089     2.4707     0.1094   -46.1896    12.4909    13.8215
  986.0000    10.0315    88.8133     2.4777     0.1074   -46.1835    12.4938    13.8248
  986.5000    10.0317    88.0228     2.4947     0.1015   -45.9783    12.4968    13.8280
  987.0000    10.0320    88.4222     2.4997     0.0935   -46.1714    12.6153    13.7046
  987.5000    10.0323    89.2182     2.5067     0.0795   -46.1654    12.5027    13.7078
  988.0000    10.0326    89.4193     2.5118     0.0695   -45.9601    12.7380    13.7111
  988.5000    10.0329    88.6287     2.5158     0.0495   -45.9540    12.5086    13.7143
  989.0000    10.0332    85.6565     2.5158     0.0436   -45.9480    12.5116    13.7175
  989.5000    10.0335    83.0809     2.5148     0.0436   -45.3443    12.5146    13.7208
  990.0000    10.0338    81.6935     2.5078     0.0436   -45.1390    12.5175    13.7240
  990.5000    10.0341    82.6878     2.4968     0.0496   -45.1330    12.6350    13.6015
  991.0000    10.0344    87.2540     2.4888     0.0496   -45.1269    12.6388    13.7318
  991.5000    10.0150    88.0501     2.4858     0.0497   -44.9216    12.6416    13.6079
  992.0000    10.0152    87.8545     2.4838     0.0497   -44.9131    12.6440    13.2406
  992.5000    10.0155    87.8572     2.4808     0.0497   -44.9107    12.6476    13.2437
  993.0000    10.0158    86.6698     2.4779     0.0497   -45.3031    12.6506    13.1255
  993.5000    10.0161    84.8872     2.4779     0.0517   -45.8946    12.6542    13.0077
  994.0000    10.0164    82.9062     2.4779     0.0558   -46.4862    12.7737    12.8923
  994.5000    10.0167    82.3137     2.4719     0.0578   -47.2770    12.5436    12.8953
  995.0000    10.0170    83.7049     2.4629     0.0578   -47.4701    12.5466    12.8983
  995.5000    10.0173    84.8979     2.4609     0.0578   -47.4641    12.5502    12.9008
  996.0000    10.0176    87.0828     2.4639     0.0558   -47.4580    12.2114    13.0038
  996.5000    10.0179    87.8790     2.4679     0.0579   -47.4519    12.2142    13.0050
  997.0000    10.0182    87.2866     2.4699     0.0639   -47.4459    12.2171    12.7704
  997.5000    10.0185    86.4957     2.4699     0.0719   -47.4398    12.2195    12.6562
  998.0000    10.0188    86.3000     2.4660     0.0779   -47.2345    12.2224    12.6592
  998.5000    10.0190    86.3027     2.4610     0.0779   -47.4277    12.2253    12.5460
  999.0000    10.0193    86.3054     2.4660     0.0840   -47.2224    12.2270    12.4338
  999.5000    10.0196    86.3081     2.4760     0.0860   -47.2164    12.1209    12.4368
 1000.0000    10.0200    86.1124     2.4810     0.0880   -47.2115    12.1722    12.4397
 1000.5000    10.0203    86.1154     2.4838     0.0897   -47.0102    12.2238    12.5498
 1001.0000    10.0206    85.9210     2.4920     0.0880   -46.9950    12.2424    12.5627
 1001.5000    10.0210    85.9232     2.5000     0.0820   -46.9861    12.3599    12.6844
 1002.0000    10.0213    86.3237     2.5080     0.0761   -47.1764    12.2509    12.6888
 1002.5000    10.0217    87.9146     2.5130     0.0681   -46.9683    12.2552    12.6932
 1003.0000    10.0220    90.2991     2.5161     0.0581   -46.9594    12.3719    12.6977
 1003.5000    10.0222    92.2883     2.5211     0.0541   -46.9505    12.3771    12.7021
 1004.0000    10.0222    93.0855     2.5221     0.0521   -46.9416    12.3805    12.7066
 1004.5000    10.0222    93.0883     2.5221     0.0501   -47.1319    12.3857    12.7110
 1005.0000    10.0222    93.8855     2.5191     0.0501   -47.1230    12.3892    12.7155
 1005.5000    10.0223    94.0874     2.5131     0.0502   -47.3133    12.3927    12.7190
 1006.0000    10.0223    93.8926     2.5121     0.0502   -47.3044    12.3979    12.7235
 1006.5000    10.0223    93.3010     2.5011     0.0522   -47.2956    12.4013    12.6111
 1007.0000    10.0223    92.7094     2.4961     0.0522   -47.2884    12.4065    12.4998
 1007.5000    10.0223    92.3162     2.4942     0.0582   -47.2795    12.4100    12.2783
 1008.0000    10.0223    92.1213     2.4872     0.0622   -47.2706    12.4152    12.2791
 1008.5000    10.0223    92.3233     2.4832     0.0642   -47.2617    12.3058    12.2771
 1009.0000    10.0223    92.7236     2.4832     0.0643   -47.2528    12.1974    12.2750
 1009.5000    10.0223    92.7272     2.4832     0.0663   -47.2439    12.0899    12.2730
 1010.0000    10.0223    92.5324     2.4842     0.0723   -47.2350    12.3187    12.2709
 1010.5000    10.0223    92.1392     2.4812     0.0723   -47.2261    12.2102    12.2689
 1011.0000    10.0224    92.1428     2.4812     0.0783   -47.0179    12.2144    12.2668
 1011.5000    10.0224    92.5431     2.4842     0.0803   -46.6103    12.2187    12.2648
 1012.0000    10.0224    92.9434     2.4872     0.0823   -46.4020    12.2230    12.2627
 1012.5000    10.0224    93.3437     2.4873     0.0924   -45.5958    12.2272    12.2607
 1013.0000    10.0224    93.5457     2.4873     0.0964   -45.1881    12.2315    12.2586
 1013.5000    10.0224    93.5492     2.4853     0.1024   -45.1792    12.1229    12.2566
 1014.0000    10.0224    93.5528     2.4853     0.1124   -45.1720    12.2392    12.2545
 1014.5000    10.0224    93.5564     2.4793     0.1304   -45.1631    12.1314    12.2525
 1015.0000    10.0224    93.5599     2.4723     0.1404   -44.9547    12.1356    12.2504
 1015.5000    10.0224    93.7618     2.4743     0.1404   -44.9458    12.2520    12.2484
 1016.0000    10.0225    93.9637     2.4823     0.1404   -45.3355    12.1441    12.2463
 1016.5000    10.0225    93.5706     2.4873     0.1384   -45.7253    12.1483    12.2443
 1017.0000    10.0225    92.9791     2.4853     0.1305   -45.7164    12.1526    12.2422
 1017.5000    10.0225    90.8008     2.4824     0.1205   -45.9068    12.1568    12.2402
 1018.0000    10.0225    89.6143     2.4904     0.1105   -45.8979    12.1611    12.2381
 1018.5000    10.0225    88.6245     2.5014     0.0945   -46.0883    12.1653    12.2361
