~VERSION INFORMATION
 VERS.                2.0:   CWLS LOG ASCII STANDARD - VERSION 2.0
 WRAP.                 NO:   ONE LINE PER DEPTH STEP
~WELL INFORMATION
#MNEM.UNIT      DATA TYPE    INFORMATION
#----------   ------------   ------------------------------
 STRT.F           57.0000:   START DEPTH
 STOP.F         5817.0000:   STOP DEPTH
 STEP.F            0.5000:   STEP LENGTH
 NULL.          -999.2500:   NO VALUE
 COMP. DEPARTMENT OF ENERGY:   COMPANY
 WELL. DEPARTMENT NPR 371 "X" #1-4:   WELL
 FLD .              NPR-3:   FIELD
 LOC .       S4 T38N R78W:   LOCATION
 CNTY.            NATRONA:   COUNTY
 STAT.            WYOMING:   STATE
 CTRY. UNITED STATES OF AMERICA:   COUNTRY
 SRVC.       SCHLUMBERGER:   SERVICE COMPANY
 DATE.        25-AUG-2002:   LOGDATE
 API .     49025230480000:   API NUMBER
~CURVE INFORMATION
#MNEM.UNIT       API CODE    CURVE DESCRIPTION
#----------   ------------   ------------------------------
 DEPT.F                  :   
 HCAL.IN     07 280 01 00:   HRLT CALIPER
 RLA1.OHMM   06 120 01 00:   HRLT RESISTIVITY 1
 RLA2.OHMM   06 120 02 00:   HRLT RESISTIVITY 2
 RLA3.OHMM   06 120 03 00:   HRLT RESISTIVITY 3
 RXOZ.OHMM   06 270 04 00:   STAN RES. MICROCFL RESISTIVITY
 TENR.LBS    06 635 01 00:   TENSION FROM RESITIVITY
 GRR .GAPI   07 310 01 00:   GAMMA RAY FROM RESISTIVITY
 SPHI.DEC    60 890 22 00:   SONIC POROSITY SANDSTONE
 DT  .US/F   60 520 00 00:   DELTA TIME
 TENS.LBS    60 635 01 00:   TENSION FROM SONIC
 RT  .OHMM   06 120 00 00:   HRLT TRUE RESISTIVITY
~PARAMETER INFORMATION
#MNEM.UNIT          VALUE    DESCRIPTION
#----------   ------------   ------------------------------
 EKB .F         5196.0000:   Kelly bushing
 EGL .F         5186.0000:   Ground level
 EDF .F         5194.0000:   Drilling floor
 TD  .F         5803.0000:   Total depth
 CLNT.            A2DTECH:   Client Code
 SL  . 794' FEL & 333' FNL:   Surface Location
 PD  .                 GL:   Permanent Datum
 EPD .F              5186:   Elevation Permanent Datum
 LMF .                 KB:   Log Measured From
 DMF .                 KB:   Drilling Measured From
 DAPD.F                10:   Feet Above Permanent Datum
 DATE.        25-AUG-2002:   Date Logged [DD-MMM-YYYY]
 DD  .F              5800:   Depth driller
 DL  .F              5803:   Depth logger
 BLI .F              5803:   Bottom log interval
 TLI .F               656:   Top log interval
 CS1 .IN            9.625:   Casing size
 CBD1.      9.625" @ 660':   Casing driller 1
 CBL1.F               656:   Casing logger 1
 BS1 .IN            8.750:   Bit size
 BSD1.F              5800:   Depth drilled with bit1
 DFT .           GEL CHEM:   Type fluid in hole
 DFD .                  9:   Density
 DFV .                 36:   Viscosity
 DFPH.                8.5:   pH
 DFL .                7.6:   Fluid loss
 MSS .           FLOWLINE:   Source of sample
 RMS .OHMM          0.846:   Rm
 MST .F                90:   Rm Meas. temp.
 RMF .OHMM          0.670:   Rmf
 MFST.F                90:   Rmf Meas. temp.
 MFSS.               MEAS:   Source Rmf.
 RMC .OHMM          1.075:   Rmc
 MCST.F                90:   Rmc Meas. temp.
 MCSS.               CALC:   Source Rmc.
 TCS .HRS            0300:   Time Circ. stopped
 TLAB.HRS            0915:   Time logger at bottom
 MRT .F               156:   Maximum recorded temp.
 LUN .               2211:   Logging unit number
 LUL .             CASPER:   Logging unit location
 ENGI.        J.L. FLORES:   Recorded By
 WITN.        STEVE HARDY:   Witnessed by
 ORIG.        2" 5" PRINT:   Origin of data
 UWI .     49025230480000:   Unique Well ID
 DICO. A2D TECHNOLOGIES, INC.:   Digitizing Company
~OTHER INFORMATION
~A   DEPT     HCAL       RLA1       RLA2       RLA3       RXOZ       TENR         GRR      SPHI         DT       TENS         RT   
# ...
 5760.5000     8.7840  1818.0883  1661.1772  1881.0043   352.5457  2926.1194    73.6965     0.0261    54.8521  2446.6245   885.7502
 5761.0000     8.7837  2148.4907  3042.9272  3183.2483   561.3560  2926.9614    76.8607     0.0258    54.7757  2446.7617   776.7499
 5761.5000     8.7834  2401.6807  3082.8650  3435.7603   906.3183  2977.3633    75.7269     0.0255    54.6241  2446.9329   996.3702
 5762.0000     8.7831  2647.7244  3165.5864  3557.4890  1093.2788  2978.2554    68.2576     0.0240    54.4723  2447.0588  1935.2650
 5762.5000     8.7828  2838.9343  3366.3083  3582.8601  1116.4454  2978.8557    67.3501     0.0216    54.1697  2447.2097  2003.4474
 5763.0000     8.7825  3065.3262  4167.8457  3633.5813  1164.0668  3029.3784    67.3475     0.0181    53.7162  2447.3604  1744.8328
 5763.5000     8.7822  4132.2231  4716.2920  6681.7783  1197.0128  3030.0994    67.7968     0.0134    52.7342  2447.5112  1697.3221
 5764.0000     8.7819  3573.4922  4711.8926  5544.1006  1188.8579  3030.9211    68.2467     0.0113    52.7335  2447.6865  1769.3865
 5764.5000     8.7816  5345.4028  5597.3086  4568.5498  1189.0569  3031.6069    68.0173     0.0122    53.0346  2447.8130  1685.8877
 5765.0000     8.7736  6186.1787  7026.6367  6639.8271  1197.5139  3032.3384    69.5984     0.0164    53.5622  2447.9639  1745.3202
 5765.5000     8.7635  6274.5352  5783.5513  6780.1616  1206.0057  2983.2271    71.7449     0.0212    54.0143  2448.1316  2046.3085
 5766.0000     8.7534  3971.9365  4320.8423  5434.7524  1125.3038  2984.0840    71.8551     0.0261    54.9946  2448.2686  1832.1226
 5766.5000     8.7452  2479.3904  2635.9414  4636.1045  1021.2520  2935.0186    71.6263     0.0345    56.2015  2448.4163  1651.7200
 5767.0000     8.7298  2116.4600   921.8129  2477.3655   482.6598  2935.8752    74.7905     0.0427    57.4082  2448.5671  1244.0826
 5767.5000     8.7142   912.1082   428.8667  1038.3907   231.3061  2936.5669    80.8966     0.0451    57.4829  2448.7180   807.1936
 5768.0000     8.7137   249.9908   229.0442   243.3076   202.7583  2937.4187    88.8122     0.0425    56.8785  2448.8689   235.0628
 5768.5000     8.7132  1027.7799  2203.6140  1833.2107  1367.6360  2938.1045    96.0492     0.0330    55.0663  2449.0222   997.3394
 5769.0000     8.7204 10514.3477  6158.1641  7591.8062  1661.2501  2938.8057    97.6303     0.0249    53.4052  2449.1936  1964.1030
 5769.5000     8.7388  2163.7688 10112.7139 12145.3662   277.2072  2889.8010    98.0796     0.0119    52.8008  2449.3213  1833.0134
 5770.0000     8.7571  1642.0874 12370.5791  8926.3154   228.2749  2890.5818    98.0716     0.0188    54.3094  2449.5020   619.0499
 5770.5000     8.7567   236.9689   256.4375  4577.3203   215.9769  2841.6873    98.0623     0.0305    55.6672  2449.6389   266.3079
 5771.0000     8.7714   372.1263   337.8536   266.5493   213.0218  2842.2886    98.0531     0.0442    57.0250  2449.7737   866.9982
 5771.5000     8.7709  1010.6815  1116.9301  1027.8057   562.9908  2793.1360    98.0438     0.0436    56.7222  2449.9470  1542.4447
 5772.0000     8.7554  6308.9478  1909.6274  2803.8923   890.2456  2794.0298    98.0346     0.0375    57.0506  2450.0754  1699.3511
 5772.5000     8.7549  9155.1240  3063.9141  7440.1865   854.0405  2794.8503    98.0253     0.0430    57.7773  2450.2554  1821.1453
 5773.0000     8.7544 11306.9883  7899.3579 11668.6387   743.4568  2795.5361    98.0160     0.0511    58.0030  2450.3926  1898.3884
 5773.5000     8.7540 10850.1709 11953.6924 11833.8262   728.2126  2846.1440    98.0068     0.0384    56.1154  2450.5278  1821.3901
 5774.0000     8.7535  7412.4697 11616.5020 11044.6895   954.7491  2846.8298    97.9975     0.0303    53.6241  2450.6790  1784.1256
 5774.5000     8.7380  4776.6562  9301.6387  7870.2827  1097.0824  2847.5159    97.9883     0.0088    51.5102  2435.7205  1759.7314
 5775.0000     8.7376  2428.7012  4815.6460  3728.3516   961.6804  2848.3733    97.9790     0.0007    51.5848  2451.0090  1501.0969
 5775.5000     8.7371  1919.4062  2903.1201  1671.0952   848.8434  2898.8096    97.9697     0.0025    52.2634  2436.0630  1400.9097
 5776.0000     8.7367  1475.2682  1534.6335  1496.2290   831.4384  2899.5027    97.9605     0.0149    53.9984  2436.1992  1107.4778
 5776.5000     8.7362  1455.4890  1598.1993  1475.8936   955.4086  2900.3530    97.9512     0.0239    55.9599  2451.4329  1178.6733
 5777.0000     8.7508  1507.5964  1734.9558  1649.1516   968.9054  2950.7893    97.9420     0.0408    56.5695  2451.5913  1316.6580
 5777.5000     8.7504  1561.4727  1775.9999  1743.3464   916.7067  2929.0513    97.9327     0.0405    56.5622  2451.7346  1203.5286
 5778.0000     8.7499  1583.8729  1831.0211  1805.1134   879.4070  2952.3325    97.9234     0.0387    56.6370  2451.8997  1500.6913
 5778.5000     8.7495  1595.5905  1854.8064  1818.0433  1244.4530  3002.7695    97.9123     0.0390    56.6361  2452.0366  1873.7299
 5779.0000     8.7641  1596.2843  1852.8286  1793.3896  1470.2317  3003.6265    97.8718     0.0411    56.6354  2452.2078  1810.2244
 5779.5000     8.7485  -999.2500  -999.2500  -999.2500  1129.5260  3004.3123    97.8313     0.0411    56.6347  2452.3450  -999.2500
 5780.0000     8.7481  -999.2500  -999.2500  -999.2500   580.4053  2955.2468    97.7908     0.0375    56.0301  2452.5161  -999.2500
 5780.5000     8.7325  -999.2500  -999.2500  -999.2500   109.7015  2956.1035    97.7504     0.0320    55.3502  2452.6531  -999.2500
 5781.0000     8.7170  -999.2500  -999.2500  -999.2500    55.1886  3006.5408    97.7099     0.0296    55.5758  2452.7903  -999.2500
 5781.5000     8.7166  -999.2500  -999.2500  -999.2500    46.7272  3007.2266    97.6694     0.0366    58.5184  2452.9414  -999.2500
 5782.0000     8.7010  -999.2500  -999.2500  -999.2500    41.5318  3008.0833    97.6289     0.0668    60.2535  2453.0920  -999.2500
 5782.5000     8.6855  -999.2500  -999.2500  -999.2500    36.9148  3008.7690    97.5884     0.0824    63.7880  2453.2468  -999.2500
 5783.0000     8.7153  -999.2500  -999.2500  -999.2500    34.2064  2984.9465    97.5479     0.1021    65.9124  2453.4067  -999.2500
 5783.5000     8.7449  -999.2500  -999.2500  -999.2500    32.8152  2960.3896    97.5074     0.1105    66.5909  2453.5444  -999.2500
 5784.0000     8.7596  -999.2500  -999.2500  -999.2500    32.5917  2911.3242    97.4669     0.1120    66.5146  2453.6953  -999.2500
 5784.5000     8.7893  -999.2500  -999.2500  -999.2500    52.6231  2912.1890    97.4264     0.1099    65.9101  2453.8521  -999.2500
 5785.0000     8.8039  -999.2500  -999.2500  -999.2500    84.3732  2913.0383    97.3859     0.1030    64.9738  2454.0232  -999.2500
 5785.5000     8.7281  -999.2500  -999.2500  -999.2500    66.6471  2913.7236    97.3662     0.0930    62.8897  2454.1604  -999.2500
 5786.0000     8.6371  -999.2500  -999.2500  -999.2500    55.6486  2964.1790    97.3662     0.0824    61.9834  2454.2988  -999.2500
 5786.5000     8.6970  -999.2500  -999.2500  -999.2500    79.8494  2965.0181    97.3662     0.0788    61.9070  2454.4497  -999.2500
 5787.0000     8.7871  -999.2500  -999.2500  -999.2500   108.3840  2965.7031    97.3662     0.0773    61.8309  2454.6057  -999.2500
 5787.5000     8.8469  -999.2500  -999.2500  -999.2500   146.0950  2966.5608    97.3662     0.0764    61.7547  2454.7512  -999.2500
 5788.0000     8.8615  -999.2500  -999.2500  -999.2500   286.4758  2967.2466    97.3662     0.0743    60.9237  2454.9021  -999.2500
 5788.5000     8.8460  -999.2500  -999.2500  -999.2500   857.8549  2967.9324    97.3662     0.0628    59.6400  2455.0530  -999.2500
 5789.0000     8.7852  -999.2500  -999.2500  -999.2500  1101.4982  2962.9529    97.3662     0.0540    57.6014  2455.2222  -999.2500
 5789.5000     8.7546  -999.2500  -999.2500  -999.2500  1301.3407  2919.5520    97.3662     0.0374    54.7328  2455.3591  -999.2500
 5790.0000     8.7542  -999.2500  -999.2500  -999.2500  1474.7294  2920.4097    97.3662     0.0205    52.5751  2455.5076  -999.2500
 5790.5000     8.7537  -999.2500  -999.2500  -999.2500  1385.6003  2921.2664    97.3662     0.0030    50.3539  2455.6675  -999.2500
