~VERSION INFORMATION
 VERS.                2.0:   CWLS LOG ASCII STANDARD - VERSION 2.0
 WRAP.                 NO:   ONE LINE PER DEPTH STEP
~WELL INFORMATION
#MNEM.UNIT      DATA TYPE    INFORMATION
#----------   ------------   ------------------------------
 STRT.F          330.0000:   START DEPTH
 STOP.F         2880.0000:   STOP DEPTH
 STEP.F            0.5000:   STEP LENGTH
 NULL.          -999.2500:   NO VALUE
 COMP.   TESORO PETROLEUM:   COMPANY
 WELL. TESORO NPR "AX" #3-21:   WELL
 FLD .        TEAPOT DOME:   FIELD
 LOC .      S21 T39N R78W:   LOCATION
 CNTY.            NATRONA:   COUNTY
 STAT.            WYOMING:   STATE
 CTRY. UNITED STATES OF AMERICA:   COUNTRY
 SRVC.       SCHLUMBERGER:   SERVICE COMPANY
 DATE.        17-AUG-1972:   LOGDATE
 API .     49025102150000:   API NUMBER
~CURVE INFORMATION
#MNEM.UNIT       API CODE    CURVE DESCRIPTION
#----------   ------------   ------------------------------
 DEPT.F                  :   
 GRD .GAPI   45 310 01 00:   GAMMA RAY FROM DENSITY LOG
 CALD.IN     45 280 60 00:   CALIPER FROM DENSITY LOG
 CORR.G/C3   45 356 01 00:   DENSITY CORRECTION
 RHOB.G/C3   45 350 01 00:   BULK DENSITY
 SPR .MV     05 010 01 00:   SPONTANEOUS POTENTIAL FROM RES.
 ILD .OHMM   05 120 46 00:   INDUCTION LOG DEEP
 ASN .OHMM   05 041 16 00:   AMPLIFIED SHORT NORMAL 16"
~PARAMETER INFORMATION
#MNEM.UNIT          VALUE    DESCRIPTION
#----------   ------------   ------------------------------
 EKB .F         4985.0000:   Kelly bushing
 EGL .F         4975.0000:   Ground level
 EDF .F            0.0000:   Drilling floor
 EPD .F         4975.0000:   Permanent datum
 TD  .F         2880.0000:   Total depth
 CLNT.            A2DTECH:   Client Code
 DATE.        17-AUG-1972:   Date Logged [DD-MMM-YYYY]
 DD  .F              2875:   Depth driller
 DL  .F              2880:   Depth logger
 BLI .F              2879:   Bottom log interval
 TLI .F               330:   Top log interval
 CS1 .              10.75:   Casing size
 CBD1.       10.75" @ 327:   Casing driller 1
 CBL1.IN              330:   Casing logger 1
 BS1 .IN                9:   Bit size
 BSD1.F              2875:   Depth drilled with bit1
 DFT .           CHEM-GEL:   Type fluid in hole
 DFD .                9.3:   Density
 DFV .                 61:   Viscosity
 DFPH.                9.0:   pH
 DFL .                 66:   Fluid loss
 MSS .           FLOWLINE:   Source of sample
 RMS .OHMM           1.86:   Rm
 MST .F                76:   Rm Meas. temp.
 RMF .OHMM           1.58:   Rmf
 MFST.F                76:   Rmf Meas. temp.
 MFSS.               MEAS:   Source Rmf.
 RMB .OHMM           1.25:   Rm. at BHT
 BHT .F               113:   BHT.
 TCS .HRS               3:   Time Circ. stopped
 MRT .F               113:   Maximum recorded temp.
 LUN .               7037:   Logging unit number
 LUL .               CSPR:   Logging unit location
 ENGI.              GOLAS:   Recorded By
 WITN.                MAY:   Witnessed by
 ORIG.      1" 2.5" PRINT:   Origin of data
 UWI .     49025102150000:   Unique Well ID
 DICO. A2D TECHNOLOGIES, INC.:   Digitizing Company
~OTHER INFORMATION
~A   DEPT      GRD       CALD       CORR       RHOB        SPR          ILD        ASN 
# ...
 2286.5000   127.5985     9.5761    -0.0008     2.4985   -15.2487     5.7306     7.9500
 2287.0000   131.2999     9.6071    -0.0023     2.5015   -15.4799     5.7298     7.9209
 2287.5000   134.5398     9.6072    -0.0069     2.5019   -15.4799     5.7291     7.8918
 2288.0000   134.6710     9.6074    -0.0038     2.5124   -15.4799     5.5740     7.8456
 2288.5000   131.3273     9.6075     0.0039     2.5108   -15.7895     5.5733     7.8037
 2289.0000   128.5671     9.6077     0.0117     2.5193   -15.7895     5.5725     7.7747
 2289.5000   126.7301     9.6078     0.0210     2.5386   -15.7895     5.5717     7.7755
 2290.0000   126.6617     9.6080     0.0218     2.5226   -15.7895     5.7253     7.8061
 2290.5000   127.2099     9.6081    -0.0021     2.5048   -15.7895     5.7245     7.8367
 2291.0000   126.7574     9.6083     0.0195     2.5256   -15.7895     5.8838     7.8673
 2291.5000   125.8435     9.6085     0.0260     2.5357   -15.7895     6.0427     7.9277
 2292.0000   127.6988     9.6087     0.0180     2.5342   -15.7895     6.3395     8.0777
 2292.5000   131.4002     9.6088     0.0150     2.5337   -15.4799     6.5150     8.3172
 2293.0000   133.2555     9.5781     0.0119     2.5327   -15.4799     6.6738     8.4971
 2293.5000   133.2646     9.5474     0.0073     2.5354   -15.4799     6.9872     8.8261
 2294.0000   128.9541     9.5167     0.0154     2.5459   -15.1703     7.3004     9.3940
 2294.5000   117.8907     9.5168     0.0324     2.5656   -15.1703     7.5703     9.7828
 2295.0000   112.8695     9.4861     0.0398     2.5769   -15.1703     7.7727     9.9338
 2295.5000   110.6364     9.4863     0.0293     2.5443   -15.1703     7.9315    10.0231
 2296.0000   111.2802     9.4864     0.0013     2.5260   -14.8607     8.0906     9.9940
 2296.5000   114.3006     9.5175     0.0047     2.5283   -14.6045     8.1844     9.9914
 2297.0000   118.1829     9.5176     0.0094     2.5369   -14.6214     8.1836     9.9230
 2297.5000   118.6655     9.5178     0.0112     2.5447   -14.6368     8.1829     9.7821
 2298.0000   119.1476     9.5488     0.0122     2.5533   -14.6522     8.1821     9.7581
 2298.5000   119.6299     9.5489     0.0103     2.5608   -14.6677     8.1813     9.7590
 2299.0000   120.8358     9.5491     0.0092     2.5546   -14.6831     8.1804     9.7597
 2299.5000   123.5061     9.5492     0.0092     2.5423   -14.6985     8.1796     9.7694
 2300.0000   125.0754     9.5802     0.0062     2.5239   -14.7139     8.0246     9.7910
 2300.5000   123.6999     9.5804     0.0000     2.5239   -14.7294     8.0238     9.7915
 2301.0000   124.8108     9.5806     0.0007     2.5270   -14.7448     8.0230     9.7920
 2301.5000   124.7275     9.5807     0.0038     2.5286   -14.7602     7.8680     9.7496
 2302.0000   122.2063     9.5844     0.0041     2.5256   -14.7756     7.5586     9.7610
 2302.5000   124.1224     9.6119     0.0003     2.5253   -14.7910     7.4035     9.8828
 2303.0000   126.7244     9.6120    -0.0021     2.5256   -14.8065     7.6352     9.9430
 2303.5000   127.9838     9.5494    -0.0052     2.5241   -14.8219     7.4020     9.9434
 2304.0000   126.5175     9.5494    -0.0075     2.5180   -14.8373     7.4012     9.8843
 2304.5000   124.2167     9.5494    -0.0042     2.5161   -14.8539     7.2462     9.6758
 2305.0000   123.5158     9.5494     0.0030     2.5257   -14.8510     7.0909     9.4971
 2305.5000   131.6150     9.5567     0.0173     2.5328   -14.8480     7.0901     9.3042
 2306.0000   133.0065     9.5802     0.0286     2.5439   -14.8451     7.0894     9.1732
 2306.5000   131.1672     9.5802     0.0278     2.5520   -14.8422     7.0886     9.1440
 2307.0000   129.3279     9.5802     0.0128     2.5330   -14.8392     7.0879     9.1448
 2307.5000   127.0270     9.5802     0.0008     2.5171   -14.8363     7.0871     9.1465
 2308.0000   121.9570     9.5494    -0.0030     2.5194   -14.8333     7.2406     9.2370
 2308.5000   118.7277     9.5802     0.0048     2.5244   -14.8304     7.2399     9.3616
 2309.0000   116.8816     9.5802     0.0052     2.5215   -14.8274     7.2391     9.4761
 2309.5000   117.5550     9.5802     0.0063     2.5158   -14.8244     7.3927     9.4768
 2310.0000   125.2152     9.5802     0.0036     2.5137   -15.1191     7.3919     9.4100
 2310.5000   122.2929     9.5802    -0.0014     2.5189   -15.1161     7.3912     9.3589
 2311.0000   119.1801     9.5802     0.0015     2.5173   -15.1131     7.3904     9.4547
 2311.5000   118.1965     9.5802     0.0193     2.5311   -15.1101     7.5440     9.5754
 2312.0000   116.8677     9.5494     0.0310     2.5622   -15.1072     7.5432     9.6434
 2312.5000   116.0187     9.5494     0.0126     2.5566   -15.1041     7.6968     9.6604
 2313.0000   119.1395     9.5494     0.0231     2.5478   -15.1012     7.6960     9.6014
 2313.5000   122.0324     9.5494     0.0409     2.5629   -15.0982     7.6952     9.5635
 2314.0000   121.1161     9.5494     0.0456     2.5627   -15.0953     7.6945     9.5133
 2314.5000   121.5845     9.5494     0.0481     2.5617   -15.0923     7.6937     9.5543
 2315.0000   121.8388     9.5185     0.0373     2.5557   -15.0893     7.6723     9.6154
 2315.5000   122.5213     9.5185     0.0261     2.5363   -15.0863     7.5378     9.6351
 2316.0000   121.9264     9.5185     0.0168     2.5319   -15.0833     7.3827     9.5689
 2316.5000   121.6120     9.5185     0.0158     2.5529   -15.0803     7.3819     9.4743
 2317.0000   120.9986     9.5185     0.0324     2.5746   -15.0774     7.2268     9.4720
 2317.5000   123.0571     9.5185     0.0337     2.5496   -15.0744     7.0718     9.4888
 2318.0000   125.5783     9.5185     0.0227     2.5281   -15.0714     6.8714     9.2645
 2318.5000   128.8532     9.5185     0.0158     2.5219   -15.0685     6.7616     8.8247
 2319.0000   132.5889     9.5185     0.0127     2.5297   -15.0655     6.6065     8.5286
 2319.5000   134.5285     9.5494     0.0236     2.5467   -14.7649     6.5482     8.3873
 2320.0000   133.6921     9.5494     0.0272     2.5390   -14.7619     6.4506     8.4179
 2320.5000   130.4759     9.5494     0.0233     2.5252   -14.7589     6.2955     8.5082
 2321.0000   127.2138     9.5494     0.0171     2.5298   -14.7559     6.2947     8.5687
 2321.5000   130.0392     9.5494     0.0281     2.5483   -14.7530     6.2199     8.5093
 2322.0000   133.4799     9.5494     0.0456     2.5622   -14.7500     6.1389     8.1789
 2322.5000   132.5116     9.5494     0.0544     2.5684   -14.7471     6.1381     7.9993
 2323.0000   131.8569     9.5494     0.0605     2.5746   -14.7440     5.9830     7.7591
 2323.5000   131.4023     9.5185     0.0714     2.5746   -14.7405     5.8280     7.5758
 2324.0000   133.2567     9.5185     0.0775     2.5716   -14.7375     5.8270     7.4054
 2324.5000   137.8789     9.5185     0.0930     2.5963   -14.7346     5.8263     7.4481
 2325.0000   137.4242     9.5185     0.1038     2.6040   -14.4340     5.9799     7.6094
 2325.5000   132.8157     9.5185     0.0976     2.5933   -14.4311     6.2877     7.9228
 2326.0000   130.5148     9.5185     0.0560     2.5671   -14.4281     6.5956     8.2860
 2326.5000   130.9832     9.5185     0.0467     2.5563   -14.1315     6.7492     8.6121
 2327.0000   130.5285     9.5185     0.0483     2.5502   -14.1384     7.0570     8.9370
 2327.5000   127.7662     9.5185     0.0560     2.5441   -14.1454     7.2106     9.1410
 2328.0000   123.6192     9.4877     0.0622     2.5549   -14.1523     7.2098     9.3229
 2328.5000   121.7799     9.4877     0.0714     2.5518   -14.1592     7.3634     9.3858
 2329.0000   120.4021     9.4877     0.0699     2.5472   -14.1662     7.3626     9.3760
 2329.5000   118.5628     9.4791     0.0776     2.5565   -14.1731     7.3618     9.3051
 2330.0000   119.9543     9.4568     0.0779     2.5750   -14.1800     7.2068     9.2149
 2330.5000   122.7304     9.4469     0.0745     2.5782   -14.1870     7.2060     9.1500
 2331.0000   122.2757     9.4153     0.0699     2.5441   -14.1939     7.2052     9.1641
 2331.5000   119.0518     9.3951     0.0807     2.5348   -14.2009     7.2045     9.2691
