~VERSION INFORMATION
 VERS.                2.0:   CWLS LOG ASCII STANDARD - VERSION 2.0
 WRAP.                 NO:   ONE LINE PER DEPTH STEP
~WELL INFORMATION
#MNEM.UNIT      DATA TYPE    INFORMATION
#----------   ------------   ------------------------------
 STRT.F            5.0000:   START DEPTH
 STOP.F         4012.0000:   STOP DEPTH
 STEP.F            0.5000:   STEP LENGTH
 NULL.          -999.2500:   NO VALUE
 COMP.   LAWRENCE ALLISON:   COMPANY
 WELL. LAWRENCE "X" 51 #1-15:   WELL
 FLD .                NPR:   FIELD
 LOC .      S15 T38N R78W:   LOCATION
 CNTY.            NATRONA:   COUNTY
 STAT.            WYOMING:   STATE
 CTRY. UNITED STATES OF AMERICA:   COUNTRY
 SRVC.      DRESSER ATLAS:   SERVICE COMPANY
 DATE.        03-JUN-1985:   LOGDATE
 API .     49025110270000:   API NUMBER
~CURVE INFORMATION
#MNEM.UNIT       API CODE    CURVE DESCRIPTION
#----------   ------------   ------------------------------
 DEPT.F                  :   
 NPHI.DEC    42 890 03 00:   NEUTRON POROSITY SANDSTONE
 RHOB.G/C3   45 350 01 00:   BULK DENSITY
 CORR.G/C3   45 356 01 00:   DENSITY CORRECTION
 TEND.LBS    45 635 01 00:   TENSION FROM DENSITY LOG
 CALD.IN     45 280 60 00:   CALIPER FROM DENSITY LOG
 GRR .GAPI   07 310 01 00:   GAMMA RAY FROM RESISTIVITY
 SPR .MV     07 010 01 00:   SPONTANEOUS POTENTIAL
 RSFL.OHMM   07 220 01 00:   SPHERICALLY FOCUSED LOG RES.
 RILD.OHMM   07 120 46 00:   DEEP INDUCTION RESISTIVITY
 RILM.OHMM   07 120 44 00:   INDUCTION LOG MEDIUM RESISTIVITY
 TENR.LBS    07 635 01 00:   TENSION
~PARAMETER INFORMATION
#MNEM.UNIT          VALUE    DESCRIPTION
#----------   ------------   ------------------------------
 EKB .F         5235.0000:   Kelly bushing
 EGL .F         5222.0000:   Ground level
 EDF .F            0.0000:   Drilling floor
 TD  .F         4010.0000:   Total depth
 DATE.        03-JUN-1985:   Date logged
 CLNT.            A2DTECH:   Client Code
 SL  . 202' FNL & 2478' FEL:   Surface Location
 PD  .                 GL:   Permanent Datum
 EPD .F              5222:   Elevation Permanent Datum
 LMF .                 KB:   Log Measured From
 DMF .                 KB:   Drilling Measured From
 DAPD.F                13:   Feet Above Permanent Datum
 DD  .F              4010:   Depth driller
 DL  .F              4005:   Depth logger
 BLI .F              4003:   Bottom log interval
 CS1 .IN            8.625:   Casing size
 CBD1.      8.625" @ 605':   Casing driller 1
 CBL1.F               608:   Casing logger 1
 BS1 .IN            7.875:   Bit size
 BSD1.F              4010:   Depth drilled with bit1
 DFT .            KCL/GEL:   Type fluid in hole
 DFD .                  9:   Density
 DFV .                 45:   Viscosity
 DFPH.                  8:   pH
 DFL .                9.8:   Fluid loss
 MSS .           FLOWLINE:   Source of sample
 RMS .OHMM            .40:   Rm
 MST .F                65:   Rm Meas. temp.
 RMF .OHMM            .32:   Rmf
 MFST.F                65:   Rmf Meas. temp.
 RMC .OHMM            .50:   Rmc
 MCST.F                65:   Rmc Meas. temp.
 MFSS.               MEAS:   Source Rmf.
 MCSS.               CALC:   Source Rmc.
 RMB .OHMM            .20:   Rm. at BHT
 BHT .F               130:   BHT.
 TCS .HRS               3:   Time Circ. stopped
 MRT .F               130:   Maximum recorded temp.
 LUN .               6274:   Logging unit number
 LUL .               GLTE:   Logging unit location
 ENGI.             RAUTIO:   Recorded By
 WITN.             STRONG:   Witnessed by
 ORIG.     2.5", 5" PRINT:   Origin of data
 UWI .     49025110270000:   Unique Well ID
 DICO. A2D TECHNOLOGIES, INC.:   Digitizing Company
~OTHER INFORMATION
~A    DEPT    NPHI       RHOB       CORR       TEND       CALD        GRR        SPR       RSFL       RILD       RILM       TENR   
# ...
 3756.5000     0.2550     2.5440     0.0380     6.3620     8.4220   128.7640   -83.9160     3.6360     2.4270     2.6250   -53.1660
 3757.0000     0.2400     2.5460     0.0520     2.4640     8.4210   128.1080   -83.9880     3.9720     2.3670     2.5610   -54.4990
 3757.5000     0.2390     2.5420     0.0550    -1.4350     8.4200   126.9000   -83.6920     4.0460     2.3080     2.4980   -55.8320
 3758.0000     0.2380     2.5350     0.0410    -5.3330     8.4220   127.5240   -83.4000     3.7450     2.2480     2.4340   -57.1650
 3758.5000     0.2430     2.5280     0.0230    -9.2320     8.4240   129.5020   -83.1080     3.4860     2.1890     2.3700   -58.4970
 3759.0000     0.2530     2.5130     0.0330   -13.1300     8.4250   131.4950   -82.8160     3.2270     2.1290     2.3060   -59.8300
 3759.5000     0.2640     2.4960     0.0850   -17.0280     8.4270   133.4540   -82.5250     3.0070     2.0700     2.2430   -61.1630
 3760.0000     0.2610     2.4680     0.1360   -20.9270     8.4290   133.6920   -82.2330     2.9860     2.0090     2.2030   -62.4960
 3760.5000     0.2560     2.4150     0.1850   -24.8250     8.4300   130.8120   -81.9390     3.0040     2.0050     2.2030   -63.8280
 3761.0000     0.2510     2.4230     0.1520   -28.7240     8.4320   128.0480   -81.6610     3.0350     2.0010     2.2030   -65.1610
 3761.5000     0.2460     2.4690     0.1120   -32.6220     8.4340   127.2390   -81.8080     3.0540     1.9960     2.2030   -66.4940
 3762.0000     0.2410     2.5080     0.0710   -36.5210     8.4360   127.4480   -81.9760     3.0760     1.9920     2.2030   -67.8270
 3762.5000     0.2440     2.5490     0.0340   -40.4190     8.4370   129.1900   -82.1440     3.0980     1.9910     2.2030   -69.1590
 3763.0000     0.2480     2.5780     0.0430   -36.1940     8.4390   132.1350   -82.3090     3.0980     2.0190     2.2030   -70.4920
 3763.5000     0.2460     2.5690     0.0670   -31.9690     8.4410   135.4280   -82.4110     3.0090     2.0400     2.2420   -71.8250
 3764.0000     0.2450     2.5540     0.0970   -27.7450     8.4420   134.8760   -82.2290     2.8630     2.0600     2.2910   -73.1580
 3764.5000     0.2560     2.5460     0.1340   -23.5200     8.4440   126.7280   -82.0530     2.7480     2.0810     2.3390   -74.4900
 3765.0000     0.2660     2.5580     0.1200   -19.2950     8.4460   118.2630   -81.8770     3.0680     2.1640     2.3880   -74.7280
 3765.5000     0.2700     2.5880     0.0620   -15.0700     8.4480   115.4540   -81.7010     3.3840     2.2920     2.4600   -73.4890
 3766.0000     0.2710     2.5960     0.0770   -10.8450     8.4490   118.1770   -81.5250     3.6900     2.4210     2.5650   -72.2490
 3766.5000     0.2790     2.5370     0.1670    -6.6200     8.4510   120.0820   -81.3500     3.2700     2.5490     2.7200   -71.0100
 3767.0000     0.2870     2.5060     0.2200    -2.3950     8.4530   117.0030   -81.2320     2.9310     2.6730     2.9420   -69.7700
 3767.5000     0.2860     2.5300     0.1540    -0.7120     8.4540   112.2970   -81.1930     3.0190     2.6940     3.1550   -68.5310
 3768.0000     0.2860     2.6170     0.0960    -1.0990     8.4560   109.3640   -81.1530     4.3070     2.6980     3.1550   -67.2910
 3768.5000     0.2860     2.6710     0.0290    -1.4860     8.4580   113.0280   -81.1130     5.7420     2.6980     3.0120   -66.0520
 3769.0000     0.2900     2.6470     0.0630    -1.8730     8.4590   119.1650   -81.0730     5.8480     2.7440     2.9120   -64.8120
 3769.5000     0.2960     2.5420     0.1380    -2.2600     8.4620   121.0210   -81.0380     4.8600     2.8150     2.8380   -63.5730
 3770.0000     0.2890     2.5200     0.1290    -2.6470     8.4640   121.6410   -81.0080     3.9210     2.7780     2.7990   -62.3330
 3770.5000     0.2790     2.5120     0.1170    -3.0340     8.4660   121.6030   -80.9780     3.0410     2.7460     2.8780   -61.0940
 3771.0000     0.2790     2.5070     0.1040    -3.4210     8.4680   120.2950   -80.9470     3.0410     2.7230     2.9530   -59.8540
 3771.5000     0.2910     2.4990     0.0940    -3.8080     8.4710   117.3560   -80.9170     3.0690     2.7640     3.0270   -58.6150
 3772.0000     0.2990     2.4900     0.0750    -4.1950     8.4730   117.2240   -80.8880     3.1770     2.8450     3.1020   -57.3750
 3772.5000     0.2960     2.4960     0.0490    -4.5820     8.4750   118.2780   -80.8520     3.3990     3.0100     3.2020   -56.1360
 3773.0000     0.2800     2.5090     0.0250    -4.9690     8.4780   118.7170   -81.1290     3.6600     3.1760     3.3720   -55.0000
 3773.5000     0.2760     2.5270     0.0010    -5.3560     8.4800   118.4130   -81.5220     4.2350     3.3420     3.5410   -55.7450
 3774.0000     0.2730     2.5230    -0.0020    -5.7430     8.4820   119.8390   -81.9210     4.8510     3.5070     3.7110   -56.4330
 3774.5000     0.2890     2.5110    -0.0040    -6.1300     8.4850   123.9650   -82.3200     5.2850     3.6730     3.8640   -57.1210
 3775.0000     0.3000     2.4990    -0.0040    -6.5170     8.4870   127.9350   -82.7180     5.0330     3.8170     4.0070   -57.8080
 3775.5000     0.3030     2.4880    -0.0030    -6.9050     8.4890   130.8240   -83.1170     4.8020     3.9590     4.1380   -58.4960
 3776.0000     0.3050     2.4800     0.0090    -7.2920     8.4910   130.1710   -83.5150     4.5720     4.1000     4.2680   -59.1840
 3776.5000     0.3080     2.4770     0.0270    -7.6790     8.4940   125.0130   -83.9300     4.2760     4.1980     4.3990   -59.8710
 3777.0000     0.3120     2.4920     0.0330    -8.0660     8.4960   119.7780   -84.0480     4.4210     4.1800     4.4990   -60.5590
 3777.5000     0.3150     2.5190     0.0100    -8.4530     8.4980   116.4580   -84.0790     4.9850     4.1640     4.5610   -61.2470
 3778.0000     0.3290     2.5570    -0.0150    -8.8400     8.5010   120.8370   -84.1070     6.7270     4.1480     4.6030   -61.9340
 3778.5000     0.3370     2.5470    -0.0150    -9.2270     8.5030   130.6540   -84.1370     8.5320     4.1330     4.4350   -62.6220
 3779.0000     0.3290     2.5230     0.0140    -9.6140     8.5050   140.3920   -84.1660     7.8530     4.1170     4.2760   -63.3100
 3779.5000     0.3170     2.4950     0.0230   -10.0010     8.5070   147.3670   -84.1960     6.5530     4.1010     4.2370   -63.9970
 3780.0000     0.3100     2.4820     0.0330   -10.3880     8.5100   146.8020   -84.2260     5.1580     4.0850     4.2760   -64.6850
 3780.5000     0.3060     2.4970     0.0410   -10.7750     8.5120   139.2010   -84.1610     4.1220     4.0690     4.4540   -65.0000
 3781.0000     0.3020     2.5490     0.0500   -11.1620     8.5140   131.6250   -84.0730     3.9360     4.0460     4.6440   -65.0000
 3781.5000     0.2960     2.5720     0.0390   -11.5490     8.5170   125.0240   -83.9850     4.7390     4.1090     4.8340   -65.0000
 3782.0000     0.2980     2.5850     0.0280   -11.9360     8.5190   125.7280   -83.8960     5.7630     4.3280     5.0230   -65.0000
 3782.5000     0.3020     2.5560     0.0150   -12.3230     8.5210   133.4810   -83.8080     7.0310     4.6320     5.2130   -65.0000
 3783.0000     0.3070     2.5350     0.0030   -12.7100     8.5230   136.5140   -83.7200     6.8430     4.9350     5.3790   -65.0000
 3783.5000     0.3120     2.5260    -0.0020   -13.0970     8.5260   139.3500   -83.6320     6.5070     5.1880     5.4330   -65.0000
 3784.0000     0.3170     2.5260     0.0110   -13.4840     8.5280   140.5520   -83.5440     6.2950     5.0970     5.4330   -65.0000
 3784.5000     0.3220     2.5270     0.0230   -13.8710     8.5300   141.2160   -83.4560     6.7570     5.0180     5.3830   -65.0000
 3785.0000     0.3270     2.5300     0.0350   -14.2580     8.5330   141.4930   -83.3680     6.9670     5.0010     5.2480   -65.0000
 3785.5000     0.3370     2.5330     0.0380   -14.6450     8.5350   141.7480   -83.2790     6.5780     5.0010     5.1140   -65.0000
 3786.0000     0.3710     2.5350     0.0350   -15.0320     8.5370   143.0250   -83.1910     6.2960     4.8460     4.9790   -65.0000
 3786.5000     0.3610     2.5380     0.0330   -15.4190     8.5390   144.2760   -83.1030     6.0120     4.6880     4.8450   -65.0000
