~VERSION INFORMATION
 VERS.                2.0:   CWLS LOG ASCII STANDARD - VERSION 2.0
 WRAP.                 NO:   ONE LINE PER DEPTH STEP
~WELL INFORMATION
#MNEM.UNIT      DATA TYPE    INFORMATION
#----------   ------------   ------------------------------
 STRT.F          712.0000:   START DEPTH
 STOP.F         3352.0000:   STOP DEPTH
 STEP.F            0.5000:   STEP LENGTH
 NULL.          -999.2500:   NO VALUE
 COMP.    FENIX & SCISSON:   COMPANY
 WELL. FENIX & SCISSON "AX" #24-14:   WELL
 FLD .              NPR 3:   FIELD
 LOC .      S14 T38N R78W:   LOCATION
 CNTY.            NATRONA:   COUNTY
 STAT.            WYOMING:   STATE
 CTRY. UNITED STATES OF AMERICA:   COUNTRY
 SRVC.       SCHLUMBERGER:   SERVICE COMPANY
 DATE.        19-JUN-1981:   LOGDATE
 API .     49025108750000:   API NUMBER
~CURVE INFORMATION
#MNEM.UNIT       API CODE    CURVE DESCRIPTION
#----------   ------------   ------------------------------
 DEPT.F                  :   
 TENR.LBS    07 635 01 00:   TENSION
 ILD .OHMM   07 120 46 00:   DEEP INDUCTION RESISTIVITY
 SFL .OHMM   07 220 01 00:   SHALLOW FOCUSED LOG RESISTIVITY
 ILM .OHMM   07 120 44 00:   INDUCTION LOG MEDIUM RESISTIVITY
 SPR .MV     07 010 01 00:   SPONTANEOUS POTENTIAL
 TEND.LBS    45 635 01 00:   TENSION FROM DENSITY LOG
 DRHO.G/C3   45 356 01 00:   DENSITY CORRECTION
 CALD.IN     45 280 60 00:   CALIPER FROM DENSITY LOG
 GRD .GAPI   45 310 01 00:   GAMMA RAY FROM DENSITY LOG
 RHOB.G/C3   45 350 01 00:   BULK DENSITY
~PARAMETER INFORMATION
#MNEM.UNIT          VALUE    DESCRIPTION
#----------   ------------   ------------------------------
 EKB .F         5216.0000:   Kelly bushing
 EGL .F         5206.0000:   Ground level
 EDF .F         5215.0000:   Drilling floor
 EPD .F            0.0000:   Permanent datum
 TD  .F         3360.0000:   Total depth
 DATE.        19-JUN-1981:   Date logged
 CLNT.            A2DTECH:   Client Code
 SL  . 2413' FNL & 827' FWL:   Surface Location
 PD  .                 GL:   Permanent Datum
 DAPD.F                10:   Feet Above Permanent Datum
 DD  .F              3360:   Depth driller
 DL  .F              3348:   Depth logger
 BLI .F              3342:   Bottom log interval
 TLI .F               728:   Top log interval
 CS1 .IN            8.625:   Casing size
 CBD1.      8.625" @ 728':   Casing driller 1
 CBL1.F               728:   Casing logger 1
 BS1 .IN            7.875:   Bit size
 BSD1.F              3360:   Depth drilled with bit1
 DFT .                FGM:   Type fluid in hole
 DFD .                  9:   Density
 DFV .                 45:   Viscosity
 DFPH.                9.5:   pH
 DFL .                 10:   Fluid loss
 MSS .               TANK:   Source of sample
 RMS .OHMM           5.71:   Rm
 MST .F                68:   Rm Meas. temp.
 RMF .OHMM           1.27:   Rmf
 MFST.F                68:   Rmf Meas. temp.
 MFSS.               MEAS:   Source Rmf.
 RMB .OHMM           3.29:   Rm. at BHT
 BHT .F               118:   BHT.
 TCS .HRS            0800:   Time Circ. stopped
 TLAB.HRS            1130:   Time logger at bottom
 MRT .F               118:   Maximum recorded temp.
 LUN .               8039:   Logging unit number
 LUL .               CSPR:   Logging unit location
 ENGI.           G. PFARR:   Recorded By
 WITN.           R. SCOTT:   Witnessed by
 ORIG.           5" PRINT:   Origin of data
 UWI .     49025108750000:   Unique Well ID
 DICO. A2D TECHNOLOGIES, INC.:   Digitizing Company
~OTHER INFORMATION
~A   DEPT     TENR        ILD        SFL        ILM        SPR       TEND       DRHO       CALD         GRD      RHOB   
# ...
 2253.0000  1159.1360    11.1520    14.1030     9.9980   -45.9220  1200.3970     0.0100     8.3060   138.1130     2.4470
 2253.5000  1159.1360    10.7840    13.3100     9.5510   -45.8390  1200.3970     0.0120     8.3060   137.8070     2.4510
 2254.0000  1159.1360    10.4170    13.0670     9.1040   -45.4910  1200.3970     0.0130     8.3060   136.3910     2.4660
 2254.5000  1159.8770    10.0500    12.5130     8.6570   -45.1950  1200.3970     0.0130     8.3060   135.1800     2.4710
 2255.0000  1160.6760     9.5240    11.6890     8.5440   -44.7980  1200.3970     0.0100     8.3060   134.7940     2.4630
 2255.5000  1161.4740     9.6270    11.0080     8.5440   -44.6850  1200.3970     0.0070     8.3070   135.3270     2.4440
 2256.0000  1162.2729     9.8090    11.4780     8.5440   -44.3350  1201.1710     0.0030     8.3070   136.7150     2.4280
 2256.5000  1163.0710     9.9900    11.8790     8.7460   -44.4720  1201.8910     0.0010     8.3070   140.6270     2.4210
 2257.0000  1163.8700    10.1720    12.2700     8.9500   -44.8050  1202.6110     0.0000     8.3070   141.2590     2.4190
 2257.5000  1164.6680    10.3530    13.6350     9.1860   -44.7340  1203.3300     0.0010     8.3080   142.5050     2.4180
 2258.0000  1165.4659    10.5350    14.9680     9.3670   -44.9190  1204.0500     0.0030     8.3080   142.1670     2.4180
 2258.5000  1166.2650    10.8100    16.3010     9.5440   -45.1580  1204.7700     0.0030     8.3080   141.6660     2.4200
 2259.0000  1167.0630    10.6990    17.3050     9.6180   -45.1340  1205.4900     0.0020     8.3080   140.9810     2.4260
 2259.5000  1167.8621    10.4680    16.8800     9.6980   -45.3240  1206.2100     0.0010     8.3090   139.0760     2.4320
 2260.0000  1168.6600    10.2370    15.9320     9.2790   -45.5670  1206.9301     0.0000     8.3090   137.2950     2.4380
 2260.5000  1169.4590    10.0050    14.4520     8.8160   -45.5320  1207.6500    -0.0010     8.3090   130.9550     2.4430
 2261.0000  1170.2570     9.7740    12.9720     8.3540   -45.4400  1208.3700     0.0000     8.3090   130.2760     2.4490
 2261.5000  1171.0551     9.5430    11.4930     8.0930   -45.3330  1209.0900     0.0000     8.3100   133.0130     2.4550
 2262.0000  1171.8540     9.3530     9.9950     8.1290   -45.2260  1209.8101     0.0010     8.3100   137.3550     2.4570
 2262.5000  1172.6520     9.2290    10.5120     8.1930   -45.0010  1210.5300     0.0010     8.3100   139.9070     2.4480
 2263.0000  1173.4510     9.1230    11.5460     8.2570   -44.6050  1211.2500     0.0030     8.3100   140.3010     2.4390
 2263.5000  1174.2490     9.0210    12.5800     8.3210   -44.2180  1211.9700     0.0060     8.3110   140.1600     2.4400
 2264.0000  1175.0480     9.1410    13.4320     8.3840   -43.7940  1212.6899     0.0080     8.3110   139.1590     2.4420
 2264.5000  1175.8459     9.2570    13.0740     8.4480   -43.6300  1213.4100     0.0080     8.3110   136.1830     2.4460
 2265.0000  1176.6440     9.3730    12.6520     8.5440   -43.7530  1214.1300     0.0060     8.3110   132.8720     2.4490
 2265.5000  1177.4430     9.4890    12.2700     8.5300   -43.8410  1214.8500     0.0040     8.3120   129.5800     2.4480
 2266.0000  1178.2410     9.5240    12.3950     8.5000   -43.9630  1215.5699     0.0010     8.3120   126.5390     2.4470
 2266.5000  1179.0400     9.5240    12.4940     8.4700   -43.7680  1216.2900     0.0040     8.3120   123.8640     2.4560
 2267.0000  1179.8380     9.5240    12.2840     8.4400   -43.2390  1217.0100     0.0070     8.3120   122.3460     2.4680
 2267.5000  1180.6370     9.5630    12.0980     8.3910   -43.2520  1217.7300     0.0100     8.3120   121.0870     2.4770
 2268.0000  1181.4351     9.6340    11.8340     8.4400   -43.4860  1218.4500     0.0120     8.3130   120.7080     2.4790
 2268.5000  1182.2330     9.7050    12.0610     8.5740   -43.8840  1219.1700     0.0080     8.3130   121.2210     2.4710
 2269.0000  1183.0320     9.7760    12.4520     8.7070   -44.3080  1219.8890     0.0040     8.3130   120.6890     2.4610
 2269.5000  1183.8300     9.8470    12.8420     8.8400   -44.4410  1220.6090    -0.0010     8.3130   119.8600     2.4600
 2270.0000  1184.6290     9.9190    13.2320     8.9740   -44.4870  1221.3290     0.0000     8.3140   120.3090     2.4590
 2270.5000  1185.4270     9.9900    13.6770     9.0210   -44.5310  1222.0490     0.0020     8.3140   126.5040     2.4550
 2271.0000  1186.2260    10.0560    13.3980     9.0210   -44.5910  1222.7690     0.0040     8.3140   133.5410     2.4490
 2271.5000  1187.0240    10.1180    13.0730     9.0210   -44.6390  1223.4890     0.0060     8.3140   136.0760     2.4510
 2272.0000  1187.8220    10.1760    12.7490     9.0210   -44.6900  1224.2090     0.0080     8.3150   135.4450     2.4560
 2272.5000  1188.6210    10.2390    12.2700     9.0210   -44.7500  1224.9290     0.0060     8.3150   134.7500     2.4610
 2273.0000  1189.4189    10.0850    12.4070     9.0210   -44.7170  1225.6490     0.0090     8.3150   135.8850     2.4600
 2273.5000  1190.2180     9.9180    12.6670     9.0210   -44.5980  1226.3690     0.0160     8.3150   137.1230     2.4610
 2274.0000  1191.0160     9.7510    12.9270     8.9060   -44.4930  1227.0890     0.0230     8.3160   136.5470     2.4670
 2274.5000  1191.8149     9.5830    13.1910     8.7000   -44.3790  1227.8090     0.0270     8.3160   134.0320     2.4740
 2275.0000  1192.6130     9.4160    13.0430     8.4940   -44.2730  1228.5291     0.0290     8.3160   129.7250     2.4800
 2275.5000  1193.4110     9.2490    12.8740     8.2880   -44.1690  1229.2490     0.0310     8.3160   126.6210     2.4860
 2276.0000  1194.2100     9.1120    12.3800     8.0820   -44.0240  1229.9690     0.0270     8.3170   125.4210     2.4920
 2276.5000  1195.0081     8.9940    10.8830     7.8050   -44.1980  1230.6890     0.0230     8.3170   128.1340     2.4920
 2277.0000  1195.8070     8.8590     9.1860     7.8640   -44.3650  1231.4091     0.0180     8.3170   130.9800     2.4790
 2277.5000  1196.6050     8.9510    10.0340     7.9530   -44.2820  1232.1290     0.0130     8.3170   129.6140     2.4650
 2278.0000  1197.4041     9.0580    11.0130     8.0420   -44.2230  1232.8490     0.0070     8.3170   123.4200     2.4540
 2278.5000  1198.2020     9.1650    11.9930     8.1320   -44.1720  1233.5690     0.0080     8.3180   114.2470     2.4540
 2279.0000  1198.4280     9.2710    12.6850     8.2210   -44.1080  1234.2889     0.0120     8.3180   109.2000     2.4580
 2279.5000  1198.4280     9.3780    12.9550     8.3110   -44.0540  1235.0090     0.0160     8.3180   104.9800     2.4590
 2280.0000  1198.4280     9.4840    13.0920     8.4000   -43.9960  1235.7280     0.0130     8.3180   107.5410     2.4480
 2280.5000  1198.4280     9.5910    13.1910     8.5440   -43.9910  1236.4480     0.0070     8.3190   115.6350     2.4340
 2281.0000  1198.4280     9.6980    12.7240     8.5360   -43.9930  1237.1680     0.0060     8.3190   126.3700     2.4340
 2281.5000  1198.4280     9.6400    12.3250     8.5160   -43.9900  1237.8879     0.0090     8.3190   131.8610     2.4490
 2282.0000  1198.4280     9.5820    11.9260     8.4950   -43.9890  1238.6080     0.0120     8.3190   133.4960     2.4530
 2282.5000  1198.4280     9.5230    11.6800     8.4750   -44.0070  1239.3280     0.0080     8.3200   134.7400     2.4490
 2283.0000  1198.4280     9.4650    11.9260     8.4550   -43.9560  1240.0790     0.0040     8.3200   137.5120     2.4460
 2283.5000  1198.4280     9.4070    12.1720     8.4340   -44.3100  1239.7531     0.0040     8.3200   136.0650     2.4480
 2284.0000  1198.4280     9.3530    12.4190     8.4140   -44.5240  1239.3230     0.0050     8.3200   131.3770     2.4480
 2284.5000  1198.4280     9.1760    12.4940     8.3910   -44.7040  1238.8920     0.0050     8.3210   124.7900     2.4460
 2285.0000  1198.4280     9.0130    12.2130     8.1910   -44.7550  1238.4620     0.0070     8.3210   121.6510     2.4460
 2285.5000  1198.4280     8.8500    11.6640     7.9700   -44.8060  1238.0320     0.0100     8.3210   118.9270     2.4620
 2286.0000  1198.4280     8.6880    11.1290     7.7490   -44.4430  1237.6021     0.0140     8.3210   115.6430     2.4790
