~VERSION INFORMATION
 VERS.                2.0:   CWLS LOG ASCII STANDARD - VERSION 2.0
 WRAP.                 NO:   ONE LINE PER DEPTH STEP
~WELL INFORMATION
#MNEM.UNIT      DATA TYPE    INFORMATION
#----------   ------------   ------------------------------
 STRT.F           29.5000:   START DEPTH
 STOP.F         2719.5000:   STOP DEPTH
 STEP.F            0.5000:   STEP LENGTH
 NULL.          -999.2500:   NO VALUE
 COMP.          INTEX OIL:   COMPANY
 WELL. INTEX NPR 3 "AX" #82-20:   WELL
 FLD .             TEAPOT:   FIELD
 LOC .      S20 T39N R78W:   LOCATION
 CNTY.            NATRONA:   COUNTY
 STAT.            WYOMING:   STATE
 CTRY. UNITED STATES OF AMERICA:   COUNTRY
 SRVC.       SCHLUMBERGER:   SERVICE COMPANY
 DATE.        19-MAY-1956:   LOGDATE
 API .     49025095270000:   API NUMBER
~CURVE INFORMATION
#MNEM.UNIT       API CODE    CURVE DESCRIPTION
#----------   ------------   ------------------------------
 DEPT.F                  :   
 CALD.IN     45 280 60 00:   CALIPER FROM DENSITY LOG
 GRD .GAPI   45 310 01 00:   GAMMA RAY FROM DENSITY LOG
 CORR.G/C3   45 356 01 00:   DENSITY CORRECTION
 RHOB.G/C3   45 350 01 00:   BULK DENSITY
 SPR .MV     05 010 01 00:   SPONTANEOUS POTENTIAL
 ILD .OHMM   05 120 46 00:   DEEP INDUCTION RESISTIVITY
 SN  .OHMM   05 040 00 00:   SHORT NORMAL
~PARAMETER INFORMATION
#MNEM.UNIT          VALUE    DESCRIPTION
#----------   ------------   ------------------------------
 EKB .F         5014.3000:   Kelly bushing
 EGL .F         5004.0000:   Ground level
 EDF .F            0.0000:   Drilling floor
 TD  .F         2717.0000:   Total depth
 DATE.        19-MAY-1956:   Date logged
 CLNT.            A2DTECH:   Client Code
 PD  .                 GL:   Permanent Datum
 EPD .F              5004:   Elevation Permanent Datum
 LMF .                 KB:   Log Measured From
 DMF .                 KB:   Drilling Measured From
 DAPD.F              10.3:   Feet Above Permanent Datum
 DD  .F              2717:   Depth driller
 DL  .F              2717:   Depth logger
 BLI .F              2716:   Bottom log interval
 TLI .F               100:   Top log interval
 CS1 .IN            10.75:   Casing size
 CBD1.       10.75" @ 30':   Casing driller 1
 BS1 .IN            7.875:   Bit size
 BSD1.F              2717:   Depth drilled with bit1
 DFT .        GEL/CAUSTIC:   Type fluid in hole
 DFD .                9.7:   Density
 DFV .                 35:   Viscosity
 DFPH.                7.6:   pH
 DFL .                8.8:   Fluid loss
 MSS .           FLOWLINE:   Source of sample
 RMS .OHMM           1.68:   Rm
 MST .F                58:   Rm Meas. temp.
 RMF .OHMM           1.17:   Rmf
 MFST.F                68:   Rmf Meas. temp.
 MFSS.                 FP:   Source Rmf.
 RMB .OHMM              1:   Rm. at BHT
 BHT .F               101:   BHT.
 TCS .HRS               4:   Time Circ. stopped
 MRT .F               101:   Maximum recorded temp.
 LUN .               4507:   Logging unit number
 LUL .               CSPR:   Logging unit location
 ENGI.            MANGOLD:   Recorded By
 WITN.             TUTTLE:   Witnessed by
 ORIG.           5" PRINT:   Origin of data
 UWI .     49025095270000:   Unique Well ID
 DICO. A2D TECHNOLOGIES, INC.:   Digitizing Company
~OTHER INFORMATION
~A   DEPT     CALD         GRD      CORR       RHOB        SPR        ILD         SN   
# ...
 1440.0000     8.5750    97.1120     0.1000     2.5100   -53.8370     6.0300     7.8150
 1440.5000     8.5720   100.5950     0.0880     2.5050   -53.9680     6.3170     8.1520
 1441.0000     8.5700   101.5080     0.0800     2.5050   -54.0990     6.6050     8.4900
 1441.5000     8.5670   101.8840     0.0740     2.5130   -54.2310     6.8950     8.8290
 1442.0000     8.5640   104.1370     0.0680     2.5050   -54.3620     7.1890     9.1770
 1442.5000     8.5610   104.5630     0.0690     2.5000   -54.4930     7.0490     9.2350
 1443.0000     8.5580   103.7120     0.0710     2.5100   -54.6240     6.8750     9.2780
 1443.5000     8.5550   103.0020     0.0730     2.5210   -54.7530     6.7010     9.3200
 1444.0000     8.5530   103.3310     0.0750     2.5220   -54.6620     6.5280     9.3620
 1444.5000     8.5500   103.6450     0.0780     2.5160   -54.5400     6.3540     9.2540
 1445.0000     8.5470   103.6540     0.0880     2.5210   -54.4170     6.1810     8.8560
 1445.5000     8.5440   101.5760     0.0990     2.5260   -54.2940     6.0080     8.4640
 1446.0000     8.5410    99.4910     0.1100     2.5220   -54.1710     5.8350     8.0690
 1446.5000     8.5380    99.1240     0.1290     2.4990   -54.0490     5.7160     7.6660
 1447.0000     8.5360   101.0380     0.1130     2.4810   -53.9250     5.7630     7.8870
 1447.5000     8.5330   102.9880     0.0950     2.4700   -53.7980     5.9340     8.2190
 1448.0000     8.5300   103.4290     0.0910     2.4990   -53.9110     6.1000     8.5560
 1448.5000     8.5270   100.2330     0.0870     2.5290   -54.0730     6.2650     8.8920
 1449.0000     8.5240    98.0660     0.0820     2.5110   -54.2360     6.4310     9.2290
 1449.5000     8.5210    99.4480     0.0680     2.4930   -54.4000     6.5960     9.5670
 1450.0000     8.5190   100.8470     0.0780     2.5090   -54.5640     6.7620     9.9110
 1450.5000     8.5160    98.1200     0.0840     2.5250   -54.7310     6.9270     9.9860
 1451.0000     8.5130    95.4640     0.0780     2.5220   -54.7660     7.0930     9.9900
 1451.5000     8.5100    95.5660     0.0740     2.5160   -54.7500     7.2640     9.9560
 1452.0000     8.5070    95.9320     0.0760     2.5130   -54.7340     7.2520     9.9100
 1452.5000     8.5040    96.3030     0.0790     2.5210   -54.7170     7.1830     9.8640
 1453.0000     8.5020    96.4230     0.0820     2.5260   -54.7000     7.1120     9.8170
 1453.5000     8.4990    96.2800     0.0780     2.5110   -54.6840     7.0400     9.7710
 1454.0000     8.4960    97.4630     0.0610     2.4950   -54.6670     6.9690     9.7250
 1454.5000     8.4930    99.9910     0.0580     2.4870   -54.6500     6.8970     9.6790
 1455.0000     8.4900   102.6220     0.0720     2.5120   -54.6330     6.8250     9.6320
 1455.5000     8.4870   101.6910     0.0850     2.5230   -54.6170     6.7540     9.5860
 1456.0000     8.4850   100.1880     0.0980     2.5300   -54.6000     6.6830     9.5400
 1456.5000     8.4820    98.6180     0.1070     2.5370   -54.5830     6.6120     9.4930
 1457.0000     8.4810    99.5010     0.0990     2.5380   -54.5660     6.5390     9.4470
 1457.5000     8.4820   100.8610     0.0760     2.5190   -54.5500     6.6200     9.4010
 1458.0000     8.4840   100.4200     0.0540     2.4980   -54.5330     6.7740     9.3540
 1458.5000     8.4850   100.2290     0.0300     2.4780   -54.5160     6.9210     9.3090
 1459.0000     8.4870   104.3470     0.0350     2.4610   -54.4990     7.0680     9.2640
 1459.5000     8.4880   108.4920     0.0450     2.4770   -54.4830     7.2160     9.2170
 1460.0000     8.4900   107.1540     0.0550     2.4950   -54.4660     7.3640     9.3370
 1460.5000     8.4910   104.9960     0.0600     2.5070   -54.4490     7.4930     9.5860
 1461.0000     8.4930   102.8850     0.0500     2.5050   -54.4320     7.4070     9.8350
 1461.5000     8.4940    99.5980     0.0390     2.4910   -54.4160     7.3650    10.0850
 1462.0000     8.4960    96.3250     0.0260     2.4780   -54.3990     7.2850    10.3360
 1462.5000     8.4970    96.9510     0.0320     2.4730   -54.3830     7.2070    10.5770
 1463.0000     8.4990    98.0950     0.0400     2.4820   -54.3890     7.1280    10.5150
 1463.5000     8.5000    99.6580     0.0390     2.4910   -54.4190     7.0490    10.3710
 1464.0000     8.5020   102.5330     0.0340     2.4930   -54.4490     6.9710    10.2270
 1464.5000     8.5030   106.0470     0.0380     2.4880   -54.4790     6.8910    10.0840
 1465.0000     8.5050   106.9560     0.0330     2.4760   -54.5100     6.8150     9.9400
 1465.5000     8.5060   104.1980     0.0420     2.4660   -54.5400     6.9190     9.7960
 1466.0000     8.5080   104.7560     0.0510     2.4760   -54.5680     7.0350     9.6520
 1466.5000     8.5090   102.2070     0.0600     2.4890   -54.4470     7.1510     9.5080
 1467.0000     8.5100    99.3180     0.0660     2.5020   -54.3130     7.2660     9.3650
 1467.5000     8.5120    96.4350     0.0680     2.5060   -54.1790     7.3820     9.2210
 1468.0000     8.5130    94.0240     0.0750     2.5110   -54.0440     7.4970     9.0770
 1468.5000     8.5150    93.8250     0.0820     2.5150   -53.9100     7.6110     8.9320
 1469.0000     8.5160    94.9790     0.0820     2.5160   -53.7760     7.7240     8.7870
 1469.5000     8.5180    96.0930     0.0710     2.5110   -53.6410     7.6170     8.5300
 1470.0000     8.5200    97.0620     0.0560     2.5050   -53.5070     7.0860     8.0610
 1470.5000     8.5250    95.7560     0.0620     2.5090   -53.3720     6.5610     7.5940
 1471.0000     8.5440    94.2830     0.0730     2.5160   -53.2380     6.0380     7.1280
 1471.5000     8.5630    92.8070     0.0700     2.4990   -53.1040     5.5130     6.6620
 1472.0000     8.5810    93.1720     0.0660     2.4790   -52.9690     4.9860     6.1950
 1472.5000     8.6000    94.7360     0.0680     2.4630   -52.8350     4.4640     5.7290
 1473.0000     8.6190    92.3600     0.0730     2.4550   -52.7000     3.9050     5.2620
 1473.5000     8.6380    89.7520     0.0920     2.4440   -52.5660     3.3530     4.7960
 1474.0000     8.6580    87.1410     0.1130     2.4220   -52.4310     2.8030     4.3290
 1474.5000     8.6590    85.8380     0.1350     2.4000   -52.2970     2.2550     3.8630
 1475.0000     8.7440    85.8160     0.1590     2.3610   -52.1630     1.7840     3.3970
 1475.5000     8.9160    84.5550     0.2310     2.3200   -52.0280     1.5900     2.9300
 1476.0000     9.1200    83.1470     0.2260     2.2780   -51.8950     1.5440     2.4520
 1476.5000     9.4370    81.7240     0.2400     2.2330   -51.7870     1.5310     2.2980
 1477.0000     9.7640    80.2210     0.1700     2.1840   -51.7910     1.9730     2.2680
 1477.5000    10.8570    81.7430     0.1830     2.1550   -51.8300     2.5350     2.3900
 1478.0000     9.4740    83.9530     0.1590     2.1560   -52.0400     3.1060     2.9740
 1478.5000     9.5230    88.3810     0.1020     2.1860   -52.2490     3.6780     3.7340
 1479.0000     9.3120    93.8680     0.0310     2.2460   -52.4570     4.2510     4.4970
 1479.5000     8.8640    93.0840     0.0440     2.4010   -52.6650     4.8230     5.2600
 1480.0000     8.5540    90.9890     0.0310     2.4830   -52.8730     5.3960     6.0240
 1480.5000     8.5610    93.1800     0.0420     2.4800   -53.0810     5.9680     6.7880
 1481.0000     8.5600    97.2310     0.0550     2.4940   -53.2900     6.5410     7.5520
 1481.5000     8.5590   100.9810     0.0570     2.4870   -53.5000     7.1130     8.3150
 1482.0000     8.5590   102.7460     0.0540     2.4810   -53.5840     7.6850     9.0090
 1482.5000     8.5580   103.8810     0.0670     2.4950   -53.5960     8.1930     9.1950
 1483.0000     8.5430   102.9160     0.0780     2.5100   -53.6080     8.2620     9.3730
 1483.5000     8.5250   102.2280     0.0840     2.5120   -53.6190     8.2920     9.5520
 1484.0000     8.5110   104.3340     0.0750     2.5010   -53.6300     8.1380     9.7310
 1484.5000     8.5000   106.5040     0.0520     2.4770   -53.6420     7.9870     9.9100
 1485.0000     8.5000   109.7320     0.0290     2.4630   -53.6530     7.8360     9.9890
