~VERSION INFORMATION
 VERS.                2.0:   CWLS LOG ASCII STANDARD - VERSION 2.0
 WRAP.                 NO:   ONE LINE PER DEPTH STEP
~WELL INFORMATION
#MNEM.UNIT      DATA TYPE    INFORMATION
#----------   ------------   ------------------------------
 STRT.F          508.0000:   START DEPTH
 STOP.F         3170.0000:   STOP DEPTH
 STEP.F            0.5000:   STEP LENGTH
 NULL.          -999.2500:   NO VALUE
 COMP. FENIX & SCISSON - U.S. NAVY:   COMPANY
 WELL. FENIX NPR-3 "A" #58-34:   WELL
 FLD .                NPR:   FIELD
 LOC .      S34 T39N R78W:   LOCATION
 CNTY.            NATRONA:   COUNTY
 STAT.            WYOMING:   STATE
 CTRY. UNITED STATES OF AMERICA:   COUNTRY
 SRVC.       SCHLUMBERGER:   SERVICE COMPANY
 DATE.        15-MAR-1977:   LOGDATE
 API .     49025103180000:   API NUMBER
~CURVE INFORMATION
#MNEM.UNIT       API CODE    CURVE DESCRIPTION
#----------   ------------   ------------------------------
 DEPT.F                  :   
 CALD.IN     45 280 60 00:   CALIPER FROM DENSITY LOG
 GRD .GAPI   45 310 01 00:   GAMMA RAY FROM DENSITY LOG
 RHOB.G/C3   45 350 01 00:   BULK DENSITY
 CORR.G/C3   45 356 01 00:   DENSITY CORRECTION
 SPR .MV     07 010 01 00:   SPONTANEOUS POTENTIAL
 LL8 .OHMM   07 220 08 00:   LATEROLOG-8 RES.
 ILD .OHMM   07 120 46 00:   DEEP INDUCTION RESISTIVITY
 ILM .OHMM   07 120 44 00:   INDUCTION LOG MEDIUM RESISTIVITY
~PARAMETER INFORMATION
#MNEM.UNIT          VALUE    DESCRIPTION
#----------   ------------   ------------------------------
 EKB .F         5129.0000:   Kelly bushing
 EGL .F         5117.0000:   Ground level
 EDF .F            0.0000:   Drilling floor
 EPD .F            0.0000:   Permanent datum
 TD  .F         3170.0000:   Total depth
 DATE.        15-MAR-1977:   Date logged
 CLNT.            A2DTECH:   Client Code
 SL  . 2310' FEL & 330' FSL:   Surface Location
 PD  .                 GL:   Permanent Datum
 DAPD.F                12:   Feet Above Permanent Datum
 DD  .F              3170:   Depth driller
 DL  .F              3170:   Depth logger
 BLI .F              3169:   Bottom log interval
 TLI .F               508:   Top log interval
 CS1 .IN            8.625:   Casing size
 CBD1.      8.625" @ 524':   Casing driller 1
 CBL1.F               522:   Casing logger 1
 BS1 .IN            7.875:   Bit size
 BSD1.F              3170:   Depth drilled with bit1
 DFT .                KCL:   Type fluid in hole
 DFD .                9.2:   Density
 DFV .                 36:   Viscosity
 DFPH.                  9:   pH
 DFL .                  9:   Fluid loss
 MSS .                PIT:   Source of sample
 RMS .OHMM             .3:   Rm
 MST .F                58:   Rm Meas. temp.
 RMF .OHMM            .29:   Rmf
 MFST.F                58:   Rmf Meas. temp.
 MFSS.               MEAS:   Source Rmf.
 RMB .OHMM            .15:   Rm. at BHT
 BHT .F               120:   BHT.
 TCS .HRS               6:   Time Circ. stopped
 MRT .F               120:   Maximum recorded temp.
 LUN .               7711:   Logging unit number
 LUL .               CSPR:   Logging unit location
 ENGI.             SAYLER:   Recorded By
 WITN.               JAPP:   Witnessed by
 ORIG.           5" PRINT:   Origin of data
 UWI .     49025103180000:   Unique Well ID
 DICO. A2D TECHNOLOGIES, INC.:   Digitizing Company
~OTHER INFORMATION
~A   DEPT       CALD       GRD      RHOB        CORR       SPR        LL8        ILD        ILM   
# ...
 1925.5000     8.1108   206.6771     2.4985     0.0130   -52.0152     6.9484     4.7002     4.9211
 1926.0000     8.1102   210.8455     2.5014     0.0160   -51.8043     7.0753     4.4471     4.6990
 1926.5000     8.1297   224.1533     2.5044     0.0210   -51.8132     6.5739     4.2464     4.4460
 1927.0000     8.1288   244.2209     2.5034     0.0199   -51.8221     5.2754     4.0923     4.3638
 1927.5000     8.1282  -999.2500     2.4964     0.0119   -52.2704     4.8271     4.1290     4.3231
 1928.0000     8.1275  -999.2500     2.4793     0.0058   -52.7188     5.8848     4.1661     4.3221
 1928.5000     8.1269  -999.2500     2.4893     0.0068   -53.3869     5.8842     4.2815     4.3210
 1929.0000     8.1263  -999.2500     2.4893     0.0068   -53.6155     5.3679     4.4001     4.5644
 1929.5000     8.1256  -999.2500     2.4842     0.0037   -53.6243     4.9118     4.6061     4.8671
 1930.0000     8.1250  -999.2500     2.4702    -0.0043   -53.6332     7.6268     5.3342     5.3834
 1930.5000     8.1045  -999.2500     2.4802     0.0017   -53.8618    11.1634     5.8461     6.4678
 1931.0000     8.1039  -999.2500     2.4831     0.0137   -54.3102    11.7927     6.2905     8.1364
 1931.5000     8.1231  -999.2500     2.4851     0.0136   -54.3191    12.6868     7.2854     8.9174
 1932.0000     8.1225  -999.2500     2.4831     0.0076   -54.1082    13.0376     9.0808     9.3350
 1932.5000     8.1016  -999.2500     2.4530     0.0056   -53.4579    13.5215     9.4191     9.7717
 1933.0000     8.1015  -999.2500     2.4520     0.0105   -52.8076    14.5474    10.0427    10.3234
 1933.5000     8.1206  -999.2500     2.4550     0.0115   -52.3752    15.6506    10.9062    10.7075
 1934.0000     8.1597  -999.2500     2.4590     0.0065   -51.7249    15.3632    11.1061    11.1061
 1934.5000     8.1591  -999.2500     2.4649     0.0054   -51.5140    14.8073    11.3096    11.5194
 1935.0000     8.1587  -999.2500     2.4649     0.0054   -51.0834    14.5354    11.4116    11.8389
 1935.5000     8.1578  -999.2500     2.4739     0.0064   -51.0923    14.9374    11.5155    12.0565
 1936.0000     8.1572  -999.2500     2.4448     0.0044   -50.6617    15.0718    11.7261    12.3893
 1936.5000     8.1765  -999.2500     2.4298     0.0013   -50.2311    14.6601    11.9411    12.7346
 1937.0000     8.1957  -999.2500     2.4308    -0.0007   -50.0203    14.6571    12.2723    13.5779
 1937.5000     8.1951  -999.2500     2.4268     0.0023   -50.0292    15.9133    12.8467    14.3447
 1938.0000     8.2143  -999.2500     2.4267     0.0072   -50.2578    17.4386    13.3250    14.8789
 1938.5000     8.2137  -999.2500     2.4277     0.0132   -50.2666    18.0861    13.8212    15.4329
 1939.0000     8.2131   250.6856     2.4347     0.0192   -49.8361    18.5865    14.2046    15.8618
 1939.5000     8.2125   249.2881     2.4406     0.0252   -49.6252    18.9266    14.7336    16.3019
 1940.0000     8.2118   224.8212     2.4666     0.0282   -49.4126    18.9228    15.2829    16.7543
 1940.5000     8.2112   219.6459     2.4716     0.0482   -49.6412    18.7464    15.8520    17.2193
 1941.0000     8.1907   215.0660     2.4515     0.0321   -49.8698    17.1010    16.1429    18.0256
 1941.5000     8.1702   211.8789     2.4655     0.0251   -49.8787    15.4577    16.1396    19.2198
 1942.0000     8.0700   207.2985     2.4655     0.0250   -50.1073    15.3135    15.9886    20.1199
 1942.5000     8.0693   205.9010     2.4805     0.0440   -50.1162    15.5936    15.5505    17.0479
 1943.0000     8.0488   203.3091     2.4974     0.0440   -50.3448    16.3217    15.2640    15.8358
 1943.5000     8.0482   198.5290     2.4704     0.0309   -50.5734    17.2411    14.8457    14.9828
 1944.0000     8.0476   190.3684     2.4694     0.0279   -51.2415    17.0803    14.1758    14.4388
 1944.5000     8.0469   179.0225     2.5023     0.0209   -51.6898    16.9210    13.1677    13.9146
 1945.0000     8.0463   172.6487     2.4983     0.0108   -51.9184    16.9176    12.6896    13.5332
 1945.5000     8.0457   174.0373     2.5053     0.0068   -52.1470    16.0088    12.2288    13.1622
 1946.0000     8.0450   177.6118     2.5052     0.0037   -52.3756    12.9607    12.0034    12.9197
 1946.5000     8.0444   178.6028     2.4972     0.0027   -52.6043    12.9602    11.5675    12.6816
 1947.0000     8.0438   174.6155     2.4922     0.0017   -52.8329    14.0230    11.3542    12.6789
 1947.5000     8.0431   173.2154     2.4932     0.0047   -52.8417    15.4190    11.0429    12.3313
 1948.0000     8.0425   175.9957     2.5141     0.0046   -52.6309    15.1369    10.7401    11.8834
 1948.5000     8.0618   177.9767     2.5141     0.0066   -52.6398    14.5882    10.5408    11.4518
 1949.0000     8.0611   176.1824     2.5061     0.0106   -52.2092    14.1894    10.5398    11.0358
 1949.5000     8.0605   174.5820     2.4980     0.0075   -52.2181    13.6755    10.2508    10.7332
 1950.0000     8.0599   177.9608     2.4980     0.0085   -52.4467    13.5484    10.0618    10.5353
 1950.5000     8.0592   182.3335     2.4980     0.0115   -52.8434    12.7295     9.8031    10.3574
 1951.0000     8.0586   183.9194     2.4969     0.0095   -53.1173    12.2389     9.6914     9.9603
 1951.5000     8.0580   184.5104     2.5019     0.0114   -53.1229    11.6861     9.5113     9.7774
 1952.0000     8.0573   185.4995     2.5009     0.0144   -53.1285    11.3648     9.2491     9.5957
 1952.5000     8.0567   185.4936     2.4989     0.0154   -53.1341    11.4653     9.0772     9.3311
 1953.0000     8.0561   186.0848     2.4988     0.0174   -53.5792    11.5667     8.9085     9.1577
 1953.5000     8.0554   188.0691     2.5078     0.0183   -54.2442    11.6690     8.7429     9.1543
 1954.0000     8.0548   192.2439     2.5068     0.0123   -54.4696    11.4527     8.6590     9.0672
 1954.5000     8.0542   197.0150     2.5047     0.0113   -54.4752    11.3440     8.6559     8.9809
 1955.0000     8.0535   202.3845     2.5117     0.0122   -54.4808    11.1338     8.5735     8.8954
 1955.5000     8.0529   205.1658     2.5157     0.0112   -54.4864    10.9274     8.4141     8.8107
 1956.0000     8.0523   204.7624     2.5156     0.0122   -54.7118    10.9234     8.4110     8.5672
 1956.5000     8.0516   204.9561     2.5136     0.0181   -54.9373    10.8197     8.1043     8.4856
 1957.0000     8.0510   205.1509     2.5166     0.0221   -55.1627    10.8158     8.0289     8.3279
 1957.5000     8.0504   196.7827     2.5176     0.0221   -55.1684    10.8118     7.7343     8.0983
 1958.0000     8.0497   190.0076     2.5075     0.0231   -54.7343    10.6114     7.5906     7.9478
 1958.5000     8.0491   189.6037     2.5035     0.0210   -54.5201     9.8572     7.7287     7.8721
 1959.0000     8.0485   191.1906     2.5025     0.0220   -54.3059     9.7636     7.6551     7.8692
 1959.5000     8.0477   193.1758     2.5044     0.0190   -54.0917    10.0323     7.6523     7.9390
 1960.0000     8.0472   196.3568     2.5064     0.0169   -53.4377    10.1210     7.6495     8.0834
 1960.5000     8.0466   198.1431     2.5064     0.0149   -53.2235    10.5920     7.6467     8.3065
 1961.0000     8.0459   198.7349     2.5103     0.0149   -53.0092    10.6856     7.7857     8.6146
 1961.5000     8.0453   196.7383     2.5113     0.0128   -52.7950    10.8794     7.9273     8.8529
 1962.0000     8.0447   190.5589     2.5053     0.0108   -52.8005    11.0776     8.2214     9.0972
 1962.5000     8.0440   184.9765     2.5023     0.0098   -53.0260    11.2776     8.6051     9.2627
 1963.0000     8.0433   181.9837     2.5002     0.0107   -53.2514    11.2735     8.6820     9.5183
 1963.5000     8.0426   181.3803     2.4952     0.0117   -53.2570    11.2694     8.7609     9.6914
 1964.0000     8.0420   181.9717     2.4922     0.0047   -53.2615    11.1624     9.0839     9.8677
 1964.5000     8.0414   181.9657     2.4881     0.0056   -53.0472    10.8555     9.1644    10.0472
 1965.0000     8.1005   181.9597     2.4881     0.0106   -53.0528    11.4653     9.2464    10.2299
 1965.5000     8.1198   182.1529     2.4861     0.0136   -53.0584    11.8893     9.5886    10.4160
