~VERSION INFORMATION
 VERS.                2.0:   CWLS LOG ASCII STANDARD - VERSION 2.0
 WRAP.                 NO:   ONE LINE PER DEPTH STEP
~WELL INFORMATION
#MNEM.UNIT      DATA TYPE    INFORMATION
#----------   ------------   ------------------------------
 STRT.F          195.5000:   START DEPTH
 STOP.F         3197.0000:   STOP DEPTH
 STEP.F            0.5000:   STEP LENGTH
 NULL.          -999.2500:   NO VALUE
 COMP.    FENIX & SCISSON:   COMPANY
 WELL.  FENIX "AX" #17-11:   WELL
 FLD .              NPR-3:   FIELD
 LOC .      S11 T38N R78W:   LOCATION
 CNTY.            NATRONA:   COUNTY
 STAT.            WYOMING:   STATE
 CTRY. UNITED STATES OF AMERICA:   COUNTRY
 SRVC.              WELEX:   SERVICE COMPANY
 DATE.        16-SEP-1977:   LOGDATE
 API .     49025104170000:   API NUMBER
~CURVE INFORMATION
#MNEM.UNIT       API CODE    CURVE DESCRIPTION
#----------   ------------   ------------------------------
 DEPT.F                  :   
 GRD .GAPI   45 310 01 00:   GAMMA RAY FROM DENSITY LOG
 CALD.IN     45 280 60 00:   CALIPER FROM DENSITY LOG
 CORR.G/C3   45 356 01 00:   DENSITY CORRECTION
 TEND.LBS    45 635 01 00:   TENSION FORM DENSITY LOG
 RHOB.G/C3   45 350 01 00:   BULK DENSITY
 SPR .MV     07 010 01 00:   SPONTANEOUS POTENTIAL
 TENR.LBS    07 635 01 00:   TENSION FROM RESISTIVITY
 ILD .OHMM   07 120 46 00:   DEEP INDUCTION RESISTIVITY
 ILM .OHMM   07 120 44 00:   INDUCTION LOG MEDIUM RESISTIVITY
 SGRD.OHMM   07 220 05 00:   SHALLOW SHORT GUARD RESISTIVITY
~PARAMETER INFORMATION
#MNEM.UNIT          VALUE    DESCRIPTION
#----------   ------------   ------------------------------
 EKB .F         5212.0000:   Kelly bushing
 EGL .F         5202.0000:   Ground level
 TD  .F         3195.0000:   Total depth
 CLNT.            A2DTECH:   Client Code
 SL  . 1090' FSL & 330' FWL:   Surface Location
 PD  .                 GL:   Permanent Datum
 EPD .F              5202:   Elevation Permanent Datum
 LMF .                 KB:   Log Measured From
 DMF .                 KB:   Drilling Measured From
 DAPD.F                10:   Feet Above Permanent Datum
 DATE.        16-SEP-1977:   Date Logged [DD-MMM-YYYY]
 DD  .F              3195:   Depth driller
 DL  .F              3195:   Depth logger
 BLI .F              3193:   Bottom log interval
 TLI .F               217:   Top log interval
 CS1 .IN            8.625:   Casing size
 CBD1.      8.625" @ 216':   Casing driller 1
 CBL1.F               217:   Casing logger 1
 BS1 .IN            7.875:   Bit size
 BSD1.F              3195:   Depth drilled with bit1
 DFT .            KCL MUD:   Type fluid in hole
 DFD .                9.2:   Density
 DFV .                 36:   Viscosity
 DFPH.                 11:   pH
 DFL .                8.8:   Fluid loss
 MSS .           FLOWLINE:   Source of sample
 RMS .OHMM           2.76:   Rm
 MST .F                99:   Rm Meas. temp.
 RMF .OHMM           1.54:   Rmf
 MFST.F                99:   Rmf Meas. temp.
 MFSS.               MEAS:   Source Rmf.
 RMC .OHMM           3.01:   Rmc
 MCST.F                99:   Rmc Meas. temp.
 MCSS.               MEAS:   Source Rmc.
 RMB .OHMM           2.40:   Rm. at BHT
 BHT .F               112:   BHT.
 TCS .HRS               6:   Time Circ. stopped
 MRT .F               112:   Maximum recorded temp.
 LUN .               8611:   Logging unit number
 LUL .             CASPER:   Logging unit location
 ENGI.          D. LAWSON:   Recorded By
 WITN.         HARRINGTON:   Witnessed by
 ORIG.           5" PRINT:   Origin of data
 UWI .     49025104170000:   Unique Well ID
 DICO. A2D TECHNOLOGIES, INC.:   Digitizing Company
~OTHER INFORMATION
~A   DEPT       GRD      CALD       CORR       TEND       RHOB        SPR       TENR        ILD        ILM       SGRD   
# ...
 1401.5000    87.4260     9.8896     0.0433  1498.8024     2.5514   -73.6682  1321.0175     6.6195     8.4266    10.4135
 1402.0000    84.3920     9.9041     0.0403  1499.5049     2.5431   -73.6791  1307.1858     6.6168     8.4849     9.4644
 1402.5000    81.9256     9.9035     0.0373  1500.0817     2.5348   -73.6910  1293.3844     6.6141     8.1948     8.8306
 1403.0000    84.9561     9.9028     0.0342  1500.5988     2.5272   -73.7000  1294.8262     6.6115     7.9147     8.2964
 1403.5000    92.1785     9.8872     0.0357  1501.1976     2.5257   -73.7115  1265.7509     6.6088     7.7511     7.9033
 1404.0000    96.6860     9.8866     0.0357  1501.8118     2.5264   -73.7218  1267.1927     6.6061     7.6970     7.6869
 1404.5000    98.4785     9.8709     0.0372  1502.3953     2.5226   -73.7320  1268.3462     6.6028     7.8584     7.7398
 1405.0000    98.1594     9.8400     0.0356  1503.1094     2.5158   -73.7424  1284.4695     6.6001     8.0790     7.9017
 1405.5000    98.1418     9.8093     0.0341  1503.5928     2.5136   -73.7530  1300.5930     6.5975     8.3060     8.3512
 1406.0000   100.5335     9.7785     0.0326  1507.9854     2.5165   -73.7653  1271.8064     6.5948     8.4800     8.7049
 1406.5000   101.7227     9.7779     0.0325  1513.5470     2.5218   -73.7756  1273.2482     6.6388     8.6579     8.9489
 1407.0000    96.8788     9.7623     0.0310  1505.3893     2.5247   -73.7848  1274.4014     6.6354     8.7783     9.1362
 1407.5000    94.4481     9.7617     0.0295  1505.9879     2.5240   -73.7954  1275.5548     6.6790     8.8388     9.1989
 1408.0000    93.5257     9.7762     0.0280  1506.5867     2.5202   -73.8061  1276.7083     6.7290     8.8382     9.2630
 1408.5000    94.4133     9.7755     0.0264  1507.1855     2.5164   -73.8167  1292.8315     6.7670     8.7764     9.5323
 1409.0000    97.8984     9.7598     0.0249  1507.7844     2.5156   -73.8294  1294.0120     6.8588     8.7758     9.9938
 1409.5000   101.3122     9.7442     0.0234  1508.4437     2.5178   -73.8379  1310.3970     6.8554     8.7145    10.2738
 1410.0000    99.1832     9.7134     0.0219  1508.9821     2.5217   -73.8485  1311.5502     6.8526     8.4167    10.5617
 1410.5000    96.7525     9.6900     0.0203  1509.5970     2.5140   -73.8601  1297.4453     6.8500     8.1857    10.8576
 1411.0000    95.2268     9.6518     0.0203  1510.1796     2.5005   -73.8712  1283.6287     6.8694     7.8513    10.7076
 1411.5000    93.0978     9.6361     0.0143  1510.8947     2.4971   -73.8803  1285.0702     6.9401     7.7964    10.5596
 1412.0000    93.0799     9.6355     0.0098  1511.3773     2.4963   -73.8917  1286.2274     6.9366     7.8502    11.1602
 1412.5000    94.5669     9.6199     0.0052  1511.9761     2.4947   -73.9015  1287.4250     6.9338     7.9044    11.4731
 1413.0000    99.6777     9.6193     0.0052  1512.6249     2.4947   -73.9121  1288.8188     6.9310     8.0700    11.6323
 1413.5000    98.7553     9.6187     0.0082  1513.1736     2.5007   -73.9227  1289.8203     6.9282     8.1258    11.6313
 1414.0000    96.9279     9.6181     0.0096  1513.7725     2.5021   -73.9333  1291.0179     6.9254     8.1818    11.3128
 1414.5000    95.4022     9.6174     0.0096  1514.3712     2.4989   -73.9446  1292.2791     6.9226     8.1246    11.0794
 1415.0000    93.8662     9.6168     0.0081  1514.9701     2.4938   -73.9545  1278.4432     6.9198     8.1240    10.8509
 1415.5000    92.9541     9.6163     0.0081  1515.5688     2.4915   -73.9651  1294.6107     6.9169     8.1235    10.5536
 1416.0000    96.5522     9.6216     0.0065  1516.1677     2.4937   -73.9758  1280.7693     6.9135     8.1228    10.8493
 1416.5000   101.3613     9.6302     0.0050  1516.7665     2.4974   -73.9882  1282.2108     6.9108     8.2358    11.5462
 1417.0000   102.2533     9.6296     0.0050  1517.3826     2.5004   -73.9970  1283.3643     6.9080     8.3505    11.3081
 1417.5000    99.8182     9.6289     0.0064  1518.1637     2.5048   -74.0076  1284.5177     6.9054     8.5849    10.8471
 1418.0000    98.8958     9.6283     0.0064  1538.9634     2.5070   -74.0189  1270.6587     6.9024     8.8874    10.6972
 1418.5000    98.8778     9.6277     0.0049  1539.6895     2.5054   -74.0288  1271.8564     6.8996     9.0110    10.7778
 1419.0000   100.0633     9.6102     0.0064  1540.4192     2.5017   -74.0394  1273.0540     6.8968     9.0732    11.3049
 1419.5000   102.7608     9.6115     0.0078  1541.1677     2.4994   -74.0500  1274.4496     6.8934     9.0097    11.4618
 1420.0000    99.7268     9.6109     0.0078  1541.9163     2.4993   -74.0625  1275.6028     6.9877     8.8849    11.3033
 1420.5000    96.3911     9.6254     0.0018  1527.6238     2.5015   -74.0712  1276.7563     7.0819     8.7012    11.3026
 1421.0000    93.9604     9.6246    -0.0028  1528.5314     2.4970   -74.0830  1292.8799     7.1283     8.6404    11.7000
 1421.5000    92.2114     9.6393    -0.0043  1529.2576     2.4894   -74.0932  1279.0420     7.1759     8.6399    11.7850
 1422.0000    91.2773     9.6386    -0.0073  1529.9836     2.4811   -74.1035  1280.2395     7.1722     8.7601    11.8916
 1422.5000    91.5498     9.6380    -0.0058  1530.6886     2.4796   -74.1136  1281.6582     7.1693     8.8819    12.4499
 1423.0000    95.4422     9.6374    -0.0029  1531.4371     2.4848   -74.1242  1282.8118     7.1664     9.0138    11.6160
 1423.5000   100.5412     9.6368     0.0016  1533.1581     2.5028   -74.1348  1298.9351     7.1628     9.1306    11.1425
 1424.0000   100.6408     9.6663     0.0031  1547.9042     2.5125   -74.1470  1300.0885     7.1600     9.1299    10.9885
 1424.5000    97.1461     9.6808     0.0030  1548.7660     2.5042   -74.1573  1286.2719     7.1075     9.0035    11.4539
 1425.0000    94.9221     9.6953     0.0047  1549.4011     2.5049   -74.1675  1287.4250     7.0555     8.8173    11.9391
 1425.5000    93.4791     9.6947     0.0075  1550.1497     2.5101   -74.1778  1288.6228     7.0038     8.4571    11.6810
 1426.0000    96.4665     9.6187     0.0029  1550.9442     2.5108   -74.1880  1290.0204     6.9525     7.7808    11.2160
 1426.5000    95.5324     9.5879     0.0029  1551.6703     2.5085   -74.1985  1306.1437     6.9497     7.3057    11.1378
 1427.0000    93.6740     9.5572     0.0059  1567.3666     2.5107   -74.2111  1322.2671     7.0441     7.1084    11.4499
 1427.5000    92.4169     9.5112     0.0118  1568.1139     2.5174   -74.2197  1323.4207     7.0406     7.0587    11.2916
 1428.0000    91.8249     9.5106     0.0178  1583.8323     2.5234   -74.2316  1324.5739     7.0377     7.0583    11.0496
 1428.5000    91.1730     9.4950     0.0208  1599.5508     2.5286   -74.2418  1325.7483     7.0349     7.1071    11.4476
 1429.0000    90.5527     9.4944     0.0252  1600.2994     2.5436   -74.2521  1327.1691     7.0320     7.2058    11.1339
 1429.5000    90.5235     9.4938     0.0252  1601.0479     2.5481   -74.2623  1328.3225     7.0292     7.1555    10.8292
 1430.0000    92.6059     9.4932     0.0162  1594.8087     2.5340   -74.2727  1314.5057     7.0264     7.1550    11.9307
 1430.5000    92.2751     9.4926     0.0086  1587.5403     2.5156   -74.2854  1315.6593     7.0234     7.2043    11.2869
 1431.0000    91.3410     9.4920     0.0071  1588.3232     2.5066   -74.2956  1301.7965     7.0200     7.3045    11.4436
 1431.5000    91.9151     9.4913     0.0086  1589.1741     2.5080   -74.3059  1302.9958     6.9204     7.6146    11.9283
 1432.0000    94.2992     9.4907     0.0116  1585.1517     2.5140   -74.3161  1304.1917     6.9176     7.9378    11.5931
 1432.5000    92.7545     9.4902     0.0130  1575.4749     2.5177   -74.3264  1305.5912     6.8669     8.0483    11.1285
 1433.0000    91.2170     9.4895     0.0098  1576.4430     2.5184   -74.2677  1306.7444     6.8166     7.8273    11.1278
 1433.5000    91.4968     9.4890     0.0040  1562.1257     2.5139   -74.0438  1307.8978     6.8139     7.5598    11.3606
 1434.0000    93.8736     9.4884     0.0025  1562.8741     2.5107   -74.0566  1324.0214     6.7640     7.3015    11.5985
 1434.5000    92.9395     9.5029     0.0054  1548.6526     2.5100   -74.0669  1325.1746     6.6673     7.2003    11.8410
