~VERSION INFORMATION
 VERS.                2.0:   CWLS LOG ASCII STANDARD - VERSION 2.0
 WRAP.                 NO:   ONE LINE PER DEPTH STEP
~WELL INFORMATION
#MNEM.UNIT      DATA TYPE    INFORMATION
#----------   ------------   ------------------------------
 STRT.F          170.5000:   START DEPTH
 STOP.F         3160.0000:   STOP DEPTH
 STEP.F            0.5000:   STEP LENGTH
 NULL.          -999.2500:   NO VALUE
 COMP.  FENIX AND SCISSON:   COMPANY
 WELL.    FENIX "A" #85-3:   WELL
 FLD .       TEA POT DOME:   FIELD
 LOC .       S3 T38N R78W:   LOCATION
 CNTY.            NATRONA:   COUNTY
 STAT.            WYOMING:   STATE
 CTRY. UNITED STATES OF AMERICA:   COUNTRY
 SRVC.           BIRDWELL:   SERVICE COMPANY
 DATE.        20-DEC-1977:   LOGDATE
 API .     49025104450000:   API NUMBER
~CURVE INFORMATION
#MNEM.UNIT       API CODE    CURVE DESCRIPTION
#----------   ------------   ------------------------------
 DEPT.F                  :   
 CALD.IN     45 280 60 00:   CALIPER FROM DENSITY LOG
 GRD .GAPI   45 310 01 00:   GAMMA RAY FROM DENSITY LOG
 RHOB.G/C3   45 350 01 00:   BULK DENSITY
 CORR.G/C3   45 356 01 00:   DENSITY CORRECTION
 SPR .MV     05 010 01 00:   SPONTANEOUS POTENTIAL
 SN  .OHMM   05 040 00 00:   SHORT NORMAL
 ILD .OHMM   05 120 46 00:   DEEP INDUCTION RESISTIVITY
~PARAMETER INFORMATION
#MNEM.UNIT          VALUE    DESCRIPTION
#----------   ------------   ------------------------------
 EKB .F         5165.0000:   Kelly bushing
 EGL .F         5155.0000:   Ground level
 TD  .F         3151.0000:   Total depth
 DATE.        20-DEC-1977:   Date logged
 CLNT.            A2DTECH:   Client Code
 SL  . 2000' FSL & 100'FEL:   Surface Location
 PD  .                 GL:   Permanent Datum
 EPD .F              5155:   Elevation Permanent Datum
 LMF .                 KB:   Log Measured From
 DMF .                 KB:   Drilling Measured From
 DAPD.F                10:   Feet Above Permanent Datum
 DD  .F              3150:   Depth driller
 DL  .F              3151:   Depth logger
 BLI .F              3146:   Bottom log interval
 TLI .F               200:   Top log interval
 CS1 .IN            8.625:   Casing size
 CBD1.      8.625" @ 223':   Casing driller 1
 BS1 .IN            7.875:   Bit size
 BSD1.F              3150:   Depth drilled with bit1
 DFT .                KCL:   Type fluid in hole
 DFD .                8.9:   Density
 DFV .                 40:   Viscosity
 DFPH.                 11:   pH
 DFL .                7.2:   Fluid loss
 MSS .           FLOWLINE:   Source of sample
 RMS .OHMM            0.4:   Rm
 MST .F                62:   Rm Meas. temp.
 RMF .OHMM           0.48:   Rmf
 MFST.F                63:   Rmf Meas. temp.
 RMC .OHMM           0.52:   Rmc
 MCST.F                63:   Rmc Meas. temp.
 MFSS.               MEAS:   Source Rmf.
 MCSS.               MEAS:   Source Rmc.
 TCS .HRS             3.5:   Time Circ. stopped
 MRT .F               118:   Maximum recorded temp.
 LUN .               2958:   Logging unit number
 LUL .             CASPER:   Logging unit location
 ENGI.             MILLER:   Recorded By
 WITN.         HERRINGTON:   Witnessed by
 ORIG.           5" PRINT:   Origin of data
 UWI .     49025104450000:   Unique Well ID
 DICO. A2D TECHNOLOGIES, INC.:   Digitizing Company
~OTHER INFORMATION
~A   DEPT     CALD        GRD       RHOB        CORR       SPR         SN        ILD   
# ...
 1945.0000    10.3999   118.7578     2.5000     0.0173   -61.8133    11.0127     8.3485
 1945.5000    10.4007   117.7727     2.5011     0.0164   -61.6182    11.0121     8.1950
 1946.0000    10.4014   115.5939     2.5061     0.0234   -61.6222    11.0114     8.1191
 1946.5000    10.4023   115.2055     2.5122     0.0285   -61.6262    11.0107     8.0439
 1947.0000    10.4032   118.7965     2.5062     0.0315   -61.4311    11.0100     7.9694
 1947.5000    10.3443   129.3580     2.5073     0.0346   -61.4351    11.0093     7.8956
 1948.0000    10.2854   129.7599     2.5173     0.0376   -61.2400    10.9073     7.8224
 1948.5000    10.2464   129.7700     2.5263     0.0477   -61.2440    11.0079     7.7500
 1949.0000    10.2074   125.4021     2.5314     0.0747   -61.2480    10.9057     7.7499
 1949.5000    10.1885   128.5960     2.5304     0.0838   -60.8538    10.9053     7.6071
 1950.0000    10.1295   129.8000     2.5335     0.0978   -60.6587    10.9046     7.6066
 1950.5000    10.1702   129.8100     2.5325     0.1149   -61.0610    11.1073     7.6062
 1951.0000    10.1710   129.8200     2.5276     0.1149   -60.8659    11.1068     7.5357
 1951.5000    10.1918   129.8300     2.5186     0.0860   -61.0690    11.1626     7.5353
 1952.0000    10.1926   129.8401     2.4827     0.0360   -61.2721    11.1054     7.5348
 1952.5000    10.2134   129.8501     2.5087     0.0750   -61.2761    11.1047     7.5344
 1953.0000    10.2143  -999.2500     2.5527     0.0831   -61.2801    11.1040     7.5339
 1953.5000    10.2151  -999.2500     2.5498     0.0811   -61.6823    11.0011     7.6740
 1954.0000    10.1961  -999.2500     2.5368     0.0691   -62.0845    11.0004     7.7448
 1954.5000    10.1770  -999.2500     2.4929     0.0312   -62.2876    10.9997     7.6025
 1955.0000    10.1380  -999.2500     2.4940     0.0432   -62.6898    10.8979     7.5322
 1955.5000    10.1389  -999.2500     2.5250     0.0412   -63.2911    10.7970     7.4625
 1956.0000    10.1397  -999.2500     2.5210     0.0333   -63.6934    10.7963     7.4620
 1956.5000    10.1605  -999.2500     2.5121     0.0373   -63.6974    10.7956     7.3929
 1957.0000    10.2012  -999.2500     2.5331     0.0484   -64.0996    10.7949     7.3245
 1957.5000    10.2021  -999.2500     2.5421     0.0574   -64.3027    10.6949     7.1237
 1958.0000    10.1830  -999.2500     2.5502     0.0745   -64.5058    10.3062     7.1233
 1958.5000    10.1639  -999.2500     2.5532     0.0885   -64.7089    10.2107     7.1229
 1959.0000    10.1449  -999.2500     2.5592     0.1036   -64.9120    10.2101     7.1224
 1959.5000    10.1457  -999.2500     2.5683     0.1186   -65.1151    10.2095     7.1220
 1960.0000    10.1466  -999.2500     2.5763     0.1867   -65.1191    10.2088     7.1877
 1960.5000    10.1674  -999.2500     2.5803     0.1848   -65.5213    10.1143     7.1873
 1961.0000    10.2081   129.6202     2.5754     0.1818   -65.5253    10.0206     7.1869
 1961.5000    10.2686   125.6473     2.5285     0.1438   -65.5293    10.0200     7.1203
 1962.0000    10.3292   127.4496     2.3637    -0.0042   -65.3343    10.0194     7.0544
 1962.5000    10.3500   125.4680     2.4233     0.0102   -65.3383    10.1118     6.9892
 1963.0000    10.3310   127.8658     2.4747     0.0269   -65.1432    10.0181     6.9887
 1963.5000    10.3119   125.8881     2.4827     0.0359   -64.9481     9.8341     6.8603
 1964.0000    10.3128   129.6783     2.5067     0.0490   -64.9521     9.7430     6.7967
 1964.5000    10.3335  -999.2500     2.5108     0.0580   -64.9561     9.7425     6.8594
 1965.0000    10.3344  -999.2500     2.5078     0.0661   -64.7602     9.7419     6.8590
 1965.5000    10.3353  -999.2500     2.4989     0.0661   -64.7642     9.7413     6.7955
 1966.0000    10.3162  -999.2500     2.4810     0.0501   -64.5691     9.8312     6.8582
 1966.5000    10.3171   128.5352     2.4501     0.0342   -64.5731     9.8305     6.8578
 1967.0000    10.3179   128.5451     2.4511     0.0702   -64.3780     9.8299     6.9211
 1967.5000    10.3188   121.1842     2.5360     0.0993   -64.3820     9.8293     6.9206
 1968.0000    10.3396   121.3853     2.5371     0.0993   -64.1869     9.8287     6.9203
 1968.5000    10.3404   129.9697     2.5221     0.0834   -64.1909     9.8281     6.9199
 1969.0000    10.3214   129.9797     2.4912     0.0394   -64.1949     9.8274     6.7928
 1969.5000    10.3023   129.7905     2.4873     0.0414   -63.8024     9.7365     6.7924
 1970.0000    10.2633   129.9998     2.4993     0.0485   -64.2030     9.6464     6.8550
 1970.5000    10.2242   129.8106     2.5043     0.0535   -64.2070     9.4692     6.9825
 1971.0000    10.2051   129.8206     2.5264     0.0726   -64.0119     9.7347     6.9821
 1971.5000    10.1861   129.8286     2.5244     0.0766   -64.0159     9.7341     7.0465
 1972.0000    10.1670   129.8387     2.5185     0.0727   -63.8208     9.6440     7.1775
 1972.5000    10.1479   129.8487     2.4935     0.0457   -63.8248     9.7329     7.1110
 1973.0000    10.1288   129.8627     2.4826     0.0267   -63.6297     9.6428     7.1106
 1973.5000    10.0698   125.6857     2.4876     0.0268   -63.8328     9.6422     7.1102
 1974.0000    10.0507   125.6917     2.5017     0.0308   -63.8368     9.5529     7.0444
 1974.5000    10.0516   127.4972     2.5037     0.0308   -63.8408     9.2912     7.0438
 1975.0000    10.0524   129.8988     2.5017     0.0269   -63.8448     9.2052     7.0435
 1975.5000    10.0533   129.9089     2.4988     0.0219   -63.8488     9.2046     7.0431
 1976.0000    10.0541   129.9189     2.4998     0.0150   -63.8528     9.2895     7.0427
 1976.5000    10.0550   129.9289     2.4859     0.0110   -64.0559     9.2035     7.0423
 1977.0000    10.0357   129.9390     2.4859     0.0171   -64.0600     9.2030     7.0418
 1977.5000    10.0366   129.9490     2.4930     0.0221   -64.0640     9.2025     7.0414
 1978.0000    10.0374   129.9590     2.5080     0.0371   -64.0680     9.5483     7.0410
 1978.5000    10.0383   129.9691     2.5180     0.0452   -64.2711     9.5477     7.1059
 1979.0000    10.0391   129.9791     2.5181     0.0462   -64.2751     9.7252     7.0402
 1979.5000    10.0400   129.9892     2.5181     0.0533   -64.4782     9.7246     7.1052
 1980.0000    10.0608   129.7998     2.5222     0.0603   -64.2823     9.7240     7.1047
 1980.5000    10.0616   126.0218     2.5262     0.0834   -64.4854     9.8136     7.1703
 1981.0000    10.1224   122.6443     2.5272     0.0964   -64.4894     9.8130     7.1698
 1981.5000    10.1631   126.2410     2.5203     0.1165   -64.4934     9.8124     7.1035
 1982.0000    10.2039   128.2449     2.5014     0.1365   -64.6965     9.8118     7.1690
 1982.5000    10.2247   128.4542     2.4974     0.1836   -64.8996     9.8112     7.3023
 1983.0000    10.2655   126.0714     2.4895     0.2076   -64.9036     9.9935     7.4380
 1983.5000    10.2863   125.0843     2.4815     0.2417   -64.9077     9.9929     7.7176
 1984.0000    10.3072   124.8948     2.3366     0.2407   -65.1108     9.9923     7.7887
 1984.5000    10.3080   124.3064     2.1622     0.0895   -64.9157     9.9917     7.7883
 1985.0000    10.3288   124.5157     2.1612    -0.0413   -64.9197     9.9910     7.7878
 1985.5000    10.3896   126.9188     2.3736     0.0158   -64.9237     9.9904     7.7873
 1986.0000    10.3905   128.7216     2.4868     0.0168   -64.9277    10.0825     7.7869
 1986.5000    10.3913   128.9311     2.5088     0.0279   -65.1308    10.0819     7.8587
 1987.0000    10.4920   129.1405     2.5148     0.0249   -65.1348    10.0813     7.8582
 1987.5000    10.6526   129.1506     2.5079     0.0209   -65.1388    10.1742     7.8577
 1988.0000    10.8328   128.9611     2.5019     0.0210   -65.1428    10.1737     7.7850
 1988.5000    10.2151   129.1706     2.5070     0.0270   -65.1468    10.0795     7.7129
 1989.0000    10.0562   129.7790     2.5150     0.0351   -65.1508    10.0789     7.5016
 1989.5000     9.9972   129.9885     2.5210     0.0371   -65.1548     9.9856     7.4322
 1990.0000     9.9980   129.7991     2.5201     0.0372   -64.9597    10.0776     7.3634
