~VERSION INFORMATION
 VERS.                2.0:   CWLS LOG ASCII STANDARD - VERSION 2.0
 WRAP.                 NO:   ONE LINE PER DEPTH STEP
~WELL INFORMATION
#MNEM.UNIT      DATA TYPE    INFORMATION
#----------   ------------   ------------------------------
 STRT.F            6.0000:   START DEPTH
 STOP.F         3190.0000:   STOP DEPTH
 STEP.F            0.5000:   STEP LENGTH
 NULL.          -999.2500:   NO VALUE
 COMP. LAWRENCE ALLISON & ASSOCIATES:   COMPANY
 WELL. LAWRENCE N. P. R. 73AX #3-3:   WELL
 FLD .              N P R:   FIELD
 LOC .       S3 T38N R78W:   LOCATION
 CNTY.            NATRONA:   COUNTY
 STAT.            WYOMING:   STATE
 CTRY. UNITED STATES OF AMERICA:   COUNTRY
 SRVC.      DRESSER ATLAS:   SERVICE COMPANY
 DATE.        04-JUN-1986:   LOGDATE
 API .     49025110910000:   API NUMBER
~CURVE INFORMATION
#MNEM.UNIT       API CODE    CURVE DESCRIPTION
#----------   ------------   ------------------------------
 DEPT.F                  :   
 CALD.IN     45 280 60 00:   CALIPER FROM DENSITY LOG
 DEN .LBS    45 635 01 00:   BUCK DENSITY
 CORR.G/C3   45 356 01 00:   DENSITY CORRECTION
 TEND.LBS    45 635 01 00:   TENSION FROM DENSITY LOG
 SPR .MV     07 010 01 00:   SPONTANEOUS POTENTIAL
 GRR .GAPI   07 310 01 00:   GAMMA RAY FROM RESISTIVITY
 SFLU.OHMM   07 220 01 00:   SPHERICALLY FOCUSED LOG UNAVERAGED RESISTIVITY
 ILD .OHMM   07 120 46 00:   DEEP INDUCTION RESISTIVITY
 ILM .OHMM   07 120 44 00:   INDUCTION LOG MEDIUM RESISTIVITY
 TENR.LBS    07 635 01 00:   TENSION FROM RESISTIVITY
 CNC .DEC    42 890 01 00:   NEUTRON PORISITY LIMESTONE
~PARAMETER INFORMATION
#MNEM.UNIT          VALUE    DESCRIPTION
#----------   ------------   ------------------------------
 EKB .F         5173.0000:   Kelly bushing
 EGL .F         5161.0000:   Ground level
 TD  .F         3170.0000:   Total depth
 DATE.        04-JUN-1986:   Date logged
 CLNT.            A2DTECH:   Client Code
 PD  .                 GL:   Permanent Datum
 EPD .F              5161:   Elevation Permanent Datum
 LMF .                 KB:   Log Measured From
 DMF .                 KB:   Drilling Measured From
 DAPD.F                12:   Feet Above Permanent Datum
 DD  .F              3170:   Depth driller
 DL  .F              3168:   Depth logger
 BLI .F               8.9:   Bottom log interval
 TLI .F                38:   Top log interval
 CS1 .IN            8.625:   Casing size
 CBD1.      8.625" @ 603':   Casing driller 1
 CBL1.F               602:   Casing logger 1
 BS1 .IN            7.875:   Bit size
 BSD1.F              3170:   Depth drilled with bit1
 DFT .        KCL/POLYMER:   Type fluid in hole
 DFD .                8.9:   Density
 DFV .                 38:   Viscosity
 DFPH.                9.0:   pH
 DFL .               13.2:   Fluid loss
 MSS .           FLOWLINE:   Source of sample
 RMS .OHMM           .446:   Rm
 MST .F                64:   Rm Meas. temp.
 RMF .OHMM           .361:   Rmf
 MFST.F                64:   Rmf Meas. temp.
 RMC .OHMM            .56:   Rmc
 MCST.F                64:   Rmc Meas. temp.
 MFSS.               MEAS:   Source Rmf.
 MCSS.               CALC:   Source Rmc.
 RMB .OHMM           .242:   Rm. at BHT
 BHT .F               118:   BHT.
 TCS .HRS               3:   Time Circ. stopped
 MRT .F               118:   Maximum recorded temp.
 LUN .               6274:   Logging unit number
 LUL .           GILLETTE:   Logging unit location
 WITN.             STRONG:   Witnessed by
 ORIG.           5" PRINT:   Origin of data
 UWI .     49025110910000:   Unique Well ID
 DICO. A2D TECHNOLOGIES, INC.:   Digitizing Company
~OTHER INFORMATION
~A    DEPT    CALD        DEN       CORR       TEND        SPR         GRR      SFLU        ILD        ILM       TENR        CNC   
# ...
  799.0000  -999.2500  -999.2500  -999.2500  -999.2500   -58.2654    93.1464     6.1325     6.3056     5.4121   -78.2577  -999.2500
  799.5000  -999.2500  -999.2500  -999.2500  -999.2500   -58.3825    91.1281     6.1324     6.2285     5.3399   -78.3535  -999.2500
  800.0000  -999.2500  -999.2500  -999.2500  -999.2500   -58.4997    91.9324     6.0593     6.1524     5.2685   -78.4492  -999.2500
  800.5000  -999.2500  -999.2500  -999.2500  -999.2500   -58.6169    98.5723     5.9870     6.0772     5.1982   -87.0118  -999.2500
  801.0000  -999.2500  -999.2500  -999.2500  -999.2500   -58.7318   100.7957     5.9179     5.9872     5.0446   -78.1703  -999.2500
  801.5000  -999.2500  -999.2500  -999.2500  -999.2500   -58.8467   102.0014     5.8495     5.8985     5.0441   -88.1027  -999.2500
  802.0000  -999.2500  -999.2500  -999.2500  -999.2500   -58.9615   101.1910     5.7819     5.8111     4.9969   -77.8740  -999.2500
  802.5000  -999.2500  -999.2500  -999.2500  -999.2500   -59.0764   100.3805     5.7151     5.7436     4.9963   -77.7258  -999.2500
  803.0000  -999.2500  -999.2500  -999.2500  -999.2500   -59.1913    96.7475     5.6904     5.6904     4.9958   -87.6580  -999.2500
  803.5000  -999.2500  -999.2500  -999.2500  -999.2500   -59.2896    91.5015     5.6991     5.7018     4.9491   -87.5098  -999.2500
  804.0000  -999.2500  -999.2500  -999.2500  -999.2500   -59.1229    88.6749     5.7079     5.7132     4.9486   -67.2010  -999.2500
  804.5000  -999.2500  -999.2500  -999.2500  -999.2500   -58.9562    91.0895     5.7167     5.7246     5.0407   -87.2134  -999.2500
  805.0000  -999.2500  -999.2500  -999.2500  -999.2500   -58.7895    97.9405     5.7256     5.7361     4.9936   -87.0652  -999.2500
  805.5000  -999.2500  -999.2500  -999.2500  -999.2500   -58.6228   104.3882     5.7344     5.7475     4.9470   -86.8578  -999.2500
  806.0000  -999.2500  -999.2500  -999.2500  -999.2500   -58.2919   105.1907     5.7432     5.7590     5.0391   -66.6086  -999.2500
  806.5000  -999.2500  -999.2500  -999.2500  -999.2500   -58.3991   103.5738     5.7521     5.7706     4.9920   -76.5406  -999.2500
  807.0000  -999.2500  -999.2500  -999.2500  -999.2500   -58.5063   103.1666     5.7610     5.7821     4.9454   -76.3925  -999.2500
  807.5000  -999.2500  -999.2500  -999.2500  -999.2500   -58.6136   101.9529     5.7699     5.7937     4.9449   -86.2946  -999.2500
  808.0000  -999.2500  -999.2500  -999.2500  -999.2500   -58.7208   101.1425     5.7788     5.8053     5.0839   -65.9866  -999.2500
  808.5000  -999.2500  -999.2500  -999.2500  -999.2500   -58.8280   100.7353     5.7894     5.8169     5.0364   -85.9982  -999.2500
  809.0000  -999.2500  -999.2500  -999.2500  -999.2500   -58.9353   100.3281     5.7358     5.8285     4.9893   -85.8500  -999.2500
  809.5000  -999.2500  -999.2500  -999.2500  -999.2500   -59.0425   101.9362     5.6966     5.8421     4.9887   -85.7018  -999.2500
  810.0000  -999.2500  -999.2500  -999.2500  -999.2500   -59.1142   101.1266     5.6576     5.7879     4.9882   -85.5537  -999.2500
  810.5000  -999.2500  -999.2500  -999.2500  -999.2500   -59.1146   100.7186     5.6188     5.7116     4.9416   -85.4055  -999.2500
  811.0000  -999.2500  -999.2500  -999.2500  -999.2500   -58.4149   100.3114     5.5804     5.6275     4.9874   -75.1777  -999.2500
  811.5000  -999.2500  -999.2500  -999.2500  -999.2500   -57.7093   103.9365     5.5233     5.6271     4.8949   -85.1091  -999.2500
  812.0000  -999.2500  -999.2500  -999.2500  -999.2500   -57.9129   104.3357     5.5231     5.6662     4.9860   -74.8814  -999.2500
  812.5000  -999.2500  -999.2500  -999.2500  -999.2500   -58.1165   100.7027     5.5383     5.7054     4.9395   -84.8127  -999.2500
  813.0000  -999.2500  -999.2500  -999.2500  -999.2500   -58.5217    98.2793     5.5535     5.7450     4.9390   -84.6646  -999.2500
  813.5000  -999.2500  -999.2500  -999.2500  -999.2500   -58.7249    96.2592     5.5212     5.7848     4.9384   -84.5164  -999.2500
  814.0000  -999.2500  -999.2500  -999.2500  -999.2500   -59.1313    96.2552     5.6240     5.8249     4.9379   -84.3682  -999.2500
  814.5000  -999.2500  -999.2500  -999.2500  -999.2500   -58.9305    95.4448     5.6234     5.8653     4.9834   -84.2200  -999.2500
  815.0000  -999.2500  -999.2500  -999.2500  -999.2500   -58.8822    95.0376     5.7279     5.8351     4.9368   -84.0422  -999.2500
  815.5000  -999.2500  -999.2500  -999.2500  -999.2500   -58.8339    96.2433     5.7806     5.7810     4.9362   -83.8941  -999.2500
  816.0000  -999.2500  -999.2500  -999.2500  -999.2500   -58.7857    97.8522     5.7267     5.7648     4.9357   -83.7459  -999.2500
  816.5000  -999.2500  -999.2500  -999.2500  -999.2500   -58.7374    97.4450     5.7261     5.7486     4.9351   -83.5978  -999.2500
  817.0000  -999.2500  -999.2500  -999.2500  -999.2500   -58.6891    98.6507     5.6726     5.7324     4.9346   -83.4496  -999.2500
  817.5000  -999.2500  -999.2500  -999.2500  -999.2500   -58.6408    98.2428     5.6723     5.7163     4.8885   -73.2225  -999.2500
  818.0000  -999.2500  -999.2500  -999.2500  -999.2500   -58.5925    94.6097     5.6573     5.7002     4.9795   -83.1533  -999.2500
  818.5000  -999.2500  -999.2500  -999.2500  -999.2500   -58.5440    91.3799     5.6423     5.6842     4.9790   -83.0051  -999.2500
  819.0000  -999.2500  -999.2500  -999.2500  -999.2500   -58.5448    93.3921     5.6273     5.6701     4.9325   -82.8569  -999.2500
  819.5000  -999.2500  -999.2500  -999.2500  -999.2500   -58.5090    96.6139     5.6695     5.7227     4.9320   -82.7088  -999.2500
  820.0000  -999.2500  -999.2500  -999.2500  -999.2500   -58.4733    97.4164     5.6693     5.7593     5.0238   -82.5606  -999.2500
  820.5000  -999.2500  -999.2500  -999.2500  -999.2500   -58.4376    95.3963     5.6983     5.7961     5.0232   -82.4125  -999.2500
  821.0000  -999.2500  -999.2500  -999.2500  -999.2500   -58.4019    91.7633     5.7274     5.8332     5.1164   -72.1857  -999.2500
  821.5000  -999.2500  -999.2500  -999.2500  -999.2500   -58.3551    91.7593     5.7567     5.8705     5.1163   -82.1161  -999.2500
  822.0000  -999.2500  -999.2500  -999.2500  -999.2500   -58.3563    92.5618     5.7861     5.9080     5.1345   -92.0168  -999.2500
  822.5000  -999.2500  -999.2500  -999.2500  -999.2500   -58.7615    96.9933     5.8157     5.9458     5.1528   -71.7118  -999.2500
  823.0000  -999.2500  -999.2500  -999.2500  -999.2500   -59.1667    99.8119     5.8454     5.9838     5.1711   -81.6421  -999.2500
  823.5000  -999.2500  -999.2500  -999.2500  -999.2500   -59.3703   100.6144     5.8753     6.0221     5.1896   -81.4939  -999.2500
  824.0000  -999.2500  -999.2500  -999.2500  -999.2500   -59.3723    99.4008     5.9054     6.0606     5.2080   -81.3458  -999.2500
  824.5000  -999.2500  -999.2500  -999.2500  -999.2500   -59.3743    95.7669     5.9355     6.0993     5.2266   -81.1976  -999.2500
  825.0000  -999.2500  -999.2500  -999.2500  -999.2500   -58.5698    96.1662     5.9659     6.1383     5.2452   -81.0495  -999.2500
  825.5000  -999.2500  -999.2500  -999.2500  -999.2500   -58.1689    99.3881     5.9964     6.1776     5.2639   -90.9795  -999.2500
  826.0000  -999.2500  -999.2500  -999.2500  -999.2500   -57.9693   103.8196     6.0270     6.2115     5.2827   -80.7532  -999.2500
  826.5000  -999.2500  -999.2500  -999.2500  -999.2500   -58.1729   106.2350     6.0579     6.1538     5.3015   -80.6051  -999.2500
  827.0000  -999.2500  -999.2500  -999.2500  -999.2500   -58.3765   103.4084     6.0958     6.1318     5.3204   -80.4570  -999.2500
  827.5000  -999.2500  -999.2500  -999.2500  -999.2500   -58.3773   100.5818     6.1033     6.1099     5.3393  -100.5239  -999.2500
  828.0000  -999.2500  -999.2500  -999.2500  -999.2500   -58.7837   100.5779     6.1109     6.0880     5.3583   -80.1607  -999.2500
  828.5000  -999.2500  -999.2500  -999.2500  -999.2500   -59.1893    98.5577     6.1184     6.0663     5.3774   -80.0126  -999.2500
  829.0000  -999.2500  -999.2500  -999.2500  -999.2500   -59.1897    95.7312     6.1259     6.0368     5.3998   -79.8348  -999.2500
