~VERSION INFORMATION
 VERS.                2.0:   CWLS LOG ASCII STANDARD - VERSION 2.0
 WRAP.                 NO:   ONE LINE PER DEPTH STEP
~WELL INFORMATION
#MNEM.UNIT      DATA TYPE    INFORMATION
#----------   ------------   ------------------------------
 STRT.F          190.0000:   START DEPTH
 STOP.F         3215.0000:   STOP DEPTH
 STEP.F            0.5000:   STEP LENGTH
 NULL.          -999.2500:   NO VALUE
 COMP.    FENIX & SCISSON:   COMPANY
 WELL.  FENIX "AX" #78-34:   WELL
 FLD . NAVAL PET. RES. NO. 3:   FIELD
 LOC .      S34 T39N R78W:   LOCATION
 CNTY.            NATRONA:   COUNTY
 STAT.            WYOMING:   STATE
 CTRY. UNITED STATES OF AMERICA:   COUNTRY
 SRVC.       SCHLUMBERGER:   SERVICE COMPANY
 DATE.        16-DEC-1980:   LOGDATE
 API .     49025108670000:   API NUMBER
~CURVE INFORMATION
#MNEM.UNIT       API CODE    CURVE DESCRIPTION
#----------   ------------   ------------------------------
 DEPT.F                  :   
 TEND.LBS    45 635 01 00:   TENSION FORM DENSITY LOG
 GRD .GAPI   45 310 01 00:   GAMMA RAY FROM DENSITY LOG
 CALD.IN     45 280 60 00:   CALIPER FROM DENSITY LOG
 CORR.G/C3   45 356 01 00:   DENSITY CORRECTION
 RHOB.G/C3   45 350 01 00:   BULK DENSITY
 SPR .MV     07 010 01 00:   SPONTANEOUS POTENTIAL
 TENR.LBS    07 635 01 00:   TENSION FROM RESISTIVITY
 ILD .OHMM   07 120 46 00:   DEEP INDUCTION RESISTIVITY
 ILM .OHMM   07 120 44 00:   INDUCTION LOG MEDIUM RESISTIVITY
 SFL .OHMM   07 220 01 00:   SHALLOW FOCUSED LOG RESISTIVITY
~PARAMETER INFORMATION
#MNEM.UNIT          VALUE    DESCRIPTION
#----------   ------------   ------------------------------
 EKB .F         5068.0000:   Kelly bushing
 EGL .F         5058.0000:   Ground level
 EDF .F            0.0000:   Drilling floor
 EPD .F            0.0000:   Permanent datum
 TD  .F         3202.0000:   Total depth
 CLNT.            A2DTECH:   Client Code
 SL  . 542' FSL & 693' FEL:   Surface Location
 PD  .                 GL:   Permanent Datum
 DAPD.F                10:   Feet Above Permanent Datum
 DATE.        16-DEC-1980:   Date Logged [DD-MMM-YYYY]
 DD  .F              3200:   Depth driller
 DL  .F              3202:   Depth logger
 BLI .F              3199:   Bottom log interval
 TLI .F               193:   Top log interval
 CS1 .IN            8.625:   Casing size
 CBD1.      8.625" @ 215':   Casing driller 1
 CBL1.F               193:   Casing logger 1
 BS1 .IN            7.875:   Bit size
 BSD1.F              3200:   Depth drilled with bit1
 DFT .               LSND:   Type fluid in hole
 DFD .                9.1:   Density
 DFV .                 35:   Viscosity
 DFPH.                  8:   pH
 DFL .                 16:   Fluid loss
 MSS .            MUD PIT:   Source of sample
 RMS .OHMM            2.9:   Rm
 MST .F                56:   Rm Meas. temp.
 RMF .OHMM            2.4:   Rmf
 MFST.F                56:   Rmf Meas. temp.
 MFSS.               MEAS:   Source Rmf.
 RMC .OHMM            2.7:   Rmc
 MCST.F                56:   Rmc Meas. temp.
 MCSS.               CALC:   Source Rmc.
 RMB .OHMM           1.35:   Rm. at BHT
 BHT .F               120:   BHT.
 TCS .HRS            2100:   Time Circ. stopped
 MRT .F               120:   Maximum recorded temp.
 LUN .               8161:   Logging unit number
 ENGI.             SITTON:   Recorded By
 WITN.              FIVAS:   Witnessed by
 ORIG.           5" PRINT:   Origin of data
 UWI .     49025108670000:   Unique Well ID
 DICO. A2D TECHNOLOGIES, INC.:   Digitizing Company
~OTHER INFORMATION
~A   DEPT     TEND         GRD      CALD       CORR       RHOB        SPR       TENR        ILD        ILM        SFL   
# ...
  592.0000   316.2525    60.8052     9.7253     0.0366     2.3763   -62.2079   249.2522    17.1454    15.4597    15.5583
  592.5000   313.0961    64.0683     9.7260     0.0343     2.3741   -61.8708   249.2522    17.1563    15.1508    15.0349
  593.0000   311.2450    66.4438     9.7269     0.0305     2.3628   -61.5251   242.9711    17.1651    14.9489    15.0451
  593.5000   311.2450    66.7484     9.7276     0.0298     2.3531   -61.1449   234.6959    17.0530    15.1672    15.2632
  594.0000   311.2450    65.1757     9.7283     0.0322     2.3516   -60.6390   229.3121    16.5969    15.1754    15.1640
  594.5000   313.9684    63.5112     9.7290     0.0369     2.3704   -60.0483   229.3121    16.6054    15.1836    14.9636
  595.0000   320.2811    66.7765     9.7445     0.0401     2.3862   -59.8558   229.3053    16.3850    14.7777    14.6658
  595.5000   326.5939    69.4479     9.7452     0.0386     2.3870   -59.6249   229.3121    16.2797    14.3827    14.4720
  596.0000   329.5181    70.3441     9.7460     0.0308     2.3823   -59.5054   229.3121    16.2883    14.2914    14.4798
  596.5000   322.3035    70.9445     9.7467     0.0254     2.3735   -59.5158   229.3121    16.2967    14.2006    14.5884
  597.0000   315.0889    71.2491     9.7474     0.0286     2.3660   -59.5837   229.3121    16.3052    14.2087    14.8000
  597.5000   311.2450    71.5536     9.7334     0.0325     2.3600   -59.4914   229.3092    16.4288    14.4158    14.9127
  598.0000   311.2450    71.2663     9.7490     0.0342     2.3563   -59.5821   229.3029    16.4372    14.6243    14.9208
  598.5000   311.2450    70.3875     9.7497     0.0286     2.3601   -59.5081   229.3042    16.5600    14.8358    15.1371
  599.0000   311.2436    68.8343     9.7505     0.0207     2.3834   -59.2993   232.1116    16.6837    15.1548    15.8976
  599.5000   311.2450    65.0815     9.7512     0.0281     2.4158   -59.3222   237.6375    16.9254    15.4806    16.9291
  600.0000   311.2450    63.9053     9.7667     0.0461     2.4767   -59.1250   243.1509    17.1705    15.5963    17.5949
  600.5000   311.2432    64.5247     9.7674     0.0545     2.5092   -59.3194   248.6643    16.9426    15.8198    17.9103
  601.0000   311.2450    65.4398     9.7681     0.0590     2.4715   -59.4618   241.8744    16.3735    14.8760    16.4888
  601.5000   311.2450    66.8923     9.7542     0.0468     2.4076   -59.5144   233.6158    15.8235    14.0837    14.8681
  602.0000   311.2450    67.4928     9.7553     0.0265     2.3839   -59.5167   226.5204    15.3963    13.8232    14.1704
  602.5000   316.9344    68.0932     9.7564     0.0220     2.3681   -59.3099   220.6909    15.0779    13.5261    13.7889
  603.0000   323.5609    68.9895     9.7868     0.0296     2.3852   -59.1790   214.8613    14.5803    13.2289    13.3245
  603.5000   330.1874    70.4775     9.7877     0.0402     2.4119   -58.9266   209.3719    14.1881    12.7948    12.9607
  604.0000   329.4542    72.2614     9.7886     0.0440     2.4290   -58.3396   216.8637    14.1949    12.5354    12.8716
  604.5000   327.1951    72.8619     9.7895     0.0455     2.4321   -57.6954   223.9425    14.3005    12.6378    12.9035
  605.0000   324.9361    71.9831     9.8051     0.0440     2.4001   -57.3149   229.3121    14.4475    13.0763    13.2562
  605.5000   322.6771    70.8084     9.8355     0.0418     2.3871   -56.9103   229.3121    14.5140    13.0808    13.3537
  606.0000   320.4180    69.9273     9.8512     0.0373     2.3848   -56.7463   229.3166    14.5209    12.9950    13.2657
  606.5000   318.1590    69.9383     9.8816     0.0313     2.3833   -56.5292   229.3121    14.4274    12.9099    13.2725
  607.0000   315.9000    70.2428     9.9120     0.0283     2.3802   -56.3285   229.3121    14.4346    12.9154    13.1863
  607.5000   313.6409    70.8433     9.9129     0.0283     2.3857   -56.0378   229.3121    14.5434    12.8298    13.0089
  608.0000   311.2450    71.7436     9.9285     0.0283     2.3990   -55.9284   229.3121    14.5503    12.7469    12.8365
  608.5000   305.4039    72.6361     9.9442     0.0283     2.4138   -55.7763   229.3121    14.2558    12.6624    12.4909
  609.0000   299.1680    73.2367     9.9451     0.0260     2.4053   -55.9773   229.3121    13.9706    12.4929    12.2391
  609.5000   292.9353    73.5432     9.9164     0.0223     2.3914   -56.2415   229.3121    13.6894    12.3256    12.0757
  610.0000   291.4956    73.8478     9.8877     0.0201     2.3782   -56.5762   229.3121    13.5056    12.1617    11.9133
  610.5000   292.0672    75.0399     9.8590     0.0209     2.3713   -56.7815   229.3121    13.1439    11.9989    11.6743
  611.0000   292.5959    76.2321     9.8453     0.0224     2.3674   -56.9185   229.3121    12.8794    11.8382    11.3600
  611.5000   293.1246    76.5345     9.8312     0.0247     2.3675   -57.1830   229.3121    12.4464    11.5195    11.1310
  612.0000   293.6534    73.5868     9.8026     0.0194     2.3676   -57.2600   229.3121    12.1115    11.2083    10.9046
  612.5000   294.1820    71.2287     9.8037     0.0066     2.3746   -57.1674   229.3121    11.7858    10.9831    10.6868
  613.0000   294.7108    71.2375     9.7748     0.0006     2.3856   -57.1525   229.3121    11.5389    10.8361    10.5341
  613.5000   295.2395    71.8379     9.7611     0.0014     2.4099   -57.0193   229.3121    11.3949    10.6172    10.4033
  614.0000   295.7682    72.4384     9.7620     0.0014     2.4491   -56.5747   229.3121    11.1669    10.4751    10.2655
  614.5000   296.2969    73.3347     9.7628     0.0226     2.4653   -56.0297   229.3103    10.9422    10.3349    10.1284
  615.0000   296.8256    72.7517     9.7487     0.0369     2.4716   -55.5712   229.3121    10.8705    10.1966    10.0626
  615.5000   297.3543    71.8729     9.7646     0.0377     2.4745   -55.1309   229.3121    10.7271     9.9909     9.8598
  616.0000   297.8830    72.1854     9.7802     0.0340     2.4722   -54.7915   231.0181    10.7322    10.0636     9.7958
  616.5000   298.4117    73.7191     9.7959     0.0272     2.4691   -54.5362   236.5238    10.8120    10.1437     9.5983
  617.0000   298.9404    75.1535     9.7967     0.0218     2.4622   -54.2104   242.0295    10.8925    10.2815     9.5350
  617.5000   299.4691    71.9100     9.7814     0.0150     2.4529   -54.1607   247.5352    10.8976    10.3696     9.5399
  618.0000   299.9979    70.7331     9.7542     0.0120     2.4491   -53.9571   249.2522    10.9787    10.5048     9.7441
  618.5000   300.5266    70.7440     9.7553     0.0137     2.4554   -53.8097   249.2522    11.1391    10.5084    10.0915
  619.0000   301.0553    71.6404     9.7561     0.0190     2.4826   -53.8323   249.2522    11.2203    10.4387    10.4514
  619.5000   301.5840    72.8325     9.7570     0.0258     2.5006   -53.8106   244.1734    11.3050    10.4432    10.3117
  620.0000   302.1127    74.3205     9.7579     0.0266     2.5092   -54.0166   238.3438    11.3891    10.4468    10.2448
  620.5000   302.6414    75.5127     9.7588     0.0251     2.4983   -54.1088   232.5142    11.3144    10.3779    10.1783
  621.0000   303.1701    76.1132     9.7744     0.0259     2.4766   -54.2272   231.7935    11.2416    10.3819    10.0425
  621.5000   303.6989    77.6019     9.7753     0.0297     2.4775   -54.3438   237.2992    11.1705    10.3855     9.9772
  622.0000   304.2275    80.2734     9.7612     0.0350     2.4783   -54.4594   242.8049    11.0973    10.3166     9.9126
  622.5000   304.7563    81.1697     9.7623     0.0312     2.4729   -54.5749   248.3106    11.0258    10.2496     9.9175
  623.0000   305.2850    80.5867     9.7631     0.0275     2.4613   -54.6695   249.2522    10.9561    10.2535     9.9216
  623.5000   305.8137    80.2974     9.7640     0.0230     2.4661   -54.6510   249.2522    10.9613    10.1855     9.9257
  624.0000   306.3424    80.6042     9.7649     0.0200     2.4803   -54.6104   249.2522    10.9666    10.1188     9.8606
  624.5000   306.8711    80.3171     9.7657     0.0238     2.4927   -54.6147   249.2522    10.9718    10.0525     9.8647
  625.0000   307.3998    79.7341     9.7666     0.0351     2.4966   -54.6200   249.2522    10.9011     9.9874     9.8518
