~VERSION INFORMATION
 VERS.                2.0:   CWLS LOG ASCII STANDARD - VERSION 2.0
 WRAP.                 NO:   ONE LINE PER DEPTH STEP
~WELL INFORMATION
#MNEM.UNIT      DATA TYPE    INFORMATION
#----------   ------------   ------------------------------
 STRT.F            5.0000:   START DEPTH
 STOP.F         4012.0000:   STOP DEPTH
 STEP.F            0.5000:   STEP LENGTH
 NULL.          -999.2500:   NO VALUE
 COMP.   LAWRENCE ALLISON:   COMPANY
 WELL. LAWRENCE "X" 51 #1-15:   WELL
 FLD .                NPR:   FIELD
 LOC .      S15 T38N R78W:   LOCATION
 CNTY.            NATRONA:   COUNTY
 STAT.            WYOMING:   STATE
 CTRY. UNITED STATES OF AMERICA:   COUNTRY
 SRVC.      DRESSER ATLAS:   SERVICE COMPANY
 DATE.        03-JUN-1985:   LOGDATE
 API .     49025110270000:   API NUMBER
~CURVE INFORMATION
#MNEM.UNIT       API CODE    CURVE DESCRIPTION
#----------   ------------   ------------------------------
 DEPT.F                  :   
 NPHI.DEC    42 890 03 00:   NEUTRON POROSITY SANDSTONE
 RHOB.G/C3   45 350 01 00:   BULK DENSITY
 CORR.G/C3   45 356 01 00:   DENSITY CORRECTION
 TEND.LBS    45 635 01 00:   TENSION FROM DENSITY LOG
 CALD.IN     45 280 60 00:   CALIPER FROM DENSITY LOG
 GRR .GAPI   07 310 01 00:   GAMMA RAY FROM RESISTIVITY
 SPR .MV     07 010 01 00:   SPONTANEOUS POTENTIAL
 RSFL.OHMM   07 220 01 00:   SPHERICALLY FOCUSED LOG RES.
 RILD.OHMM   07 120 46 00:   DEEP INDUCTION RESISTIVITY
 RILM.OHMM   07 120 44 00:   INDUCTION LOG MEDIUM RESISTIVITY
 TENR.LBS    07 635 01 00:   TENSION
~PARAMETER INFORMATION
#MNEM.UNIT          VALUE    DESCRIPTION
#----------   ------------   ------------------------------
 EKB .F         5235.0000:   Kelly bushing
 EGL .F         5222.0000:   Ground level
 EDF .F            0.0000:   Drilling floor
 TD  .F         4010.0000:   Total depth
 DATE.        03-JUN-1985:   Date logged
 CLNT.            A2DTECH:   Client Code
 SL  . 202' FNL & 2478' FEL:   Surface Location
 PD  .                 GL:   Permanent Datum
 EPD .F              5222:   Elevation Permanent Datum
 LMF .                 KB:   Log Measured From
 DMF .                 KB:   Drilling Measured From
 DAPD.F                13:   Feet Above Permanent Datum
 DD  .F              4010:   Depth driller
 DL  .F              4005:   Depth logger
 BLI .F              4003:   Bottom log interval
 CS1 .IN            8.625:   Casing size
 CBD1.      8.625" @ 605':   Casing driller 1
 CBL1.F               608:   Casing logger 1
 BS1 .IN            7.875:   Bit size
 BSD1.F              4010:   Depth drilled with bit1
 DFT .            KCL/GEL:   Type fluid in hole
 DFD .                  9:   Density
 DFV .                 45:   Viscosity
 DFPH.                  8:   pH
 DFL .                9.8:   Fluid loss
 MSS .           FLOWLINE:   Source of sample
 RMS .OHMM            .40:   Rm
 MST .F                65:   Rm Meas. temp.
 RMF .OHMM            .32:   Rmf
 MFST.F                65:   Rmf Meas. temp.
 RMC .OHMM            .50:   Rmc
 MCST.F                65:   Rmc Meas. temp.
 MFSS.               MEAS:   Source Rmf.
 MCSS.               CALC:   Source Rmc.
 RMB .OHMM            .20:   Rm. at BHT
 BHT .F               130:   BHT.
 TCS .HRS               3:   Time Circ. stopped
 MRT .F               130:   Maximum recorded temp.
 LUN .               6274:   Logging unit number
 LUL .               GLTE:   Logging unit location
 ENGI.             RAUTIO:   Recorded By
 WITN.             STRONG:   Witnessed by
 ORIG.     2.5", 5" PRINT:   Origin of data
 UWI .     49025110270000:   Unique Well ID
 DICO. A2D TECHNOLOGIES, INC.:   Digitizing Company
~OTHER INFORMATION
~A    DEPT    NPHI       RHOB       CORR       TEND       CALD        GRR        SPR       RSFL       RILD       RILM       TENR   
# ...
 3085.5000     0.2270     2.3730     0.0960   -17.6040     9.5120   121.4570   -84.6700     3.7240     3.4100     4.0880   -83.4770
 3086.0000     0.2300     2.4050     0.0120   -18.6970     9.5120   118.6920   -84.7590     3.6900     3.5770     4.3050   -85.0000
 3086.5000     0.2350     2.4450    -0.0240   -19.7910     9.5130   116.1550   -84.8480     3.7240     3.7430     4.5230   -84.3680
 3087.0000     0.2370     2.4750    -0.0350   -20.7510     9.5140   113.7290   -84.9360     3.9290     3.9090     4.7730   -83.7480
 3087.5000     0.2350     2.5000    -0.0310   -21.5020     9.5140   113.3870   -85.0210     4.1290     4.1100     4.8200   -83.1280
 3088.0000     0.2330     2.4950    -0.0300   -22.2520     9.5150   117.1230   -84.8540     5.5880     4.3250     4.8200   -82.5090
 3088.5000     0.2370     2.4440    -0.0020   -23.0030     9.5160   122.2330   -84.6060     7.5690     4.5390     4.8520   -81.8890
 3089.0000     0.2330     2.3600     0.0510   -23.7540     9.5160   126.4480   -84.3550     6.3550     4.7540     5.0790   -81.2690
 3089.5000     0.2270     2.2690     0.1050   -24.5050     9.5170   124.1570   -84.1000     5.2200     4.9640     5.6900   -80.6490
 3090.0000     0.2200     2.3000     0.0770   -25.2550     9.5180   118.4840   -83.8450     3.9720     5.1690     6.3010   -80.0290
 3090.5000     0.2220     2.3830     0.0190   -26.0060     9.5180   110.4120   -84.1940     4.9680     5.3750     6.9670   -79.4100
 3091.0000     0.2270     2.4640     0.0060   -26.7570     9.5190   105.5880   -84.6040     6.3840     5.5800     6.8640   -78.7900
 3091.5000     0.2320     2.5320     0.0070   -27.5070     9.5200   103.5110   -85.0140     6.7770     5.7850     6.7510   -78.1700
 3092.0000     0.2370     2.5270     0.0060   -28.2580     9.5200   101.5020   -85.4210     6.7150     5.9910     6.6530   -77.5500
 3092.5000     0.2410     2.5260    -0.0060   -29.0090     9.5210    99.4980   -85.8310     6.9350     6.1960     6.5920   -76.9300
 3093.0000     0.2460     2.5250    -0.0170   -29.7600     9.5220    97.4240   -85.9910     7.2250     6.4010     6.6550   -76.3110
 3093.5000     0.2410     2.5220    -0.0210   -30.5100     9.5220    97.5980   -85.9430     7.6390     6.6530     6.7100   -75.6910
 3094.0000     0.2360     2.5220    -0.0190   -31.2610     9.5230    98.5540   -85.8920     7.4920     6.4820     6.7650   -75.0710
 3094.5000     0.2320     2.5220     0.0060   -32.0120     9.5240   100.5700   -85.8410     7.2870     6.1810     6.7770   -74.4510
 3095.0000     0.2290     2.5150     0.0250   -32.7620     9.5240   102.3600   -85.7900     7.0830     6.1810     6.6480   -73.8310
 3095.5000     0.2290     2.5070     0.0050   -33.5130     9.5250   103.1470   -85.7390     6.8780     6.1810     6.5920   -73.2120
 3096.0000     0.2300     2.5020     0.0130   -34.2640     9.5260   104.4070   -85.6880     6.5090     6.2260     6.7990   -72.5920
 3096.5000     0.2310     2.5000     0.0340   -35.0150     9.5260   107.6680   -85.6370     6.0740     6.2990     6.9780   -71.9720
 3097.0000     0.2340     2.4970     0.0500   -35.7650     9.5270   110.6130   -85.5860     5.7420     6.3730     7.1570   -71.3520
 3097.5000     0.2370     2.4960     0.0310   -36.5160     9.5280   111.3010   -85.5350     5.9570     6.4720     7.3360   -70.7320
 3098.0000     0.2390     2.4960     0.0170   -37.2670     9.5280   111.3060   -85.4840     7.6520     6.4020     7.3630   -70.1130
 3098.5000     0.2380     2.4960    -0.0150   -38.0170     9.5290   111.3500   -85.4340     9.2680     6.2940     6.8250   -69.4930
 3099.0000     0.2360     2.4960    -0.0450   -38.7680     9.5300   112.1950   -85.4620     9.8860     6.2380     6.4560   -68.8730
 3099.5000     0.2330     2.4970    -0.0520   -39.5190     9.5300   113.0360   -85.5590     8.8700     6.2950     6.0860   -68.2530
 3100.0000     0.2340     2.5050    -0.0180   -40.4190     9.5310   113.8710   -85.6550     7.9280     5.7620     5.7170   -67.6340
 3100.5000     0.2480     2.5200     0.0110   -36.9300     9.5320   114.7030   -85.7510     6.9860     5.4450     5.3480   -67.0140
 3101.0000     0.2430     2.5190     0.0290   -32.5740     9.5320   115.4950   -85.8470     6.3040     5.1280     4.9790   -66.3940
 3101.5000     0.2390     2.5070     0.0060   -28.2170     9.5330   115.8860   -85.9430     5.8640     4.8110     4.7320   -65.7740
 3102.0000     0.2360     2.4970    -0.0200   -23.8610     9.5340   114.2290   -86.0400     5.4240     4.4770     4.6550   -65.1540
 3102.5000     0.2330     2.4860    -0.0310   -19.5040     9.5340   112.5620   -86.1360     5.1360     4.3710     4.5730   -64.4790
 3103.0000     0.2340     2.4850    -0.0210   -15.1480     9.5350   112.9840   -86.2330     5.1040     4.2840     4.4910   -63.7860
 3103.5000     0.2370     2.4930    -0.0140   -10.7910     9.5360   113.6620   -86.3290     5.0720     4.1970     4.4090   -63.0930
 3104.0000     0.2340     2.4970    -0.0050    -6.4350     9.5360   114.3720   -86.3830     5.0470     4.1100     4.3270   -62.4000
 3104.5000     0.2300     2.4920     0.0030    -2.0780     9.5370   113.2120   -86.1980     5.1410     4.0230     4.2450   -61.7070
 3105.0000     0.2290     2.4880     0.0130    -2.7800     9.5380   113.0370   -86.0160     4.9720     3.9570     4.1630   -61.0140
 3105.5000     0.2330     2.4840     0.0240    -6.3590     9.5380   113.1680   -85.8330     4.8040     3.9200     4.0830   -60.3210
 3106.0000     0.2360     2.4830     0.0250    -9.9370     9.5390   112.9160   -85.6470     4.6360     3.8730     4.0740   -59.6270
 3106.5000     0.2350     2.4810     0.0030   -13.5160     9.5400   109.5620   -85.6510     4.4770     3.8110     4.0640   -58.9340
 3107.0000     0.2360     2.4790     0.0020   -17.0940     9.5400   107.5050   -85.6960     4.4770     3.7490     4.0550   -58.2410
 3107.5000     0.2460     2.4770     0.0090   -20.4590     9.5400   105.4120   -85.7430     4.4770     3.6880     4.0460   -57.5480
 3108.0000     0.2530     2.4740     0.0140    -9.8400     9.5400   104.4360   -85.7870     4.4950     3.6560     4.0380   -56.8550
 3108.5000     0.2410     2.4710     0.0010     0.1800     9.5400   105.4340   -85.7770     4.5110     3.6720     4.0300   -56.1620
 3109.0000     0.2290     2.4690    -0.0140    10.2000     9.5400   107.7160   -85.5920     4.5300     3.6860     4.0220   -55.4680
 3109.5000     0.2310     2.4660    -0.0310    19.4610     9.5400   109.9620   -85.4110     4.5610     3.6900     4.0140   -54.8630
 3110.0000     0.2320     2.4640    -0.0460    13.4730     9.5400   112.2030   -85.2310     4.5510     3.7450     4.0090   -54.4420
 3110.5000     0.2320     2.4600    -0.0590     7.9060     9.5400   112.1660   -85.0510     4.4770     3.9070     4.2120   -54.0200
 3111.0000     0.2320     2.4660    -0.0360     2.3400     9.5400   113.2470   -84.8710     4.3400     4.0700     4.3570   -53.5980
 3111.5000     0.2340     2.4770    -0.0150    -3.2270     9.5400   114.3420   -84.6910     4.1570     4.2370     4.4770   -53.1770
 3112.0000     0.2410     2.4870     0.0090    -8.7940     9.5400   114.6760   -84.5110     3.9720     4.5850     4.9260   -52.7550
 3112.5000     0.2490     2.4940     0.0150   -14.3600     9.5400   110.5400   -84.3310     3.9720     4.9410     5.4480   -52.3330
 3113.0000     0.2540     2.4970    -0.0010   -20.4590     9.5400   104.6440   -84.1530     4.6480     5.2970     5.9710   -51.9120
 3113.5000     0.2550     2.5000     0.0040   -18.6470     9.5400    98.9250   -84.0380     5.6430     5.6540     6.2990   -51.4900
 3114.0000     0.2570     2.5030     0.0260   -16.6430     9.5400    94.0510   -84.1490     6.5780     6.0100     6.5840   -51.0680
 3114.5000     0.2650     2.5060     0.0410   -14.6390     9.5400    90.8970   -84.2580     7.4780     6.2380     6.9670   -50.6470
 3115.0000     0.2670     2.5100     0.0210   -12.6350     9.5400    90.3420   -84.3660     8.2630     6.2380     6.8260   -50.2250
 3115.5000     0.2690     2.5160     0.0040   -10.6310     9.5400    92.8330   -84.4750     8.7710     6.2380     6.6100   -49.8030
