~VERSION INFORMATION
 VERS.                2.0:   CWLS LOG ASCII STANDARD - VERSION 2.0
 WRAP.                 NO:   ONE LINE PER DEPTH STEP
~WELL INFORMATION
#MNEM.UNIT      DATA TYPE    INFORMATION
#----------   ------------   ------------------------------
 STRT.F          200.0000:   START DEPTH
 STOP.F         3124.0000:   STOP DEPTH
 STEP.F            0.5000:   STEP LENGTH
 NULL.          -999.2500:   NO VALUE
 COMP.    FENIX & SCISSON:   COMPANY
 WELL. FENIX SCISSON #18-27:   WELL
 FLD .                NPR:   FIELD
 LOC .      S27 T39N R78W:   LOCATION
 CNTY.            NATRONA:   COUNTY
 STAT.            WYOMING:   STATE
 CTRY. UNITED STATES OF AMERICA:   COUNTRY
 SRVC.              WELEX:   SERVICE COMPANY
 DATE.        26-SEP-1977:   LOGDATE
 API .     49025104210000:   API NUMBER
~CURVE INFORMATION
#MNEM.UNIT       API CODE    CURVE DESCRIPTION
#----------   ------------   ------------------------------
 DEPT.F                  :   
 CALD.IN     45 280 60 00:   CALIPER FROM DENSITY LOG
 GRD .GAPI   45 310 01 00:   GAMMA RAY FROM DENSITY LOG
 RHOB.G/C3   45 350 01 00:   BULK DENSITY
 CORR.G/C3   45 356 01 00:   DENSITY CORRECTION
 NPHI.DEC    42 890 03 00:   NEUTRON POROSITY SANDSTONE
 SPR .MV     07 010 01 00:   SPONTANEOUS POTENTIAL
 GURD.OHMM   07 220 05 00:   GUARD LOG RESISTIVITY
 ILD .OHMM   07 120 46 00:   DEEP INDUCTION RESISTIVITY
 ILM .OHMM   07 120 44 00:   INDUCTION LOG MEDIUM RESISTIVITY
 TENR.LBS    07 635 01 00:   TENSION FROM RESISTIVITY
~PARAMETER INFORMATION
#MNEM.UNIT          VALUE    DESCRIPTION
#----------   ------------   ------------------------------
 EKB .F         5080.0000:   Kelly bushing
 EGL .F         5070.0000:   Ground level
 EDF .F            0.0000:   Drilling floor
 EPD .F            0.0000:   Permanent datum
 TD  .F         3117.0000:   Total depth
 DATE.        26-SEP-1977:   Date logged
 CLNT.            A2DTECH:   Client Code
 SL  . 330' FSL & 1650' FWL:   Surface Location
 PD  .                 GL:   Permanent Datum
 DAPD.F                10:   Feet Above Permanent Datum
 DD  .F              3115:   Depth driller
 DL  .F              3117:   Depth logger
 BLI .F              3115:   Bottom log interval
 TLI .F               200:   Top log interval
 CS1 .IN            8.625:   Casing size
 CBD1.      8.625" @ 219':   Casing driller 1
 CBL1.F               220:   Casing logger 1
 BS1 .IN            7.875:   Bit size
 BSD1.F              3115:   Depth drilled with bit1
 DFT .            KCL MUD:   Type fluid in hole
 DFD .                9.1:   Density
 DFV .                 35:   Viscosity
 DFPH.                 11:   pH
 DFL .               17.2:   Fluid loss
 MSS .           FLOWLINE:   Source of sample
 RMS .OHMM            .59:   Rm
 MST .F                98:   Rm Meas. temp.
 RMF .OHMM            .56:   Rmf
 MFST.F                98:   Rmf Meas. temp.
 RMC .OHMM            .24:   Rmc
 MCST.F                98:   Rmc Meas. temp.
 MFSS.               MEAS:   Source Rmf.
 MCSS.               MEAS:   Source Rmc.
 RMB .OHMM            .48:   Rm. at BHT
 BHT .F               116:   BHT.
 TCS .HRS               4:   Time Circ. stopped
 MRT .F               116:   Maximum recorded temp.
 LUN .               8611:   Logging unit number
 LUL .             CASPER:   Logging unit location
 ENGI.            C. DOAK:   Recorded By
 WITN.         PETTINGILL:   Witnessed by
 ORIG.           5" PRINT:   Origin of data
 UWI .     49025104210000:   Unique Well ID
 DICO. A2D TECHNOLOGIES, INC.:   Digitizing Company
~OTHER INFORMATION
~A   DEPT     CALD        GRD       RHOB       CORR         NPHI      SPR       GURD        ILD        ILM        TENR  
# ...
 2310.5000     8.1418   109.2909     2.4060    -0.0145     0.3720   -70.6921    10.8514     5.4032     8.7071   793.5601
 2311.0000     8.1421   105.7336     2.4060    -0.0145     0.3585   -70.2969    10.8528     5.7624     8.6283   793.3670
 2311.5000     8.1425   102.9668     2.4090    -0.0085     0.3470   -70.2957    10.8543     5.8162     6.9878   793.1774
 2312.0000     8.1428   105.9289     2.4229    -0.0046     0.3418   -69.9001    10.2742     5.9247     6.9248   792.9852
 2312.5000     8.1431   105.9289     2.4348    -0.0046     0.3406   -70.2933     9.8148     6.0908     7.1846   792.7929
 2313.0000     8.1434   105.9289     2.4368    -0.0026     0.3390   -70.2924     9.7264     6.1477     7.3183   792.6776
 2313.5000     8.1437   105.1383     2.4338    -0.0046     0.3382   -70.2912     9.7277     6.2052     7.7337   792.4854
 2314.0000     8.1441    96.2474     2.4298    -0.0026     0.3362   -70.2900    14.0433     6.2632     8.3238   792.2547
 2314.5000     8.1444    92.2949     2.4288     0.0014     0.3330   -70.2887    13.6892     6.4388     8.5572   792.1009
 2315.0000     8.1447    89.5281     2.4298    -0.0006     0.3271   -70.2875    13.2943     6.4990     8.5583   791.9086
 2315.5000     8.1450    88.7375     2.4378     0.0014     0.3199   -70.2863    12.5838     6.7428     8.5594   791.6778
 2316.0000     8.1453    89.5281     2.4477     0.0093     0.3195   -70.2851    10.9674     6.8057     8.5606   791.4346
 2316.5000     8.1457    92.2949     2.4596     0.0093     0.3207   -70.2839    10.1924     6.9965     8.5617   791.3192
 2317.0000     8.1460    97.4332     2.4725     0.0153     0.3259   -70.2827    10.1938     7.1927     8.5628   791.3539
 2317.5000     8.1463   101.3858     2.4795     0.0172     0.3271   -70.2815     9.5062     7.2601     8.6428   791.3887
 2318.0000     8.1466   105.5336     2.4765     0.0172     0.3275   -70.2803    10.5777     7.9587     8.9671   791.4235
 2318.5000     8.1469   102.1763     2.4596     0.0152     0.3279   -70.2791    11.7024     8.9983     9.3036   791.4583
 2319.0000     8.1473    99.4095     2.4487     0.0093     0.3314   -70.2779    14.7221     9.2509     9.9222   791.4931
 2319.5000     8.1476    98.6190     2.4387     0.0093     0.3334   -70.2767    16.1393     9.5107    10.2943   791.5279
 2320.0000     8.1479    98.6190     2.4308     0.0073     0.3366   -70.4725    14.7261     9.7777    10.5830   791.5626
 2320.5000     8.1482    98.6190     2.4218     0.0073     0.3402   -70.2743    11.0820     9.8693    10.5844   791.5974
 2321.0000     8.1485   102.1763     2.4258     0.0053     0.3410   -70.2731    11.4732     9.6022    10.3933   791.6322
 2321.5000     8.1489   106.3241     2.4297     0.0073     0.3410   -70.4689    12.1497     9.2565    10.1123   791.6670
 2322.0000     8.1492   102.1763     2.4317     0.0073     0.3394   -70.4677    15.8561     8.4179     9.8388   791.7018
 2322.5000     8.1495   102.5715     2.4079     0.0033     0.3398   -70.4665    15.4284     8.0414     9.5733   791.7365
 2323.0000     8.1498   108.8957     2.3989     0.0013     0.3370   -70.4653    15.0102     7.6817     9.5743   791.7713
 2323.5000     8.1502   119.1723     2.3969     0.0013     0.3298   -70.6611     9.7535     7.5430     9.4014   791.8061
 2324.0000     8.1505   127.8680     2.3940     0.0013     0.3219   -70.4629     9.7545     7.4068     9.4027   791.8409
 2324.5000     8.1508   136.1684     2.3870     0.0013     0.3187   -70.6587    12.2715     7.2730     9.4039   791.8757
 2325.0000     8.1511   139.3304     2.3820    -0.0007     0.3143   -70.8545    15.0188     7.1416     8.7395   791.9104
 2325.5000     8.1514   147.6308     2.3860     0.0033     0.3127   -70.8533    17.5572     7.0773     7.4096   791.9452
 2326.0000     8.1518   157.3123     2.3939     0.0052     0.3115   -70.8521     8.3497     7.2091     7.5479   791.9800
 2326.5000     8.1521   155.9312     2.3909     0.0013     0.3099   -71.6392     8.9047     6.6386     8.6126   792.0148
 2327.0000     8.1524   151.9787     2.3919    -0.0007     0.3095   -71.8350    14.0922     6.2837     8.3025   792.0496
 2327.5000     8.1527   150.7929     2.3949    -0.0007     0.3127   -71.8338    15.0290     6.0026     7.5053   792.0844
 2328.0000     8.1530   155.1407     2.4068     0.0012     0.3159   -71.8326    12.7423     5.6298     6.4017   792.1191
 2328.5000     8.1534   160.6743     2.4227     0.0012     0.3334   -72.0285    11.5201     4.9064     5.5790   792.1539
 2329.0000     8.1537   165.8126     2.4406     0.0032     0.3434   -72.2244     6.1725     4.6016     5.1518   792.1887
 2329.5000     8.1540   170.9510     2.4505     0.0032     0.3513   -72.2232     6.4632     4.3556     4.7743   792.2235
 2330.0000     8.1543   169.7652     2.4694     0.0012     0.3589   -72.2220     7.1510     4.1991     4.8191   792.2583
 2330.5000     8.1544   156.7217     2.4833     0.0012     0.3648   -72.2208     6.0625     4.1232     4.6458   792.2930
 2331.0000     8.1544   141.3067     2.4793     0.0032     0.3728   -72.2199     4.9093     4.0860     4.6039   792.3278
 2331.5000     8.1742   140.1209     2.4654     0.0032     0.3772   -72.2187     5.2842     3.9032     5.0009   792.3626
 2332.0000     8.2137   136.5636     2.4694     0.0052     0.3815   -72.0204     7.1544     3.9037     5.4824   792.3974
 2332.5000     8.2137   133.0063     2.4724     0.0072     0.3859   -72.2163     6.9610     3.9402     4.9112   792.4322
 2333.0000     8.2137   133.0063     2.4803     0.0091     0.3951   -71.6232     6.3514     3.9047     4.9118   792.4670
 2333.5000     8.2334   136.1684     2.4823     0.0091     0.4026   -71.6224     6.1231     3.9412     4.9577   792.5017
 2334.0000     8.2532   131.8206     2.4803     0.0111     0.3978   -71.6213     6.4706     4.0891     5.1437   792.5365
 2334.5000     8.2730   127.0775     2.4843     0.0091     0.3994   -72.0145     7.2252     4.0152     5.1444   792.5713
 2335.0000     8.2730   122.7296     2.4892     0.0091     0.4022   -72.0133     7.0945     4.0527     5.1450   792.6061
 2335.5000     8.2730   122.7296     2.4932     0.0071     0.4094   -72.0121     7.0954     4.0532     5.0986   792.6409
 2336.0000     8.2730   123.1249     2.4902     0.0071     0.4137   -71.8138     7.0961     4.0537     5.0993   792.6756
 2336.5000     8.2730   123.1249     2.4872     0.0051     0.4233   -71.8126     6.7788     4.0171     5.0533   792.7104
 2337.0000     8.2730   127.0775     2.4832     0.0071     0.4249   -71.8115     6.3183     3.9809     5.0078   792.7452
 2337.5000     8.2532   129.8443     2.4822     0.0071     0.4209   -71.8103     6.3191     3.9814     5.0546   792.7800
 2338.0000     8.2334   131.6206     2.4822     0.0091     0.4141   -71.8091     7.1653     4.0186     4.9632   792.8148
 2338.5000     8.2334   128.2632     2.4822     0.0091     0.4066   -71.8079     6.6591     3.9824     4.9185   792.8496
 2339.0000     8.2334   129.2490     2.4852     0.0170     0.4002   -71.8067     6.2563     3.9464     4.8741   792.8843
 2339.5000     8.2334   131.6206     2.4882     0.0091     0.3887   -71.8055     5.8573     4.0570     4.8748   792.9191
 2340.0000     8.2532   130.8300     2.4892     0.0091     0.3851   -71.8043     5.6988     4.2875     4.8754   792.9539
 2340.5000     8.2334   127.0775     2.4882     0.0091     0.3831   -71.8031     6.9751     4.2879     4.6145   792.9887
 2341.0000     8.2494   126.6822     2.4892     0.0071     0.3811   -71.8019     6.9760     4.3279     3.7804   793.0235
 2341.5000     8.2334   126.2870     2.4892     0.0071     0.3791   -71.8007     6.7873     4.4087     4.5318   793.0582
 2342.0000     8.2334   125.8917     2.4882     0.0071     0.3815   -71.7996     6.3656     4.5322     5.0140   793.0930
 2342.5000     8.2334   123.5202     2.4822     0.0071     0.3835   -71.7984     6.9786     4.7025     5.2502   793.1278
 2343.0000     8.2137   122.7296     2.4802     0.0071     0.3835   -71.7972     7.8647     4.7902     5.2993   793.1626
 2343.5000     8.2137   123.1249     2.5021     0.0110     0.3839   -71.7960     7.1098     4.8350     5.3982   793.1974
