~VERSION INFORMATION
 VERS.                2.0:   CWLS LOG ASCII STANDARD - VERSION 2.0
 WRAP.                 NO:   ONE LINE PER DEPTH STEP
~WELL INFORMATION
#MNEM.UNIT      DATA TYPE    INFORMATION
#----------   ------------   ------------------------------
 STRT.F           10.0000:   START DEPTH
 STOP.F         3180.0000:   STOP DEPTH
 STEP.F            0.5000:   STEP LENGTH
 NULL.          -999.2500:   NO VALUE
 COMP. LAWRENCE - ALLISON WEST:   COMPANY
 WELL. LAWRENCE ALLISON NPR 3 "AX" #17-2:   WELL
 FLD .                NPR:   FIELD
 LOC .       S2 T38N R78W:   LOCATION
 CNTY.            NATRONA:   COUNTY
 STAT.            WYOMING:   STATE
 CTRY. UNITED STATES OF AMERICA:   COUNTRY
 SRVC.      DRESSER ATLAS:   SERVICE COMPANY
 DATE.        16-FEB-1987:   LOGDATE
 API .     49025111210000:   API NUMBER
~CURVE INFORMATION
#MNEM.UNIT       API CODE    CURVE DESCRIPTION
#----------   ------------   ------------------------------
 DEPT.F                  :   
 DEN .LBS    45 350 01 00:   BULK DENSITY
 CORR.G/C3   45 356 01 00:   DENSITY CORRECTION
 TEND.LBS    45 635 01 00:   TENSION FROM DENSITY LOG
 CNC .DEC    42 890 01 00:   NEUTRON PORISITY LIMESTONE
 CALR.IN     07 280 01 00:   CALIPER FROM RESISTIVITY
 SPR .MV     07 010 01 00:   SPONTANEOUS POTENTIAL
 GRR .GAPI   07 310 01 00:   GAMMA RAY FROM RESISTIVITY
 RFOC.OHMM   07 220 04 00:   RESISTIVITY FOCUSED LOG RES.
 ILD .OHMM   07 120 46 00:   DEEP INDUCTION RESISTIVITY
 ILM .OHMM   07 120 44 00:   INDUCTION LOG MEDIUM RESISTIVITY
 TENR.LBS    07 635 01 00:   TENSION FROM RESISTIVITY
~PARAMETER INFORMATION
#MNEM.UNIT          VALUE    DESCRIPTION
#----------   ------------   ------------------------------
 EKB .F         5141.0000:   Kelly bushing
 EGL .F         5129.0000:   Ground level
 EDF .F            0.0000:   Drilling floor
 EPD .F            0.0000:   Permanent datum
 TD  .F         3161.0000:   Total depth
 DATE.        16-FEB-1987:   Date logged
 CLNT.            A2DTECH:   Client Code
 SL  . 1125' FSL & 220' FWL:   Surface Location
 PD  .                 GL:   Permanent Datum
 DAPD.F                12:   Feet Above Permanent Datum
 DD  .F              3161:   Depth driller
 DL  .F              3158:   Depth logger
 BLI .F              3156:   Bottom log interval
 TLI .F                12:   Top log interval
 CS1 .IN            8.625:   Casing size
 CBD1.      8.625" @ 626':   Casing driller 1
 CBL1.F               626:   Casing logger 1
 BS1 .IN            7.875:   Bit size
 BSD1.F              3161:   Depth drilled with bit1
 DFT .        KCL/POLYMER:   Type fluid in hole
 DFD .                8.8:   Density
 DFV .                 39:   Viscosity
 DFPH.                 10:   pH
 DFL .                8.4:   Fluid loss
 MSS .           FLOWLINE:   Source of sample
 RMS .OHMM           .292:   Rm
 MST .F                82:   Rm Meas. temp.
 RMF .OHMM           .231:   Rmf
 MFST.F                82:   Rmf Meas. temp.
 RMC .OHMM           .365:   Rmc
 MCST.F                82:   Rmc Meas. temp.
 MFSS.               MEAS:   Source Rmf.
 MCSS.               CALC:   Source Rmc.
 RMB .OHMM           .203:   Rm. at BHT
 BHT .F               118:   BHT.
 TCS .HRS               3:   Time Circ. stopped
 MRT .F               118:   Maximum recorded temp.
 LUN .            HL-6274:   Logging unit number
 LUL .           GALLETTE:   Logging unit location
 ENGI.            PANASUK:   Recorded By
 WITN.             STRONG:   Witnessed by
 ORIG.           5" PRINT:   Origin of data
 UWI .     49025111210000:   Unique Well ID
 DICO. A2D TECHNOLOGIES, INC.:   Digitizing Company
~OTHER INFORMATION
~A   DEPT      DEN       CORR       TEND        CNC       CALR        SPR          GRR     RFOC        ILD        ILM       TENR   
# ...
 2450.0000     2.5500     0.0155   -45.4822     0.2588     9.1973   -17.8280    99.8024     8.6613     6.2573     6.5924   -79.9996
 2450.5000     2.5360    -0.0105   -65.3700     0.2616     9.1974   -17.4286   100.6012     8.0471     6.3154     6.5928   -90.0195
 2451.0000     2.5310    -0.0225   -65.3519     0.2676     9.1975   -17.6268   104.5869     7.6857     6.2005     6.5327   -90.0824
 2451.5000     2.5320    -0.0165   -45.3272     0.2728     9.1976   -17.8251   108.5729     7.3404     6.0318     6.4139   -90.1452
 2452.0000     2.5370     0.0015   -45.2731     0.2772     9.1977   -17.8241   108.9733     7.0107     6.0321     6.3555   -90.1985
 2452.5000     2.5410     0.0115   -45.2371     0.2808     9.1978   -17.8231   109.7721     6.9469     6.0325     6.1828   -90.2482
 2453.0000     2.5370     0.0115   -45.1830     0.2788     9.1979   -18.0213   110.1725     7.0762     6.0327     6.0705   -90.2780
 2453.5000     2.5310     0.0115   -45.1380     0.2772     9.1980   -18.0207   112.1665     7.3419     5.7616     6.0152   -90.3443
 2454.0000     2.5260     0.0075   -45.0930     0.2756     9.1981   -17.8215   114.9574     7.0768     5.6568     5.9604   -80.3972
 2454.5000     2.5210    -0.0005   -45.0479     0.2760     9.1982   -17.8191   111.3741     6.9481     5.6570     5.9061   -90.4470
 2455.0000     2.5180    -0.0125   -45.0029     0.2740     9.1983   -17.6187   103.8063     6.7593     5.6573     5.9064   -90.4569
 2455.5000     2.5150    -0.0125   -34.9689     0.2708     9.1984   -17.4185   100.2226     6.7596     5.6575     5.9066   -90.5394
 2456.0000     2.5180    -0.0066   -34.9239     0.2668     9.1985   -17.4175   101.0214     7.0133     5.6578     5.9615   -80.5961
 2456.5000     2.5210     0.0014   -34.8790     0.2636     9.1986   -17.0181   102.6170     7.0785     5.6580     5.9617   -90.6259
 2457.0000     2.5230     0.0014   -34.8341     0.2664     9.1987   -16.8179   101.8222     7.4121     5.6582     5.9620   -90.6855
 2457.5000     2.5260    -0.0026   -34.7891     0.2700     9.1987   -16.6178    99.8321     7.3445     5.6586     5.9077   -90.7452
 2458.0000     2.5370    -0.0066   -34.7442     0.2720     9.2188   -16.8160    99.4357     7.0794     5.6588     5.9082   -90.7949
 2458.5000     2.5479    -0.0046   -24.7109     0.2812     9.2189   -17.2134    98.2424     7.0149     5.5050     5.9083   -90.8446
 2459.0000     2.5449    -0.0026   -24.6661     0.2868     9.2190   -17.2124    95.4555     7.0152     5.4047     5.7478   -90.8645
 2459.5000     2.5380    -0.0026   -14.6331     0.2888     9.2339   -17.2114    95.4575     6.9513     5.3064     5.4395   -90.9440
 2460.0000     2.5280    -0.0086   -14.5884     0.2868     9.2391   -16.6128    97.0531     6.7622     5.1621     5.4397   -80.9937
 2460.5000     2.5260    -0.0166   -14.5436     0.2836     9.2392   -16.8110   102.6328     6.0558     4.9757     5.3408   -81.0434
 2461.0000     2.5290    -0.0126   -14.4989     0.2804     9.2393   -17.0092   104.6269     6.0561     4.7086     5.1011   -81.0633
 2461.5000     2.5400     0.0054   -14.4542     0.2768     9.2593   -17.2074   105.0273     6.1123     4.5386     4.9625   -81.1527
 2462.0000     2.5400     0.0214   -14.4363     0.2756     9.2594   -17.2065   105.8261     6.4003     4.3747     4.6964   -81.1925
 2462.5000     2.5250     0.0134   -14.3915     0.2780     9.2595   -17.6039   106.6249     6.4006     4.2950     4.4856   -91.2223
 2463.0000     2.5040    -0.0006   -14.3200     0.2832     9.2714   -17.6029   105.4316     5.9468     4.1400     4.4040   -91.2893
 2463.5000     2.5000     0.0034   -34.2752     0.2900     9.2797   -17.2035   104.6368     5.7852     4.1022     4.2452   -91.3416
 2464.0000     2.4970     0.0054   -34.2305     0.3056     9.2997   -16.8041   106.2324     5.1807     3.8820     4.2064   -81.3913
 2464.5000     2.4970     0.0014   -44.1640     0.3128     9.3197   -16.6039   107.4296     4.9480     3.7765     4.0177   -91.4410
 2465.0000     2.4980    -0.0106   -44.1192     0.3128     9.3466   -16.4037   111.4157     4.8135     3.5738     3.9085   -91.4907
 2465.5000     2.4990    -0.0146   -44.0743     0.3108     9.3597   -16.2035   115.0033     4.8137     3.6069     3.8729   -91.5404
 2466.0000     2.4950    -0.0067   -44.0295     0.2984     9.3797   -16.2025   117.3958     4.9033     3.6071     3.8731   -81.5901
 2466.5000     2.4890    -0.0266   -33.9979     0.2984     9.3599   -16.2023   114.6089     5.0408     3.6072     3.9090   -91.6100
 2467.0000     2.4900    -0.0346   -33.9532     0.2988     9.4198   -16.0013   111.4236     5.3271     3.6074     3.9817   -86.0769
 2467.5000     2.4930    -0.0107   -43.8951     0.3024     9.4199   -16.0003   109.4335     5.3766     3.6746     4.0559   -81.7491
 2468.0000     2.4960    -0.0047   -33.8638     0.3004     9.4200   -16.1986   109.8339     5.1351     3.8126     4.1695   -71.7988
 2468.5000     2.5000    -0.0326   -33.8191     0.2868     9.4200   -16.5960   112.2263     5.0883     3.9195     4.3260   -71.8485
 2469.0000     2.5060    -0.0346   -33.7743     0.2876     9.4202   -16.5950   113.8220     5.3773     3.9560     4.3661   -81.8982
 2469.5000     2.5140    -0.0247   -33.7296     0.2904     9.4203   -16.5940   114.6208     5.7353     3.9927     4.4066   -81.9494
 2470.0000     2.5150     0.0013   -33.6849     0.2932     9.4204   -16.3938   114.2243     6.0611     3.9929     4.3665   -81.9976
 2470.5000     2.5050    -0.0047   -33.6402     0.2940     9.4403   -16.9906   110.2426     5.8424     4.0673     4.4888   -82.0175
 2471.0000     2.5020    -0.0147   -33.5955     0.2928     9.4405   -16.5390   109.0494     5.7891     4.1814     4.5724   -82.0804
 2471.5000     2.5020    -0.0267   -33.5508     0.2908     9.4406   -15.9920   109.8482     5.7894     4.2202     4.7005   -82.1432
 2472.0000     2.5020    -0.0307   -33.5061     0.2856     9.4406   -16.1906   112.2414     5.7366     4.2595     4.7441   -82.1965
 2472.5000     2.5100    -0.0167   -63.4180     0.2848     9.4408   -15.9904   109.4537     5.7369     4.3388     4.7881   -82.2163
 2473.0000     2.5190     0.0013   -53.3495     0.2872     9.4409   -15.9892   108.2605     5.7902     4.4605     4.9223   -82.2788
 2473.5000     2.5270     0.0112   -53.3134     0.2896     9.4609   -16.1875   109.0593     5.8440     4.5437     4.9680   -82.3412
 2474.0000     2.5270     0.0212   -43.3100     0.2908     9.4610   -16.1865   111.8501     6.0633     4.6710     5.1072   -82.3953
 2474.5000     2.5260     0.0332   -43.2560     0.2908     9.4611   -16.1861   113.8441     6.1196     4.9365     5.2024   -92.4350
 2475.0000     2.5210     0.0492   -33.2169     0.2892     9.4413   -16.5266   114.6429     6.4673     5.0284     5.4976   -84.7504
 2475.5000     2.5160     0.0671   -33.1630     0.2812     9.4613   -16.7811   114.2465     6.7720     5.1695     5.8097   -72.5443
 2476.0000     2.5190     0.0671   -33.1181     0.2740     9.4614   -17.1785   115.4437     6.9619     5.2175     6.0833   -72.5941
 2476.5000     2.5349     0.0372   -33.0732     0.2684     9.4615   -17.1775   116.2425     7.0915     5.5141     6.1398   -72.6438
 2477.0000     2.5459     0.0052   -33.0193     0.2700     9.4018   -16.9774   118.6350     7.3577     5.5653     6.1400   -72.6935
 2477.5000     2.5459    -0.0028   -32.9744     0.2736     9.3271   -16.9764   119.4338     7.3580     5.7743     6.1404   -72.7432
 2478.0000     2.5449    -0.0048   -32.9295     0.2784     9.2825   -16.7762   118.6389     7.3583     5.9363     6.1973   -82.7929
 2478.5000     2.5429     0.0072   -32.8846     0.2808     9.2627   -16.9744   117.0473     7.0278     6.0468     6.3127   -82.8128
 2479.0000     2.5389     0.0052   -42.8240     0.2788     9.2628   -16.7103   115.0572     7.0281     6.0472     6.4302   -82.8780
 2479.5000     2.5369    -0.0028   -42.7790     0.2728     9.2629   -16.3748   112.6687     7.0285     6.0474     6.3717   -82.9433
 2480.0000     2.5359    -0.0028   -52.7181     0.2696     9.2033   -16.3738   111.0771     7.3597     6.0477     6.3720   -82.9917
