~VERSION INFORMATION
 VERS.                2.0:   CWLS LOG ASCII STANDARD - VERSION 2.0
 WRAP.                 NO:   ONE LINE PER DEPTH STEP
~WELL INFORMATION
#MNEM.UNIT      DATA TYPE    INFORMATION
#----------   ------------   ------------------------------
 STRT.F          330.0000:   START DEPTH
 STOP.F         2880.0000:   STOP DEPTH
 STEP.F            0.5000:   STEP LENGTH
 NULL.          -999.2500:   NO VALUE
 COMP.   TESORO PETROLEUM:   COMPANY
 WELL. TESORO NPR "AX" #3-21:   WELL
 FLD .        TEAPOT DOME:   FIELD
 LOC .      S21 T39N R78W:   LOCATION
 CNTY.            NATRONA:   COUNTY
 STAT.            WYOMING:   STATE
 CTRY. UNITED STATES OF AMERICA:   COUNTRY
 SRVC.       SCHLUMBERGER:   SERVICE COMPANY
 DATE.        17-AUG-1972:   LOGDATE
 API .     49025102150000:   API NUMBER
~CURVE INFORMATION
#MNEM.UNIT       API CODE    CURVE DESCRIPTION
#----------   ------------   ------------------------------
 DEPT.F                  :   
 GRD .GAPI   45 310 01 00:   GAMMA RAY FROM DENSITY LOG
 CALD.IN     45 280 60 00:   CALIPER FROM DENSITY LOG
 CORR.G/C3   45 356 01 00:   DENSITY CORRECTION
 RHOB.G/C3   45 350 01 00:   BULK DENSITY
 SPR .MV     05 010 01 00:   SPONTANEOUS POTENTIAL FROM RES.
 ILD .OHMM   05 120 46 00:   INDUCTION LOG DEEP
 ASN .OHMM   05 041 16 00:   AMPLIFIED SHORT NORMAL 16"
~PARAMETER INFORMATION
#MNEM.UNIT          VALUE    DESCRIPTION
#----------   ------------   ------------------------------
 EKB .F         4985.0000:   Kelly bushing
 EGL .F         4975.0000:   Ground level
 EDF .F            0.0000:   Drilling floor
 EPD .F         4975.0000:   Permanent datum
 TD  .F         2880.0000:   Total depth
 CLNT.            A2DTECH:   Client Code
 DATE.        17-AUG-1972:   Date Logged [DD-MMM-YYYY]
 DD  .F              2875:   Depth driller
 DL  .F              2880:   Depth logger
 BLI .F              2879:   Bottom log interval
 TLI .F               330:   Top log interval
 CS1 .              10.75:   Casing size
 CBD1.       10.75" @ 327:   Casing driller 1
 CBL1.IN              330:   Casing logger 1
 BS1 .IN                9:   Bit size
 BSD1.F              2875:   Depth drilled with bit1
 DFT .           CHEM-GEL:   Type fluid in hole
 DFD .                9.3:   Density
 DFV .                 61:   Viscosity
 DFPH.                9.0:   pH
 DFL .                 66:   Fluid loss
 MSS .           FLOWLINE:   Source of sample
 RMS .OHMM           1.86:   Rm
 MST .F                76:   Rm Meas. temp.
 RMF .OHMM           1.58:   Rmf
 MFST.F                76:   Rmf Meas. temp.
 MFSS.               MEAS:   Source Rmf.
 RMB .OHMM           1.25:   Rm. at BHT
 BHT .F               113:   BHT.
 TCS .HRS               3:   Time Circ. stopped
 MRT .F               113:   Maximum recorded temp.
 LUN .               7037:   Logging unit number
 LUL .               CSPR:   Logging unit location
 ENGI.              GOLAS:   Recorded By
 WITN.                MAY:   Witnessed by
 ORIG.      1" 2.5" PRINT:   Origin of data
 UWI .     49025102150000:   Unique Well ID
 DICO. A2D TECHNOLOGIES, INC.:   Digitizing Company
~OTHER INFORMATION
~A   DEPT      GRD       CALD       CORR       RHOB        SPR          ILD        ASN 
# ...
 2104.5000   114.9854     9.5227     0.0277     2.4702   -15.4939     5.5697     9.9602
 2105.0000   116.8006     9.5231     0.0364     2.4995   -15.4954     5.4169     9.9204
 2105.5000   121.9236     9.5545     0.0466     2.4949   -15.4969     5.1098     9.4327
 2106.0000   125.1612     9.5550     0.0207     2.4703   -15.4984     4.9570     9.0846
 2106.5000   128.3989     9.4568     0.0239     2.4565   -15.4890     4.8042     8.6469
 2107.0000   131.1749     9.4568     0.0275     2.4596   -15.1723     4.8057     8.0596
 2107.5000   133.9510     9.4568     0.0209     2.4457   -14.8838     4.9616     7.7313
 2108.0000   132.1117     9.4568     0.0256     2.4214   -14.5758     5.5804     8.3581
 2108.5000   129.3493     9.4877     0.0457     2.4290   -14.6234     6.1992     9.3731
 2109.0000   127.5100     9.4877     0.0334     2.4440   -14.9434     7.1266    10.0299
 2109.5000   130.2860     9.4877     0.0072     2.4358   -15.5727     8.0541    10.7587
 2110.0000   135.3698     9.5185     0.0011     2.4197   -16.1301     9.1359    11.7413
 2110.5000   136.1008     9.5185    -0.0019     2.4082   -16.4412     9.9090    12.6940
 2111.0000   138.6973     9.5185    -0.0034     2.4079   -16.7523     9.7562    12.6368
 2111.5000   143.5701     9.5494    -0.0003     2.4165   -16.7539     8.9788    12.4875
 2112.0000   149.3716     9.5494     0.0075     2.4243   -16.4456     8.1995    12.3384
 2112.5000   150.8731     9.5802     0.0091     2.4210   -16.1375     7.5746    11.9528
 2113.0000   151.7367     9.5802     0.0091     2.4135   -16.1393     6.9494    11.0909
 2113.5000   154.8048     9.5802    -0.0016     2.4095   -16.1408     6.1480     9.9604
 2114.0000   160.0296     9.5802     0.0031     2.4021   -15.8328     5.5452     9.9990
 2114.5000   162.5895     9.6111     0.0124     2.3960   -15.6833     4.9517     9.7793
 2115.0000   160.7784     9.6111     0.0219     2.4038   -15.5263     4.6037     8.1124
 2115.5000   163.0386     9.6420     0.0403     2.4131   -15.5278     4.1738     7.3466
 2116.0000   162.9939     9.6564     0.0202     2.4255   -15.5294     3.8621     6.8895
 2116.5000   152.5143     9.6880     0.0342     2.4764   -15.5313     3.5505     6.2286
 2117.0000   149.0031     9.7037     0.0277     2.4964   -15.2229     3.2929     5.9119
 2117.5000   147.3054     9.7346     0.0266     2.5181   -14.9151     3.3539     5.5186
 2118.0000   141.9162     9.7520     0.0472     2.5258   -14.9166     3.4506     5.3543
 2118.5000   131.1377     9.7654     0.0653     2.4904   -14.9182     3.6065     5.3242
 2119.0000   127.9940     9.7654     0.0071     2.4797   -14.9197     3.7623     5.4016
 2119.5000   124.8503     9.7654    -0.0025     2.4952   -15.2308     3.7639     5.4621
 2120.0000   122.6048     9.7654     0.0166     2.5106   -15.5419     3.9197     5.3733
 2120.5000   123.0840     9.7654     0.0353     2.5261   -15.5435     4.0082     5.3143
 2121.0000   124.8653     9.7654     0.0455     2.5339   -15.5450     4.0772     5.3070
 2121.5000   125.2994     9.7654     0.0409     2.5262   -15.5465     4.2333     5.5844
 2122.0000   125.8441     9.7963     0.0282     2.5201   -15.5481     4.2348     5.7046
 2122.5000   124.9279     9.7963     0.0194     2.5200   -15.5496     4.2364     5.7948
 2123.0000   123.5501     9.7963     0.0250     2.5310   -15.2415     4.2379     5.8254
 2123.5000   122.1723     9.7963     0.0241     2.5310   -15.5526     4.2394     5.8560
 2124.0000   120.7946     9.7963     0.0295     2.5360   -15.5542     4.2409     5.8269
 2124.5000   118.9553     9.7963     0.0380     2.5419   -15.5557     4.2424     5.8276
 2125.0000   117.1160     9.7963     0.0259     2.5244   -15.5573     4.2440     5.7687
 2125.5000   117.5843     9.7963     0.0113     2.5158   -15.5588     4.2455     5.7395
 2126.0000   121.7450     9.7654     0.0181     2.5238   -15.5604     4.0927     5.7104
 2126.5000   123.5980     9.7654     0.0088     2.5254   -15.5619     4.0942     5.7112
 2127.0000   121.2972     9.7654     0.0161     2.5402   -15.5635     4.0957     5.6820
 2127.5000   118.9963     9.7654     0.0354     2.5383   -15.5650     4.0972     5.6529
 2128.0000   117.6185     9.7654     0.0524     2.5309   -15.5666     4.0988     5.6538
 2128.5000   119.0100     9.7654     0.0355     2.5266   -15.5681     4.2546     5.6545
 2129.0000   121.3437     9.7654     0.0186     2.5218   -15.5696     4.2562     5.6631
 2129.5000   123.1777     9.7654     0.0233     2.5194   -15.5712     4.4121     5.7247
 2130.0000   123.1541     9.7654     0.0295     2.5102   -15.5728     4.4136     5.7861
 2130.5000   122.2682     9.7654     0.0214     2.5010   -15.8839     4.4151     5.8365
 2131.0000   122.7369     9.7654     0.0172     2.4949   -15.8854     4.5710     5.9090
 2131.5000   123.2054     9.7654     0.0219     2.4903   -15.8870     4.7269     6.0262
 2132.0000   123.2862     9.7736     0.0069     2.4796   -15.8885     4.7674     6.1353
 2132.5000   123.6801     9.7963    -0.0030     2.4735   -15.8901     4.8842     6.2127
 2133.0000   121.5555     9.7963    -0.0023     2.4812   -15.8916     4.9342     6.2284
 2133.5000   118.1926     9.7963    -0.0010     2.4823   -15.8932     5.0417     6.2291
 2134.0000   115.8545     9.7963    -0.0025     2.4690   -16.0785     4.8886     6.2000
 2134.5000   120.8604     9.7963    -0.0005     2.4768   -16.2062     4.8282     6.0815
 2135.0000   122.9308     9.8092     0.0067     2.4830   -16.2077     4.6708     5.9628
 2135.5000   124.0206     9.8272     0.0156     2.4984   -16.2092     4.4306     5.8740
 2136.0000   125.7353     9.8272     0.0089     2.4862   -16.2108     4.3559     5.7852
 2136.5000   126.0439     9.8272    -0.0007     2.4724   -16.2123     4.0442     5.5471
 2137.0000   126.2323     9.8272     0.0185     2.4770   -16.2138     3.8867     5.2493
 2137.5000   125.8654     9.8272     0.0335     2.4909   -15.9057     3.7295     4.9516
 2138.0000   124.4768     9.8272     0.0476     2.5033   -15.9073     3.5126     4.7433
 2138.5000   125.0810     9.8272     0.0522     2.4972   -15.5991     3.5142     4.6247
 2139.0000   128.3616     9.8272     0.0337     2.4957   -15.6007     3.3611     4.5657
 2139.5000   130.9361     9.8272     0.0174     2.4990   -15.2926     3.3629     4.5067
 2140.0000   130.0001     9.8272     0.0095     2.5035   -15.2942     3.2099     4.4179
 2140.5000   130.3050     9.8272     0.0035     2.4847   -15.2957     3.2116     4.2674
 2141.0000   131.4508     9.8272     0.0096     2.4790   -15.2972     3.2131     4.1747
 2141.5000   130.7298     9.8580     0.0230     2.4959   -15.3042     3.2146     4.0560
 2142.0000   128.4290     9.8580     0.0258     2.5099   -15.6099     3.2162     3.9432
 2142.5000   125.6666     9.8889     0.0123     2.4961   -15.6115     3.2177     3.9092
 2143.0000   123.3657     9.9198     0.0077     2.4998   -15.6130     3.2192     3.8850
 2143.5000   122.9515     9.9506     0.0124     2.5046   -15.6146     3.2207     3.9226
 2144.0000   126.1487     9.9506     0.0264     2.5086   -15.6767     3.2222     3.9463
 2144.5000   126.6170     9.9506     0.0064     2.4905   -15.3668     3.2238     3.9470
 2145.0000   126.1623     9.9815    -0.0013     2.4856   -15.3580     3.2253     3.9577
 2145.5000   124.7846     9.9815     0.0003     2.4932   -15.6497     3.2269     3.9783
 2146.0000   123.4068     9.9815     0.0050     2.4990   -15.6397     3.2284     3.9791
 2146.5000   123.8752    10.0123     0.0050     2.4959   -15.6308     3.2299     4.0097
 2147.0000   127.5743    10.0123     0.0005     2.4856   -15.6220     3.3858     4.0244
 2147.5000   129.8889    10.0123     0.0003     2.4781   -15.6131     3.3873     4.0411
 2148.0000   129.4342    10.0123     0.0129     2.4912   -15.6043     3.3889     4.0418
 2148.5000   128.9793     9.9815     0.0068     2.4991   -15.5954     3.3904     4.0724
 2149.0000   128.9863     9.9506     0.0099     2.4902   -15.5866     3.3920     4.1031
 2149.5000   125.3008     9.9154     0.0223     2.4822   -15.2783     3.3935     4.1636
