~VERSION INFORMATION
 VERS.                2.0:   CWLS LOG ASCII STANDARD - VERSION 2.0
 WRAP.                 NO:   ONE LINE PER DEPTH STEP
~WELL INFORMATION
#MNEM.UNIT      DATA TYPE    INFORMATION
#----------   ------------   ------------------------------
 STRT.F            0.0000:   START DEPTH
 STOP.F         1165.5000:   STOP DEPTH
 STEP.F            0.5000:   STEP LENGTH
 NULL.          -999.2500:   NO VALUE
 COMP.   JOHN BROWN E & C:   COMPANY
 WELL. BROWN NPR 3 "X" 1 #63-14:   WELL
 FLD .                NPR:   FIELD
 LOC .      S14 T38N R78W:   LOCATION
 CNTY.            NATRONA:   COUNTY
 STAT.            WYOMING:   STATE
 CTRY. UNITED STATES OF AMERICA:   COUNTRY
 SRVC.     ATLAS WIRELINE:   SERVICE COMPANY
 DATE.        15-JAN-1992:   LOGDATE
 API .     49025224960000:   API NUMBER
~CURVE INFORMATION
#MNEM.UNIT       API CODE    CURVE DESCRIPTION
#----------   ------------   ------------------------------
 DEPT.F                  :   
 GRR .GAPI   07 310 01 00:   GAMMA RAY FROM RESISTIVITY
 RILD.OHMM   07 120 46 00:   INDUCTION LOG DEEP RESISTIVITY
 RILM.OHMM   07 120 44 00:   INDUCTION LOG MEDIUM RESISTIVITY
 TENR.LBS    07 635 01 00:   TENSION
~PARAMETER INFORMATION
#MNEM.UNIT          VALUE    DESCRIPTION
#----------   ------------   ------------------------------
 EKB .F         5270.0000:   Kelly bushing
 EGL .F         5260.0000:   Ground level
 EDF .F         5269.0000:   Drilling floor
 TD  .F         1160.0000:   Total depth
 DATE.        15-JAN-1992:   Date logged
 CLNT.            A2DTECH:   Client Code
 SL  . 1893' FNL & 1971' FEL:   Surface Location
 PD  .                 GL:   Permanent Datum
 EPD .F              5260:   Elevation Permanent Datum
 LMF .                 KB:   Log Measured From
 DMF .                 KB:   Drilling Measured From
 DAPD.F                10:   Feet Above Permanent Datum
 DD  .F              1160:   Depth driller
 DL  .F              1158:   Depth logger
 BLI .F              1150:   Bottom log interval
 CS1 .IN            9.625:   Casing size
 CBD1.       9.625" @ 50':   Casing driller 1
 CBL1.F                48:   Casing logger 1
 BS1 .IN             8.75:   Bit size
 BSD1.F              1160:   Depth drilled with bit1
 DFT .                AIR:   Type fluid in hole
 MRT .F                90:   Maximum recorded temp.
 LUN .            HL-6274:   Logging unit number
 LUL .             CASPER:   Logging unit location
 ENGI.             RAUTIO:   Recorded By
 WITN.        GARY STRONG:   Witnessed by
 ORIG.           5" PRINT:   Origin of data
 UWI .     49025224960000:   Unique Well ID
 DICO. A2D TECHNOLOGIES, INC.:   Digitizing Company
 TLI .F                 0:   Top log interval
~OTHER INFORMATION
~A    DEPT      GRR      RILD       RILM       TENR   
# ...
  438.0000   116.7130     4.7060     5.8820    16.8680
  438.5000   111.3410     6.2130     6.9730    16.8680
  439.0000   108.3350     7.4820     8.0660    16.8680
  439.5000   105.5220     8.2690     9.0250    16.8680
  440.0000   103.7150     9.1380     9.8560    16.8680
  440.5000   101.7910     9.7920    10.1620    16.8680
  441.0000   101.6460     9.8830     9.9550    16.8680
  441.5000   104.1120     8.8760     9.6860    16.8680
  442.0000   108.0020     7.9620     8.6520    16.8680
  442.5000   111.1550     7.1350     7.6180    16.8680
  443.0000   111.3600     6.3090     6.6320    16.8680
  443.5000   114.2440     5.4820     6.2450    16.8680
  444.0000   120.9930     5.1630     5.9180    16.7870
  444.5000   130.3460     5.1630     5.8250    16.7120
  445.0000   137.6480     5.4900     5.9340    16.6360
  445.5000   138.3850     5.7440     6.1010    16.5600
  446.0000   131.4690     5.9980     6.4810    16.4850
  446.5000   121.1000     6.3610     6.9930    16.4090
  447.0000   112.4510     6.9150     7.5050    16.3330
  447.5000   109.8350     7.4680     8.0030    16.2580
  448.0000   107.7410     8.0220     8.4500    16.1820
  448.5000   104.3420     8.5370     8.8960    16.1060
  449.0000   100.8690     8.9330     9.3430    16.0310
  449.5000   100.0690     9.3290     9.7900    15.9550
  450.0000   103.1580     9.7240    10.2370    15.8790
  450.5000   106.5340    10.1200    10.6180    15.8030
  451.0000   108.9030    10.5460    10.8500    15.7280
  451.5000   105.2430    10.7700    11.0820    15.6520
  452.0000   100.7150    11.0070    11.3140    15.5760
  452.5000    97.7020    11.2530    11.4640    15.5010
  453.0000    99.8530    11.4640    11.6850    15.4250
  453.5000   102.5730    11.5710    11.7230    15.3490
  454.0000   101.1560    11.5710    11.7610    15.2740
  454.5000    99.6630    11.5710    11.7990    15.1980
  455.0000   101.2360    11.5710    11.8370    15.1220
  455.5000   105.5440    11.5710    11.8750    15.0470
  456.0000   108.7720    11.5690    11.9120    14.9710
  456.5000   110.3950    11.6650    11.9500    14.8950
  457.0000   110.8660    11.7760    11.9880    14.8190
  457.5000   112.9080    11.8870    12.0740    14.7440
  458.0000   115.6660    11.9980    12.2130    14.6680
  458.5000   114.9590    12.1200    12.3520    14.5920
  459.0000   113.4010    12.1930    12.4910    14.5170
  459.5000   113.2190    12.3360    12.6300    14.4410
  460.0000   112.5410    12.4790    12.7680    14.3650
  460.5000   109.4970    12.6230    12.9070    14.2900
  461.0000   107.9370    12.7660    13.0460    14.2140
  461.5000   106.4290    12.9090    13.1850    14.1380
  462.0000   105.1600    13.0540    13.4220    14.0630
  462.5000   107.9540    13.4430    13.8990    13.9870
  463.0000   110.6100    13.8370    14.3820    13.9110
  463.5000   110.8610    14.2310    14.8650    13.8350
  464.0000   111.0670    14.7380    15.3470    13.7600
  464.5000   109.8390    15.3940    16.0590    13.6840
  465.0000   106.5400    16.0490    16.8690    13.6080
  465.5000   102.3340    16.7040    17.6800    13.5330
  466.0000   101.4190    17.3600    18.4900    13.4570
  466.5000   101.3620    17.8760    19.0540    13.3810
  467.0000    99.4990    18.5130    19.5060    13.3060
  467.5000    95.4620    19.1490    19.8150    13.2300
  468.0000    94.6620    19.4510    20.0000    13.1540
  468.5000    97.3620    19.2720    19.8150    13.0790
  469.0000   100.1940    18.8650    19.4940    13.0030
  469.5000   103.0110    18.5600    19.1530    12.9270
  470.0000   103.2080    18.2540    18.8120    12.8510
  470.5000   103.5960    17.9480    18.4710    12.7760
  471.0000   106.1980    17.6430    18.1310    12.7000
  471.5000   108.8250    17.3150    17.7900    12.6240
  472.0000   110.1580    16.9040    17.2460    12.5490
  472.5000   106.7070    16.4940    16.8760    12.4730
  473.0000   102.6610    16.0830    16.5060    12.3970
  473.5000   101.1900    15.7220    16.1370    12.3220
  474.0000   104.7480    15.4190    15.7670    12.2460
  474.5000   108.7290    15.1420    15.3970    12.1700
  475.0000   112.7510    14.8520    15.2420    12.0950
  475.5000   113.6440    14.7370    15.1820    12.0190
  476.0000   113.8470    14.6220    15.0320    11.9430
  476.5000   113.4770    14.3200    14.6880    11.8670
  477.0000   113.0890    13.9290    14.3440    11.7920
  477.5000   113.5410    13.4320    14.0590    11.7160
  478.0000   114.0890    11.9040    13.1610    11.6400
  478.5000   114.9170    10.3520    11.8010    11.5650
  479.0000   120.1040     9.5100    10.4410    11.4890
  479.5000   125.1540     8.6550     9.0820    11.4130
  480.0000   130.1660     7.7990     8.0660    11.3380
  480.5000   135.1340     6.9440     7.5360    11.2620
  481.0000   138.9350     6.5430     7.0060    11.1860
  481.5000   140.4030     6.4280     6.6170    11.1110
  482.0000   136.4580     6.3120     6.4730    11.0350
  482.5000   131.3990     6.1960     6.4160    10.9590
  483.0000   130.8120     6.0800     6.3590    10.8830
  483.5000   132.7970     6.0450     6.2730    10.8080
  484.0000   134.8390     6.0790     6.2810    10.7320
  484.5000   136.8870     6.1020     6.2950    10.6560
  485.0000   138.9060     6.1250     6.3090    10.5810
  485.5000   139.4860     6.1480     6.3230    10.5050
  486.0000   139.8380     6.1660     6.3480    10.4290
  486.5000   142.1540     6.2140     6.3940    10.3540
  487.0000   144.8450     6.2620     6.4400    10.2780
  487.5000   144.1120     6.3110     6.4860    10.2020
  488.0000   141.7290     6.3590     6.5320    10.1270
  488.5000   138.7870     6.4070     6.5780    10.0510
  489.0000   135.8600     6.4550     6.6230     9.9750
  489.5000   133.5780     6.5030     6.6690     9.8990
  490.0000   134.4200     6.5110     6.6940     9.8240
  490.5000   137.6170     6.3890     6.5390     9.7480
  491.0000   140.8720     6.2740     6.4330     9.6720
  491.5000   144.1970     6.1590     6.3260     9.5970
  492.0000   144.0720     6.0930     6.2650     9.5210
  492.5000   138.0580     6.0670     6.2470     9.4450
  493.0000   132.3340     6.0400     6.2290     9.3700
  493.5000   131.0900     6.0140     6.2120     9.2940
  494.0000   132.8420     5.9870     6.1940     9.2180
  494.5000   136.0860     5.9610     6.1760     9.1430
  495.0000   136.4820     5.9340     6.1580     9.0670
  495.5000   136.9380     6.0800     6.3060     8.9910
  496.0000   137.4100     6.2670     6.4570     8.9150
  496.5000   137.9590     6.4500     6.6070     8.8400
  497.0000   134.5560     6.4980     6.7170     8.7640
  497.5000   130.3180     6.5570     6.7700     8.6880
  498.0000   127.0840     6.6150     6.8240     8.6130
  498.5000   129.4080     6.6730     6.8770     8.5370
  499.0000   133.1510     6.7320     6.9300     8.4610
  499.5000   135.3980     6.7900     6.9470     8.3860
  500.0000   136.9620     6.8280     7.0390     8.3100
  500.5000   138.4970     6.9110     7.1240     8.2340
  501.0000   139.4230     6.9950     7.2080     8.1590
  501.5000   137.3510     7.0780     7.2930     8.0830
  502.0000   134.0390     7.1610     7.3770     8.0070
  502.5000   130.7980     7.2450     7.4280     7.9310
  503.0000   130.0310     7.3280     7.4530     7.8560
  503.5000   130.8750     7.3450     7.4820     7.7800
  504.0000   135.0400     7.2580     7.4110     7.7040
  504.5000   139.7700     7.1520     7.3230     7.6290
  505.0000   139.3170     7.0460     7.2350     7.5530
  505.5000   135.7810     6.9470     7.1480     7.4770
  506.0000   133.6090     6.8850     7.0600     7.4020
  506.5000   132.7470     6.7940     6.9720     7.3260
  507.0000   133.2120     6.7030     6.8840     7.2500
  507.5000   133.6510     6.6120     6.7960     7.1750
  508.0000   134.0640     6.5710     6.7550     7.0990
  508.5000   133.5340     6.5560     6.7450     7.0230
  509.0000   131.4580     6.5390     6.7350     6.9470
  509.5000   130.0080     6.5230     6.7250     6.8720
  510.0000   131.7890     6.5100     6.7150     6.7980
  510.5000   133.1900     6.5280     6.7060     6.9140
