~VERSION INFORMATION
 VERS.                2.0:   CWLS LOG ASCII STANDARD - VERSION 2.0
 WRAP.                 NO:   ONE LINE PER DEPTH STEP
~WELL INFORMATION
#MNEM.UNIT      DATA TYPE    INFORMATION
#----------   ------------   ------------------------------
 STRT.F          218.0000:   START DEPTH
 STOP.F         3062.0000:   STOP DEPTH
 STEP.F            0.5000:   STEP LENGTH
 NULL.          -999.2500:   NO VALUE
 COMP.    FEXIN & SCISSON:   COMPANY
 WELL. FEXIN 32 "A" #3-34:   WELL
 FLD .              N P R:   FIELD
 LOC .      S34 T39N R78W:   LOCATION
 CNTY.            NATRONA:   COUNTY
 STAT.            WYOMING:   STATE
 CTRY. UNITED STATES OF AMERICA:   COUNTRY
 SRVC.              WELEX:   SERVICE COMPANY
 DATE.        18-JUL-1977:   LOGDATE
 API .     49025103960000:   API NUMBER
~CURVE INFORMATION
#MNEM.UNIT       API CODE    CURVE DESCRIPTION
#----------   ------------   ------------------------------
 DEPT.F                  :   
 CALD.IN     45 280 60 00:   CALIPER FROM DENSITY LOG
 RHOB.G/C3   45 350 01 00:   BULK DENSITY
 GRD .GAPI   45 310 01 00:   GAMMA RAY FROM DENSITY LOG
 CORR.G/C3   45 356 01 00:   DENSITY CORRECTION
 SPR .MV     07 010 01 00:   SPONTANEOUS POTENTIAL
 SGRD.OHMM   07 220 05 00:   SHALLOW SHORT GUARD RESISTIVITY
 ILM .OHMM   07 120 44 00:   INDUCTION LOG MEDIUM RESISTIVITY
 ILD .OHMM   07 120 46 00:   DEEP INDUCTION RESISTIVITY
~PARAMETER INFORMATION
#MNEM.UNIT          VALUE    DESCRIPTION
#----------   ------------   ------------------------------
 EKB .F         5080.0000:   Kelly bushing
 EGL .F         5070.0000:   Ground level
 TD  .F         3070.0000:   Total depth
 DATE.        18-JUL-1977:   Date logged
 CLNT.            A2DTECH:   Client Code
 SL  . 900' FNL & 1650'FWL:   Surface Location
 PD  .                 GL:   Permanent Datum
 DD  .F              3070:   Depth driller
 DL  .F              3063:   Depth logger
 BLI .F              3061:   Bottom log interval
 CS1 .IN            8.625:   Casing size
 CBD1.      8.625" @ 212':   Casing driller 1
 CBL1.F               222:   Casing logger 1
 BS1 .IN            7.875:   Bit size
 DFT .           CEHM-GEL:   Type fluid in hole
 DFD .                8.8:   Density
 DFV .                 42:   Viscosity
 DFPH.                7.5:   pH
 DFL .                  8:   Fluid loss
 MSS .           FLOWLINE:   Source of sample
 RMS .OHMM            .89:   Rm
 MST .F                94:   Rm Meas. temp.
 RMF .OHMM            .54:   Rmf
 MFST.F                94:   Rmf Meas. temp.
 RMC .OHMM           1.24:   Rmc
 MCST.F                94:   Rmc Meas. temp.
 MFSS.               FANN:   Source Rmf.
 RMB .OHMM            .67:   Rm. at BHT
 BHT .F               122:   BHT.
 TCS .HRS               4:   Time Circ. stopped
 MRT .F               122:   Maximum recorded temp.
 LUN .               8611:   Logging unit number
 LUL .             CASPER:   Logging unit location
 ENGI.          C.A. DOAK:   Recorded By
 WITN.         PETTINGILL:   Witnessed by
 ORIG.           5" PRINT:   Origin of data
 UWI .     49025103960000:   Unique Well ID
 DICO. A2D TECHNOLOGIES, INC.:   Digitizing Company
 DAPD.                 12:   Feet Above Permanent Datum
 BSD1.F              3950:   Depth drilled with bit1
 MCSS.                KIT:   Source Rmc.
 EPD .F              5070:   Elevation Permanent Datum
 LMF .                 KB:   Log Measured From
 DMF .                 KB:   Drilling Measured From
 TLI .F               200:   Top log interval
~OTHER INFORMATION
~A   DEPT     CALD       RHOB        GRD       CORR        SPR       SGRD        ILM        ILD   
# ...
  420.5000     9.3840     2.4490    76.9370     0.0310   -49.5010    54.3800    40.7840    37.8810
  421.0000     9.3330     2.4550    78.4210     0.0300   -49.6700    55.3100    41.0010    37.8810
  421.5000     9.2680     2.4620    77.0070     0.0330   -49.8400    56.2400    41.2180    37.8810
  422.0000     9.2180     2.4690    75.4240     0.0360   -50.0090    57.1710    41.4360    37.8810
  422.5000     9.1800     2.4750    73.8350     0.0350   -50.1780    58.1010    41.6530    37.8810
  423.0000     9.1410     2.4810    72.2320     0.0350   -50.3480    58.8380    41.8700    37.8810
  423.5000     9.1030     2.4860    72.0250     0.0350   -50.5170    57.8890    41.9990    37.8810
  424.0000     9.0820     2.4820    73.2560     0.0350   -50.6870    56.7130    41.3900    37.8810
  424.5000     9.0730     2.4770    74.5210     0.0340   -50.8560    55.5380    40.7850    37.8810
  425.0000     9.0640     2.4770    75.7940     0.0340   -51.0250    55.3050    40.3010    37.8800
  425.5000     9.0550     2.4770    76.8610     0.0340   -51.1950    55.1940    40.7200    37.8810
  426.0000     9.0460     2.4740    76.9150     0.0320   -51.3640    55.0820    41.1410    37.7500
  426.5000     9.0370     2.4670    76.9760     0.0300   -51.5340    54.9710    40.7930    37.5320
  427.0000     9.0280     2.4590    77.8390     0.0290   -51.7920    54.9260    40.4440    37.3130
  427.5000     9.0200     2.4490    78.8300     0.0270   -52.0890    54.6650    40.3010    37.0940
  428.0000     9.0110     2.4460    79.8270     0.0260   -52.3860    54.3360    40.3010    36.8760
  428.5000     9.0020     2.4540    80.1760     0.0250   -52.6830    54.0070    40.3010    36.6570
  429.0000     8.9930     2.4610    79.4730     0.0240   -52.9800    53.6780    40.0950    36.4380
  429.5000     8.9870     2.4690    78.8630     0.0230   -53.2770    53.3490    38.9810    36.2190
  430.0000     8.9830     2.4720    78.5310     0.0220   -53.5740    53.0190    37.8670    36.0010
  430.5000     8.9800     2.4690    79.1530     0.0210   -53.8710    52.6900    37.6210    35.7820
  431.0000     8.9760     2.4630    79.7400     0.0200   -54.1680    52.3610    37.6210    35.5630
  431.5000     8.9730     2.4560    80.0130     0.0180   -54.4650    52.0320    37.6210    35.3450
  432.0000     8.9690     2.4480    79.2980     0.0160   -54.7620    51.7030    37.2720    35.1200
  432.5000     8.9670     2.4410    78.9130     0.0140   -55.0590    50.7000    37.1130    34.8520
  433.0000     8.9640     2.4430    79.4380     0.0170   -55.3560    49.4970    36.9530    34.5770
  433.5000     8.9610     2.4590    79.9330     0.0220   -55.6530    48.2940    36.4790    33.8680
  434.0000     8.9580     2.4770    80.3470     0.0270   -55.9510    47.0910    35.4590    32.4100
  434.5000     8.9540     2.4940    80.1990     0.0320   -56.2470    46.1810    34.4380    30.9530
  435.0000     8.9510     2.5110    81.1720     0.0380   -56.5440    45.4980    33.4180    29.6730
  435.5000     8.9480     2.5280    82.2670     0.0430   -56.8520    44.8150    32.3390    28.4500
  436.0000     8.9450     2.5320    83.3730     0.0490   -56.8610    43.8940    30.9470    27.2260
  436.5000     8.9420     2.5240    84.4530     0.0490   -56.7690    42.5440    29.5550    25.9460
  437.0000     8.9390     2.5160    83.3100     0.0460   -56.6720    41.1950    28.1800    25.1890
  437.5000     8.9360     2.5070    82.0130     0.0440   -56.5760    35.8560    26.5050    24.3960
  438.0000     8.9330     2.5010    81.2480     0.0410   -56.4800    27.9790    25.4160    23.6020
  438.5000     8.9290     2.5000    81.8990     0.0400   -56.3840    24.0550    27.1610    22.7670
  439.0000     8.9260     2.5080    82.5320     0.0380   -56.1950    26.5270    29.4950    23.5710
  439.5000     8.9230     2.5110    82.7070     0.0360   -55.9340    37.8240    31.1350    24.4670
  440.0000     8.9200     2.5030    82.0300     0.0340   -55.7470    47.5110    31.8810    25.3640
  440.5000     8.9170     2.4980    82.1080     0.0330   -55.5690    47.3310    32.6260    26.2600
  441.0000     8.9140     2.5030    82.6890     0.0320   -55.3920    47.1510    33.3720    27.4190
  441.5000     8.9110     2.5070    83.2730     0.0330   -55.2160    46.9710    34.1660    29.0960
  442.0000     8.9080     2.5040    83.8630     0.0340   -55.0390    46.8870    34.8790    30.7720
  442.5000     8.9040     2.5010    84.4470     0.0350   -54.8460    47.2100    35.0880    32.1050
  443.0000     8.9010     2.5050    84.9240     0.0360   -54.6380    47.5360    35.3740    32.7400
  443.5000     8.8980     2.5020    84.9050     0.0370   -54.4300    47.0580    35.6590    33.3760
  444.0000     8.8950     2.4840    84.9450     0.0360   -54.2170    46.8870    35.8520    33.9440
  444.5000     8.8920     2.4650    85.9810     0.0340   -54.0730    47.2530    36.0760    34.0420
  445.0000     8.8900     2.4480    87.0290     0.0310   -53.9480    48.3870    36.5040    34.1410
  445.5000     8.8920     2.4480    88.0680     0.0320   -53.8240    49.5220    36.9310    34.2390
  446.0000     8.8950     2.4520    88.2780     0.0360   -53.7000    50.6560    37.3590    34.3370
  446.5000     8.8970     2.4540    87.4350     0.0410   -53.5690    51.7910    37.7870    34.4350
  447.0000     8.9000     2.4480    86.7920     0.0450   -53.4100    52.7040    38.2140    34.5330
  447.5000     8.9020     2.4420    89.1390     0.0490   -53.2400    51.3530    38.6420    34.6400
  448.0000     8.9040     2.4360    91.4880     0.0560   -53.0690    50.9220    38.9380    34.9270
  448.5000     8.9060     2.4310    93.8180     0.0620   -52.8990    53.0750    39.2180    35.3720
  449.0000     8.9090     2.4150    96.1430     0.0680   -52.7290    54.5490    39.5270    35.8170
  449.5000     8.9600     2.3930    98.4920     0.0710   -52.5680    55.3050    39.8360    36.2620
  450.0000     9.0170     2.3690    99.0600     0.0600   -52.4050    54.5530    40.1450    36.7070
  450.5000     9.0740     2.3660    95.5980     0.0370   -52.2490    53.8040    40.4540    37.1070
  451.0000     9.1310     2.3930    92.9160     0.0190   -52.0940    54.6830    40.7630    36.3490
  451.5000     9.1910     2.4300    91.0370     0.0070   -51.9390    56.3570    41.0720    36.4410
  452.0000     9.1750     2.4750    91.4880     0.0090   -51.7840    56.8480    41.3810    36.6220
  452.5000     9.1340     2.4690    90.9970     0.0130   -51.6250    55.9620    41.6900    36.8040
  453.0000     9.0920     2.4640    88.6900     0.0170   -51.5850    55.2850    41.9990    36.9850
  453.5000     9.0500     2.4750    86.4580     0.0210   -51.5840    54.5490    42.3080    37.1670
  454.0000     9.0080     2.4900    84.2250     0.0250   -51.5840    54.5490    42.5810    37.3630
  454.5000     8.9710     2.4960    81.9170     0.0280   -51.5840    56.4630    42.5810    37.3630
  455.0000     8.9380     2.4870    81.9040     0.0260   -51.5850    58.0340    42.5810    37.3630
  455.5000     8.9050     2.4740    82.6110     0.0250   -51.6260    57.1500    42.9990    37.3630
  456.0000     8.8720     2.4660    83.3440     0.0220   -51.7060    56.1900    43.8000    37.3630
  456.5000     8.8390     2.4570    84.0760     0.0150   -51.7860    55.2300    44.6020    37.3630
  457.0000     8.8070     2.4520    84.7510     0.0090   -51.8660    54.2700    45.3010    37.3390
  457.5000     8.7910     2.4490    85.1490     0.0040   -51.9460    53.4350    45.1570    37.1530
  458.0000     8.7910     2.4460    85.9540     0.0040   -52.0260    54.6010    44.8840    36.9670
  458.5000     8.7910     2.4470    86.2810     0.0050   -52.1060    55.6500    44.6120    36.7810
  459.0000     8.7910     2.4550    85.4730     0.0050   -52.1860    55.3770    44.3390    36.5950
  459.5000     8.7910     2.4620    85.7160     0.0060   -52.2660    55.3050    44.0670    36.4090
  460.0000     8.7910     2.4700    85.8540     0.0060   -52.3460    55.6870    43.7940    36.2220
  460.5000     8.7910     2.4730    85.0100     0.0070   -52.4260    54.7910    43.5220    36.0600
