~VERSION INFORMATION
 VERS.                2.0:   CWLS LOG ASCII STANDARD - VERSION 2.0
 WRAP.                 NO:   ONE LINE PER DEPTH STEP
~WELL INFORMATION
#MNEM.UNIT      DATA TYPE    INFORMATION
#----------   ------------   ------------------------------
 STRT.F          230.0000:   START DEPTH
 STOP.F         3480.0000:   STOP DEPTH
 STEP.F            0.5000:   STEP LENGTH
 NULL.          -999.2500:   NO VALUE
 COMP.    FENIX & SCISSON:   COMPANY
 WELL. FENIX NPR 3 "AX" #33-15:   WELL
 FLD .                NPR:   FIELD
 LOC .      S15 T38N R78W:   LOCATION
 CNTY.            NATRONA:   COUNTY
 STAT.            WYOMING:   STATE
 CTRY. UNITED STATES OF AMERICA:   COUNTRY
 SRVC.       SCHLUMBERGER:   SERVICE COMPANY
 DATE.        19-MAR-1981:   LOGDATE
 API .     49025108760000:   API NUMBER
~CURVE INFORMATION
#MNEM.UNIT       API CODE    CURVE DESCRIPTION
#----------   ------------   ------------------------------
 DEPT.F                  :   
 TENR.LBS    07 635 01 00:   TENSION
 SFL .OHMM   07 220 01 00:   SHALLOW FOCUSED LOG RESISTIVITY
 ILM .OHMM   07 120 44 00:   INDUCTION LOG MEDIUM RESISTIVITY
 ILD .OHMM   07 120 46 00:   INDUCTION LOG DEEP RESISTIVITY
 SPR .MV     07 010 01 00:   SPONTANEOUS POTENTIAL
 CALD.IN     45 280 60 00:   CALIPER FROM DENSITY LOG
 GRD .GAPI   45 310 01 00:   GAMMA RAY FROM DENSITY LOG
 CORR.G/C3   45 356 01 00:   DENSITY CORRECTION
 RHOB.G/C3   45 350 01 00:   BULK DENSITY
~PARAMETER INFORMATION
#MNEM.UNIT          VALUE    DESCRIPTION
#----------   ------------   ------------------------------
 EKB .F         5286.0000:   Kelly bushing
 EGL .F         5276.0000:   Ground level
 EDF .F            0.0000:   Drilling floor
 TD  .F         3500.0000:   Total depth
 DATE.        19-MAR-1981:   Date logged
 CLNT.            A2DTECH:   Client Code
 SL  . 1545' FNL & 1467' FWL:   Surface Location
 PD  .                 GL:   Permanent Datum
 EPD .F              5276:   Elevation Permanent Datum
 LMF .                 KB:   Log Measured From
 DMF .                 KB:   Drilling Measured From
 DAPD.F                10:   Feet Above Permanent Datum
 DD  .F              3500:   Depth driller
 DL  .F              3476:   Depth logger
 BLI .F              3470:   Bottom log interval
 TLI .F               234:   Top log interval
 CS1 .IN            8.625:   Casing size
 CBD1.      8.625" @ 250':   Casing driller 1
 CBL1.F               234:   Casing logger 1
 BS1 .IN            7.875:   Bit size
 BSD1.F              3500:   Depth drilled with bit1
 DFT .                FGM:   Type fluid in hole
 DFD .                8.9:   Density
 DFV .                 39:   Viscosity
 DFPH.                9.5:   pH
 DFL .                 10:   Fluid loss
 MSS .               TANK:   Source of sample
 RMS .OHMM           2.26:   Rm
 MST .F                54:   Rm Meas. temp.
 RMF .OHMM           1.60:   Rmf
 MFST.F                54:   Rmf Meas. temp.
 MFSS.               MEAS:   Source Rmf.
 RMB .OHMM            .87:   Rm. at BHT
 BHT .F               140:   BHT.
 TCS .HRS            1030:   Time Circ. stopped
 TLAB.HRS            1300:   Time logger at bottom
 MRT .F               140:   Maximum recorded temp.
 LUN .               8039:   Logging unit number
 LUL .               CSPR:   Logging unit location
 ENGI.           C. PFARR:   Recorded By
 WITN.           R. SCOTT:   Witnessed by
 ORIG.     2.5", 5" PRINT:   Origin of data
 UWI .     49025108760000:   Unique Well ID
 DICO. A2D TECHNOLOGIES, INC.:   Digitizing Company
~OTHER INFORMATION
~A   DEPT     TENR          SFL      ILM        ILD        SPR         CALD       GRD      CORR         RHOB 
# ...
 3442.0000  1810.0170     9.9290     7.2170     7.7970   -37.5290     7.8580  -999.2500     0.0250     2.3870
 3442.5000  1814.0010     9.2700     7.2170     8.1820   -36.2200     7.8320  -999.2500     0.0220     2.3900
 3443.0000  1817.9860     8.3710     7.6180     8.5660   -35.4450     7.8060  -999.2500     0.0190     2.4070
 3443.5000  1821.9700     8.6800     8.1060     8.9510   -35.4680     7.7800  -999.2500     0.0140     2.4370
 3444.0000  1825.9550     9.8900     8.5930     9.3360   -35.0480     7.7550  -999.2500     0.0120     2.4800
 3444.5000  1825.4980    21.5830     9.0810     9.7210   -35.4680     7.7020  -999.2500     0.0350     2.5230
 3445.0000  1822.7540    31.7860     9.7080    10.0750   -36.3390     7.6450  -999.2500  -999.2500     2.5530
 3445.5000  1820.0100    34.8720     9.4170     9.6510   -37.3780     7.5460  -999.2500  -999.2500     2.5350
 3446.0000  1817.2660    31.3760     8.9910     9.0310   -38.4180     7.1700  -999.2500  -999.2500     2.5130
 3446.5000  1814.5229    25.1440     8.5650     8.6100   -39.7470     6.7950  -999.2500  -999.2500     2.5040
 3447.0000  1811.7791    18.1870     8.1380     8.2720   -40.4940  -999.2500  -999.2500  -999.2500     2.5130
 3447.5000  1809.0350     8.0660     7.7120     7.9340   -42.9890  -999.2500  -999.2500  -999.2500  -999.2500
 3448.0000  1806.2910     8.2170     7.2860     7.5960   -45.2340  -999.2500  -999.2500  -999.2500  -999.2500
 3448.5000  1803.5470     9.5580     6.8600     7.2580   -47.6990  -999.2500  -999.2500  -999.2500  -999.2500
 3449.0000  1800.8030    10.7240     6.4340     6.9210   -47.7550  -999.2500  -999.2500  -999.2500  -999.2500
 3449.5000  1798.0590    11.9040     6.2820     6.5790   -46.5490  -999.2500  -999.2500  -999.2500  -999.2500
 3450.0000  1795.3149    12.3530     6.1660     6.1090   -42.5980  -999.2500  -999.2500  -999.2500  -999.2500
 3450.5000  1792.5720    10.0750     5.9960     6.1090   -38.5230  -999.2500  -999.2500  -999.2500  -999.2500
 3451.0000  1789.8280     8.4110     5.9960     6.1090   -34.4330  -999.2500  -999.2500  -999.2500  -999.2500
 3451.5000  1787.0840     6.9550     5.9880     6.1090   -30.9020  -999.2500  -999.2500  -999.2500  -999.2500
 3452.0000  1784.3400     7.8490     5.9790     6.1090   -30.3980  -999.2500  -999.2500  -999.2500  -999.2500
 3452.5000  1781.5959     8.6650     5.9700     6.1090   -29.2780  -999.2500  -999.2500  -999.2500  -999.2500
 3453.0000  1778.8521     9.0150     5.9610     6.1090   -28.2260  -999.2500  -999.2500  -999.2500  -999.2500
 3453.5000  1776.1080     8.3870     5.9520     6.1090   -27.0920  -999.2500  -999.2500  -999.2500  -999.2500
 3454.0000  1773.3650     7.7590     5.9430     6.1090   -25.9730  -999.2500  -999.2500  -999.2500  -999.2500
 3454.5000  1770.6210     6.8270     5.9330     6.1090   -25.0130  -999.2500  -999.2500  -999.2500  -999.2500
 3455.0000  1767.8770     7.0790     5.9240     6.1090   -24.3760  -999.2500  -999.2500  -999.2500  -999.2500
 3455.5000  1765.1331     7.5670     5.9150     6.1090   -23.7180  -999.2500  -999.2500  -999.2500  -999.2500
 3456.0000  1762.3890     8.0550     5.9060     6.1090   -23.2070  -999.2500  -999.2500  -999.2500  -999.2500
 3456.5000  1759.6450     8.5270     5.8970     6.1090   -22.8970  -999.2500  -999.2500  -999.2500  -999.2500
 3457.0000  1756.9010     8.1920     5.8860     6.1090   -22.6590  -999.2500  -999.2500  -999.2500  -999.2500
 3457.5000  1754.1570     7.7730     5.9960     6.1090   -22.4600  -999.2500  -999.2500  -999.2500  -999.2500
 3458.0000  1751.4139     7.9220     5.8960     5.9150   -22.9070  -999.2500  -999.2500  -999.2500  -999.2500
 3458.5000  1748.6700     8.3860     5.7540     5.7390   -23.3670  -999.2500  -999.2500  -999.2500  -999.2500
 3459.0000  1746.9880     8.8490     5.6120     5.5630   -23.5440  -999.2500  -999.2500  -999.2500  -999.2500
 3459.5000  1746.9880     8.1050     5.4710     5.3870   -23.2450  -999.2500  -999.2500  -999.2500  -999.2500
 3460.0000  1746.9880     7.2170     5.3290     5.2110   -22.9970  -999.2500  -999.2500  -999.2500  -999.2500
 3460.5000  1746.9880     5.7450     5.1870     5.0350   -22.8120  -999.2500  -999.2500  -999.2500  -999.2500
 3461.0000  1746.9880     5.0750     5.0450     4.8590   -22.8980  -999.2500  -999.2500  -999.2500  -999.2500
 3461.5000  1746.9880     5.4660     4.9040     4.6830   -23.0820  -999.2500  -999.2500  -999.2500  -999.2500
 3462.0000  1746.9880     5.4660     4.7620     4.5410   -23.2140  -999.2500  -999.2500  -999.2500  -999.2500
 3462.5000  1746.9880     5.4660     4.6200     4.4680   -23.3460  -999.2500  -999.2500  -999.2500  -999.2500
 3463.0000  1746.9880     5.3650     4.4780     4.4070   -23.5310  -999.2500  -999.2500  -999.2500  -999.2500
 3463.5000  1746.9880     5.4580     4.3370     4.3760   -23.6190  -999.2500  -999.2500  -999.2500  -999.2500
 3464.0000  1746.9880     5.6510     4.2960     4.2960   -23.6090  -999.2500  -999.2500  -999.2500  -999.2500
 3464.5000  1746.9880     5.8860     4.2960     4.2990   -23.6110  -999.2500  -999.2500  -999.2500  -999.2500
 3465.0000  1746.9880     5.8270     4.2960     4.3050   -23.6120  -999.2500  -999.2500  -999.2500  -999.2500
 3465.5000  1746.9880     5.6720     4.2960     4.3110   -23.6110  -999.2500  -999.2500  -999.2500  -999.2500
 3466.0000  1746.9880     5.5180     4.2390     4.3170   -23.6110  -999.2500  -999.2500  -999.2500  -999.2500
 3466.5000  1746.9880     5.3640     4.2170     4.3230   -23.6110  -999.2500  -999.2500  -999.2500  -999.2500
 3467.0000  1746.9880     5.2100     4.2170     4.3290   -23.6110  -999.2500  -999.2500  -999.2500  -999.2500
 3467.5000  1746.9880     5.1700     4.2110     4.3360   -23.6110  -999.2500  -999.2500  -999.2500  -999.2500
 3468.0000  1746.9880     5.4330     4.2030     4.3420   -23.6110  -999.2500  -999.2500  -999.2500  -999.2500
 3468.5000  1748.1331     5.8870     4.1960     4.3480   -23.6110  -999.2500  -999.2500  -999.2500  -999.2500
 3469.0000  1750.8630     6.3390     4.1880     4.3540   -23.6110  -999.2500  -999.2500  -999.2500  -999.2500
 3469.5000  1753.5930     6.1090     4.1800     4.3600   -23.6110  -999.2500  -999.2500  -999.2500  -999.2500
 3470.0000  1756.3240     5.7720     4.1730     4.3660   -23.6110  -999.2500  -999.2500  -999.2500  -999.2500
 3470.5000  1759.0540     5.4650     4.1650     4.3720   -23.6110  -999.2500  -999.2500  -999.2500  -999.2500
 3471.0000  1761.7841     5.1570     4.1570     4.3760   -23.6110  -999.2500  -999.2500  -999.2500  -999.2500
 3471.5000  1764.5140     4.8010     4.1490  -999.2500   -23.6110  -999.2500  -999.2500  -999.2500  -999.2500
 3472.0000  1767.2440  -999.2500     4.1420  -999.2500  -999.2500  -999.2500  -999.2500  -999.2500  -999.2500
 3472.5000  1769.9750  -999.2500  -999.2500  -999.2500  -999.2500  -999.2500  -999.2500  -999.2500  -999.2500
 3473.0000  1772.7050  -999.2500  -999.2500  -999.2500  -999.2500  -999.2500  -999.2500  -999.2500  -999.2500
 3473.5000  1775.4351  -999.2500  -999.2500  -999.2500  -999.2500  -999.2500  -999.2500  -999.2500  -999.2500
 3474.0000  1778.1650  -999.2500  -999.2500  -999.2500  -999.2500  -999.2500  -999.2500  -999.2500  -999.2500
 3474.5000  1780.8960  -999.2500  -999.2500  -999.2500  -999.2500  -999.2500  -999.2500  -999.2500  -999.2500
 3475.0000  1783.6260  -999.2500  -999.2500  -999.2500  -999.2500  -999.2500  -999.2500  -999.2500  -999.2500
 3475.5000  1786.3560  -999.2500  -999.2500  -999.2500  -999.2500  -999.2500  -999.2500  -999.2500  -999.2500
 3476.0000  1731.3700  -999.2500  -999.2500  -999.2500  -999.2500  -999.2500  -999.2500  -999.2500  -999.2500
 3476.5000  1558.4561  -999.2500  -999.2500  -999.2500  -999.2500  -999.2500  -999.2500  -999.2500  -999.2500
 3477.0000  1385.5420  -999.2500  -999.2500  -999.2500  -999.2500  -999.2500  -999.2500  -999.2500  -999.2500
 3477.5000  1212.6281  -999.2500  -999.2500  -999.2500  -999.2500  -999.2500  -999.2500  -999.2500  -999.2500
 3478.0000  1039.7140  -999.2500  -999.2500  -999.2500  -999.2500  -999.2500  -999.2500  -999.2500  -999.2500
