~VERSION INFORMATION
 VERS.                2.0:   CWLS LOG ASCII STANDARD - VERSION 2.0
 WRAP.                 NO:   ONE LINE PER DEPTH STEP
~WELL INFORMATION
#MNEM.UNIT      DATA TYPE    INFORMATION
#----------   ------------   ------------------------------
 STRT.F          712.0000:   START DEPTH
 STOP.F         3352.0000:   STOP DEPTH
 STEP.F            0.5000:   STEP LENGTH
 NULL.          -999.2500:   NO VALUE
 COMP.    FENIX & SCISSON:   COMPANY
 WELL. FENIX & SCISSON "AX" #24-14:   WELL
 FLD .              NPR 3:   FIELD
 LOC .      S14 T38N R78W:   LOCATION
 CNTY.            NATRONA:   COUNTY
 STAT.            WYOMING:   STATE
 CTRY. UNITED STATES OF AMERICA:   COUNTRY
 SRVC.       SCHLUMBERGER:   SERVICE COMPANY
 DATE.        19-JUN-1981:   LOGDATE
 API .     49025108750000:   API NUMBER
~CURVE INFORMATION
#MNEM.UNIT       API CODE    CURVE DESCRIPTION
#----------   ------------   ------------------------------
 DEPT.F                  :   
 TENR.LBS    07 635 01 00:   TENSION
 ILD .OHMM   07 120 46 00:   DEEP INDUCTION RESISTIVITY
 SFL .OHMM   07 220 01 00:   SHALLOW FOCUSED LOG RESISTIVITY
 ILM .OHMM   07 120 44 00:   INDUCTION LOG MEDIUM RESISTIVITY
 SPR .MV     07 010 01 00:   SPONTANEOUS POTENTIAL
 TEND.LBS    45 635 01 00:   TENSION FROM DENSITY LOG
 DRHO.G/C3   45 356 01 00:   DENSITY CORRECTION
 CALD.IN     45 280 60 00:   CALIPER FROM DENSITY LOG
 GRD .GAPI   45 310 01 00:   GAMMA RAY FROM DENSITY LOG
 RHOB.G/C3   45 350 01 00:   BULK DENSITY
~PARAMETER INFORMATION
#MNEM.UNIT          VALUE    DESCRIPTION
#----------   ------------   ------------------------------
 EKB .F         5216.0000:   Kelly bushing
 EGL .F         5206.0000:   Ground level
 EDF .F         5215.0000:   Drilling floor
 EPD .F            0.0000:   Permanent datum
 TD  .F         3360.0000:   Total depth
 DATE.        19-JUN-1981:   Date logged
 CLNT.            A2DTECH:   Client Code
 SL  . 2413' FNL & 827' FWL:   Surface Location
 PD  .                 GL:   Permanent Datum
 DAPD.F                10:   Feet Above Permanent Datum
 DD  .F              3360:   Depth driller
 DL  .F              3348:   Depth logger
 BLI .F              3342:   Bottom log interval
 TLI .F               728:   Top log interval
 CS1 .IN            8.625:   Casing size
 CBD1.      8.625" @ 728':   Casing driller 1
 CBL1.F               728:   Casing logger 1
 BS1 .IN            7.875:   Bit size
 BSD1.F              3360:   Depth drilled with bit1
 DFT .                FGM:   Type fluid in hole
 DFD .                  9:   Density
 DFV .                 45:   Viscosity
 DFPH.                9.5:   pH
 DFL .                 10:   Fluid loss
 MSS .               TANK:   Source of sample
 RMS .OHMM           5.71:   Rm
 MST .F                68:   Rm Meas. temp.
 RMF .OHMM           1.27:   Rmf
 MFST.F                68:   Rmf Meas. temp.
 MFSS.               MEAS:   Source Rmf.
 RMB .OHMM           3.29:   Rm. at BHT
 BHT .F               118:   BHT.
 TCS .HRS            0800:   Time Circ. stopped
 TLAB.HRS            1130:   Time logger at bottom
 MRT .F               118:   Maximum recorded temp.
 LUN .               8039:   Logging unit number
 LUL .               CSPR:   Logging unit location
 ENGI.           G. PFARR:   Recorded By
 WITN.           R. SCOTT:   Witnessed by
 ORIG.           5" PRINT:   Origin of data
 UWI .     49025108750000:   Unique Well ID
 DICO. A2D TECHNOLOGIES, INC.:   Digitizing Company
~OTHER INFORMATION
~A   DEPT     TENR        ILD        SFL        ILM        SPR       TEND       DRHO       CALD         GRD      RHOB   
# ...
 2420.5000  1229.1370     5.8140     7.8790     5.3220   -40.8490  1279.7620     0.0140     8.3850   133.6810     2.4960
 2421.0000  1228.7710     5.6080     6.9370     5.0690   -40.9340  1279.7620     0.0200     8.3850   134.9530     2.5030
 2421.5000  1228.4060     5.4020     5.9940     4.7890   -41.0180  1279.7620     0.0260     8.3850   137.3030     2.5060
 2422.0000  1228.0400     5.1970     5.1480     4.7890   -41.1060  1279.7620     0.0280     8.3850   139.2650     2.5010
 2422.5000  1227.6750     5.0560     5.8050     4.7890   -41.1880  1279.7620     0.0090     8.3850   139.5640     2.4940
 2423.0000  1227.3090     5.0560     6.4010     4.7890   -41.2730  1279.7620     0.0030     8.3850   137.9320     2.5010
 2423.5000  1226.9440     5.0560     7.2600     4.7890   -41.2850  1279.7620     0.0070     8.3850   134.8790     2.5100
 2424.0000  1226.5780     5.0560     7.1680     4.7890   -41.3800  1279.7620     0.0110     8.3850   133.4880     2.5140
 2424.5000  1226.2120     5.0900     6.8160     4.7890   -41.5240  1279.7620     0.0130     8.3850   133.3100     2.5040
 2425.0000  1225.8470     5.1190     6.1690     4.7890   -41.7330  1279.7620     0.0030     8.3850   133.9780     2.4910
 2425.5000  1225.4810     5.1480     6.3810     4.7890   -42.1060  1279.7620    -0.0060     8.3850   136.2340     2.4810
 2426.0000  1225.1160     5.1010     6.8990     4.7890   -41.8720  1279.7620     0.0010     8.3850   140.5150     2.4820
 2426.5000  1224.7500     5.0540     7.3930     4.7890   -41.4670  1279.7620     0.0110     8.3850   141.5350     2.4950
 2427.0000  1224.3850     5.0080     6.8010     4.7730   -41.0270  1279.7620     0.0210     8.3850   143.8550     2.5080
 2427.5000  1224.0190     4.9650     6.2360     4.7590   -40.8670  1279.7620     0.0290     8.3850   146.4410     2.5070
 2428.0000  1223.6530     4.9950     6.0540     4.7440   -40.3300  1279.7620     0.0260     8.3850   147.5570     2.4980
 2428.5000  1223.2880     5.0220     6.4120     4.7290   -40.1040  1279.7620     0.0220     8.3850   146.2050     2.4880
 2429.0000  1222.9220     5.0490     6.3190     4.7160   -40.0970  1279.7620     0.0170     8.3850   144.5290     2.4780
 2429.5000  1222.5570     5.0770     6.0810     4.7050   -39.8760  1279.7620     0.0130     8.3850   142.8950     2.4760
 2430.0000  1222.1910     5.1040     5.7380     4.7460   -39.6610  1279.7620     0.0110     8.3850   141.3050     2.4850
 2430.5000  1221.8250     5.1480     6.2900     4.7800   -39.4350  1279.7620     0.0140     8.3850   138.6750     2.5030
 2431.0000  1221.4600     5.1290     7.2630     4.8180   -39.3290  1279.7620     0.0170     8.3850   134.4420     2.5040
 2431.5000  1221.0940     5.0800     8.2360     4.8760   -39.3410  1279.7620     0.0200     8.3850   134.5220     2.5020
 2432.0000  1220.7290     5.0300     9.1860     4.8000   -39.3510  1279.7620     0.0250     8.3850   137.3160     2.4910
 2432.5000  1220.3630     4.9810     8.1080     4.6180   -39.3030  1279.7620     0.0420     8.3850   140.3040     2.4860
 2433.0000  1219.9980     4.9320     6.6580     4.3740   -39.6850  1279.7620     0.0600     8.3850   140.5720     2.5010
 2433.5000  1219.6320     4.8760     4.4540     4.4560   -40.1460  1279.7620     0.0730     8.3850   135.5440     2.5090
 2434.0000  1219.2660     4.7890     5.0090     4.5780   -40.4840  1279.7620     0.0530     8.3850   131.3770     2.4910
 2434.5000  1218.9010     4.8450     6.1630     4.7010   -40.8160  1279.7620     0.0240     8.3850   126.9970     2.4710
 2435.0000  1218.5350     5.0350     7.3170     4.8240   -41.1730  1279.7620     0.0080     8.3850   128.6370     2.4650
 2435.5000  1218.1700     5.2250     8.7000     4.9470   -41.5140  1279.7620     0.0030     8.3850   133.5970     2.4670
 2436.0000  1217.8040     5.4150     8.5610     5.0700   -41.8340  1279.7620     0.0050     8.3850   138.6570     2.4820
 2436.5000  1217.4380     5.6040     8.3030     5.2230   -42.2510  1279.7620     0.0130     8.3850   137.6560     2.4980
 2437.0000  1217.0730     5.7940     8.0930     5.4290   -42.1240  1279.7620     0.0220     8.3850   134.6110     2.4990
 2437.5000  1216.7070     6.0590     8.6120     5.6350   -42.0160  1279.7620     0.0250     8.3850   131.5720     2.4940
 2438.0000  1216.3420     6.0310     8.5740     5.6140   -41.5000  1279.7620     0.0170     8.3850   131.5620     2.4890
 2438.5000  1215.9760     5.9850     7.9780     5.5930   -41.0370  1279.7620     0.0100     8.3850   131.6960     2.4910
 2439.0000  1215.6110     5.9400     7.3930     5.5710   -40.5270  1279.7620     0.0070     8.3850   131.2430     2.4940
 2439.5000  1215.2450     5.8940     7.7480     5.5500   -40.1340  1279.7620     0.0260     8.3850   129.2000     2.4960
 2440.0000  1214.8790     5.8430     8.1660     5.4670   -40.1840  1279.7620     0.0400     8.3850   126.9840     2.4970
 2440.5000  1214.5140     5.8670     8.5440     5.1480   -40.2240  1279.7620     0.0510     8.3850   125.8960     2.4830
 2441.0000  1214.1479     5.8940     7.5490     5.2560   -40.2840  1279.7620     0.0370     8.3850   126.1700     2.4660
 2441.5000  1213.7830     5.9210     6.5900     5.4110   -40.3350  1279.7620     0.0180     8.3850   126.4820     2.4550
 2442.0000  1213.4170     5.9500     7.0080     5.6350   -40.3880  1279.7620     0.0060     8.3850   127.0120     2.4620
 2442.5000  1213.0520     5.9500     7.8420     5.5890   -40.4420  1279.7620     0.0100     8.3850   127.8770     2.4780
 2443.0000  1212.6860     5.8220     8.6770     5.5050   -40.4950  1279.7620     0.0110     8.3850   128.9950     2.4690
 2443.5000  1212.3199     5.6560     9.3530     5.4210   -40.5480  1279.7620     0.0070     8.3850   130.3380     2.4570
 2444.0000  1211.9550     5.4890     8.3910     5.3380   -40.6010  1279.7620     0.0040     8.3850   131.6950     2.4480
 2444.5000  1211.5890     5.3220     7.4940     5.0770   -40.6550  1279.7620     0.0170     8.3850   132.2990     2.4580
 2445.0000  1211.2240     5.1550     6.6040     4.8190   -40.7070  1279.7620     0.0310     8.3850   131.6950     2.4730
 2445.5000  1210.8580     4.9650     5.7130     4.5610   -40.7600  1279.7620     0.0400     8.3850   130.8230     2.4640
 2446.0000  1210.4919     4.7890     4.8230     4.2190   -40.8170  1279.7620     0.0290     8.3850   127.7010     2.4470
 2446.5000  1210.1270     4.8770     4.5360     4.4330   -40.8590  1279.7620     0.0180     8.3850   121.3480     2.4500
 2447.0000  1209.7610     5.0070     6.4790     4.9650   -40.9050  1279.7620     0.0100     8.3900   116.7230     2.4870
 2447.5000  1209.3960     5.1480     8.6620     4.8720   -40.8930  1279.7620     0.0170     8.3970   115.0430     2.5250
 2448.0000  1209.0300     4.8650    11.4130     4.5760   -40.7970  1279.9220     0.0250     8.4050   118.1660     2.5290
 2448.5000  1208.6650     4.5590    10.7440     4.2800   -40.7770  1280.0760     0.0330     8.4120   123.9190     2.5140
 2449.0000  1208.2990     4.2520     8.8120     3.9840   -40.7600  1280.2300     0.0410     8.4200   127.6210     2.4960
 2449.5000  1207.9330     3.9450     6.8800     3.6890   -40.0420  1280.3840     0.0480     8.4270   130.0470     2.4780
 2450.0000  1207.5680     3.6390     4.9480     3.3930   -40.1400  1280.5380     0.0570     8.4350   129.5780     2.4600
 2450.5000  1207.2020     3.3320     3.0460     3.1020   -40.1140  1280.6920     0.0470     8.4420   128.6670     2.4430
 2451.0000  1206.8370     3.1920     3.6650     3.0820   -40.1110  1280.8459     0.0310     8.4490   128.5030     2.4390
 2451.5000  1206.4709     3.1520     4.2740     3.0500   -40.1200  1281.0000     0.0180     8.4570   128.3480     2.4440
 2452.0000  1206.1050     3.1130     4.9650     3.0180   -40.1140  1281.1541     0.0280     8.4640   127.8180     2.4680
 2452.5000  1205.7400     3.0540     4.9650     2.9860   -40.1160  1281.3090     0.0390     8.4720   126.9390     2.4920
 2453.0000  1205.3740     3.0570     4.5660     2.9540   -40.1150  1281.4630     0.0490     8.4790   126.0740     2.4960
 2453.5000  1205.0090     3.0930     4.1950     2.9380   -40.1170  1281.6169     0.0420     8.4870   125.7060     2.4780
