~VERSION INFORMATION
 VERS.                2.0:   CWLS LOG ASCII STANDARD - VERSION 2.0
 WRAP.                 NO:   ONE LINE PER DEPTH STEP
~WELL INFORMATION
#MNEM.UNIT      DATA TYPE    INFORMATION
#----------   ------------   ------------------------------
 STRT.F          224.0000:   START DEPTH
 STOP.F         2912.0000:   STOP DEPTH
 STEP.F            0.5000:   STEP LENGTH
 NULL.          -999.2500:   NO VALUE
 COMP.    FENIX & SCISSON:   COMPANY
 WELL. FENIX & SCISSON NPR 34 "A" #3-21:   WELL
 FLD .             NPR #3:   FIELD
 LOC .      S21 T39N R78W:   LOCATION
 CNTY.            NATRONA:   COUNTY
 STAT.            WYOMING:   STATE
 CTRY. UNITED STATES OF AMERICA:   COUNTRY
 SRVC.              WELEX:   SERVICE COMPANY
 DATE.        15-JUL-1977:   LOGDATE
 API .     49025103970000:   API NUMBER
~CURVE INFORMATION
#MNEM.UNIT       API CODE    CURVE DESCRIPTION
#----------   ------------   ------------------------------
 DEPT.F                  :   
 CALD.IN     45 280 60 00:   CALIPER FROM DENSITY LOG
 CORR.G/C3   45 356 01 00:   DENSITY CORRECTION
 RHOB.G/C3   45 350 01 00:   BULK DENSITY
 GRD .GAPI   45 310 01 00:   GAMMA RAY FROM DENSITY LOG
 SPR .MV     07 010 01 00:   SPONTANEOUS POTENTIAL
 ILD .OHMM   07 120 46 00:   DEEP INDUCTION RESISTIVITY
 ILM .OHMM   07 120 44 00:   INDUCTION LOG MEDIUM RESISTIVITY
 SGRD.OHMM   07 220 05 00:   SHALLOW SHORT GUARD RESISTIVITY
~PARAMETER INFORMATION
#MNEM.UNIT          VALUE    DESCRIPTION
#----------   ------------   ------------------------------
 EKB .F         4921.0000:   Kelly bushing
 EGL .F         4911.0000:   Ground level
 TD  .F         2914.0000:   Total depth
 CLNT.            A2DTECH:   Client Code
 SL  . 2310' FNL & 1650' FWL:   Surface Location
 DATE.        15-JUL-1977:   Date Logged [DD-MMM-YYYY]
 DD  .F              2900:   Depth driller
 DL  .F              2914:   Depth logger
 BLI .F              2912:   Bottom log interval
 TLI .F               218:   Top log interval
 CS1 .              8.625:   Casing size
 CBD1.      8.625" @ 230':   Casing driller 1
 CBL1.IN              226:   Casing logger 1
 BS1 .IN            7.875:   Bit size
 BSD1.F              2900:   Depth drilled with bit1
 DFT .                KCL:   Type fluid in hole
 DFD .                8.9:   Density
 DFV .               1.42:   Viscosity
 DFPH.                7.5:   pH
 DFL .               19.6:   Fluid loss
 MSS .            MUD PIT:   Source of sample
 RMS .OHMM           3.75:   Rm
 MST .F                83:   Rm Meas. temp.
 RMF .OHMM           3.40:   Rmf
 MFST.F                83:   Rmf Meas. temp.
 MFSS.           MEASURED:   Source Rmf.
 RMC .OHMM            9.0:   Rmc
 MCST.F                83:   Rmc Meas. temp.
 MCSS.           MEASURED:   Source Rmc.
 RMB .OHMM           2.80:   Rm. at BHT
 BHT .F               111:   BHT.
 TCS .HRS               3:   Time Circ. stopped
 MRT .F               111:   Maximum recorded temp.
 LUN .               8766:   Logging unit number
 LUL .             CASPER:   Logging unit location
 ENGI.          T. JOYNER:   Recorded By
 WITN.     MR. PETTINGILL:   Witnessed by
 ORIG.           5" PRINT:   Origin of data
 UWI .     49025103970000:   Unique Well ID
 DICO. A2D TECHNOLOGIES, INC.:   Digitizing Company
 PD  .                 GL:   Permanent Datum
 EPD .F              4911:   Elevation Permanent Datum
 LMF .                 KB:   Log Measured From
 DMF .                 KB:   Drilling Measured From
 DAPD.F                10:   Feet Above Permanent Datum
~OTHER INFORMATION
~A   DEPT      CALD        CORR       RHOB       GRD       SPR        ILD        ILM       SGRD   
# ...
 1277.0000     8.7125     0.0409     2.4900   122.4371   -62.9299     6.5943     7.0667     8.2198
 1277.5000     8.7153     0.0336     2.4782   121.2964   -62.9120     6.5506     7.1116     8.1681
 1278.0000     8.7181     0.0262     2.4731   119.8489   -62.8941     6.5524     7.1150     8.2281
 1278.5000     8.7209     0.0293     2.4716   120.4817   -62.8763     6.5997     7.1185     8.2913
 1279.0000     8.7088     0.0354     2.4778   122.3032   -62.8584     6.6474     7.1219     8.4687
 1279.5000     8.7116     0.0415     2.4846   122.6291   -62.8405     6.6520     7.1254     8.6536
 1280.0000     8.7144     0.0446     2.4742   119.4082   -62.8226     6.7470     7.1288     8.8922
 1280.5000     8.7172     0.0328     2.4557   118.2483   -62.8032     6.7925     7.1323     8.8959
 1281.0000     8.7200     0.0269     2.4468   121.2681   -62.7868     6.8415     7.1357     8.8995
 1281.5000     8.7080     0.0240     2.4447   122.1884   -62.9183     6.9388     7.1887     8.9032
 1282.0000     8.7108     0.0241     2.4539   119.5618   -63.0482     6.9935     7.2480     8.8455
 1282.5000     8.7136     0.0288     2.4629   119.6003   -63.0303     7.0883     7.3463     8.7883
 1283.0000     8.7015     0.0334     2.4706   121.1245   -63.0109     7.1434     7.4009     8.7920
 1283.5000     8.7048     0.0365     2.4767   122.9460   -62.9945     7.2410     7.4044     8.7957
 1284.0000     8.6927     0.0396     2.4818   122.0929   -62.9766     7.2430     7.3516     8.7993
 1284.5000     8.6955     0.0397     2.4843   117.3765   -62.9587     7.1888     7.2095     8.8031
 1285.0000     8.6983     0.0368     2.4799   122.1697   -62.9409     7.0427     7.1633     8.8066
 1285.5000     8.6862     0.0325     2.4591   121.9109   -62.9230     6.9062     7.1174     8.8104
 1286.0000     8.6890     0.0296     2.4502   118.6764   -62.7550     6.8535     7.1210     8.8751
 1286.5000     8.6919     0.0252     2.4608   120.5244   -62.5900     6.7680     7.1738     8.8786
 1287.0000     8.6798     0.0253     2.4669   122.3233   -62.4235     6.8170     7.2270     8.9438
 1287.5000     8.6826     0.0270     2.4647   119.3412   -62.2571     6.8742     7.2305     9.0096
 1288.0000     8.6854     0.0318     2.4633   118.5369   -62.2392     7.0207     7.2882     9.0866
 1288.5000     8.6882     0.0362     2.4762   120.0625   -62.0727     7.1208     7.3891     9.1424
 1289.0000     8.6754     0.0378     2.4800   117.9297   -62.2079     7.2631     7.4440     9.1462
 1289.5000     8.6640     0.0364     2.4719   116.5719   -62.1855     7.3155     7.5512     9.1500
 1290.0000     8.6520     0.0321     2.4690   120.4832   -62.3207     7.3180     7.5549     9.0915
 1290.5000     8.6548     0.0292     2.4736   120.2148   -62.5955     7.3200     7.5585     9.0318
 1291.0000     8.6420     0.0263     2.4804   119.0741   -62.7306     7.2710     7.5622     8.9116
 1291.5000     8.6305     0.0204     2.4820   118.5182   -62.8613     7.1735     7.4590     8.7334
 1292.0000     8.6334     0.0161     2.4769   117.9526   -62.9921     7.0281     7.3605     8.6760
 1292.5000     8.6362     0.0237     2.4815   116.8023   -63.1227     6.9334     7.2630     8.6199
 1293.0000     8.6390     0.0313     2.4928   115.6616   -63.2534     6.8870     7.1693     8.6244
 1293.5000     8.6270     0.0389     2.5124   113.9170   -63.2311     6.8894     7.1234     8.6877
 1294.0000     8.6298     0.0435     2.5259   113.3514   -63.2132     6.8913     7.1268     8.6913
 1294.5000     8.6177     0.0481     2.5320   113.6966   -63.1953     6.8932     7.1797     8.7551
 1295.0000     8.6056     0.0497     2.5343   115.5181   -63.1774     6.9430     7.1832     8.8310
 1295.5000     8.6084     0.0468     2.5195   117.0424   -63.0109     7.0417     7.2365     8.9458
 1296.0000     8.6262     0.0440     2.5107   118.2695   -63.1416     7.1418     7.2400     9.0115
 1296.5000     8.6290     0.0381     2.5033   118.8926   -63.1237     7.2433     7.2435     9.0152
 1297.0000     8.6318     0.0337     2.4982   114.7706   -63.1058     7.2957     7.2973     9.0189
 1297.5000     8.6346     0.0278     2.4931   118.0875   -62.9394     7.3994     7.3008     9.0852
 1298.0000     8.6381     0.0280     2.4880   119.3146   -62.9215     7.4014     7.3550     9.0889
 1298.5000     8.6409     0.0281     2.4851   119.0559   -62.9036     7.4035     7.4095     9.0927
 1299.0000     8.6437     0.0297     2.4904   118.2028   -62.8857     7.4055     7.4645     9.0329
 1299.5000     8.6465     0.0328     2.4943   117.6372   -62.8678     7.4076     7.4683     8.9754
 1300.0000     8.6497     0.0374     2.4922   119.1711   -62.8499     7.4096     7.5236     8.9164
 1300.5000     8.6637     0.0390     2.4982   120.9926   -62.8320     7.4117     7.5272     8.7987
 1301.0000     8.6776     0.0407     2.4983   120.7338   -62.8141     7.4137     7.5831     8.8633
 1301.5000     8.6712     0.0393     2.4924   119.8711   -62.6477     7.4672     7.6393     8.9284
 1302.0000     8.6745     0.0425     2.4865   119.0274   -62.4812     7.5212     7.6963     8.9940
 1302.5000     8.6622     0.0381     2.4836   117.5799   -62.4633     7.7344     7.6998     9.1860
 1303.0000     8.6500     0.0352     2.4822   119.9957   -62.5985     7.7903     7.7569     9.3176
 1303.5000     8.6378     0.0339     2.4778   119.7369   -62.5761     7.7924     7.7607     9.3860
 1304.0000     8.6405     0.0355     2.4765   117.6939   -62.5582     7.7403     7.7644     9.4550
 1304.5000     8.6283     0.0386     2.4813   118.0306   -62.5403     7.6890     7.7147     9.3292
 1305.0000     8.6310     0.0418     2.4865   118.6633   -62.5254     7.5337     7.7184     9.2041
 1305.5000     8.6336     0.0449     2.4918   117.8102   -62.5515     7.4322     7.5637     9.0191
 1306.0000     8.6363     0.0480     2.4978   116.3627   -62.5785     7.3824     7.5153     8.8991
 1306.5000     8.6390     0.0482     2.4927   114.9152   -62.6055     7.3850     7.4672     8.9037
 1307.0000     8.6417     0.0436     2.4846   115.2631   -62.6016     7.3870     7.3682     8.9691
 1307.5000     8.6444     0.0409     2.4779   116.8153   -62.7324     7.3891     7.3718     8.9728
 1308.0000     8.6470     0.0396     2.4750   119.2472   -62.8677     7.3911     7.3754     9.0387
 1308.5000     8.6646     0.0427     2.4759   117.9347   -62.9985     7.3417     7.3790     9.0420
 1309.0000     8.6678     0.0474     2.4887   114.0856   -62.9764     7.3442     7.3316     9.1089
 1309.5000     8.6853     0.0520     2.4955   115.0042   -62.9586     7.2951     7.3352     9.1127
 1310.0000     8.7029     0.0491     2.4941   119.0567   -62.9409     7.2473     7.2882     9.1796
 1310.5000     8.7055     0.0432     2.4882   116.7177   -62.7745     7.2493     7.2918     9.1834
 1311.0000     8.7231     0.0404     2.4839   113.1899   -62.7568     7.2513     7.2450     9.1871
 1311.5000     8.7257     0.0495     2.4974   111.7424   -62.7391     7.2608     7.2486     9.2546
 1312.0000     8.7284     0.0556     2.5132   114.4554   -62.7213     7.2716     7.3024     9.3872
 1312.5000     8.7155     0.0572     2.5088   115.6729   -62.7036     7.2825     7.4076     9.4561
 1313.0000     8.7188     0.0529     2.5029   113.0367   -62.6858     7.2934     7.4112     9.5255
 1313.5000     8.7059     0.0546     2.5000   117.2451   -62.6681     7.3042     7.4595     9.5955
 1314.0000     8.7093     0.0562     2.5203   116.6891   -62.7994     7.3136     7.5088     9.5994
 1314.5000     8.7119     0.0548     2.5152   115.8264   -62.7812     7.3156     7.5470     9.5363
 1315.0000     8.6990     0.0490     2.5078   119.7377   -62.7635     7.3685     7.5496     9.5412
 1315.5000     8.7024     0.0401     2.5012   118.5873   -62.7457     7.3705     7.5522     9.5452
 1316.0000     8.7050     0.0358     2.4915   115.0596   -62.7280     7.4753     7.5548     9.4824
 1316.5000     8.6928     0.0299     2.4789   116.2867   -62.8588     7.4773     7.5574     9.4873
 1317.0000     8.6954     0.0211     2.4634   118.7025   -62.8410     7.5313     7.5600     9.3610
