~VERSION INFORMATION
 VERS.                2.0:   CWLS LOG ASCII STANDARD - VERSION 2.0
 WRAP.                 NO:   ONE LINE PER DEPTH STEP
~WELL INFORMATION
#MNEM.UNIT      DATA TYPE    INFORMATION
#----------   ------------   ------------------------------
 STRT.F            9.0000:   START DEPTH
 STOP.F         2876.0000:   STOP DEPTH
 STEP.F            0.5000:   STEP LENGTH
 NULL.          -999.2500:   NO VALUE
 COMP.    FENIX & SCISSON:   COMPANY
 WELL. FENIX & SCISSON "AX" #82-29:   WELL
 FLD .        TEAPOT DOME:   FIELD
 LOC .      S29 T39N R78W:   LOCATION
 CNTY.            NATRONA:   COUNTY
 STAT.            WYOMING:   STATE
 CTRY. UNITED STATES OF AMERICA:   COUNTRY
 SRVC.           BIRDWELL:   SERVICE COMPANY
 DATE.        12-JAN-1980:   LOGDATE
 API .     49025107980000:   API NUMBER
~CURVE INFORMATION
#MNEM.UNIT       API CODE    CURVE DESCRIPTION
#----------   ------------   ------------------------------
 DEPT.F                  :   
 GRD .GAPI   45 310 01 00:   GAMMA RAY FROM DENSITY LOG
 CALD.IN     45 280 60 00:   CALIPER FROM DENSITY LOG
 CORR.G/C3   45 356 01 00:   DENSITY CORRECTION
 RHOB.G/C3   45 350 01 00:   BULK DENSITY
 SPR .MV     07 010 01 00:   SPONTANEOUS POTENTIAL
 ILD .OHMM   07 120 46 00:   DEEP INDUCTION RESISTIVITY
 SN  .OHMM   07 220 01 00:   SHALLOW FOCUSED LOG RESISTIVITY
~PARAMETER INFORMATION
#MNEM.UNIT          VALUE    DESCRIPTION
#----------   ------------   ------------------------------
 EKB .F         4985.0000:   Kelly bushing
 EGL .F         4973.0000:   Ground level
 EDF .F         4982.0000:   Drilling floor
 TD  .F         2876.0000:   Total depth
 CLNT.            A2DTECH:   Client Code
 SL  . 1821' FEL & 414' FEL:   Surface Location
 DATE.        12-JAN-1980:   Date Logged [DD-MMM-YYYY]
 DD  .F              2870:   Depth driller
 DL  .F              2876:   Depth logger
 BLI .F              2876:   Bottom log interval
 TLI .F               320:   Top log interval
 CS1 .IN            8.625:   Casing size
 CBD1.      8.625" @ 280':   Casing driller 1
 CBL1.IN              320:   Casing logger 1
 BS1 .IN            7.875:   Bit size
 BSD1.F              2870:   Depth drilled with bit1
 DFT .            GEL MUD:   Type fluid in hole
 DFD .                8.7:   Density
 DFV .                 53:   Viscosity
 DFPH.               10.5:   pH
 DFL .               15.4:   Fluid loss
 MSS .            MUD PIT:   Source of sample
 RMS .OHMM            1.8:   Rm
 MST .F                50:   Rm Meas. temp.
 RMF .OHMM            1.4:   Rmf
 MFST.F                60:   Rmf Meas. temp.
 MFSS.               MEAS:   Source Rmf.
 RMC .OHMM            1.9:   Rmc
 MCST.F                60:   Rmc Meas. temp.
 MCSS.               MEAS:   Source Rmc.
 RMB .OHMM           0.65:   Rm. at BHT
 BHT .F               138:   BHT.
 TCS .HRS              11:   Time Circ. stopped
 MRT .F               138:   Maximum recorded temp.
 LUN .               3029:   Logging unit number
 LUL .             CASPEL:   Logging unit location
 ENGI.           T. VOLFF:   Recorded By
 WITN.          MR. AMEND:   Witnessed by
 ORIG.         2.5" PRINT:   Origin of data
 UWI .     49025107980000:   Unique Well ID
 DICO. A2D TECHNOLOGIES,INC.:   Digitizing Company
 PD  .                 GL:   Permanent Datum
 EPD .F              4973:   Elevation Permanent Datum
 LMF .                 DF:   Log Measured From
 DMF .                 KB:   Drilling Measured From
 DAPD.F                 9:   Feet Above Permanent Datum
~OTHER INFORMATION
~A    DEPT      GRD      CALD       CORR       RHOB        SPR        ILD         SN   
# ...
 2011.0000   142.2220     8.4782     0.0381     2.4490   -18.5976     8.1477     9.8868
 2011.5000   142.5933     8.4779     0.0289     2.4383   -17.3780     8.1499     9.4783
 2012.0000   139.1552     8.4776     0.0288     2.4230   -16.7683     8.1521     8.8358
 2012.5000   134.6125     8.4899     0.0530     2.4275   -16.1585     7.9289     8.2369
 2013.0000   135.7541     8.5073     0.1105     2.4662   -17.4371     7.3941     7.8966
 2013.5000   139.7069     8.5069     0.1256     2.5042   -17.9878     6.8955     7.5703
 2014.0000   137.5807     8.5067     0.0838     2.4967   -17.0732     6.6078     7.4594
 2014.5000   135.7988     8.5367     0.0396     2.4715   -18.5976     6.5121     7.0556
 2015.0000   139.1035     8.5363     0.0315     2.4867   -17.3780     6.2402     7.1537
 2015.5000   141.8405     8.5360     0.0406     2.4762   -18.2927     6.1706     7.3752
 2016.0000   143.0578     8.5357     0.0372     2.4699   -16.9432     6.0864     7.5626
 2016.5000   142.1474     8.5354     0.0113     2.4690   -16.7683     5.9728     7.3912
 2017.0000   143.0914     8.5351     0.0205     2.4788   -16.6046     5.9216     7.1105
 2017.5000   141.1617     8.5651     0.0496     2.4971   -16.4634     5.8815     6.9069
 2018.0000   134.5531     8.5649     0.0806     2.5199   -16.4634     6.0556     6.7556
 2018.5000   136.6822     8.5646     0.1070     2.5306   -16.4634     6.1816     6.8493
 2019.0000   133.8269     8.5643     0.1250     2.5336   -16.4634     6.1832     6.8477
 2019.5000   131.2599     8.5640     0.0613     2.4923   -16.4634     5.9302     6.7511
 2020.0000   130.6077     8.5636     0.0431     2.5014   -15.8537     5.7678     6.8449
 2020.5000   134.3481     8.5633     0.0672     2.5074   -15.2439     5.6890     7.3396
 2021.0000   137.9157     8.5630     0.0685     2.4935   -18.2927     5.8524     7.4570
 2021.5000   142.7304     8.5627     0.0428     2.4508   -18.3312     6.1917     7.1341
 2022.0000   146.7438     8.5625     0.0549     2.4645   -19.2073     6.3779     7.8668
 2022.5000   145.7117     8.5621     0.0730     2.4691   -18.1628     6.5625     8.4393
 2023.0000   143.6872     8.5618     0.0942     2.4751   -17.0732     6.8522     8.6732
 2023.5000   141.5610     8.5615     0.0939     2.4674   -17.0732     7.0551     8.4319
 2024.0000   137.0032     8.5612     0.0759     2.4861   -17.0732     7.2641     8.4301
 2024.5000   135.3531     8.5609     0.0958     2.5035   -17.0732     7.3384     8.4284
 2025.0000   136.7023     8.5606     0.1369     2.5122   -17.2511     7.1962     8.0057
 2025.5000   134.2721     8.5603     0.1393     2.5183   -15.1001     6.9932     7.5967
 2026.0000   130.3222     8.5600     0.0926     2.4915   -14.7947     6.8473     7.5788
 2026.5000   129.4069     8.5597     0.0475     2.4700   -15.1163     6.7539     7.9088
 2027.0000   132.8071     8.5594     0.0339     2.4868   -15.8537     6.9482     7.8503
 2027.5000   136.2282     8.5591     0.0300     2.4791   -17.0732     7.0482     7.6318
 2028.0000   139.1428     8.5588     0.0314     2.4668   -18.2927     7.1496     8.4157
 2028.5000   136.7377     8.5585     0.0345     2.4805   -18.2927     7.3549     8.7748
 2029.0000   133.3407     8.5582     0.0424     2.4804   -17.0732     7.3569     8.4123
 2029.5000   129.6845     8.5579     0.0600     2.4834   -16.7683     7.3589     7.9526
 2030.0000   127.7001     8.5576     0.0630     2.4801   -17.0732     7.0513     7.6240
 2030.5000   126.4554     8.5469     0.0902     2.4885   -17.0732     6.5477     7.5165
 2031.0000   128.0472     8.5266     0.1174     2.5261   -17.1200     5.8350     7.3020
 2031.5000   135.3184     8.5263     0.1204     2.5351   -18.2927     5.3204     6.5541
 2032.0000   136.0750     8.5260     0.0719     2.5091   -17.0732     5.1704     5.6776
 2032.5000   133.0523     8.5257     0.0264     2.4733   -17.8304     5.0954     6.0430
 2033.0000   132.0558     8.4951     0.0142     2.4701   -18.2927     5.1503     6.0868
 2033.5000   134.2966     8.4948     0.0173     2.4706   -16.1585     5.4494     5.9421
 2034.0000   137.9455     8.4945     0.0270     2.4760   -16.1585     5.6524     6.9956
 2034.5000   140.3786     8.4942     0.0514     2.4807   -16.9090     5.5753     7.9949
 2035.0000   136.7327     8.4939     0.0629     2.4858   -17.2307     5.3474     7.6017
 2035.5000   133.6946     8.4936     0.0715     2.4873   -17.6829     5.2010     6.2526
 2036.0000   135.5198     8.4933     0.0722     2.4903   -16.1585     4.9881     5.3592
 2036.5000   136.7371     8.4931     0.0744     2.4139   -16.4634     4.6517     5.0663
 2037.0000   137.3567     8.4928     0.0754     2.4275   -15.5488     4.3380     4.7895
 2037.5000   134.6625     8.4925     0.1083     2.4626   -14.6341     4.1026     4.0481
 2038.0000   130.3792     8.4921     0.1505     2.4610   -14.3293     3.8778     3.9356
 2038.5000   127.3205     8.4918     0.1041     2.4472   -14.2993     3.7127     4.5259
 2039.0000   127.2513     8.4915     0.0638     2.4694   -14.6341     3.5689     4.3357
 2039.5000   126.3714     8.4912     0.0407     2.4855   -14.9425     3.5003     3.8785
 2040.0000   124.1844     8.4909     0.0436     2.4831   -15.2439     3.3761     4.7260
 2040.5000   122.2305     8.4905     0.0496     2.4553   -15.2439     3.4407     4.3072
 2041.0000   121.3404     8.4903     0.0526     2.4202   -15.2439     3.5729     3.6651
 2041.5000   127.5333     8.4900     0.0616     2.3984   -15.6195     3.6244     3.8554
 2042.0000   132.9645     8.4897     0.1343     2.4005   -16.9433     3.5995     4.0407
 2042.5000   132.0947     8.4894     0.1558     2.4057   -17.7871     3.5474     4.1471
 2043.0000   121.8635     8.4588     0.1312     2.4004   -17.9878     3.4296     4.2414
 2043.5000   118.2176     8.4585     0.1464     2.4909   -17.8501     3.4792     4.2377
 2044.0000   116.6993     8.4582     0.1262     2.4374   -16.6099     3.5791     4.0155
 2044.5000   116.3966     8.4566     0.0522     2.4211   -15.1102     3.8942     4.9792
 2045.0000   118.2220     8.4273     0.0910     2.4434   -15.8537     4.1781     5.4906
 2045.5000   126.7341     8.4270     0.1164     2.4662   -15.5488     4.4827     5.3379
 2046.0000   125.8238     8.4267     0.1047     2.3806   -14.6341     4.7438     5.3368
 2046.5000   125.8202     8.4730     0.0652     2.3913   -14.6341     5.0174     5.4110
 2047.0000   129.2004     8.5776     0.0911     2.4248   -14.3293     5.0189     6.4895
 2047.5000   130.7673     8.6379     0.1253     2.4375   -13.6866     5.2056     6.6755
 2048.0000   131.9088     8.6679     0.1364     2.4721   -14.3293     5.6787     6.9663
 2048.5000   131.8547     8.6525     0.1285     2.4918   -14.0232     6.1089     7.1842
 2049.0000   131.6077     8.5899     0.0712     2.4368   -13.4146     6.5928     7.3767
 2049.5000   136.9892     8.5760     0.0564     2.4821   -14.3978     6.8839     7.6505
 2050.0000   139.5134     8.5757     0.1182     2.4977   -15.9048     7.0877     8.3005
 2050.5000   135.9386     8.6057     0.1030     2.4861   -16.4634     7.2977     8.8657
 2051.0000   137.3081     8.5751     0.0452     2.4761   -15.7695     7.4486     8.8151
 2051.5000   139.2243     8.5142     0.0076     2.4915   -14.8380     7.4506     8.6907
 2052.0000   136.0143     8.4533     0.0170     2.5049   -14.0938     7.4526     8.6196
 2052.5000   135.8739     8.4227     0.0474     2.5238   -13.4146     7.4546     8.4469
 2053.0000   135.2677     8.4222     0.0583     2.5405   -14.6320     7.0497     8.3278
 2053.5000   132.2297     8.3918     0.0359     2.5328   -15.3106     7.0519     8.2104
 2054.0000   129.4957     8.3915     0.0116     2.5130   -15.6323     7.0865     8.6814
 2054.5000   127.0655     8.3912     0.0025     2.5160   -15.8537     7.2345     9.1795
 2055.0000   120.3801     8.3909     0.0019     2.5130   -15.1270     7.6092     9.8429
 2055.5000   120.2746     8.3906     0.0054     2.5084   -14.9390     8.0712    10.4076
 2056.0000   125.2463     8.4008     0.0114     2.5130   -15.5448     8.6821    11.0129
