~VERSION INFORMATION
 VERS.                2.0:   CWLS LOG ASCII STANDARD - VERSION 2.0
 WRAP.                 NO:   ONE LINE PER DEPTH STEP
~WELL INFORMATION
#MNEM.UNIT      DATA TYPE    INFORMATION
#----------   ------------   ------------------------------
 STRT.F          629.0000:   START DEPTH
 STOP.F         4090.0000:   STOP DEPTH
 STEP.F            0.5000:   STEP LENGTH
 NULL.          -999.2500:   NO VALUE
 COMP. LAWRENCE ALLISON & ASSOCIATES:   COMPANY
 WELL. LAWRENCE NPR 3 "SHX" #36-10:   WELL
 FLD .      NPR - WILDCAT:   FIELD
 LOC .      S10 T38N R78W:   LOCATION
 CNTY.            NATRONA:   COUNTY
 STAT.            WYOMING:   STATE
 CTRY. UNITED STATES OF AMERICA:   COUNTRY
 SRVC.      DRESSER ATLAS:   SERVICE COMPANY
 DATE.        24-DEC-1981:   LOGDATE
 API .     49025108310000:   API NUMBER
~CURVE INFORMATION
#MNEM.UNIT       API CODE    CURVE DESCRIPTION
#----------   ------------   ------------------------------
 DEPT.F                  :   
 DT  .US/F   60 520 00 00:   DELTA TIME
 TENS.LBS    60 635 01 00:   TENSION FROM SONIC
 GRR .GAPI   07 310 01 00:   GAMMA RAY FROM RESISTIVITY
 SPR .MV     07 010 01 00:   SPONTANEOUS POTENTIAL
 RFOC.OHMM   07 220 04 00:   RESISTIVITY FOCUSED LOG RES.
 RILM.OHMM   07 120 44 00:   INDUCTION LOG MEDIUM RESISTIVITY
 RILD.OHMM   07 120 46 00:   DEEP INDUCTION RESISTIVITY
 TENR.LBS    07 635 01 00:   TENSION FROM RESISTIVITY
 NPHI.DEC    42 890 03 00:   NEUTRON POROSITY SANDSTONE
 RHOB.G/C3   45 350 01 00:   BULK DENSITY
 CORR.G/C3   45 356 01 00:   DENSITY CORRECTION
 TEND.LBS    45 635 01 00:   TENSION FROM DENSITY LOG
 CALD.IN     45 280 60 00:   CALIPER FROM DENSITY LOG
~PARAMETER INFORMATION
#MNEM.UNIT          VALUE    DESCRIPTION
#----------   ------------   ------------------------------
 EKB .F         5234.0000:   Kelly bushing
 EGL .F         5224.0000:   Ground level
 EDF .F         5233.0000:   Drilling floor
 EPD .F            0.0000:   Permanent datum
 TD  .F         4100.0000:   Total depth
 DATE.        24-DEC-1981:   Date logged
 CLNT.            A2DTECH:   Client Code
 SL  . 1798' FSL & 1455' FWL:   Surface Location
 PD  .                 GL:   Permanent Datum
 DAPD.F                10:   Feet Above Permanent Datum
 DD  .F              4100:   Depth driller
 DL  .F              4082:   Depth logger
 BLI .F              4074:   Bottom log interval
 TLI .F              2300:   Top log interval
 CS1 .IN            9.625:   Casing size
 CBD1.      9.625" @ 650':   Casing driller 1
 BS1 .IN            7.875:   Bit size
 BSD1.F              4100:   Depth drilled with bit1
 DFT .            KCL/GEL:   Type fluid in hole
 DFD .                9.1:   Density
 DFV .                 60:   Viscosity
 DFPH.                  8:   pH
 DFL .                 12:   Fluid loss
 MSS .           FLOWLINE:   Source of sample
 RMS .OHMM           .536:   Rm
 RMF .OHMM           .402:   Rmf
 RMC .OHMM            067:   Rmc
 MFSS.               CALC:   Source Rmf.
 MCSS.               CALC:   Source Rmc.
 RMB .OHMM            .35:   Rm. at BHT
 BHT .F               135:   BHT.
 TCS .HRS               6:   Time Circ. stopped
 MRT .F               141:   Maximum recorded temp.
 LUL .               GLT1:   Logging unit location
 UWI .     49025108310000:   Unique Well ID
 DICO. A2D TECHNOLOGIES, INC.:   Digitizing Company
~OTHER INFORMATION
~A   DEPT       DT       TENS         GRR       SPR       RFOC       RILM       RILD       TENR       NPHI       RHOB       CORR       TEND       CALD   
# ...
 3931.0000    82.1760   -64.8150   106.7480   -33.2490     8.6220     4.2680     3.9880   -63.4300     0.3020     2.6810     0.0030   -25.3380     8.2200
 3931.5000    82.4220   -64.8150   104.8420   -32.7230     7.4270     4.0620     3.7260   -63.1440     0.3050     2.6520     0.0520   -26.0460     8.2190
 3932.0000    84.8260   -64.8150   114.0350   -32.1920     6.2330     3.8750     3.4380   -62.8570     0.3120     2.5900     0.0880   -27.0830     8.2140
 3932.5000    90.0600   -64.8150   120.8030   -31.8940     5.1100     3.9880     3.4310   -62.5700     0.3220     2.5250     0.1270   -28.1210     8.2090
 3933.0000    92.3460   -64.8150   122.2410   -31.4490     5.2320     4.0910     3.4230   -62.2830     0.3320     2.4910     0.1560   -29.1580     8.2040
 3933.5000    94.0680   -64.8150   123.4800   -31.4710     5.4510     4.1940     3.4160   -61.9970     0.3450     2.4980     0.1630   -30.1960     8.1990
 3934.0000    94.5650   -64.8150   124.7370   -31.4160     5.4510     4.2960     3.4060   -61.7100     0.3400     2.5180     0.1220   -31.2330     8.1940
 3934.5000    94.3430   -64.8150   126.1200   -31.3530     5.4760     4.3990     3.5270   -61.4230     0.3310     2.5370     0.1140   -32.2710     8.1900
 3935.0000    94.1220   -64.8150   127.9280   -31.2910     6.0720     4.4910     3.7010   -61.1360     0.3420     2.5560     0.1210   -33.3080     8.1850
 3935.5000    93.9040   -64.8150   129.7310   -31.2300     6.8870     4.5770     3.8740   -60.8500     0.3570     2.5660     0.1240   -34.3460     8.1810
 3936.0000    91.3710   -64.8150   131.5340   -31.1680     7.5270     4.7480     4.0470   -60.5630     0.3500     2.5780     0.1010   -35.3830     8.1800
 3936.5000    89.4770   -64.8150   133.3500   -31.1100     6.7800     4.9190     4.6010   -60.2760     0.3440     2.5620     0.0840   -36.4210     8.1780
 3937.0000    90.0880   -64.8150   135.1840   -31.2180     6.0050     5.4410     5.5350   -59.9890     0.3390     2.5230     0.1100   -37.4580     8.1770
 3937.5000    91.9820   -64.8150   136.6860   -31.8100     5.9220     6.1130     6.4690   -59.7030     0.3300     2.4690     0.2380   -38.4960     8.1760
 3938.0000    93.5040   -64.8150   132.2450   -32.3910     6.4350     6.7850     7.4030   -59.4160     0.3140     2.4330     0.2840   -39.5330     8.1750
 3938.5000    89.9360   -64.8150   120.6610   -32.9710    10.6760     7.3890     8.3370   -59.1290     0.2950     2.4680     0.2320   -40.5710     8.1740
 3939.0000    83.7100   -64.8150   108.7670   -33.5510    18.9240     7.3430     8.9680   -58.8430     0.2670     2.5120     0.0420   -41.6080     8.1720
 3939.5000    76.2780   -64.8150   105.3710   -34.1320    18.9240     7.2520     8.9680   -58.5560     0.2460     2.5570    -0.0080   -42.6460     8.1710
 3940.0000    71.0810   -64.8150   110.8450   -34.7390    17.5330     7.1220     8.8040   -58.2690     0.2470     2.6040    -0.0010   -43.6830     8.1700
 3940.5000    71.9820   -64.8150   116.5270   -34.8830    15.0980     6.5650     7.5510   -57.9820     0.2550     2.6090     0.0240   -44.7210     8.1690
 3941.0000    75.6860   -64.8150   122.1750   -34.3330    12.6640     6.0590     6.4130   -57.6960     0.2650     2.5560     0.0490   -44.7310     8.1670
 3941.5000    76.8620   -64.8150   127.9870   -33.7800    10.2290     5.5540     5.2740   -57.4090     0.2800     2.5600     0.0770   -39.7500     8.1660
 3942.0000    79.6970   -64.8150   131.1310   -33.2300     7.7950     5.0480     4.2500   -57.1220     0.3010     2.5630     0.1060   -34.7700     8.1650
 3942.5000    83.7760   -64.8150   133.3930   -32.6820     5.6040     4.4910     4.2120   -56.8350     0.2990     2.5640     0.1340   -29.7900     8.1640
 3943.0000    87.5290   -64.8150   133.0430   -32.1330     5.2530     4.4500     4.1780   -56.5490     0.2990     2.5570     0.1580   -24.8100     8.1620
 3943.5000    93.8760   -64.8150   132.1190   -31.5850     5.1580     4.3870     4.1440   -56.2620     0.2990     2.5300     0.1900   -19.8300     8.1530
 3944.0000    98.6120   -64.8150   126.0170   -31.0360     5.1580     4.3290     4.1340   -55.9750     0.2930     2.4930     0.2780   -14.8500     8.1080
 3944.5000   101.7120   -64.8150   110.8600   -30.4880     7.0420     4.2500     4.0580   -55.6880     0.2590     2.5350     0.2140    -9.8700     8.0620
 3945.0000   100.8730   -64.8150    96.0590   -29.9390     9.7340     4.1150     3.9110   -55.4020     0.2310     2.5960     0.1160    -4.8900     8.0410
 3945.5000    97.2500   -64.8150    75.2040   -29.3910    12.1570     3.8580     3.6160   -55.1150     0.2280     2.6750     0.0230     0.0900     8.0260
 3946.0000    90.8190   -64.8150    79.0340   -28.8410    12.2690     3.5580     3.3750   -54.8280     0.2290     2.6420     0.0190     4.2500     8.0220
 3946.5000    87.8980   -64.8150    85.9540   -28.2910     7.2060     3.2580     3.1420   -54.5410     0.2790     2.5420     0.1300     2.1750     8.0390
 3947.0000    88.8990   -63.3580    90.3010   -27.7490     3.7010     2.9590     2.8830   -54.2550     0.3240     2.4440     0.1950     0.1000     8.0940
 3947.5000    92.9660   -60.5880    86.9490   -27.2860     3.3030     2.6590     2.6240   -53.9680     0.3670     2.3450     0.2250    -1.9750     8.1650
 3948.0000    98.5440   -57.8190    83.7610   -27.4660     2.9410     2.3590     2.3650   -53.6810     0.4100     2.2640     0.2460    -4.0500     8.3430
 3948.5000   105.1150   -54.8050    80.6420   -27.6250     2.8070     2.0900     2.1060   -53.3950     0.4410     2.2320     0.2470    -6.5100     8.4940
 3949.0000   108.2960   -34.6530    81.0030   -27.7820     2.8070     2.0560     1.8470   -53.1080     0.4480     2.2700     0.2470    -9.8390     8.4580
 3949.5000   110.8170   -34.2270    81.8200   -27.9390     2.8200     2.0260     1.6140   -52.8210     0.4650     2.3030     0.2410   -13.1680     8.4190
 3950.0000   111.1340   -33.8000    82.6390   -28.0970     2.8460     1.9960     1.5710   -52.5340     0.4540     2.2970     0.2090   -16.4970     8.3810
 3950.5000   111.4510   -33.3740    83.4520   -28.2660     2.8730     1.9650     1.5320   -52.2480     0.4320     2.2900     0.2140   -19.8260     8.3420
 3951.0000   111.7680   -32.9480    83.3100   -28.6740     2.9000     1.9350     1.4930   -51.9610     0.4160     2.3020     0.2240   -23.1550     8.3030
 3951.5000   111.5620   -32.5220    83.5340   -29.1220     2.9260     1.9050     1.4540   -51.6740     0.4270     2.3190     0.2320   -25.4490     8.3010
 3952.0000   110.1080   -32.0950    83.4830   -29.5700     2.9390     1.8740     1.4140   -51.3870     0.4470     2.3380     0.2220   -25.4490     8.3010
 3952.5000   108.6530   -31.6690    82.7830   -30.0160     2.9390     1.8210     1.3800   -51.1010     0.4700     2.3700     0.2050   -21.6670     8.3010
 3953.0000   107.1990   -31.2430    82.7280   -30.4630     2.9120     1.6900     1.3770   -50.8140     0.4730     2.4030     0.1740   -16.3940     8.3020
 3953.5000   105.7440   -30.8160    84.4870   -30.5150     2.8590     1.7120     1.3740   -50.5270     0.4780     2.4210     0.1460   -11.1200     8.3030
 3954.0000   104.2140   -30.3900    86.2700   -30.1940     2.7160     1.7590     1.3710   -50.2400     0.4940     2.4020     0.1550    -5.4890     8.4500
 3954.5000   105.8500   -29.9640    84.9140   -29.8730     2.5620     1.8060     1.3690   -49.9540     0.5050     2.3210     0.1860    -8.0040     8.6880
 3955.0000   108.7440   -29.5380    82.4450   -29.5570     2.3990     1.8530     1.3670   -49.6670     0.4900     2.2190     0.2170   -15.5190     8.6770
 3955.5000   112.3220   -29.1110    83.1530   -29.2390     2.3770     1.9000     1.3670   -49.3800     0.4730     2.1200     0.2190   -23.0340     8.5450
 3956.0000   112.7390   -28.6850    85.5590   -29.9140     2.5450     1.9470     1.4170   -49.0940     0.4610     2.1460     0.1830   -30.5490     8.1640
 3956.5000   111.3640   -28.2590    92.7150   -31.2940     2.6910     1.9940     1.4700   -48.8070     0.4570     2.2160     0.1440   -35.4290     7.9400
