~VERSION INFORMATION
 VERS.                2.0:   CWLS LOG ASCII STANDARD - VERSION 2.0
 WRAP.                 NO:   ONE LINE PER DEPTH STEP
~WELL INFORMATION
#MNEM.UNIT      DATA TYPE    INFORMATION
#----------   ------------   ------------------------------
 STRT.F          600.0000:   START DEPTH
 STOP.F         3201.0000:   STOP DEPTH
 STEP.F            0.5000:   STEP LENGTH
 NULL.          -999.2500:   NO VALUE
 COMP.    FENIX & SCISSON:   COMPANY
 WELL. FENIX & SCISSON 38 "AX" #3-34:   WELL
 FLD .              NPR 3:   FIELD
 LOC .      S34 T39N R78W:   LOCATION
 CNTY.            NATRONA:   COUNTY
 STAT.            WYOMING:   STATE
 CTRY. UNITED STATES OF AMERICA:   COUNTRY
 SRVC.              WELEX:   SERVICE COMPANY
 DATE.        16-SEP-1980:   LOGDATE
 API .     49025108560000:   API NUMBER
~CURVE INFORMATION
#MNEM.UNIT       API CODE    CURVE DESCRIPTION
#----------   ------------   ------------------------------
 DEPT.F                  :   
 CORR.G/C3   45 356 01 00:   DENSITY CORRECTION
 GRD .GAPI   45 310 01 00:   GAMMA RAY FROM DENSITY LOG
 RHOB.G/C3   45 350 01 00:   BULK DENSITY
 TEND.LBS    45 635 01 00:   TENSION FORM DENSITY LOG
 CALD.IN     45 280 60 00:   CALIPER FROM DENSITY LOG
 SPR .MV     07 010 01 00:   SPONTANEOUS POTENTIAL FROM RES.
 ILD .OHMM   07 120 46 00:   DEEP INDUCTION RESISTIVITY
 ILM .OHMM   07 120 44 00:   INDUCTION LOG MEDIUM RESISTIVITY
 GURD.OHMM   07 220 05 00:   GUARD LOG RESISTIVITY
~PARAMETER INFORMATION
#MNEM.UNIT          VALUE    DESCRIPTION
#----------   ------------   ------------------------------
 EKB .F         5205.0000:   Kelly bushing
 EGL .F         5195.0000:   Ground level
 TD  .F         3202.0000:   Total depth
 CLNT.            A2DTECH:   Client Code
 SL  . 582' FSL & 1600' FWL:   Surface Location
 PD  .                 GL:   Permanent Datum
 EPD .F              5195:   Elevation Permanent Datum
 LMF .                 KB:   Log Measured From
 DMF .                 KB:   Drilling Measured From
 DAPD.F                10:   Feet Above Permanent Datum
 DATE.        16-SEP-1980:   Date Logged [DD-MMM-YYYY]
 DD  .F              3200:   Depth driller
 DL  .F              3203:   Depth logger
 BLI .F              3201:   Bottom log interval
 TLI .F               600:   Top log interval
 CS1 .IN            8.625:   Casing size
 CBD1.      8.625" @ 580':   Casing driller 1
 CBL1.F               600:   Casing logger 1
 BS1 .IN            7.875:   Bit size
 BSD1.F              3200:   Depth drilled with bit1
 DFT .          DISPERSED:   Type fluid in hole
 DFD .                8.8:   Density
 DFV .                 40:   Viscosity
 DFPH.                 11:   pH
 DFL .                  8:   Fluid loss
 MSS .           FLOWLINE:   Source of sample
 RMS .OHMM           1.33:   Rm
 MST .F                65:   Rm Meas. temp.
 RMF .OHMM           1.15:   Rmf
 MFST.F                65:   Rmf Meas. temp.
 MFSS.               MEAS:   Source Rmf.
 RMC .OHMM           1.50:   Rmc
 MCST.F                65:   Rmc Meas. temp.
 MCSS.               MEAS:   Source Rmc.
 RMB .OHMM            .75:   Rm. at BHT
 BHT .F               115:   BHT.
 TCS .HRS               8:   Time Circ. stopped
 MRT .F               115:   Maximum recorded temp.
 LUN .               1892:   Logging unit number
 LUL .             CASPER:   Logging unit location
 ENGI.    PERIMMER / REIN:   Recorded By
 WITN.              FIVAS:   Witnessed by
 ORIG.         2.5" PRINT:   Origin of data
 UWI .     49025108560000:   Unique Well ID
 DICO. A2D TECHNOLOGIES, INC.:   Digitizing Company
~OTHER INFORMATION
~A   DEPT       CORR       GRD        RHOB      TEND       CALD       SPR          ILD        ILM       GURD 
# ...
 2972.5000     0.0622   106.2725     2.4797   539.2751     9.0599   -31.0166     3.3959     3.4433     4.7373
 2973.0000     0.0621   104.4539     2.5069   539.7589     9.0585   -30.7319     3.3938     3.4411     4.6613
 2973.5000     0.0620   103.0876     2.5219   540.3615     9.1173   -30.7513     3.4391     3.4390     4.6050
 2974.0000     0.0619   103.1140     2.5294   540.9639     9.1461   -30.7669     3.4368     3.4368     4.7589
 2974.5000     0.0558   104.5998     2.5188   541.5661     9.2061   -30.7826     3.5006     3.4564     4.9358
 2975.0000     0.0557   106.4940     2.5158   542.1686     9.2336   -30.7982     3.5536     3.5285     5.0658
 2975.5000     0.0526   106.6703     2.5143   542.7711     9.0653   -30.8509     3.6254     3.5756     5.1334
 2976.0000     0.0525   105.4534     2.5187   543.3734     8.9916   -31.1325     3.6738     3.6236     5.0600
 2976.5000     0.0524   104.7928     2.5275   543.9758     9.0204   -31.1491     3.7230     3.6718     4.9813
 2977.0000     0.0507   105.2283     2.5290   544.5878     9.0789   -31.1657     3.7726     3.7257     4.7817
 2977.5000     0.0492   106.1144     2.5111   545.1807     9.1675   -31.1854     3.8230     3.7705     4.7990
 2978.0000     0.0401   108.8969     2.4991   545.7833     9.1964   -31.2010     3.8353     3.8208     5.1405
 2978.5000     0.0310   111.4900     2.4900   546.3857     9.0754   -31.0889     3.9258     3.8181     5.2934
 2979.0000     0.0249   110.4400     2.4806   546.9880     9.0743   -30.7862     3.9228     3.8152     5.2572
 2979.5000     0.0218   109.9198     2.4689   547.5905     9.1032   -30.6461     3.8661     3.8130     5.4022
 2980.0000     0.0225   110.3302     2.4744   548.1929     9.1320   -30.3599     3.8638     3.8108     5.7075
 2980.5000     0.0329   111.8736     2.4903   548.7952     9.0849   -30.3298     3.8085     3.8085     6.0401
 2981.0000     0.0426   112.7596     2.4974   549.4261     9.0693   -30.0934     3.8062     3.8062     5.8984
 2981.5000     0.0365   112.2943     2.4913   550.0001     9.1580   -29.9412     3.8038     3.8038     5.2994
 2982.0000     0.0273   106.3931     2.4868   550.6025     9.1900   -29.6566     3.8014     3.8014     4.5694
 2982.5000     0.0242   103.5846     2.4898   551.2048     9.1257   -29.5407     3.7991     3.7991     4.2460
 2983.0000     0.0242   102.1096     2.4930   551.8073     9.0946   -29.5579     3.7440     3.7963     4.0775
 2983.5000     0.0271   100.8024     2.4979   552.4097     9.1235   -29.5738     3.7418     3.7941     4.0192
 2984.0000     0.0313   100.0541     2.5052   553.1258     9.1752   -29.5904     3.7396     3.7918     4.2130
 2984.5000     0.0440   100.0354     2.5099   553.6145     9.2108   -29.6069     3.7896     3.8436     4.6651
 2985.0000     0.0479   100.4730     2.5182   554.2169     9.0297   -29.9850     3.7872     3.9018     4.8777
 2985.5000     0.0384   101.8075     2.5076   540.5140     8.9987   -30.2425     3.8500     4.0008     5.2194
 2986.0000     0.0356   103.1439     2.5061   525.2823     9.0275   -30.2619     3.8892     4.1108     5.5143
 2986.5000     0.0386   103.6208     2.5091   525.9034     9.1461   -30.2775     3.9405     4.2231     5.5885
 2987.0000     0.0415   104.0151     2.5198   526.5060     9.1112   -30.2931     3.9926     4.2789     5.2054
 2987.5000     0.0446   104.5984     2.5241   527.1084     9.0539   -30.6099     3.9902     4.2764     4.9274
 2988.0000     0.0504   105.5376     2.5215   527.7108     9.0527   -30.6265     4.0435     4.2739     5.2925
 2988.5000     0.0533   106.4768     2.5033   528.4130     9.1260   -30.6431     4.0411     4.2713     5.4999
 2989.0000     0.0562   108.0022     2.4969   528.9158     9.2000   -30.6596     4.0386     4.2687     5.3056
 2989.5000     0.0561   112.9423     2.4954   529.5513     9.1687   -30.6281     4.0361     4.2660     5.0541
 2990.0000     0.0530   118.3328     2.4893   530.1204     9.0478   -30.3947     4.0336     4.2379     4.9132
 2990.5000     0.0439   122.0163     2.4788   530.7230     9.0168   -30.4103     4.0311     4.2021     4.9793
 2991.0000     0.0348   124.8429     2.4297   531.3253     9.0489   -30.4260     3.9728     4.1413     5.4964
 2991.5000     0.0257   128.9886     2.4158   531.9277     9.0813   -30.4413     3.9704     4.1389     5.7940
 2992.0000     0.0195   134.3298     2.4075   532.5301     9.1032   -30.4578     3.9135     4.0796     5.4095
 2992.5000     0.0164   137.4434     2.4065   533.2510     9.1018   -30.4744     3.7469     3.9616     5.1181
 2993.0000     0.0174   141.6596     2.4215   533.7349     9.0405   -30.4910     3.5301     3.8442     5.0349
 2993.5000     0.0206   139.3925     2.4440   534.3894     8.9795   -30.5075     3.3259     3.7134     4.6946
 2994.0000     0.0252   124.5127     2.4906   534.9587     8.8885   -30.5241     3.1334     3.4769     4.0281
 2994.5000     0.0281   112.2507     2.5101   535.5421     8.8575   -30.2367     2.8714     2.8368     3.9159
 2995.0000     0.0370    99.9772     2.5131   536.1445     9.0090   -30.2576     2.6823     2.6091     3.8067
 2995.5000     0.0370    98.1118     2.5085   536.7471     8.9615   -30.2732     2.5076     2.3019     3.7226
 2996.0000     0.0399    96.1859     2.5110   537.3494     8.9138   -30.2892     2.2687     2.1467     3.0648
 2996.5000     0.0398    95.8220     2.5203   537.9518     8.9847   -30.3057     2.2054     2.0867     2.3283
 2997.0000     0.0397    98.2928     2.5325   538.6587     9.0910   -30.6235     2.1738     2.0921     2.2917
 2997.5000     0.0396    98.2750     2.5364   539.2277     8.9699   -30.3357     2.2341     2.1753     2.5742
 2998.0000     0.0395    98.7106     2.5189   539.7971     8.9388   -30.3554     2.3690     2.5107     3.9006
 2998.5000     0.0394    99.5966     2.5084   540.3661     8.9377   -30.3748     2.5566     2.9835     4.6689
 2999.0000     0.0393   102.8182     2.5053   540.9639     9.0315   -30.3904     2.9380     3.5209     5.0016
 2999.5000     0.0392   105.8054     2.5074   541.5662     9.0552   -30.4061     3.3583     3.6681     4.7950
 3000.0000     0.0392   110.3628     2.5213   542.0738     8.9491   -30.7229     3.6656     3.7689     4.9964
 3000.5000     0.0426   109.3492     2.5211   538.0419     8.8425   -30.7385     3.7556     3.8959     5.3053
 3001.0000     0.0451   107.9669     2.5179   534.5577     8.9008   -30.5483     3.7240     4.0229     5.8328
 3001.5000     0.0450   107.6036     2.5262   531.0736     9.1088   -30.1609     3.8356     4.1449     5.7518
 3002.0000     0.0450   107.7957     2.5314   527.5895     8.9535   -30.1747     3.9482     4.1351     5.4564
 3002.5000     0.0480   110.7172     2.5202   524.1053     8.8585   -29.8853     3.9190     3.8124     5.2658
 3003.0000     0.0509   111.6011     2.5157   520.6212     8.9301   -29.9006     3.8633     3.5351     5.0486
 3003.5000     0.0542   112.0360     2.5161   517.1371     9.1022   -29.9142     3.8084     3.4309     4.8403
 3004.0000     0.0642   114.2697     2.5274   513.6530     9.0105   -30.2312     3.8067     3.3564     4.6405
 3004.5000     0.0759   121.0984     2.5243   510.1688     8.9790   -30.2440     3.8049     3.4015     4.7090
 3005.0000     0.0835   125.4950     2.4945   506.6847     8.9475   -30.5580     3.8030     3.5435     4.8618
 3005.5000     0.0885   130.0429     2.4792   503.2005     9.0058   -30.8720     3.8012     3.6916     5.0587
 3006.0000     0.0838   136.5419     2.4629   499.7164     9.0980   -30.9236     3.7993     3.6894     5.2069
 3006.5000     0.0687   150.6654     2.4599   496.2323     9.1524   -31.2003     3.7971     3.6364     5.2431
 3007.0000     0.0566   149.7475     2.4583   492.7481     9.1027   -31.2139     3.7954     3.6203     5.1676
 3007.5000     0.0566   154.6854     2.4703   488.7690     9.0292   -31.0793     3.7937     3.5136     5.0937
 3008.0000     0.0631   153.2241     2.5293   489.1964     9.0595   -30.9398     3.6883     3.2712     4.8835
 3008.5000     0.0655   134.8287     2.5545   519.7446     9.0663   -30.9550     3.4832     2.9465     4.2922
