~VERSION INFORMATION
 VERS.                2.0:   CWLS LOG ASCII STANDARD - VERSION 2.0
 WRAP.                 NO:   ONE LINE PER DEPTH STEP
~WELL INFORMATION
#MNEM.UNIT      DATA TYPE    INFORMATION
#----------   ------------   ------------------------------
 STRT.F            0.0000:   START DEPTH
 STOP.F         2870.0000:   STOP DEPTH
 STEP.F            0.5000:   STEP LENGTH
 NULL.          -999.2500:   NO VALUE
 COMP.  FENIX AND SCISSON:   COMPANY
 WELL.  FENIX "A" #304-28:   WELL
 FLD .             NPR #3:   FIELD
 LOC .      S28 T39N R78W:   LOCATION
 CNTY.            NATRONA:   COUNTY
 STAT.            WYOMING:   STATE
 CTRY. UNITED STATES OF AMERICA:   COUNTRY
 SRVC.         MCCULLOUGH:   SERVICE COMPANY
 DATE.        21-DEC-1977:   LOGDATE
 API .     49025105600000:   API NUMBER
~CURVE INFORMATION
#MNEM.UNIT       API CODE    CURVE DESCRIPTION
#----------   ------------   ------------------------------
 DEPT.F                  :   
 GR  .GAPI   30 310 01 00:   GAMMA RAY
 CALI.IN     70 280 01 00:   CALIPER
~PARAMETER INFORMATION
#MNEM.UNIT          VALUE    DESCRIPTION
#----------   ------------   ------------------------------
 EKB .F            0.0000:   Kelly bushing
 EGL .F            0.0000:   Ground level
 EDF .F         5074.7000:   Drilling floor
 EPD .F         5074.7000:   Permanent datum
 TD  .F         2868.0000:   Total depth
 DATE.        21-DEC-1977:   Date logged
 CLNT.            A2DTECH:   Client Code
 DL  .F              2868:   Depth logger
 BLI .F              2866:   Bottom log interval
 TLI .F              2000:   Top log interval
 CS1 .IN             6.25:   Casing size
 CBD1.     6.625" @ 2935':   Casing driller 1
 BS1 .IN             6.25:   Bit size
 BSD1.F              2868:   Depth drilled with bit1
 DFT .              WATER:   Type fluid in hole
 TCS .HRS             1.5:   Time Circ. stopped
 ENGI.             CONLEY:   Recorded By
 WITN.           HARRISON:   Witnessed by
 ORIG.           5" PRINT:   Origin of data
 UWI .     49025105600000:   Unique Well ID
 DICO. A2D TECHNOLOGIES, INC.:   Digitizing Company
~OTHER INFORMATION
~A    DEPT      GR         CALI 
# ...
  607.5000  -999.2500     6.5750
  608.0000  -999.2500     6.5700
  608.5000  -999.2500     6.5650
  609.0000  -999.2500     6.5600
  609.5000  -999.2500     6.5570
  610.0000  -999.2500     6.5530
  610.5000  -999.2500     6.5510
  611.0000  -999.2500     6.5530
  611.5000  -999.2500     6.5590
  612.0000  -999.2500     6.5650
  612.5000  -999.2500     6.5590
  613.0000  -999.2500     6.5540
  613.5000  -999.2500     6.5510
  614.0000  -999.2500     6.5500
  614.5000  -999.2500     6.5480
  615.0000  -999.2500     6.5530
  615.5000  -999.2500     6.5520
  616.0000  -999.2500     6.5580
  616.5000  -999.2500     6.5590
  617.0000  -999.2500     6.5600
  617.5000  -999.2500     6.5620
  618.0000  -999.2500     6.5640
  618.5000  -999.2500     6.5660
  619.0000  -999.2500     6.5630
  619.5000  -999.2500     6.5580
  620.0000  -999.2500     6.5500
  620.5000  -999.2500     6.6240
  621.0000  -999.2500     6.9020
  621.5000  -999.2500     6.7060
  622.0000  -999.2500     6.7050
  622.5000  -999.2500     6.6960
  623.0000  -999.2500     6.6920
  623.5000  -999.2500     6.7010
  624.0000  -999.2500     6.7050
  624.5000  -999.2500     6.6980
  625.0000  -999.2500     6.7000
  625.5000  -999.2500     6.6990
  626.0000  -999.2500     6.7050
  626.5000  -999.2500     6.7070
  627.0000  -999.2500     6.7070
  627.5000  -999.2500     6.7070
  628.0000  -999.2500     6.7100
  628.5000  -999.2500     6.7130
  629.0000  -999.2500     6.7120
  629.5000  -999.2500     6.7120
  630.0000  -999.2500     6.7170
  630.5000  -999.2500     6.7210
  631.0000  -999.2500     6.7220
  631.5000  -999.2500     6.7200
  632.0000  -999.2500     6.7180
  632.5000  -999.2500     6.7320
  633.0000  -999.2500     6.7360
  633.5000  -999.2500     6.7370
  634.0000  -999.2500     6.7440
  634.5000  -999.2500     6.7560
  635.0000  -999.2500     6.7650
  635.5000  -999.2500     6.7740
  636.0000  -999.2500     6.7870
  636.5000  -999.2500     6.7920
  637.0000  -999.2500     6.7910
  637.5000  -999.2500     6.7920
  638.0000  -999.2500     6.7930
  638.5000  -999.2500     6.7960
  639.0000  -999.2500     6.8000
  639.5000  -999.2500     6.8050
  640.0000  -999.2500     6.8010
  640.5000  -999.2500     6.7960
  641.0000  -999.2500     6.8010
  641.5000  -999.2500     6.8380
  642.0000  -999.2500     6.8340
  642.5000  -999.2500     6.8280
  643.0000  -999.2500     6.9960
  643.5000  -999.2500     6.6800
  644.0000  -999.2500     6.6950
  644.5000  -999.2500     6.6960
  645.0000  -999.2500     6.6960
  645.5000  -999.2500     6.7020
  646.0000  -999.2500     6.6980
  646.5000  -999.2500     6.6880
  647.0000  -999.2500     6.6780
  647.5000  -999.2500     6.6730
  648.0000  -999.2500     6.6700
  648.5000  -999.2500     6.6720
  649.0000  -999.2500     6.6660
  649.5000  -999.2500     6.6610
  650.0000  -999.2500     6.6570
  650.5000  -999.2500     6.6490
  651.0000  -999.2500     6.6410
  651.5000  -999.2500     6.6400
  652.0000  -999.2500     6.6410
  652.5000  -999.2500     6.6410
  653.0000  -999.2500     6.6470
  653.5000  -999.2500     6.6530
  654.0000  -999.2500     6.6400
  654.5000  -999.2500     6.6340
  655.0000  -999.2500     6.6350
  655.5000  -999.2500     6.6370
  656.0000  -999.2500     6.6410
  656.5000  -999.2500     6.6330
  657.0000  -999.2500     6.6300
  657.5000  -999.2500     6.6260
  658.0000  -999.2500     6.6240
  658.5000  -999.2500     6.6220
  659.0000  -999.2500     6.6210
  659.5000  -999.2500     6.6260
  660.0000  -999.2500     6.6250
  660.5000  -999.2500     6.6260
  661.0000  -999.2500     6.6250
  661.5000  -999.2500     6.6200
  662.0000  -999.2500     6.6150
  662.5000  -999.2500     6.6180
  663.0000  -999.2500     6.6270
  663.5000  -999.2500     6.6220
  664.0000  -999.2500     6.6280
  664.5000  -999.2500     6.6090
  665.0000  -999.2500     7.0140
  665.5000  -999.2500     6.6820
  666.0000  -999.2500     6.7130
  666.5000  -999.2500     6.7020
  667.0000  -999.2500     6.6880
  667.5000  -999.2500     6.6790
  668.0000  -999.2500     6.6790
  668.5000  -999.2500     6.6780
  669.0000  -999.2500     6.6740
  669.5000  -999.2500     6.6670
  670.0000  -999.2500     6.6740
  670.5000  -999.2500     6.6710
  671.0000  -999.2500     6.6610
  671.5000  -999.2500     6.6600
  672.0000  -999.2500     6.6660
  672.5000  -999.2500     6.6730
  673.0000  -999.2500     6.6750
  673.5000  -999.2500     6.6760
  674.0000  -999.2500     6.6730
  674.5000  -999.2500     6.6650
  675.0000  -999.2500     6.6610
  675.5000  -999.2500     6.6650
  676.0000  -999.2500     6.6630
  676.5000  -999.2500     6.6590
  677.0000  -999.2500     6.6570
  677.5000  -999.2500     6.6500
  678.0000  -999.2500     6.6390
  678.5000  -999.2500     6.6420
  679.0000  -999.2500     6.6440
  679.5000  -999.2500     6.6410
  680.0000  -999.2500     6.6460
  680.5000  -999.2500     6.6490
  681.0000  -999.2500     6.6400
  681.5000  -999.2500     6.6400
  682.0000  -999.2500     6.6390
  682.5000  -999.2500     6.6340
  683.0000  -999.2500     6.6410
  683.5000  -999.2500     6.6480
  684.0000  -999.2500     6.6440
  684.5000  -999.2500     6.6480
  685.0000  -999.2500     6.6520
  685.5000  -999.2500     6.6540
  686.0000  -999.2500     6.6510
  686.5000  -999.2500     6.6420
  687.0000  -999.2500     6.6360
  687.5000  -999.2500     6.6410
  688.0000  -999.2500     7.0020
  688.5000  -999.2500     6.7560
  689.0000  -999.2500     6.7170
  689.5000  -999.2500     6.7080
  690.0000  -999.2500     6.7060
  690.5000  -999.2500     6.6980
  691.0000  -999.2500     6.6890
  691.5000  -999.2500     6.6950
  692.0000  -999.2500     6.7000
  692.5000  -999.2500     6.6960
  693.0000  -999.2500     6.6980
  693.5000  -999.2500     6.6990
  694.0000  -999.2500     6.6990
  694.5000  -999.2500     6.7030
  695.0000  -999.2500     6.7080
  695.5000  -999.2500     6.7080
  696.0000  -999.2500     6.7030
  696.5000  -999.2500     6.6940
  697.0000  -999.2500     6.6850
  697.5000  -999.2500     6.6800
  698.0000  -999.2500     6.6740
  698.5000  -999.2500     6.6680
  699.0000  -999.2500     6.6700
  699.5000  -999.2500     6.6800
  700.0000  -999.2500     6.6850
  700.5000  -999.2500     6.6870
  701.0000  -999.2500     6.6870
  701.5000  -999.2500     6.6860
  702.0000  -999.2500     6.6860
  702.5000  -999.2500     6.6830
  703.0000  -999.2500     6.6810
  703.5000  -999.2500     6.6830
  704.0000  -999.2500     6.6820
  704.5000  -999.2500     6.6770
  705.0000  -999.2500     6.6730
  705.5000  -999.2500     6.6730
  706.0000  -999.2500     6.6850
  706.5000  -999.2500     6.6960
  707.0000  -999.2500     6.6920
  707.5000  -999.2500     6.6940
  708.0000  -999.2500     6.6880
  708.5000  -999.2500     6.6810
  709.0000  -999.2500     6.6890
  709.5000  -999.2500     6.8820
  710.0000  -999.2500     6.6770
  710.5000  -999.2500     6.6890
  711.0000  -999.2500     6.6650
  711.5000  -999.2500     6.6720
  712.0000  -999.2500     6.6810
  712.5000  -999.2500     6.6770
  713.0000  -999.2500     6.6760
  713.5000  -999.2500     6.6730
  714.0000  -999.2500     6.6680
  714.5000  -999.2500     6.6790
  715.0000  -999.2500     6.6880
  715.5000  -999.2500     6.6860
  716.0000  -999.2500     6.6820
  716.5000  -999.2500     6.6810
  717.0000  -999.2500     6.6750
  717.5000  -999.2500     6.6670
  718.0000  -999.2500     6.6540
  718.5000  -999.2500     6.6460
  719.0000  -999.2500     6.6390
  719.5000  -999.2500     6.6390
  720.0000  -999.2500     6.6390
  720.5000  -999.2500     6.6300
  721.0000  -999.2500     6.6290
  721.5000  -999.2500     6.6280
  722.0000  -999.2500     6.6280
  722.5000  -999.2500     6.6410
  723.0000  -999.2500     6.6500
  723.5000  -999.2500     6.6530
  724.0000  -999.2500     6.6530
  724.5000  -999.2500     6.6440
  725.0000  -999.2500     6.6400
  725.5000  -999.2500     6.6410
  726.0000  -999.2500     6.6420
  726.5000  -999.2500     6.6380
  727.0000  -999.2500     6.6360
  727.5000  -999.2500     6.6380
  728.0000  -999.2500     6.6400
  728.5000  -999.2500     6.6410
