~VERSION INFORMATION
 VERS.                2.0:   CWLS LOG ASCII STANDARD - VERSION 2.0
 WRAP.                 NO:   ONE LINE PER DEPTH STEP
~WELL INFORMATION
#MNEM.UNIT      DATA TYPE    INFORMATION
#----------   ------------   ------------------------------
 STRT.F          637.0000:   START DEPTH
 STOP.F         3158.0000:   STOP DEPTH
 STEP.F            0.5000:   STEP LENGTH
 NULL.          -999.2500:   NO VALUE
 COMP.    FENIX & SCISSON:   COMPANY
 WELL.  FENIX "AX" #34-33:   WELL
 FLD .             NPR #3:   FIELD
 LOC .      S33 T39N R78W:   LOCATION
 CNTY.            NATRONA:   COUNTY
 STAT.            WYOMING:   STATE
 CTRY. UNITED STATES OF AMERICA:   COUNTRY
 SRVC.       SCHLUMBERGER:   SERVICE COMPANY
 DATE.        15-APR-1977:   LOGDATE
 API .     49025103450000:   API NUMBER
~CURVE INFORMATION
#MNEM.UNIT       API CODE    CURVE DESCRIPTION
#----------   ------------   ------------------------------
 DEPT.F                  :   
 CALD.IN     45 280 60 00:   CALIPER FROM DENSITY LOG
 GRD .GAPI   45 310 01 00:   GAMMA RAY FROM DENSITY LOG
 RHOB.G/C3   45 350 01 00:   BULK DENSITY
 CORR.G/C3   45 356 01 00:   DENSITY CORRECTION
 SPR .MV     07 010 01 00:   SPONTANEOUS POTENTIAL
 SFLU.OHMM   07 220 01 00:   SPHERICALLY FOCUSED LOG UNAVERAGED RESISTIVITY
 ILD .OHMM   07 120 46 00:   INDUCTION LOG DEEP RESISTIVITY
 ILM .OHMM   07 120 44 00:   INDUCTION LOG MEDIUM RESISTIVITY
~PARAMETER INFORMATION
#MNEM.UNIT          VALUE    DESCRIPTION
#----------   ------------   ------------------------------
 EKB .F         5196.0000:   Kelly bushing
 EGL .F         5185.0000:   Ground level
 EDF .F            0.0000:   Drilling floor
 TD  .F         3159.0000:   Total depth
 DATE.        15-APR-1977:   Date logged
 CLNT.            A2DTECH:   Client Code
 SL  . 2132' FNL & 1750' FWL:   Surface Location
 PD  .                 GL:   Permanent Datum
 EPD .F              5185:   Elevation Permanent Datum
 LMF .                 KB:   Log Measured From
 DMF .                 KB:   Drilling Measured From
 DAPD.F                11:   Feet Above Permanent Datum
 DD  .F              3156:   Depth driller
 DL  .F              3159:   Depth logger
 BLI .F              3153:   Bottom log interval
 TLI .F               637:   Top log interval
 CS1 .IN            8.625:   Casing size
 CBD1.      8.625" @ 637':   Casing driller 1
 CBL1.F               637:   Casing logger 1
 BS1 .IN            7.875:   Bit size
 BSD1.F              3156:   Depth drilled with bit1
 DFT .                FGM:   Type fluid in hole
 DFD .                7.5:   Density
 DFV .                 35:   Viscosity
 DFPH.                8.5:   pH
 DFL .                  9:   Fluid loss
 MSS .                PIT:   Source of sample
 RMS .OHMM            .48:   Rm
 MST .F                60:   Rm Meas. temp.
 RMF .OHMM            .28:   Rmf
 MFST.F                60:   Rmf Meas. temp.
 MFSS.               MEAS:   Source Rmf.
 RMB .OHMM            .24:   Rm. at BHT
 BHT .F               120:   BHT.
 TCS .HRS            0200:   Time Circ. stopped
 MRT .F               120:   Maximum recorded temp.
 LUN .               7680:   Logging unit number
 LUL .               CSPR:   Logging unit location
 ENGI.             TAYLOR:   Recorded By
 WITN.         PETTINGILL:   Witnessed by
 ORIG.           5" PRINT:   Origin of data
 UWI .     49025103450000:   Unique Well ID
 DICO. A2D TECHNOLOGIES, INC.:   Digitizing Company
 TLAB.               0530:   Time logger at bottom
~OTHER INFORMATION
~A   DEPT       CALD      GRD       RHOB       CORR        SPR         SFLU        ILD        ILM 
# ...
 1285.0000     9.0241   101.1093     2.6302     0.0532   -55.6815     7.8265     6.8800     5.9389
 1285.5000     9.0240   105.0838     2.6392     0.0552   -55.4821     7.6841     6.8803     5.9938
 1286.0000     9.0239   106.8721     2.5982     0.0502   -55.4816     7.6140     6.8173     5.9392
 1286.5000     9.0239   107.4668     2.5276     0.0222   -55.6799     7.6142     6.5280     5.9394
 1287.0000     9.0238   103.8900     2.5012     0.0162   -55.6793     7.6848     6.2509     5.9396
 1287.5000     9.0237   102.8944     2.4242     0.0122   -55.4799     7.7560     6.0500     5.2707
 1288.0000     9.0237   101.3052     2.3812     0.0851   -54.8828     8.0468     5.9947     4.8195
 1288.5000     9.0236    95.5406     2.3162     0.1761   -54.0868     7.6854     6.0575     4.4070
 1289.0000     9.0235    85.4031     2.2662     0.2421   -53.6886     6.5135     6.1210     3.9641
 1289.5000     9.0235    81.2284     2.1052     0.2461   -53.6881     5.6746     6.1852     4.1507
 1290.0000     9.0234    80.6314     2.0912     0.1671   -53.2898     5.1763     6.2500     4.7846
 1290.5000     9.0233    79.8356     2.2132     0.2181   -53.6870     5.6749     6.3357     5.7221
 1291.0000     9.0232    80.4312     2.2622     0.2431   -53.6865     6.1082     6.3357     7.2727
 1291.5000     9.0629    82.2183     2.2983     0.1861   -53.4871     6.8838     6.5400     7.3399
 1292.0000     9.0629    82.8142     2.3511     0.1761   -53.4865     7.5469     6.7508     7.1404
 1292.5000     9.0628    83.0121     2.4251     0.1611   -53.4859     7.6871     6.9464     6.3894
 1293.0000     9.0627    82.0172     2.3231     0.1251   -53.4854     7.3420     7.0108     5.7174
 1293.5000     9.0627    80.2278     2.2581     0.1301   -53.4849     7.2084     7.0110     5.1161
 1294.0000     9.0626    78.6368     2.0471     0.2431   -53.6832     6.7594     7.0112     4.5516
 1294.5000     9.0625    77.0459     2.2501     0.1931   -53.2850     6.3968     7.0114     4.6361
 1295.0000     9.0624    76.2512     2.2501     0.1851   -53.4833     6.3384     7.0116     4.9901
 1295.5000     9.0624    75.8529     2.2501     0.1770   -53.4828     6.2231     7.0118     5.5212
 1296.0000     9.0623    77.0449     2.0411     0.1720   -53.6811     6.2234     7.0120     5.7500
 1296.5000     9.0622    79.0321     2.0907     0.2540   -53.6805     6.3390     7.0120     6.1654
 1297.0000     9.0622    82.4096     2.1311     0.2303   -53.6800     6.5165     6.9482     6.3380
 1297.5000     9.0621    77.6375     2.1640     0.2066   -53.6795     6.6989     6.9484     6.5154
 1298.0000     9.0620    79.8251     2.2210     0.1740   -53.6790     7.0789     6.8850     6.6365
 1298.5000     9.0620    81.8111     2.2370     0.1680   -54.0761     7.0143     6.8851     6.5158
 1299.0000     9.0619    75.0524     2.1500     0.1947   -54.2743     6.9504     6.6910     6.0540
 1299.5000     9.0618    73.4612     2.0640     0.2130   -54.2738     6.8869     6.5025     5.7292
 1300.0000     9.0618    72.4664     2.0120     0.1690   -54.6708     6.6385     6.3192     4.6398
 1300.5000     9.0617    71.0585     1.9731     0.1400   -54.8696     5.8467     6.2809     3.7575
 1301.0000     9.0614    71.2697     1.9480     0.1135   -54.4720     4.9465     6.2233     3.7883
 1301.5000     9.0612    75.0450     1.6660     0.1190   -54.4720     4.7678     6.1098     4.0773
 1302.0000     9.0610    79.0194     1.7160     0.2300   -54.4720     5.3236     6.0537     4.6800
 1302.5000     9.0608    81.9994     2.1530     0.2280   -54.0744     6.6976     6.0535     7.6877
 1303.0000     9.0606    86.3703     2.1850     0.1900   -53.8755     6.6974     6.0533     8.1986
 1303.5000     9.0604    87.1635     2.0970     0.1510   -53.6767     6.3964     6.1655     4.8103
 1304.0000     9.0602    83.5839     2.0370     0.1880   -53.8755     5.2251     6.3377     4.5104
 1304.5000     9.0600    81.1963     1.9960     0.1484   -53.6767     4.8993     6.5147     4.5103
 1305.0000     9.0598    80.7968     1.9960     0.1080   -53.6767     4.8543     6.6354     4.5519
 1305.5000     9.0596    79.6012     1.9960     0.1320   -53.6767     4.8542     6.6352     4.8098
 1306.0000     9.0594    80.9916     1.9960     0.1420   -53.6767     4.8096     6.6963     5.6317
 1306.5000     9.0592    86.1573     2.0160     0.1790   -53.4779     4.9896     6.8833     6.3368
 1307.0000     9.0590    86.1565     2.1200     0.1560   -53.4779     5.7282     7.0756     6.8201
 1307.5000     9.0588    87.1477     2.2875     0.1550   -53.4779     6.3363     7.2732     7.0754
 1308.0000     9.0586    88.5381     2.4610     0.1460   -53.6767     6.5748     7.4764     7.2066
 1308.5000     9.0584    93.3074     2.4850     0.0737   -54.2732     6.7585     7.6852     7.5452
 1309.0000     9.0582    94.4978     2.4540     0.0180   -54.6708     6.8207     7.8999     7.6850
 1309.5000     9.0580    91.9098     2.4420    -0.0030   -54.8696     6.8835     8.1956     7.6145
 1310.0000     9.0578    88.7270     2.3840    -0.0110   -54.8696     6.8833     8.4245     6.2775
 1310.5000     9.0576    85.1490     2.1990     0.0310   -54.8696     6.6958     8.8206     4.6111
 1311.0000     9.0574    81.5674     1.9900     0.0780   -54.8696     6.5135     7.9720     3.7860
 1311.5000     9.0572    76.3971     1.9680     0.1580   -55.0684     6.1073     6.5121     3.5827
 1312.0000     9.0570    76.1963     1.7430     0.1580   -55.2672     5.4693     5.9399     3.7512
 1312.5000     9.0568    76.1943     1.7650     0.1496   -55.4660     5.6740     5.8854     5.5695
 1313.0000     9.0566    80.7632     1.8820     0.1220   -55.6648     7.3395     5.9396     5.7780
 1313.5000     9.0564    78.9736     1.8980     0.1210   -55.8636     7.4071     5.8850     5.6726
 1314.0000     9.0562    76.1876     1.9160     0.1770   -56.0624     6.5725     6.0940     5.3189
 1314.5000     9.0560    79.5660     1.7850     0.1680   -56.0624     6.3935     6.3104     5.0798
 1315.0000     9.0558    80.9556     1.8220     0.1720   -56.0624     6.3934     6.5344     5.8555
 1315.5000     9.0556    82.5441     2.0250     0.2094   -56.0624     6.3347     6.7664     6.8798
 1316.0000     9.0554    85.5233     2.0700     0.2440   -56.0624     6.8135     7.0067     7.0073
 1316.5000     9.0552    87.9081     2.2960     0.2510   -56.2612     7.4059     7.0717     6.8793
 1317.0000     9.0549    89.4966     2.4000     0.2290   -56.4600     7.7525     7.2028     6.7539
 1317.5000     9.0548    89.6934     2.4190     0.2190   -56.6588     7.8962     7.3363     6.2174
 1318.0000     9.0546    92.0770     2.3840     0.2120   -56.8577     8.0425     7.4722     6.5698
 1318.5000     9.0544    93.2678     2.3750     0.1537   -57.0565     8.0423     7.5411     6.9422
 1319.0000     9.0542    94.2599     2.5360     0.0970   -57.0565     8.1163     7.5408     7.0061
 1319.5000     9.0540    94.8543     2.5270     0.0560   -57.0565     8.1911     7.5406     7.0059
 1320.0000     9.0538    93.6595     2.4950     0.0910   -57.0565     8.1908     7.2682     6.8781
 1320.5000     9.0536    89.6803     2.4640     0.1440   -57.4541     7.5402     7.2016     6.3902
 1321.0000     9.0534    88.8839     2.3595     0.1890   -57.2553     7.2677     6.4489     5.5158
 1321.5000     9.0135    90.6720     2.1900     0.1820   -57.2553     6.8145     6.2734     4.9395
 1322.0000     9.0133    96.8320     2.1360     0.1510   -56.8577     6.3311     6.2159     5.2677
 1322.5000     9.0131   100.0112     2.1980     0.1330   -57.6529     6.2168     5.9882     5.8281
 1323.0000     9.0128   100.8045     2.2680     0.2400   -58.0505     6.5692     5.7746     5.8280
 1323.5000     9.0126   100.2061     2.2120     0.2320   -58.6469     7.0704     5.7217     5.5150
 1324.0000     9.0124    99.6077     2.2040     0.2140   -58.8457     6.1593     5.6795     5.4144
 1324.5000     9.0123    97.6177     2.1740     0.2290   -58.8457     5.8285     5.6377     5.3647
 1325.0000     9.0121    96.0253     2.1650     0.2280   -58.8457     5.7750     5.5962     5.3154
