~VERSION INFORMATION
 VERS.                2.0:   CWLS LOG ASCII STANDARD - VERSION 2.0
 WRAP.                 NO:   ONE LINE PER DEPTH STEP
~WELL INFORMATION
#MNEM.UNIT      DATA TYPE    INFORMATION
#----------   ------------   ------------------------------
 STRT.F           11.5000:   START DEPTH
 STOP.F         1726.0000:   STOP DEPTH
 STEP.F            0.5000:   STEP LENGTH
 NULL.          -999.2500:   NO VALUE
 COMP. LAWRENCE ALLISON & ASSOC WEST:   COMPANY
 WELL. LAWRENCE NPR 3 "X" #51-26:   WELL
 FLD .                NPR:   FIELD
 LOC .      S26 T38N R78W:   LOCATION
 CNTY.            NATRONA:   COUNTY
 STAT.            WYOMING:   STATE
 CTRY. UNITED STATES OF AMERICA:   COUNTRY
 SRVC.      DRESSER ATLAS:   SERVICE COMPANY
 DATE.        13-AUG-1983:   LOGDATE
 API .     49025109270000:   API NUMBER
~CURVE INFORMATION
#MNEM.UNIT       API CODE    CURVE DESCRIPTION
#----------   ------------   ------------------------------
 DEPT.F                  :   
 CALD.IN     45 280 60 00:   CALIPER FROM DENSITY LOG
 RHOB.G/C3   45 350 01 00:   BULK DENSITY
 CORR.G/C3   45 356 01 00:   DENSITY CORRECTION
 TEND.LBS    45 635 01 00:   TENSION FROM DENSITY LOG
 GRR .GAPI   07 310 01 00:   GAMMA RAY FROM RESISTIVITY
 RILD.OHMM   07 120 46 00:   INDUCTION LOG DEEP RESISTIVITY
 RILM.OHMM   07 120 44 00:   INDUCTION LOG MEDIUM RESISTIVITY
 TENR.LBS    07 635 01 00:   TENSION
~PARAMETER INFORMATION
#MNEM.UNIT          VALUE    DESCRIPTION
#----------   ------------   ------------------------------
 EKB .F         5455.0000:   Kelly bushing
 EGL .F         5444.0000:   Ground level
 EDF .F            0.0000:   Drilling floor
 EPD .F         5444.0000:   Permanent datum
 TD  .F         1726.0000:   Total depth
 DATE.        13-AUG-1983:   Date logged
 CLNT.            A2DTECH:   Client Code
 PD  .                 GL:   Permanent Datum
 LMF .                 KB:   Log Measured From
 DMF .                 KB:   Drilling Measured From
 DAPD.F                11:   Feet Above Permanent Datum
 DD  .F              1726:   Depth driller
 DL  .F              1724:   Depth logger
 BLI .F              1718:   Bottom log interval
 CBD1.F                47:   Casing driller 1
 CBL1.F                48:   Casing logger 1
 BS1 .IN            12.25:   Bit size
 BSD1.F              1726:   Depth drilled with bit1
 DFT .           AIR/FOAM:   Type fluid in hole
 TCS .HRS               1:   Time Circ. stopped
 MRT .F                85:   Maximum recorded temp.
 LUN .               6270:   Logging unit number
 LUL .              WLSTN:   Logging unit location
 ENGI.            QUICKEL:   Recorded By
 WITN.           JENNINGS:   Witnessed by
 ORIG.           5" PRINT:   Origin of data
 UWI .     49025109270000:   Unique Well ID
 DICO. A2D TECHNOLOGIES, INC.:   Digitizing Company
~OTHER INFORMATION
~A   DEPT     CALD       RHOB       CORR       TEND         GRR      RILD       RILM       TENR   
# ...
  902.5000    13.2470     2.4240     0.0860   -61.7470   120.8520     4.8720     4.9110   -74.6810
  903.0000    13.2470     2.4210     0.0620   -61.7470   120.4020     4.8800     4.9410   -74.7130
  903.5000    13.2470     2.4210     0.0620   -61.7470   120.1900     4.8880     4.9710   -74.7460
  904.0000    13.2470     2.4280     0.0600   -61.7470   120.8230     4.8960     5.0010   -74.7780
  904.5000    13.2470     2.4340     0.0590   -61.7470   119.9840     4.9040     5.0310   -74.8110
  905.0000    13.2470     2.4390     0.0580   -61.7470   117.1770     4.9110     5.0620   -74.8430
  905.5000    13.2470     2.4360     0.0560   -61.7470   114.6470     5.0040     5.0920   -74.8760
  906.0000    13.2470     2.4320     0.0550   -61.7470   113.6470     5.0590     5.1990   -74.9080
  906.5000    13.2470     2.4290     0.0530   -61.7470   113.7240     5.1150     5.3190   -74.9410
  907.0000    13.2470     2.4280     0.0600   -61.7470   114.0690     5.2090     5.4400   -74.9740
  907.5000    13.2470     2.4300     0.0700   -61.7470   114.4200     5.3430     5.5600   -75.0060
  908.0000    13.2470     2.4310     0.0800   -61.7470   116.3250     5.4770     5.6800   -75.0390
  908.5000    13.2470     2.4220     0.0800   -61.5970   119.6000     5.6110     5.8000   -75.0710
  909.0000    13.2460     2.4130     0.0580   -61.4280   122.8200     5.7450     5.9210   -75.1040
  909.5000    13.2450     2.4090     0.0540   -61.2600   123.3380     5.8790     6.0410   -75.1360
  910.0000    13.2440     2.4060     0.0490   -61.0920   120.8220     5.9630     6.1870   -75.1690
  910.5000    13.2420     2.4030     0.0310   -60.9240   119.9110     5.9050     6.1160   -75.2020
  911.0000    13.2410     2.4000     0.0100   -60.7560   121.6290     5.8300     6.0240   -75.2340
  911.5000    13.2400     2.4000    -0.0080   -60.5870   124.4110     5.7560     5.9330   -75.2670
  912.0000    13.2390     2.4050     0.0050   -60.4190   125.6530     5.6820     5.8410   -75.2990
  912.5000    13.2380     2.4090     0.0260   -60.2510   126.0350     5.6080     5.7500   -75.3320
  913.0000    13.2360     2.4100     0.0590   -60.0830   125.3930     5.5380     5.6590   -75.3640
  913.5000    13.2350     2.4080     0.0770   -59.9140   123.7540     5.5130     5.5380   -75.3970
  914.0000    13.2340     2.4060     0.0480   -59.7460   121.7490     5.4900     5.6430   -75.4300
  914.5000    13.2330     2.4120     0.0320   -59.5780   121.2660     5.6350     5.7980   -75.4620
  915.0000    13.2320     2.4360     0.0570   -59.4100   123.4550     5.8000     5.9520   -75.4950
  915.5000    13.2300     2.4540     0.0820   -59.2420   126.4920     5.9660     6.1060   -75.5270
  916.0000    13.2290     2.4670     0.1110   -59.0730   129.1090     6.1310     6.2610   -75.5600
  916.5000    13.2280     2.4750     0.1080   -58.9050   126.8330     6.3030     6.4150   -75.5920
  917.0000    13.2270     2.4720     0.1050   -58.7370   123.6390     6.4050     6.5690   -75.6250
  917.5000    13.2150     2.4620     0.1020   -58.5690   122.3640     6.5120     6.7240   -75.6570
  918.0000    13.2020     2.4500     0.0990   -58.4000   130.0560     6.6190     6.8150   -75.6900
  918.5000    13.1880     2.4380     0.0940   -58.2320   134.0750     6.7240     6.8620   -75.7230
  919.0000    13.1740     2.4260     0.0850   -58.0640   134.5870     6.7510     6.9100   -75.7550
  919.5000    13.1610     2.4240     0.0750   -57.8960   135.0610     6.8160     6.9580   -75.7880
  920.0000    13.1470     2.4260     0.0670   -57.7280   134.8030     6.8800     7.0060   -75.8200
  920.5000    13.1340     2.4330     0.0680   -57.5590   131.5240     6.9450     7.0540   -75.8530
  921.0000    13.1200     2.4410     0.0690   -57.3910   128.2690     7.0090     7.1020   -75.8850
  921.5000    13.1060     2.4410     0.0700   -57.2230   126.6390     7.0420     7.1730   -75.9180
  922.0000    13.0930     2.4300     0.0540   -57.0550   125.3930     6.9990     7.1200   -75.9510
  922.5000    13.0910     2.4210     0.0360   -56.8860   125.8210     6.9770     7.0160   -75.9830
  923.0000    13.0960     2.4120     0.0240   -56.7270   126.6200     6.9290     6.9120   -76.0160
  923.5000    13.1010     2.4140     0.0220   -53.3890   128.5750     6.8160     6.8080   -76.0480
  924.0000    13.1060     2.4190     0.0240   -50.2130   129.0000     6.6880     6.7040   -76.0810
  924.5000    13.1110     2.4240     0.0270   -47.0380   128.3870     6.5590     6.5990   -76.1130
  925.0000    13.1160     2.4280     0.0360   -43.8630   127.5760     6.4300     6.4950   -76.1460
  925.5000    13.1210     2.4320     0.0440   -40.6880   127.3990     6.3010     6.3910   -76.1790
  926.0000    13.1260     2.4350     0.0520   -37.5130   129.9160     6.1720     6.2870   -76.2110
  926.5000    13.1270     2.4390     0.0600   -37.9210   133.2000     6.0740     6.1870   -76.2440
  927.0000    13.1270     2.4420     0.0670   -39.6720   133.9600     6.1040     6.2580   -76.2760
  927.5000    13.1270     2.4450     0.0760   -41.4240   132.7020     6.1280     6.3250   -76.3090
  928.0000    13.1270     2.4470     0.0690   -43.1760   130.5050     6.1520     6.3920   -76.3410
  928.5000    13.1270     2.4500     0.0580   -44.9280   127.3550     6.1750     6.4600   -76.3740
  929.0000    13.1270     2.4580     0.0460   -46.6870   122.8150     6.2240     6.5400   -76.4060
  929.5000    13.1270     2.4780     0.0350   -39.2450   117.2620     6.2450     6.3930   -76.4390
  930.0000    13.1270     2.5010     0.0410   -31.7740   110.4290     6.1140     6.2330   -76.4720
  930.5000    13.1270     2.4870     0.0520   -24.3030   106.7510     5.9730     6.0720   -76.5040
  931.0000    13.1270     2.4600     0.0510   -27.2440   113.0370     5.8320     5.9120   -76.5370
  931.5000    13.1270     2.4340     0.0410   -36.1350   122.3630     5.6910     5.7510   -76.5690
  932.0000    13.1270     2.4230     0.0320   -45.0250   131.7550     5.5500     5.5910   -76.6020
  932.5000    13.1270     2.4260     0.0240   -53.9160   139.7150     5.4090     5.4300   -76.6340
  933.0000    13.1270     2.4320     0.0410   -51.9060   139.3990     5.2680     5.2700   -76.6670
  933.5000    13.1270     2.4380     0.0580   -52.3160   135.5660     5.1270     5.1090   -76.7000
  934.0000    13.1270     2.4380     0.0750   -52.7250   131.9030     5.0360     4.9570   -76.7320
  934.5000    13.1270     2.4270     0.0870   -53.1350   132.7830     4.9820     4.9650   -76.7650
  935.0000    13.1270     2.4170     0.0660   -53.5450   134.3350     4.9280     4.9720   -76.7970
  935.5000    13.1270     2.4160     0.0450   -53.9550   134.8310     4.9110     4.9800   -76.8300
  936.0000    13.1270     2.4190     0.0240   -54.3640   134.3610     4.9510     4.9870   -76.8620
  936.5000    13.1270     2.4220     0.0040   -54.7740   134.1780     4.9820     4.9950   -76.8950
  937.0000    13.1270     2.4150     0.0050   -55.1840   133.1360     5.0490     5.0030   -76.9280
  937.5000    13.1270     2.4070     0.0070   -55.5930   131.1250     5.0570     5.0740   -76.9600
  938.0000    13.1260     2.4000     0.0100   -56.0030   129.4030     5.1070     5.1500   -76.9680
  938.5000    13.1260     2.4030     0.0130   -56.4130   130.5850     5.1580     5.2260   -76.9320
  939.0000    13.1250     2.4280     0.0150   -56.8220   132.3080     5.2080     5.3010   -76.8960
  939.5000    13.1240     2.4600     0.0160   -57.2320   132.4460     5.2590     5.3770   -76.8590
  940.0000    13.1230     2.4920     0.1200   -57.6420   129.8660     5.2880     5.4370   -76.8230
  940.5000    13.1220     2.4660     0.1110   -58.0520   125.2750     5.2390     5.3720   -76.7870
  941.0000    13.1210     2.4360     0.0960   -58.4610   124.8950     5.1980     5.3180   -76.7510
  941.5000    13.1200     2.4280     0.0790   -58.8710   128.4600     5.1580     5.2650   -76.7150
  942.0000    13.1190     2.4210     0.0630   -59.2810   131.2380     5.1170     5.2110   -76.6780
  942.5000    13.1180     2.4140     0.0470   -59.6900   129.4410     5.0820     5.1580   -76.6420
