~VERSION INFORMATION
 VERS.                2.0:   CWLS LOG ASCII STANDARD - VERSION 2.0
 WRAP.                 NO:   ONE LINE PER DEPTH STEP
~WELL INFORMATION
#MNEM.UNIT      DATA TYPE    INFORMATION
#----------   ------------   ------------------------------
 STRT.F          220.0000:   START DEPTH
 STOP.F         3284.5000:   STOP DEPTH
 STEP.F            0.5000:   STEP LENGTH
 NULL.          -999.2500:   NO VALUE
 COMP.    FENIX & SCISSON:   COMPANY
 WELL. FENIX HARPEL "A" #85-28:   WELL
 FLD .              NPR-3:   FIELD
 LOC .      S28 T39N R78W:   LOCATION
 CNTY.            NATRONA:   COUNTY
 STAT.            WYOMING:   STATE
 CTRY. UNITED STATES OF AMERICA:   COUNTRY
 SRVC.      DRESSER ATLAS:   SERVICE COMPANY
 DATE.        07-AUG-1977:   LOGDATE
 API .     49025104040000:   API NUMBER
~CURVE INFORMATION
#MNEM.UNIT       API CODE    CURVE DESCRIPTION
#----------   ------------   ------------------------------
 DEPT.F                  :   
 GRD .GAPI   45 310 01 00:   GAMMA RAY FROM DENSITY LOG
 CALD.IN     45 280 60 00:   CALIPER FROM DENSITY LOG
 CORR.G/C3   45 356 01 00:   DENSITY CORRECTION
 RHOB.G/C3   45 350 01 00:   BULK DENSITY
 TEND.LBS    45 635 01 00:   TENSION FORM DENSITY LOG
 NPHI.DEC    42 890 03 00:   NEUTRON POROSITY SANDSTONE
 SPR .MV     11 010 01 00:   SPONTANEOUS POTENTIAL FROM RES.
 TENR.LBS    11 635 01 00:   TENSION FROM RES.
 LLD .OHMM   11 220 10 00:   LATEROLOG LOG DEEP
 LLS .OHMM   11 220 09 00:   LATEROLOG SHALLOW
 RXO .OHMM   11 270 04 00:   FLUSHED ZONE RESISTIVITY
~PARAMETER INFORMATION
#MNEM.UNIT          VALUE    DESCRIPTION
#----------   ------------   ------------------------------
 EKB .F         5059.0000:   Kelly bushing
 EGL .F         5049.0000:   Ground level
 EDF .F            0.0000:   Drilling floor
 EPD .F            0.0000:   Permanent datum
 TD  .F         3240.0000:   Total depth
 CLNT.            A2DTECH:   Client Code
 SL  . 2310' FSL & 330' FEL:   Surface Location
 PD  .                 GL:   Permanent Datum
 DAPD.F                10:   Feet Above Permanent Datum
 DATE.        07-AUG-1977:   Date Logged [DD-MMM-YYYY]
 DD  .F              3240:   Depth driller
 DL  .F              3267:   Depth logger
 BLI .F              3265:   Bottom log interval
 TLI .F               224:   Top log interval
 CS1 .IN            8.625:   Casing size
 CBD1.      8.625" @ 254':   Casing driller 1
 CBL1.F               224:   Casing logger 1
 BS1 .IN            7.875:   Bit size
 BSD1.F              3240:   Depth drilled with bit1
 DFT .                KCL:   Type fluid in hole
 DFD .                8.8:   Density
 DFV .                 36:   Viscosity
 DFPH.               10.5:   pH
 DFL .                9.6:   Fluid loss
 MSS .         CIRCULATED:   Source of sample
 RMS .OHMM           0.22:   Rm
 MST .F                78:   Rm Meas. temp.
 RMF .OHMM           0.16:   Rmf
 MFST.F                78:   Rmf Meas. temp.
 MFSS.               MEAS:   Source Rmf.
 RMC .OHMM           0.28:   Rmc
 MCST.F                78:   Rmc Meas. temp.
 MCSS.               MEAS:   Source Rmc.
 RMB .OHMM           0.14:   Rm. at BHT
 BHT .F               125:   BHT.
 TCS .HRS               7:   Time Circ. stopped
 MRT .F               125:   Maximum recorded temp.
 LUN .               6134:   Logging unit number
 LUL .              GLTTE:   Logging unit location
 ENGI.              GOULD:   Recorded By
 WITN.         HARRINGTON:   Witnessed by
 ORIG.      2.5" 5" PRINT:   Origin of data
 UWI .     49025104040000:   Unique Well ID
 DICO. A2D TECHNOLOGIES, INC.:   Digitizing Company
~OTHER INFORMATION
~A   DEPT      GRD       CALD       CORR       RHOB       TEND         NPHI      SPR       TENR        LLD        LLS        RXO   
# ...
 3026.0000    48.6916     8.4335     0.0338     2.4959  1002.4023     0.2037   -74.9401   735.4673     6.9636     5.3273     3.9193
 3026.5000    49.9145     8.4355     0.0355     2.4887  1000.6006     0.2124   -74.9476   736.3110     6.0177     5.4747     3.7900
 3027.0000    50.5336     8.4375     0.0296     2.4850   998.7988     0.2214   -75.2556   737.1552     5.5653     4.6162     3.5446
 3027.5000    51.9012     8.4247     0.0238     2.4843   996.6758     0.2454   -75.2626   738.0239     5.1672     4.1155     3.3942
 3028.0000    54.4870     8.4268     0.0225     2.4829   994.9268     0.2513   -75.2696   738.9223     4.9988     3.9265     3.2799
 3028.5000    54.1923     8.4293     0.0227     2.4770   993.1778     0.2396   -75.2769   739.8204     4.9981     4.1702     3.2342
 3029.0000    53.3144     8.4310     0.0229     2.4756   991.4279     0.2368   -75.2844   740.7185     5.0669     4.4425     3.1890
 3029.5000    51.0909     8.4480     0.0262     2.4817   989.6789     0.2368   -75.1913   746.2296     5.2109     4.4411     3.1427
 3030.0000    49.4645     8.4503     0.0324     2.4893   987.9299     0.2313   -75.0000   754.4911     5.2917     4.2010     3.0582
 3030.5000    52.1793     8.4523     0.0372     2.4871   986.1800     0.2202   -75.0089   755.0900     5.2164     4.1421     3.0999
 3031.0000    53.0928     8.4542     0.0374     2.4819   984.3843     0.2211   -75.0159   785.6287     4.9948     4.2080     3.1601
 3031.5000    50.7178     8.4607     0.0346     2.4916   982.5825     0.2216   -75.0230   786.3367     5.0316     4.4739     3.2329
 3032.0000    54.3360     8.4733     0.0333     2.5031   980.4948     0.2177   -75.0300   786.8973     5.4239     4.8720     3.5063
 3032.5000    53.1587     8.4754     0.0289     2.4732   978.7458     0.2294   -75.0025   787.4578     5.9727     4.9945     3.5155
 3033.0000    51.3234     8.4775     0.0200     2.4575   976.9968     0.2239   -74.7446   788.0239     5.8095     4.6792     3.3624
 3033.5000    49.1573     8.4815     0.0142     2.4727   980.6774     0.2194   -74.7530   783.9398     5.6508     4.5020     3.5542
 3034.0000    51.7276     8.4966     0.0163     2.4810   988.5886     0.2211   -74.7605   759.1993     5.6898     4.4691     3.5431
 3034.5000    50.8446     8.4989     0.0207     2.4833   986.7630     0.2292   -74.7692   759.8803     6.1269     4.6572     3.3927
 3035.0000    52.3670     8.5047     0.0240     2.4797  1015.0440     0.2274   -74.7763   743.5087     6.5210     4.9207     3.5209
 3035.5000    54.3334     8.5179     0.0257     2.4738  1012.8577     0.2364   -74.7833   731.1378     6.2079     5.1279     3.5219
 3036.0000    54.2036     8.5200     0.0243     2.4708  1011.1078     0.2471   -74.4909   731.7814     5.5916     4.8896     3.3568
 3036.5000    55.7216     8.5280     0.0230     2.4694  1009.3588     0.2362   -74.1985   732.3419     5.2719     4.5211     3.2199
 3037.0000    55.1478     8.5389     0.0217     2.4710  1007.6098     0.2374   -74.2066   702.9623     4.9864     4.1767     3.3091
 3037.5000    52.9225     8.5410     0.0174     2.4719  1005.8599     0.2452   -74.2141   703.5927     4.7837     3.9664     3.3026
 3038.0000    53.3919     8.5431     0.0161     2.4712  1004.1109     0.2511   -74.2216   715.7742     4.9168     3.9951     3.1156
 3038.5000    54.1607     8.5452     0.0148     2.4646  1002.3619     0.2649   -73.9296   734.7305     5.1957     4.1633     3.0440
 3039.0000    55.8277     8.5476     0.0120     2.4564  1015.6270     0.2633   -73.9378   735.4246     5.2766     4.3988     3.1462
 3039.5000    56.1474     8.5493     0.0107     2.4617  1013.8138     0.2608   -73.9448   735.9280     5.3791     4.3295     3.2147
 3040.0000    54.6673     8.5517     0.0109     2.4656  1011.6909     0.2537   -73.9521   736.5269     5.5636     4.0814     3.1696
 3040.5000    54.2435     8.5535     0.0112     2.4664  1009.9418     0.2503   -73.9596   737.1257     5.3686     3.9365     3.1688
 3041.0000    52.8962     8.5409     0.0114     2.4650  1023.6451     0.2515   -73.9671   737.7245     4.8454     4.0982     3.2120
 3041.5000    54.4338     8.5428     0.0115     2.4628  1021.4579     0.2391   -74.2739   733.1849     4.9803     4.3941     3.1636
 3042.0000    52.9621     8.5300     0.0118     2.4592  1019.7089     0.2328   -74.2829   708.9820     5.3350     4.5791     2.9828
 3042.5000    51.4854     8.5172     0.0120     2.4547  1002.9449     0.2382   -74.2899   709.6884     5.8025     4.5873     2.8743
 3043.0000    53.0027     8.5196     0.0167     2.4550  1016.2100     0.2424   -73.9975   740.1890     5.8741     4.1556     2.9708
 3043.5000    54.6697     8.5213     0.0230     2.4647  1029.4761     0.2372   -74.0046   740.7493     4.6964     3.8584     3.0355
 3044.0000    55.4334     8.5236     0.0293     2.4761  1042.7421     0.2455   -74.0120   741.3174     4.1755     3.6308     3.0768
 3044.5000    52.1653     8.5255     0.0310     2.4806  1040.5549     0.2512   -74.0195   741.9163     3.7928     3.5002     3.1185
 3045.0000    50.8383     8.5279     0.0295     2.4755  1038.8059     0.2527   -74.0269   712.4908     3.5737     3.5949     3.1177
 3045.5000    54.4618     8.5176     0.0254     2.4666  1037.0569     0.2553   -74.0344   743.1138     4.0453     4.0942     3.1602
 3046.0000    55.8190     8.5165     0.0211     2.4584  1035.3070     0.2616   -74.0432   743.8323     4.8388     4.1060     3.1593
 3046.5000    53.8983     8.5191     0.0197     2.4547  1033.5580     0.2703   -74.0503   744.3925     4.7008     3.8727     3.1458
 3047.0000    54.5173     8.5210     0.0230     2.4706  1031.8081     0.2762   -74.0573   744.9102     4.5642     3.7148     2.9953
 3047.5000    56.0346     8.5231     0.0278     2.4774  1030.0300     0.2798   -74.0644   745.5136     4.5146     3.7140     2.8845
 3048.0000    54.4082     8.5252     0.0325     2.4760  1012.8577     0.2738   -74.0719   746.1078     4.5140     3.7971     2.7102
 3048.5000    55.3267     8.5274     0.0312     2.4692   996.0928     0.2824   -74.0793   746.7066     4.5761     3.9233     2.6727
 3049.0000    56.4052     8.5294     0.0283     2.4577   979.3288     0.2911   -74.0868   747.3054     4.5127     3.8087     2.6358
 3049.5000    55.3673     8.5314     0.0285     2.4433   977.5798     0.2940   -74.0943   747.9041     4.2700     3.6098     2.5993
 3050.0000    55.9914     8.5185     0.0301     2.4374   975.9949     0.2898   -74.1030   718.6562     3.9850     3.4626     2.6717
 3050.5000    56.6088     8.5210     0.0318     2.4450   974.2332     0.2778   -74.1100   719.2167     3.7444     3.3215     2.6713
 3051.0000    55.7310     8.5189     0.0259     2.4533   972.6247     0.2681   -74.1168   719.7773     3.4233     3.3208     2.7080
 3051.5000    54.5537     8.5097     0.0201     2.4571   971.0154     0.2688   -74.1243   720.3592     3.5082     3.4827     2.7291
 3052.0000    52.1788     8.4968     0.0142     2.4587   969.3691     0.2772   -74.1317   720.9581     3.8272     3.6564     2.7072
 3052.5000    55.7954     8.4933     0.0114     2.4521   967.3956     0.2716   -74.1392   751.4970     4.2664     3.5320     2.7444
 3053.0000    59.7079     8.4864     0.0115     2.4432   966.0658     0.2623   -74.1467   752.0958     4.2790     3.4108     2.7065
 3053.5000    62.4228     8.4736     0.0133     2.4365   964.1786     0.2763   -74.1557   752.8002     4.0925     3.3634     2.5570
 3054.0000    61.2456     8.4459     0.0179     2.4374   962.5693     0.2793   -74.1627   753.3607     4.2110     3.5050     2.4485
 3054.5000    58.5387     8.4330     0.0241     2.4452   970.9705     0.2933   -74.1697   753.9213     4.3234     3.5043     2.4229
 3055.0000    56.4958     8.4201     0.0258     2.4533  1004.3975     0.2888   -74.1768   754.4911     4.0019     3.4345     2.4561
 3055.5000    59.8146     8.3924     0.0259     2.4571  1002.7881     0.2939   -74.4835   755.0897     3.7731     3.1678     2.5244
 3056.0000    55.9428     8.3795     0.0246     2.4580  1016.1947     0.3009   -74.4910   755.6885     3.6345     3.0161     2.5591
