~VERSION INFORMATION
 VERS.                2.0:   CWLS LOG ASCII STANDARD - VERSION 2.0
 WRAP.                 NO:   ONE LINE PER DEPTH STEP
~WELL INFORMATION
#MNEM.UNIT      DATA TYPE    INFORMATION
#----------   ------------   ------------------------------
 STRT.F          200.0000:   START DEPTH
 STOP.F         3120.0000:   STOP DEPTH
 STEP.F            0.5000:   STEP LENGTH
 NULL.          -999.2500:   NO VALUE
 COMP.    FENIX & SCISSON:   COMPANY
 WELL. FENIX NPR 3 "AX" #83-28:   WELL
 FLD .                NPR:   FIELD
 LOC .      S28 T39N R78W:   LOCATION
 CNTY.            NATRONA:   COUNTY
 STAT.            WYOMING:   STATE
 CTRY. UNITED STATES OF AMERICA:   COUNTRY
 SRVC.              WELEX:   SERVICE COMPANY
 DATE.        29-SEP-1977:   LOGDATE
 API .     49025104240000:   API NUMBER
~CURVE INFORMATION
#MNEM.UNIT       API CODE    CURVE DESCRIPTION
#----------   ------------   ------------------------------
 DEPT.F                  :   
 CALD.IN     45 280 60 00:   CALIPER FROM DENSITY LOG
 GRD .GAPI   45 310 01 00:   GAMMA RAY FROM DENSITY LOG
 RHOB.G/C3   45 350 01 00:   BULK DENSITY
 CORR.G/C3   45 356 01 00:   DENSITY CORRECTION
 SPR .MV     07 010 01 00:   SPONTANEOUS POTENTIAL
 SGRD.MV     07 220 05 00:   SHLLOW GUARD
 ILD .OHMM   07 120 46 00:   DEEP INDUCTION RESISTIVITY
 ILM .OHMM   07 120 44 00:   INDUCTION LOG MEDIUM RESISTIVITY
~PARAMETER INFORMATION
#MNEM.UNIT          VALUE    DESCRIPTION
#----------   ------------   ------------------------------
 EKB .F         5034.0000:   Kelly bushing
 EGL .F         5024.0000:   Ground level
 TD  .F         3110.0000:   Total depth
 DATE.        29-SEP-1977:   Date logged
 CLNT.            A2DTECH:   Client Code
 SL  . 1650' FNL & 330' FEL:   Surface Location
 PD  .                 GL:   Permanent Datum
 EPD .F              5024:   Elevation Permanent Datum
 LMF .                 KB:   Log Measured From
 DMF .                 KB:   Drilling Measured From
 DAPD.F                10:   Feet Above Permanent Datum
 DD  .F              3110:   Depth driller
 DL  .F              3110:   Depth logger
 BLI .F              3108:   Bottom log interval
 TLI .F               210:   Top log interval
 CS1 .IN            8.625:   Casing size
 CBD1.      8.625" @ 201':   Casing driller 1
 CBL1.F               210:   Casing logger 1
 BS1 .IN            7.875:   Bit size
 BSD1.F              3110:   Depth drilled with bit1
 DFT .          KCL/WATER:   Type fluid in hole
 DFD .                  9:   Density
 DFV .                 40:   Viscosity
 DFPH.                 11:   pH
 DFL .                6.4:   Fluid loss
 MSS .            MUD/PIT:   Source of sample
 RMS .OHMM            .56:   Rm
 MST .F                60:   Rm Meas. temp.
 RMF .OHMM            .34:   Rmf
 MFST.F                60:   Rmf Meas. temp.
 RMC .OHMM            .61:   Rmc
 MCST.F                60:   Rmc Meas. temp.
 MFSS.               MEAS:   Source Rmf.
 MCSS.               MEAS:   Source Rmc.
 RMB .OHMM            .28:   Rm. at BHT
 BHT .F               120:   BHT.
 TCS .HRS               3:   Time Circ. stopped
 MRT .F               120:   Maximum recorded temp.
 LUN .               9685:   Logging unit number
 LUL .             CASPER:   Logging unit location
 ENGI. G. BENTSEN/T. JOYNER:   Recorded By
 WITN.         PETTINGILL:   Witnessed by
 ORIG.   1" 2.5" 5" PRINT:   Origin of data
 UWI .     49025104240000:   Unique Well ID
 DICO. A2D TECHNOLOGIES, INC.:   Digitizing Company
~OTHER INFORMATION
~A   DEPT     CALD         GRD      RHOB       CORR        SPR       SGRD        ILD        ILM   
# ...
 2873.0000     8.6396   117.6104     2.5187     0.0416   -63.0134     7.8651     5.8011     6.1312
 2873.5000     8.6332   117.6056     2.5207     0.0416   -63.0102     8.0847     5.8544     6.1306
 2874.0000     8.6268   117.6025     2.5286     0.0416   -63.0070     8.1590     5.8000     6.1302
 2874.5000     8.6187   117.5977     2.5306     0.0455   -63.0037     7.5083     5.7464     6.1297
 2875.0000     8.6238   116.0135     2.5286     0.0494   -63.0005     7.1688     5.6407     6.1291
 2875.5000     8.6289   115.2183     2.5285     0.0494   -62.9973     7.0375     5.4861     6.1285
 2876.0000     8.6340   115.2151     2.5285     0.0493   -62.9941     6.9081     5.4353     6.1277
 2876.5000     8.6391   113.6294     2.5285     0.0533   -62.9909     6.9076     5.3851     6.1274
 2877.0000     8.6442   113.6262     2.5285     0.0533   -62.9877     6.9070     5.3844     6.1266
 2877.5000     8.6493   113.6214     2.5285     0.0572   -62.9845     6.9062     5.3839     6.1262
 2878.0000     8.6174   114.4088     2.5324     0.0571   -62.9813     6.9056     5.3834     6.0694
 2878.5000     8.6226   115.9851     2.5364     0.0571   -62.9780     6.9051     5.3829     6.0687
 2879.0000     8.6278   117.5629     2.5364     0.0571   -62.9748     6.9044     5.4325     6.0684
 2879.5000     8.6331   117.5582     2.5364     0.0610   -62.9716     7.0323     5.5842     6.0677
 2880.0000     8.6956   118.3455     2.5363     0.0570   -62.9684     7.1627     5.6877     6.1234
 2880.5000     8.6954   119.9218     2.5324     0.0570   -62.9652     7.6397     5.7931     6.1228
 2881.0000     8.6952   119.9186     2.5284     0.0530   -62.9620     7.6393     5.9552     6.2361
 2881.5000     8.6951   116.7518     2.5244     0.0529   -62.9588     7.6387     5.9546     6.3517
 2882.0000     8.6949   116.7487     2.5085     0.0489   -62.6473     7.5674     6.0092     6.3511
 2882.5000     8.6947   117.5344     2.5105     0.0370   -62.6480     7.5668     6.0643     6.4095
 2883.0000     8.6945   120.6933     2.5065     0.0330   -62.6488     7.3595     6.0637     6.4087
 2883.5000     8.7338   122.2711     2.5025     0.0363   -62.6495     7.3588     6.0072     6.4084
 2884.0000     8.7141   119.8949     2.5025     0.0329   -62.4508     7.4950     6.0070     6.3489
 2884.5000     8.7139   120.6822     2.5025     0.0329   -62.4515     7.4256     6.0064     6.4069
 2885.0000     8.7137   121.4680     2.5024     0.0328   -62.4523     7.4249     5.9506     6.3476
 2885.5000     8.7135   121.4648     2.4985     0.0288   -62.2530     6.9600     5.7346     6.1172
 2886.0000     8.7528   119.8790     2.4925     0.0248   -62.0541     6.9594     5.4757     6.0048
 2886.5000     8.7527   120.6664     2.4925     0.0248   -61.8552     6.6451     5.1328     5.5258
 2887.0000     8.7524   122.2426     2.4825     0.0248   -61.8559     6.2868     4.9010     5.3253
 2887.5000     8.7523   122.2395     2.4845     0.0327   -61.8567     6.0029     4.5519     5.0847
 2888.0000     8.7520   126.9778     2.4904     0.0326   -61.8574     5.3733     4.1505     4.7663
 2888.5000     8.7519   127.7651     2.4805     0.0366   -62.0577     4.9448     3.8906     4.3459
 2889.0000     8.7912   130.9224     2.4765     0.0365   -62.2584     3.8190     3.6469     4.1496
 2889.5000     8.7515   132.5003     2.4765     0.0325   -62.2592     3.6466     3.4186     4.0734
 2890.0000     8.7512   136.4480     2.4864     0.0285   -62.6594     3.2340     3.2343     4.0731
 2890.5000     8.7511   138.0259     2.4785     0.0285   -62.9010     3.7137     3.5139     4.3847
 2891.0000     8.7508   139.6022     2.4963     0.0245   -62.8977     5.4704     3.6794     4.6338
 2891.5000     8.7507   140.3895     2.5023     0.0244   -62.8945     6.4576     3.7824     5.0809
 2892.0000     8.7504   138.8037     2.5062     0.0244   -62.8913     6.8246     3.9605     5.3204
 2892.5000     8.7503   137.2196     2.5062     0.0244   -62.8881     7.0154     4.1854     5.6227
 2893.0000     8.7500   129.3097     2.5161     0.0243   -62.8849     7.0798     4.3424     5.9970
 2893.5000     8.7499   124.5635     2.5220     0.0283   -62.8817     7.2779     4.8499     6.1647
 2894.0000     8.7496   117.4442     2.5200     0.0322   -62.8785     7.2773     5.3183     6.2212
 2894.5000     8.7495   117.4410     2.5220     0.0322   -62.8753     7.2765     5.5176     6.2208
 2895.0000     8.7493   117.4363     2.5220     0.0401   -62.8721     7.1429     5.5683     6.1630
 2895.5000     8.7491   117.4331     2.5240     0.0433   -62.8688     6.7575     5.5677     6.0498
 2896.0000     8.7489   118.2189     2.5220     0.0479   -62.8678     6.4526     5.5673     5.9937
 2896.5000     8.7487   119.0062     2.5239     0.0479   -62.6691     6.3338     5.5668     5.9380
 2897.0000     8.7485   119.0015     2.5279     0.0479   -62.6698     6.3334     5.5665     6.0479
 2897.5000     8.7483   118.9983     2.5279     0.0478   -62.6705     6.2746     5.5657     6.0476
 2898.0000     8.7481   121.3651     2.5239     0.0438   -62.6712     6.2740     5.5652     6.0471
 2898.5000     8.7479   122.1524     2.5259     0.0438   -62.6720     6.5091     5.5648     5.9360
 2899.0000     8.7477   122.1477     2.5278     0.0477   -62.6727     6.6298     5.5132     5.8811
 2899.5000     8.7475   124.5160     2.5278     0.0437   -62.6734     6.6292     5.4620     5.7198
 2900.0000     8.7473   129.2543     2.5318     0.0437   -62.6742     6.3886     5.2153     5.6148
 2900.5000     8.7471   130.7382     2.5169     0.0370   -62.6750     6.1476     4.9777     5.4016
 2901.0000     8.7460   131.5981     2.5059     0.0357   -62.6807     5.8226     4.6666     5.2127
 2901.5000     8.7456   132.3769     2.5039     0.0356   -62.6838     5.5589     4.4552     4.9312
 2902.0000     8.7451   134.7307     2.5059     0.0356   -62.6870     5.1622     4.2145     4.6643
 2902.5000     8.7441   137.8807     2.5019     0.0355   -62.6901     4.3714     3.9497     4.2916
 2903.0000     8.7435   140.2342     2.5019     0.0355   -62.6932     4.0971     3.7364     4.0596
 2903.5000     8.7430   141.0128     2.5019     0.0394   -62.6970     4.0213     3.6334     3.9481
 2904.0000     8.7425   146.5276     2.4999     0.0354   -62.7001     4.2101     3.6328     3.9107
 2904.5000     8.7420   148.8868     2.4979     0.0353   -62.7032     4.4485     3.6995     4.2482
 2905.0000     8.7409   152.8206     2.4978     0.0313   -62.7063     5.8111     3.9087     4.7879
 2905.5000     8.7402   154.3892     2.4998     0.0352   -62.7095     6.3706     4.1684     5.2494
 2906.0000     8.7396   155.5578     2.5137     0.0312   -62.7132     6.6699     4.5276     5.5467
 2906.5000     8.7389   151.5882     2.5057     0.0312   -62.7163     6.9185     4.5270     5.8071
 2907.0000     8.6989   146.0443     2.5037     0.0275   -62.7195     7.0459     4.7833     5.9137
 2907.5000     8.7376   138.9141     2.5116     0.0310   -62.3226     7.3085     5.0540     6.2486
 2908.0000     8.7371   135.7413     2.5096     0.0310   -61.7274     7.4416     5.2912     6.5412
 2908.5000     8.6968   117.1524     2.5076     0.0309   -61.7299     7.4405     5.5395     6.5403
 2909.0000     8.6963   117.1467     2.5076     0.0269   -61.5346     7.4394     5.7992     6.5992
 2909.5000     8.6955   117.1295     2.5096     0.0229   -61.5377     7.3686     5.7984     6.6584
 2910.0000     8.7743   113.1672     2.5115     0.0229   -61.5408     7.2321     5.9596     6.6568
 2910.5000     8.6942   113.1501     2.5036     0.0307   -61.5439     7.2304     6.0684     6.6548
 2911.0000     8.6937   111.5584     2.5095     0.0347   -61.5476     7.1622     6.0672     6.6535
 2911.5000     8.6931   109.9611     2.5135     0.0386   -61.5507     7.1605     6.0666     6.6519
 2912.0000     8.6924   109.9498     2.5154     0.0385   -61.5525     7.1584     6.1768     6.6496
 2912.5000     8.6918   109.9328     2.5174     0.0305   -61.5563     7.1566     6.1756     6.5873
 2913.0000     8.6516   109.1314     2.5174     0.0265   -61.5600     7.1549     6.2313     6.5857
