~VERSION INFORMATION
 VERS.                2.0:   CWLS LOG ASCII STANDARD - VERSION 2.0
 WRAP.                 NO:   ONE LINE PER DEPTH STEP
~WELL INFORMATION
#MNEM.UNIT      DATA TYPE    INFORMATION
#----------   ------------   ------------------------------
 STRT.F          196.5000:   START DEPTH
 STOP.F         2376.0000:   STOP DEPTH
 STEP.F            0.5000:   STEP LENGTH
 NULL.          -999.2500:   NO VALUE
 COMP.    FENIX & SCISSON:   COMPANY
 WELL. FENIX & SCISSON NPR-3 #55-10:   WELL
 FLD .  TEAPOT DOME NPR-3:   FIELD
 LOC .      S10 T38N R78W:   LOCATION
 CNTY.            NATRONA:   COUNTY
 STAT.            WYOMING:   STATE
 CTRY. UNITED STATES OF AMERICA:   COUNTRY
 SRVC.           BIRDWELL:   SERVICE COMPANY
 DATE.        09-MAY-1979:   LOGDATE
 API .     49025107780000:   API NUMBER
~CURVE INFORMATION
#MNEM.UNIT       API CODE    CURVE DESCRIPTION
#----------   ------------   ------------------------------
 DEPT.F                  :   
 CALD.IN     45 280 60 00:   CALIPER FROM DENSITY LOG
 GRD .GAPI   45 310 01 00:   GAMMA RAY FROM DENSITY LOG
 RHOB.G/C3   45 350 01 00:   BULK DENSITY
 CORR.G/C3   45 356 01 00:   DENSITY CORRECTION
~PARAMETER INFORMATION
#MNEM.UNIT          VALUE    DESCRIPTION
#----------   ------------   ------------------------------
 EKB .F         5203.0000:   Kelly bushing
 EGL .F         5193.0000:   Ground level
 EDF .F            0.0000:   Drilling floor
 TD  .F         2376.0000:   Total depth
 CLNT.            A2DTECH:   Client Code
 SL  . 2283' FSL & 2107' FEL:   Surface Location
 PD  .                 GL:   Permanent Datum
 EPD .F              5193:   Elevation Permanent Datum
 LMF .                 KB:   Log Measured From
 DMF .                 KB:   Drilling Measured From
 DAPD.F                10:   Feet Above Permanent Datum
 DATE.        09-MAY-1979:   Date Logged [DD-MMM-YYYY]
 DD  .F              2360:   Depth driller
 DL  .F              2376:   Depth logger
 BLI .F              2376:   Bottom log interval
 TLI .F               196:   Top log interval
 CS1 .IN            9.625:   Casing size
 CBD1.             9.625":   Casing driller 1
 CBL1.F               545:   Casing logger 1
 BS1 .IN             8.75:   Bit size
 BSD1.F              2360:   Depth drilled with bit1
 DFT .                AIR:   Type fluid in hole
 TCS .HRS               3:   Time Circ. stopped
 LUN .               2959:   Logging unit number
 LUL .             CASPER:   Logging unit location
 ENGI.         B. ROLLINS:   Recorded By
 WITN.             RHODES:   Witnessed by
 ORIG.           5" PRINT:   Origin of data
 UWI .     49025107780000:   Unique Well ID
 DICO. A2D TECHNIOLOGIES,INC.:   Digitizing Company
~OTHER INFORMATION
~A  DEPTH     CALD        GRD       RHOB       CORR
# ...
 1875.5000     8.9553   155.6154     2.4868     0.0770
 1876.0000     8.9554   156.5157     2.4988     0.0845
 1876.5000     8.9706   160.1319     2.5063     0.0934
 1877.0000     8.9555   158.1319     2.4942     0.0948
 1877.5000     8.9556   156.2878     2.4851     0.0947
 1878.0000     8.9557   154.8409     2.4738     0.0931
 1878.5000     8.9709   159.9654     2.4843     0.0884
 1879.0000     8.9861   162.8275     2.4933     0.0778
 1879.5000     8.9862   162.5222     2.4783     0.0596
 1880.0000     8.9970   161.6135     2.4586     0.0339
 1880.5000     8.9810   165.5314     2.4518     0.0247
 1881.0000     8.9501   167.7901     2.4547     0.0231
 1881.5000     8.9041   169.2947     2.4667     0.0320
 1882.0000     8.8581   163.5595     2.4840     0.0410
 1882.5000     8.7970   160.0867     2.4960     0.0544
 1883.0000     8.7785   164.5555     2.5065     0.0664
 1883.5000     8.7480   168.5249     2.5155     0.0769
 1884.0000     8.7345   173.4986     2.5185     0.0747
 1884.5000     8.7338   176.0599     2.4841     0.0581
 1885.0000     8.7330   172.2846     2.4725     0.0464
 1885.5000     8.7323   169.5659     2.4717     0.0478
 1886.0000     8.7471   167.1490     2.4626     0.0446
 1886.5000     8.7612   165.0337     2.4400     0.0340
 1887.0000     8.8054   166.2366     2.4084     0.0083
 1887.5000     8.8499   171.0595     2.3978    -0.0099
 1888.0000     8.8793   181.6139     2.4015    -0.0221
 1888.5000     8.9087   199.7097     2.4451    -0.0041
 1889.0000     8.9382  -999.2500     2.4928     0.0154
 1889.5000     8.9525  -999.2500     2.5073     0.0319
 1890.0000     8.9668  -999.2500     2.5263     0.0544
 1890.5000     8.9359  -999.2500     2.5474     0.0920
 1891.0000     8.8597  -999.2500     2.5624     0.1392
 1891.5000     8.7986  -999.2500     2.5797     0.1839
 1892.0000     8.7526  -999.2500     2.5872     0.2213
 1892.5000     8.7217  -999.2500     2.5721     0.2317
 1893.0000     8.7058  -999.2500     2.5412     0.2286
 1893.5000     8.6900  -999.2500     2.5058     0.2059
 1894.0000     8.6893  -999.2500     2.4807     0.1771
 1894.5000     8.6885  -999.2500     2.4725     0.1137
 1895.0000     8.6877  -999.2500     2.4687     0.0292
 1895.5000     8.6869  -999.2500     2.4725    -0.0071
 1896.0000     8.7013  -999.2500     2.4920    -0.0253
 1896.5000     8.7158  -999.2500     2.5025    -0.0164
 1897.0000     8.7148  -999.2500     2.5115     0.0227
 1897.5000     8.7141  -999.2500     2.5130     0.0302
 1898.0000     8.7437  -999.2500     2.5039     0.0118
 1898.5000     8.7578  -999.2500     2.4948    -0.0006
 1899.0000     8.7723   199.8614     2.4831    -0.0124
 1899.5000     8.8017   195.1783     2.4714    -0.0155
 1900.0000     8.8311   188.3851     2.4654     0.0040
 1900.5000     8.8754   182.6478     2.4706     0.0371
 1901.0000     8.9048   179.9270     2.4879     0.0566
 1901.5000     8.9342   179.1669     2.4909     0.0700
 1902.0000     8.9488   181.1219     2.4833     0.0835
 1902.5000     8.9566   186.8475     2.4787     0.0970
 1903.0000     8.9713   192.1325     2.4757     0.0772
 1903.5000     8.9860   194.0945     2.4750     0.0591
 1904.0000     9.0001   189.9959     2.4780     0.0454
 1904.5000     8.9982   179.7336     2.4878     0.0498
 1905.0000     8.9968   174.2979     2.5006     0.0816
 1905.5000     8.9802   171.4262     2.5134     0.1090
 1906.0000     8.9335   168.8563     2.5217     0.1301
 1906.5000     8.9169   169.6045     2.5307     0.1557
 1907.0000     8.9004   171.7103     2.4764     0.1541
 1907.5000     8.8838   173.2230     2.4242     0.1266
 1908.0000     8.8824   173.6593     2.4019     0.0987
 1908.5000     8.8960   171.2387     2.4228     0.0666
 1909.0000     8.9247   163.9931     2.4771     0.0816
 1909.5000     8.9267   156.1440     2.5057     0.1117
 1910.0000     8.9517   151.9149     2.5178     0.1478
 1910.5000     8.9501   149.0433     2.4711     0.1674
 1911.0000     8.9638   146.6443     2.4500     0.1131
 1911.5000     8.9622   149.3332     2.4620     0.0889
 1912.0000     8.9607   150.7169     2.4906     0.1009
 1912.5000     8.9744   159.5777     2.5011     0.1144
 1913.0000     8.9729   166.8104     2.5049     0.1219
 1913.5000     8.9711   170.4245     2.4875     0.1174
 1914.0000     8.9696   173.5860     2.4740     0.1098
 1914.5000     8.9683   169.3569     2.4657     0.1007
 1915.0000     8.9668   167.3903     2.4642     0.0898
 1915.5000     8.9652   166.9319     2.4581     0.0757
 1916.0000     8.9486   169.1885     2.4445     0.0583
 1916.5000     8.9321   173.3212     2.4340     0.0417
 1917.0000     8.9306   177.1693     2.4287     0.0356
 1917.5000     8.9140   178.6731     2.4279     0.0386
 1918.0000     8.8974   177.3083     2.4317     0.0401
 1918.5000     8.8959   176.3975     2.4354     0.0400
 1919.0000     8.8942   175.9391     2.4316     0.0385
 1919.5000     8.8776   175.9333     2.4286     0.0354
 1920.0000     8.8762   175.9274     2.4248     0.0324
 1920.5000     8.8747   177.2790     2.4165     0.0233
 1921.0000     8.8732   188.0142     2.4128     0.0172
 1921.5000     8.8718   196.1195     2.4293     0.0156
 1922.0000     8.8703   197.6219     2.4376     0.0295
 1922.5000     8.8688   193.6945     2.4413     0.0352
 1923.0000     8.8670   185.0913     2.4233     0.0291
 1923.5000     8.8658   170.1534     2.4150     0.0275
 1924.0000     8.8643   164.5668     2.4074     0.0320
 1924.5000     8.8777   160.6394     2.4036     0.0365
 1925.0000     8.8763   155.0528     2.4029     0.0379
 1925.5000     8.8747   149.8672     2.4104     0.0364
 1926.0000     8.8733   147.1964     2.4307     0.0394
 1926.5000     8.8718   144.7773     2.4510     0.0453
 1927.0000     8.9005   151.1063     2.4570     0.0528
 1927.5000     8.8987   155.6253     2.4585     0.0603
 1928.0000     8.9277   158.3344     2.4555     0.0678
 1928.5000     8.9259   156.5186     2.4389     0.0693
 1929.0000     8.9244   154.5519     2.4252     0.0675
 1929.5000     8.9229   155.0015     2.4123     0.0632
 1930.0000     8.9215   154.9524     2.4102     0.0631
 1930.5000     8.9200   152.8737     2.4198     0.0661
 1931.0000     8.9035   153.4712     2.4313     0.0766
 1931.5000     8.8869   159.1968     2.4320     0.0826
 1932.0000     8.8854   164.9225     2.4230     0.0780
 1932.5000     8.8836   170.9498     2.4124     0.0689
 1933.0000     8.8821   167.4748     2.4011     0.0568
 1933.5000     8.8808   164.9049     2.3951     0.0462
 1934.0000     8.8792   164.7481     2.3920     0.0371
 1934.5000     8.8777   164.5450     2.3935     0.0280
 1935.0000     8.8762   160.3609     2.4033     0.0205
 1935.5000     8.8748   152.3611     2.4214     0.0219
 1936.0000     8.8733   149.9434     2.4439     0.0370
 1936.5000     8.8718   166.8290     2.4560     0.0461
 1937.0000     8.8700   168.4837     2.4514     0.0507
 1937.5000     8.8685   168.6275     2.4484     0.0534
 1938.0000     8.8671   164.0965     2.4461     0.0503
 1938.5000     8.8810   160.4259     2.4461     0.0467
 1939.0000     8.8947   157.0153     2.4499     0.0427
 1939.5000     8.8928   150.3519     2.4544     0.0366
 1940.0000     8.8914   145.9720     2.4466     0.0305
 1940.5000     8.8899   142.9495     2.4391     0.0124
 1941.0000     8.8884   141.1337     2.4355     0.0079
 1941.5000     8.8715   138.7146     2.4460     0.0199
 1942.0000     8.8700   136.4462     2.4536     0.0228
 1942.5000     8.8686   135.6862     2.4565     0.0228
 1943.0000     8.8671   136.4707     2.4513     0.0197
 1943.5000     8.8656   139.1421     2.4392     0.0134
 1944.0000     8.8792   141.7003     2.4279     0.0043
 1944.5000     8.8778   143.6553     2.4256    -0.0030
 1945.0000     8.8461   146.3643     2.4301     0.0090
 1945.5000     8.8748   149.8275     2.4309     0.0135
 1946.0000     8.8711   151.9333     2.4241     0.0104
 1946.5000     8.8112   154.0390     2.4188     0.0066
 1947.0000     8.8097   154.4878     2.4188     0.0013
 1947.5000     8.8384   152.6091     2.4285     0.0133
 1948.0000     8.8973   149.7967     2.4413     0.0359
