~VERSION INFORMATION
 VERS.                2.0:   CWLS LOG ASCII STANDARD - VERSION 2.0
 WRAP.                 NO:   ONE LINE PER DEPTH STEP
~WELL INFORMATION
#MNEM.UNIT      DATA TYPE    INFORMATION
#----------   ------------   ------------------------------
 STRT.F          206.0000:   START DEPTH
 STOP.F         3080.5000:   STOP DEPTH
 STEP.F            0.5000:   STEP LENGTH
 NULL.          -999.2500:   NO VALUE
 COMP.    FENIX & SCISSON:   COMPANY
 WELL.   FENIX "A" #61-28:   WELL
 FLD .           N P R #3:   FIELD
 LOC .      S28 T39N R78W:   LOCATION
 CNTY.            NATRONA:   COUNTY
 STAT.            WYOMING:   STATE
 CTRY. UNITED STATES OF AMERICA:   COUNTRY
 SRVC.        SCHLUMBEGER:   SERVICE COMPANY
 DATE.        16-MAY-1977:   LOGDATE
 API .     49025103680000:   API NUMBER
~CURVE INFORMATION
#MNEM.UNIT       API CODE    CURVE DESCRIPTION
#----------   ------------   ------------------------------
 DEPT.F                  :   
 SPR .MV     07 010 01 00:   SPONTANEOUS POTENTIAL
 LL8 .OHMM   07 220 08 00:   LATEROLOG-8 RES.
 ILM .OHMM   07 120 44 00:   INDUCTION LOG MEDIUM RESISTIVITY
 ILD .OHMM   07 120 46 00:   DEEP INDUCTION RESISTIVITY
 CALD.IN     45 280 60 00:   CALIPER FROM DENSITY LOG
 GRD .GAPI   45 310 01 00:   GAMMA RAY FROM DENSITY LOG
 RHOB.G/C3   45 350 01 00:   BULK DENSITY
 CORR.G/C3   45 356 01 00:   DENSITY CORRECTION
~PARAMETER INFORMATION
#MNEM.UNIT          VALUE    DESCRIPTION
#----------   ------------   ------------------------------
 EKB .F         5019.0000:   Kelly bushing
 EGL .F         5009.0000:   Ground level
 EDF .F            0.0000:   Drilling floor
 TD  .F         3050.0000:   Total depth
 DATE.        16-MAY-1977:   Date logged
 CLNT.            A2DTECH:   Client Code
 SL  . 330' FNL & 1650' FEL:   Surface Location
 PD  .                 GL:   Permanent Datum
 DD  .F              3050:   Depth driller
 DL  .F              3079:   Depth logger
 BLI .F              3072:   Bottom log interval
 CS1 .IN            8.625:   Casing size
 CBD1.      8.625" @ 213':   Casing driller 1
 CBL1.F               213:   Casing logger 1
 BS1 .IN            7.875:   Bit size
 DFT .            KCL-MUD:   Type fluid in hole
 DFD .                9.2:   Density
 DFV .                 32:   Viscosity
 DFPH.                  8:   pH
 DFL .                7.6:   Fluid loss
 MSS .              CIRC.:   Source of sample
 RMS .OHMM          0.128:   Rm
 MST .F                62:   Rm Meas. temp.
 RMF .OHMM          0.126:   Rmf
 MFST.F                62:   Rmf Meas. temp.
 RMC .OHMM          0.192:   Rmc
 MCST.F                62:   Rmc Meas. temp.
 MFSS.               MEAS:   Source Rmf.
 RMB .OHMM           0.07:   Rm. at BHT
 BHT .F               112:   BHT.
 TCS .HRS            0900:   Time Circ. stopped
 MRT .F               112:   Maximum recorded temp.
 LUN .               7711:   Logging unit number
 LUL .               CSPR:   Logging unit location
 ENGI.             SAYLER:   Recorded By
 WITN.         PETTINGILL:   Witnessed by
 ORIG.           5" PRINT:   Origin of data
 UWI .     49025103680000:   Unique Well ID
 DICO. A2D TECHNOLOGIES, INC.:   Digitizing Company
 DAPD.                 10:   Feet Above Permanent Datum
 BSD1.               3050:   Depth drilled with bit1
 MCSS.               CALC:   Source Rmc.
 EPD .F              5009:   Elevation Permanent Datum
 LMF .                 KB:   Log Measured From
 DMF .                 KB:   Drilling Measured From
 TLI .F               213:   Top log interval
 TLAB.               1100:   Time logger at bottom
~OTHER INFORMATION
~A   DEPT      SPR        LL8        ILM        ILD       CALD         GRD      RHOB       CORR   
# ...
 1907.0000   -45.1650    10.7760     8.7450     8.7460     8.9880   138.9610     2.4570    -0.0030
 1907.5000   -45.1770    10.9030     8.7440     8.7450     8.9930   141.1340     2.4620    -0.0030
 1908.0000   -45.1900    10.7600     8.7460     8.7070     8.9970   142.7380     2.4650    -0.0020
 1908.5000   -45.2030    10.5840     8.7300     8.6620     9.0110   143.7490     2.4610    -0.0010
 1909.0000   -45.2150    10.4080     8.7000     8.6160     9.0250   145.1180     2.4580    -0.0010
 1909.5000   -45.2280    10.2320     8.6710     8.5700     9.0400   146.5110     2.4600     0.0040
 1910.0000   -45.2410    10.0560     8.6430     8.5240     9.0550   145.8550     2.4800     0.0090
 1910.5000   -45.2530     9.7650     8.6160     8.4790     9.0580   144.8370     2.4900     0.0140
 1911.0000   -45.2660     9.8030     8.5870     8.4300     9.0580   143.8030     2.4930     0.0190
 1911.5000   -45.2790     9.9170     8.5860     8.4300     9.0580   142.7670     2.5020     0.0220
 1912.0000   -45.2910    10.0310     8.5850     8.4300     9.0580   141.7100     2.5010     0.0180
 1912.5000   -45.3040    10.1450     8.5860     8.4290     9.0580   142.0400     2.5050     0.0210
 1913.0000   -45.3160    10.2590     8.5860     8.4290     9.0580   142.7700     2.5130     0.0250
 1913.5000   -45.3290    10.3180     8.5850     8.4290     9.0580   143.9750     2.5200     0.0290
 1914.0000   -45.3420    10.1200     8.5860     8.4290     9.0580   145.5870     2.5190     0.0250
 1914.5000   -45.3550     9.9460     8.5880     8.4290     9.0580   144.0690     2.5170     0.0190
 1915.0000   -45.3670     9.8200     8.6230     8.4430     9.0580   141.4130     2.5120     0.0130
 1915.5000   -45.3790    10.0500     8.6580     8.5000     9.0580   137.8850     2.5040     0.0120
 1916.0000   -45.3960    10.2810     8.6940     8.5560     9.0580   139.0250     2.4970     0.0140
 1916.5000   -45.3700    10.5100     8.7290     8.6130     9.0580   141.0750     2.4910     0.0090
 1917.0000   -45.2860    10.2770     8.7640     8.6700     9.0580   140.8500     2.4860     0.0030
 1917.5000   -45.2070    10.0440     8.8000     8.7270     9.0580   140.5810     2.4810    -0.0030
 1918.0000   -45.1270     9.9460     8.8350     8.7830     9.0620   141.9650     2.4690    -0.0090
 1918.5000   -45.0470    10.2750     8.8700     8.8400     9.0660   143.4860     2.4540    -0.0130
 1919.0000   -44.9670    10.5560     8.9060     8.8970     9.0710   144.4790     2.4580    -0.0130
 1919.5000   -44.8870    10.8370     8.9410     8.9540     9.0750   145.1640     2.4670    -0.0050
 1920.0000   -44.8060    11.3120     8.9760     9.0100     9.0770   145.6060     2.4840     0.0040
 1920.5000   -44.7260    11.2490     9.0120     9.0720     9.0740   145.4700     2.4890     0.0040
 1921.0000   -44.6460    11.0470     9.0470     8.9070     9.0720   144.4970     2.4880     0.0000
 1921.5000   -44.5670    10.9030     9.0720     9.0350     9.0700   143.2140     2.4850     0.0000
 1922.0000   -44.4860    10.9940     9.2150     9.1520     9.0670   142.1860     2.4800     0.0020
 1922.5000   -44.4060    11.1850     9.3770     9.2680     9.0650   142.1660     2.4720    -0.0050
 1923.0000   -44.3280    11.3760     9.5390     9.3850     9.0620   142.9760     2.4640    -0.0110
 1923.5000   -44.2380    11.4910     9.7010     9.5010     9.0600   143.5370     2.4570    -0.0090
 1924.0000   -44.2380    11.3610     9.8630     9.6180     9.0570   143.5270     2.4640    -0.0050
 1924.5000   -44.3510    11.3120    10.0250     9.7350     9.0550   143.5680     2.4740    -0.0010
 1925.0000   -44.4520    11.4330    10.1870     9.8510     9.0520   143.7110     2.4790     0.0040
 1925.5000   -44.5560    11.5820    10.3180     9.9460     9.0500   143.2190     2.4820     0.0080
 1926.0000   -44.6610    11.7350    10.1030     9.8810     9.0470   142.8050     2.4930     0.0120
 1926.5000   -44.7650    11.6850     9.9220     9.7100     9.0450   144.3380     2.4930     0.0120
 1927.0000   -44.8680    11.5970     9.7410     9.5390     9.0430   145.5740     2.4890     0.0120
 1927.5000   -44.9720    11.5220     9.5600     9.3680     9.0400   146.1800     2.4860     0.0070
 1928.0000   -45.0220    11.3770     9.3790     9.1960     9.0370   146.7020     2.4860     0.0030
 1928.5000   -45.0480    10.9430     9.1980     9.0250     9.0270   147.2250     2.4840    -0.0020
 1929.0000   -45.0760    10.5080     9.0720     8.8760     9.0170   147.6990     2.4790    -0.0020
 1929.5000   -45.1040    10.0740     8.9910     8.7770     9.0070   147.7020     2.4740     0.0000
 1930.0000   -45.1320     9.5870     8.9010     8.6780     8.9980   149.1310     2.4810     0.0040
 1930.5000   -45.1600    10.1860     8.8110     8.5850     9.0000   149.5470     2.4880     0.0070
 1931.0000   -45.1870    10.8690     8.7450     8.6870     9.0030   153.0610     2.4900     0.0110
 1931.5000   -45.2150    11.5220     8.8060     8.7820     9.0050   154.6870     2.4930     0.0150
 1932.0000   -45.2430    11.0040     8.9430     8.8770     9.0070   154.3810     2.4960     0.0140
 1932.5000   -45.2710    10.3180     9.0800     8.9720     9.0100   151.0990     2.4930     0.0100
 1933.0000   -45.2990    10.5200     9.2170     9.0680     9.0120   148.7220     2.4910     0.0060
 1933.5000   -45.3270    10.8470     9.3540     9.1630     9.0140   147.5980     2.4960     0.0040
 1934.0000   -45.3540    11.1750     9.4910     9.2580     9.0170   145.6460     2.4950     0.0020
 1934.5000   -45.3820    11.5020     9.6280     9.3530     9.0190   143.5890     2.4860     0.0000
 1935.0000   -45.4100    11.8300     9.7640     9.4480     9.0210   143.6870     2.4780     0.0020
 1935.5000   -45.4380    12.1750     9.9010     9.5430     9.0240   143.8490     2.4760     0.0050
 1936.0000   -45.4660    12.1750    10.0380     9.6110     9.0260   144.6350     2.4740     0.0000
 1936.5000   -45.4940    12.1750    10.1300     9.6540     9.0280   145.2420     2.4700    -0.0070
 1937.0000   -45.5210    12.1750    10.1300     9.6980     9.0310   143.1210     2.4650    -0.0020
 1937.5000   -45.5490    12.1750    10.1300     9.7650     9.0330   141.5320     2.4660     0.0020
 1938.0000   -45.5770    12.1750    10.0960     9.7340     9.0350   142.9230     2.4720     0.0060
 1938.5000   -45.6050    12.2130    10.0260     9.6720     9.0380   144.5970     2.4770     0.0070
 1939.0000   -45.6330    12.2690     9.9570     9.6090     9.0430   146.8200     2.4790     0.0050
 1939.5000   -45.6610    12.3250     9.8870     9.5470     9.0480   148.7080     2.4810     0.0020
 1940.0000   -45.6890    12.4010     9.8190     9.4850     9.0530   150.1070     2.4810     0.0000
 1940.5000   -45.7160    12.0650     9.7660     9.4150     9.0580   149.7760     2.4820    -0.0010
 1941.0000   -45.7450    11.5360     9.7660     9.4460     9.0620   150.9210     2.4820     0.0010
 1941.5000   -45.7710    10.9030     9.8090     9.4820     9.0650   152.5720     2.4820     0.0020
 1942.0000   -45.7970    10.9030     9.8520     9.5190     9.0680   152.8350     2.4820     0.0040
 1942.5000   -45.7810    11.5080     9.8940     9.5570     9.0720   148.8130     2.4820     0.0060
 1943.0000   -45.7630    12.1170     9.9360     9.5950     9.0750   145.1530     2.4810     0.0040
 1943.5000   -45.7440    12.6310     9.9790     9.6330     9.0780   144.3720     2.4790     0.0000
 1944.0000   -45.7260    12.6310    10.0220     9.6710     9.0820   145.5400     2.4760    -0.0040
 1944.5000   -45.7070    12.3080    10.0640     9.7090     9.0850   146.4600     2.4720    -0.0080
 1945.0000   -45.6880    11.9650    10.1070     9.7480     9.0880   145.3430     2.4690    -0.0110
 1945.5000   -45.6700    11.5220    10.1500     9.7670     9.0910   143.7070     2.4670    -0.0130
 1946.0000   -45.6510    11.8550    10.1920     9.8440     9.0950   142.8770     2.4660    -0.0130
 1946.5000   -45.6320    12.3300    10.2350     9.9110     9.0980   144.1880     2.4670    -0.0080
 1947.0000   -45.6140    12.8650    10.2770     9.9790     9.1010   145.4270     2.4740    -0.0030
