~VERSION INFORMATION
 VERS.                2.0:   CWLS LOG ASCII STANDARD - VERSION 2.0
 WRAP.                 NO:   ONE LINE PER DEPTH STEP
~WELL INFORMATION
#MNEM.UNIT      DATA TYPE    INFORMATION
#----------   ------------   ------------------------------
 STRT.F            0.0000:   START DEPTH
 STOP.F         4700.0000:   STOP DEPTH
 STEP.F            0.5000:   STEP LENGTH
 NULL.          -999.2500:   NO VALUE
 COMP. LAWRENCE ALLISON & ASSOCIATES:   COMPANY
 WELL. LAWRENCE NPR 3 "X" #33-23:   WELL
 FLD .                NPR:   FIELD
 LOC .      S23 T38N R78W:   LOCATION
 CNTY.            NATRONA:   COUNTY
 STAT.            WYOMING:   STATE
 CTRY. UNITED STATES OF AMERICA:   COUNTRY
 SRVC.      DRESSER ATLAS:   SERVICE COMPANY
 DATE.        12-NOV-1984:   LOGDATE
 API .     49025109930000:   API NUMBER
~CURVE INFORMATION
#MNEM.UNIT       API CODE    CURVE DESCRIPTION
#----------   ------------   ------------------------------
 DEPT.F                  :   
 TEND.LBS    45 635 01 00:   TENSION FROM DENSITY LOG
 CALD.IN     45 280 60 00:   CALIPER FROM DENSITY LOG
 CORR.G/C3   45 356 01 00:   DENSITY CORRECTION
 DEN .G/C3   45 350 01 00:   BULK DENSITY
 CNC .DEC    42 890 03 00:   NEUTRON PORISITY SANDSTONE
 SPR .MV     07 010 01 00:   SPONTANEOUS POTENTIAL
 GRR .GAPI   07 310 01 00:   GAMMA RAY FROM RESISTIVITY
 RFOC.OHMM   07 220 01 00:   RESISTIVITY FOCUSED LOG RES.
 ILM .OHMM   07 120 44 00:   INDUCTION LOG MEDIUM RESISTIVITY
 ILD .OHMM   07 120 46 00:   INDUCTION LOG DEEP RESISTIVITY
 TENS.LBS    60 635 01 00:   TENSION FROM SONIC LOG
 DT  .US/F   60 520 00 00:   DELTA TIME
 TENR.LBS    07 635 01 00:   TENSION
~PARAMETER INFORMATION
#MNEM.UNIT          VALUE    DESCRIPTION
#----------   ------------   ------------------------------
 EKB .F         5308.0000:   Kelly bushing
 EGL .F         5296.0000:   Ground level
 EDF .F            0.0000:   Drilling floor
 EPD .F            0.0000:   Permanent datum
 TD  .F         4695.0000:   Total depth
 DATE.        12-NOV-1984:   Date logged
 CLNT.            A2DTECH:   Client Code
 SL  . 1415' FNL & 1874' FWL:   Surface Location
 PD  .                 GL:   Permanent Datum
 LMF .                 KB:   Log Measured From
 DMF .                 KB:   Drilling Measured From
 DAPD.F                12:   Feet Above Permanent Datum
 DD  .F              4695:   Depth driller
 DL  .F              4694:   Depth logger
 BLI .F              4691:   Bottom log interval
 TLI .F              1205:   Top log interval
 CS1 .IN            8.625:   Casing size
 CBD1.     8.625" @ 1206':   Casing driller 1
 CBL1.F              1205:   Casing logger 1
 BS1 .IN            7.875:   Bit size
 BSD1.F              4695:   Depth drilled with bit1
 DFT .     GFL/KCL/STAFLO:   Type fluid in hole
 DFD .                9.2:   Density
 DFV .                 45:   Viscosity
 DFPH.                  8:   pH
 DFL .                 10:   Fluid loss
 MSS .           FLOWLINE:   Source of sample
 RMS .OHMM            .51:   Rm
 MST .F                72:   Rm Meas. temp.
 RMF .OHMM            .43:   Rmf
 MFST.F                70:   Rmf Meas. temp.
 RMC .OHMM            .64:   Rmc
 MCST.F                72:   Rmc Meas. temp.
 MFSS.               MEAS:   Source Rmf.
 MCSS.               CALC:   Source Rmc.
 RMB .OHMM           .272:   Rm. at BHT
 BHT .F               135:   BHT.
 TCS .HRS               4:   Time Circ. stopped
 MRT .F               135:   Maximum recorded temp.
 LUN .               6274:   Logging unit number
 LUL .               GLTE:   Logging unit location
 ENGI.             RAUTIO:   Recorded By
 ORIG.           5" PRINT:   Origin of data
 UWI .     49025109930000:   Unique Well ID
 DICO. A2D TECHNOLOGIES, INC.:   Digitizing Company
~OTHER INFORMATION
~A    DEPT    TEND       CALD       CORR        DEN        CNC        SPR         GRR      RFOC        ILM        ILD       TENS         DT       TENR   
# ...
 4056.0000   -39.1570     9.9340    -0.0260     2.4620     0.2520   -31.2460   139.4030     4.9980     4.3130     4.3150  -112.8030    88.9610   -59.1860
 4056.5000   -39.1570     9.9380    -0.0260     2.4620     0.2520   -31.1740   137.3670     4.9980     4.3540     4.2950  -112.6000    88.8250   -59.3540
 4057.0000   -39.1570     9.9430    -0.0240     2.4670     0.2560   -31.1020   137.8190     5.0310     4.3450     4.2660  -112.3980    88.9090   -59.5230
 4057.5000   -39.1570     9.9470    -0.0200     2.4730     0.2590   -31.0300   138.6160     5.0180     4.3330     4.2360  -112.1950    89.0610   -59.6910
 4058.0000   -39.1570     9.9510     0.0170     2.4790     0.2670   -30.9580   141.1680     5.0050     4.3210     4.2060  -111.9920    89.2140   -59.8600
 4058.5000   -39.1570     9.9560     0.0100     2.4800     0.2760   -30.8860   139.6480     4.9670     4.2890     4.1760  -111.7900    89.3670   -60.0280
 4059.0000   -39.1570     9.9600    -0.0020     2.4770     0.2820   -30.8140   136.6950     4.9070     4.2380     4.1470  -111.5870    89.5200   -60.1960
 4059.5000   -39.1570     9.9640    -0.0080     2.4770     0.2810   -30.7440   135.8990     4.8470     4.1880     4.1140  -111.3840    89.6720   -60.3650
 4060.0000   -39.1570     9.9690     0.0070     2.4800     0.2800   -30.6870   139.8210     4.7870     4.1370     4.0660  -111.1820    89.8250   -60.5330
 4060.5000   -39.1570     9.9730     0.0200     2.4860     0.2830   -30.6350   142.9650     4.7420     4.0870     4.0180  -110.9790    89.9780   -60.7020
 4061.0000   -39.1570     9.9780     0.0140     2.4870     0.2800   -30.5830   142.5660     4.7010     4.0360     3.9710  -110.7760    90.1300   -60.8700
 4061.5000   -39.1570     9.9820    -0.0030     2.4800     0.2730   -30.5310   140.2960     4.6600     3.9860     3.9230  -110.5740    90.2830   -61.0390
 4062.0000   -39.1570     9.9860    -0.0230     2.4740     0.2670   -30.4790   141.1880     4.5700     3.9370     3.8750  -110.3710    90.4360   -61.2070
 4062.5000   -39.1570     9.9910    -0.0190     2.4740     0.2690   -30.4270   144.0720     4.4510     3.9470     3.8300  -110.1680    90.6040   -61.3760
 4063.0000   -39.1570     9.9950    -0.0090     2.4780     0.2750   -30.3750   147.9950     4.3150     3.9570     3.8530  -109.9660    90.4890   -61.5440
 4063.5000   -39.1570     9.9990    -0.0030     2.4840     0.2810   -30.3230   149.3700     4.4050     3.9660     3.8750  -109.7630    90.3620   -61.7120
 4064.0000   -39.1570    10.0040    -0.0100     2.4850     0.2860   -30.2710   147.6910     4.5400     3.9760     3.8970  -109.5600    90.2340   -61.8810
 4064.5000   -39.1570    10.0030    -0.0190     2.4780     0.2840   -30.2190   143.8580     4.6870     3.9860     3.9190  -109.3580    90.1070   -62.0490
 4065.0000   -39.1570    10.0020    -0.0240     2.4710     0.2790   -30.1670   140.6620     4.7000     3.9960     3.9410  -109.1550    89.9800   -62.2180
 4065.5000   -39.1570    10.0010    -0.0020     2.4710     0.2750   -30.1310   140.3520     4.7170     4.0050     3.9730  -108.9520    89.8530   -62.3860
 4066.0000   -39.1570    10.0000     0.0040     2.4690     0.2710   -30.1120   141.5120     4.7350     4.0100     3.9600  -108.7500    89.7250   -62.5550
 4066.5000   -39.1570     9.9990    -0.0080     2.4610     0.2770   -30.0940   141.3690     4.7530     4.0100     3.9350  -108.5470    89.5980   -62.7230
 4067.0000   -39.1570     9.9970    -0.0210     2.4560     0.2840   -30.0760   140.2650     4.7740     4.0100     3.9100  -108.3440    89.7880   -62.8910
 4067.5000   -39.1570     9.9960    -0.0320     2.4540     0.2880   -30.0580   139.3850     4.6900     3.9780     3.8850  -108.1420    89.9790   -63.0600
 4068.0000   -40.4450     9.9950    -0.0300     2.4520     0.2770   -30.0400   142.3300     4.5820     3.9370     3.8550  -107.9390    90.1700   -63.2280
 4068.5000   -42.1830     9.9940    -0.0220     2.4500     0.2660   -30.0220   140.1430     4.5110     3.8950     3.8040  -107.7370    90.3600   -63.3970
 4069.0000   -43.9210     9.9930    -0.0140     2.4530     0.2630   -30.0050   135.7480     4.4760     3.8540     3.7530  -107.5340    90.5510   -63.5650
 4069.5000   -45.6580     9.9920    -0.0080     2.4620     0.2670   -29.9870   132.9450     4.4420     3.8130     3.7020  -107.3310    90.7420   -63.7340
 4070.0000   -47.3960     9.9910    -0.0150     2.4760     0.2750   -29.9690   134.0830     4.3950     3.7720     3.6250  -107.1290    90.7850   -63.9020
 4070.5000   -49.1340     9.9900    -0.0250     2.4860     0.2970   -29.9500   135.3760     4.4140     3.7280     3.6360  -106.9260    90.7550   -64.0710
 4071.0000   -50.8720     9.9890    -0.0220     2.4890     0.2970   -29.9160   136.6840     4.4410     3.7440     3.6610  -106.7230    90.7250   -64.2390
 4071.5000   -52.6100     9.9880    -0.0130     2.4870     0.2890   -29.8600   137.9800     4.4770     3.7660     3.6870  -106.5210    90.6950   -64.4070
 4072.0000   -54.3480     9.9860    -0.0010     2.4830     0.2910   -29.8040   138.8860     4.3910     3.7870     3.7120  -106.3180    90.6650   -64.5760
 4072.5000   -56.0860     9.9850     0.0160     2.4840     0.2970   -29.7480   138.6600     4.2690     3.8080     3.7370  -106.1150    90.6350   -64.7440
 4073.0000   -57.8240     9.9840     0.0330     2.4910     0.2970   -29.6920   136.0730     4.1980     3.8290     3.7620  -105.9130    90.6040   -64.9130
 4073.5000   -59.2370     9.9830     0.0400     2.4970     0.2810   -29.6370   133.9820     4.3880     3.8510     3.7870  -105.7100    90.2800   -65.0810
 4074.0000   -59.6710     9.9820     0.0380     2.4960     0.2640   -29.5810   135.5770     4.5290     3.8720     3.8120  -105.5070    89.9410   -65.2500
 4074.5000   -60.0360     9.9810     0.0230     2.4920     0.2620   -29.5860   136.4800     4.6440     3.8930     3.8370  -105.3050    89.6020   -65.4180
 4075.0000   -60.4010     9.9800    -0.0030     2.4870     0.2600   -29.7000   135.8690     4.6210     3.9140     3.8620  -105.1020    89.2620   -64.9840
 4075.5000   -60.7670     9.9790    -0.0130     2.4810     0.2610   -29.8110   136.5960     4.5980     3.9360     3.8880  -104.8990    89.0060   -62.0950
 4076.0000   -61.1320     9.9780    -0.0170     2.4810     0.2640   -29.9230   137.9300     4.5740     3.9570     3.9130  -104.6970    89.0620   -59.2070
 4076.5000   -61.4980     9.9770    -0.0270     2.4820     0.2660   -30.0340   138.1370     4.5510     3.9730     3.9370  -104.4940    89.1190   -56.3180
 4077.0000   -61.8630     9.9760    -0.0070     2.4860     0.2690   -30.1460   138.1490     4.5270     3.9220     3.8890  -104.2910    89.1750   -53.4300
 4077.5000   -62.2280     9.9740     0.0210     2.4910     0.2690   -30.2580   138.1220     4.5040     3.8810     3.8420  -104.0890    89.1950   -50.5410
 4078.0000   -62.5940     9.9730     0.0220     2.4940     0.2630   -30.3690   135.7540     4.4800     3.8400     3.7960  -103.8860    89.1950   -47.6530
 4078.5000   -62.9590     9.9720     0.0040     2.4880     0.2560   -30.4810   133.0520     4.4570     3.7980     3.7500  -103.6830    89.1950   -45.7700
 4079.0000   -63.3240     9.9710     0.0150     2.4810     0.2560   -30.5130   130.2530     4.4360     3.7570     3.7030  -103.4810    89.4210   -46.3020
 4079.5000   -63.6900     9.9700     0.0120     2.4750     0.2620   -30.4780   133.8120     4.4020     3.7160     3.6570  -103.2780    89.6750   -46.8340
 4080.0000   -64.0550     9.9690    -0.0040     2.4680     0.2680   -30.4430   138.5520     4.3550     3.6750     3.6110  -103.0760    89.9300   -47.3660
 4080.5000   -64.4210     9.9680     0.0050     2.4620     0.2660   -30.4060   143.0800     4.3080     3.6340     3.5640  -102.8730    90.1840   -47.8980
 4081.0000   -64.7860     9.9670     0.0220     2.4690     0.2570   -30.3680   141.5480     4.2620     3.5920     3.5180  -102.6700    90.4390   -48.4300
 4081.5000   -65.1510     9.9660     0.0460     2.4820     0.2560   -30.3560   140.4780     4.2150     3.5510     3.4720  -102.4680    90.6930   -48.9620
