~VERSION INFORMATION
 VERS.                2.0:   CWLS LOG ASCII STANDARD - VERSION 2.0
 WRAP.                 NO:   ONE LINE PER DEPTH STEP
~WELL INFORMATION
#MNEM.UNIT      DATA TYPE    INFORMATION
#----------   ------------   ------------------------------
 STRT.F            0.0000:   START DEPTH
 STOP.F         2870.0000:   STOP DEPTH
 STEP.F            0.5000:   STEP LENGTH
 NULL.          -999.2500:   NO VALUE
 COMP.  FENIX AND SCISSON:   COMPANY
 WELL.  FENIX "A" #304-28:   WELL
 FLD .             NPR #3:   FIELD
 LOC .      S28 T39N R78W:   LOCATION
 CNTY.            NATRONA:   COUNTY
 STAT.            WYOMING:   STATE
 CTRY. UNITED STATES OF AMERICA:   COUNTRY
 SRVC.         MCCULLOUGH:   SERVICE COMPANY
 DATE.        21-DEC-1977:   LOGDATE
 API .     49025105600000:   API NUMBER
~CURVE INFORMATION
#MNEM.UNIT       API CODE    CURVE DESCRIPTION
#----------   ------------   ------------------------------
 DEPT.F                  :   
 GR  .GAPI   30 310 01 00:   GAMMA RAY
 CALI.IN     70 280 01 00:   CALIPER
~PARAMETER INFORMATION
#MNEM.UNIT          VALUE    DESCRIPTION
#----------   ------------   ------------------------------
 EKB .F            0.0000:   Kelly bushing
 EGL .F            0.0000:   Ground level
 EDF .F         5074.7000:   Drilling floor
 EPD .F         5074.7000:   Permanent datum
 TD  .F         2868.0000:   Total depth
 DATE.        21-DEC-1977:   Date logged
 CLNT.            A2DTECH:   Client Code
 DL  .F              2868:   Depth logger
 BLI .F              2866:   Bottom log interval
 TLI .F              2000:   Top log interval
 CS1 .IN             6.25:   Casing size
 CBD1.     6.625" @ 2935':   Casing driller 1
 BS1 .IN             6.25:   Bit size
 BSD1.F              2868:   Depth drilled with bit1
 DFT .              WATER:   Type fluid in hole
 TCS .HRS             1.5:   Time Circ. stopped
 ENGI.             CONLEY:   Recorded By
 WITN.           HARRISON:   Witnessed by
 ORIG.           5" PRINT:   Origin of data
 UWI .     49025105600000:   Unique Well ID
 DICO. A2D TECHNOLOGIES, INC.:   Digitizing Company
~OTHER INFORMATION
~A    DEPT      GR         CALI 
# ...
  972.0000  -999.2500     6.8190
  972.5000  -999.2500     6.8320
  973.0000  -999.2500     6.8360
  973.5000  -999.2500     6.8390
  974.0000  -999.2500     6.8390
  974.5000  -999.2500     6.8400
  975.0000  -999.2500     6.8400
  975.5000  -999.2500     6.8400
  976.0000  -999.2500     6.8400
  976.5000  -999.2500     6.8390
  977.0000  -999.2500     6.8390
  977.5000  -999.2500     6.8370
  978.0000  -999.2500     6.8360
  978.5000  -999.2500     6.8350
  979.0000  -999.2500     6.8350
  979.5000  -999.2500     6.8340
  980.0000  -999.2500     6.8340
  980.5000  -999.2500     6.8340
  981.0000  -999.2500     6.8350
  981.5000  -999.2500     6.8370
  982.0000  -999.2500     6.8420
  982.5000  -999.2500     6.8420
  983.0000  -999.2500     6.8420
  983.5000  -999.2500     6.8420
  984.0000  -999.2500     6.8430
  984.5000  -999.2500     6.8470
  985.0000  -999.2500     6.8490
  985.5000  -999.2500     6.8510
  986.0000  -999.2500     6.8560
  986.5000  -999.2500     6.8560
  987.0000  -999.2500     6.8550
  987.5000  -999.2500     6.8530
  988.0000  -999.2500     6.8520
  988.5000  -999.2500     6.8610
  989.0000  -999.2500     6.8850
  989.5000  -999.2500     6.8850
  990.0000  -999.2500     6.8860
  990.5000  -999.2500     6.8860
  991.0000  -999.2500     7.2550
  991.5000  -999.2500     7.2370
  992.0000  -999.2500     7.2120
  992.5000  -999.2500     7.1790
  993.0000  -999.2500     7.1480
  993.5000  -999.2500     7.1600
  994.0000  -999.2500     7.1490
  994.5000  -999.2500     7.1320
  995.0000  -999.2500     7.1100
  995.5000  -999.2500     7.0990
  996.0000  -999.2500     7.1490
  996.5000  -999.2500     7.1490
  997.0000  -999.2500     7.1470
  997.5000  -999.2500     7.1460
  998.0000  -999.2500     7.1430
  998.5000  -999.2500     7.1300
  999.0000  -999.2500     7.1170
  999.5000  -999.2500     7.1070
 1000.0000  -999.2500     7.0990
 1000.5000  -999.2500     7.0960
 1001.0000  -999.2500     7.0890
 1001.5000  -999.2500     7.0870
 1002.0000  -999.2500     7.1090
 1002.5000  -999.2500     7.1210
 1003.0000  -999.2500     7.1190
 1003.5000  -999.2500     7.1170
 1004.0000  -999.2500     7.1180
 1004.5000  -999.2500     7.1190
 1005.0000  -999.2500     7.1190
 1005.5000  -999.2500     7.1190
 1006.0000  -999.2500     7.1160
 1006.5000  -999.2500     7.0990
 1007.0000  -999.2500     7.0920
 1007.5000  -999.2500     7.0980
 1008.0000  -999.2500     7.0950
 1008.5000  -999.2500     7.0390
 1009.0000  -999.2500     7.0340
 1009.5000  -999.2500     7.0340
 1010.0000  -999.2500     7.0350
 1010.5000  -999.2500     7.0360
 1011.0000  -999.2500     7.0390
 1011.5000  -999.2500     7.0570
 1012.0000  -999.2500     6.8340
 1012.5000  -999.2500     6.8070
 1013.0000  -999.2500     6.8080
 1013.5000  -999.2500     6.8030
 1014.0000  -999.2500     6.8020
 1014.5000  -999.2500     6.8030
 1015.0000  -999.2500     6.8040
 1015.5000  -999.2500     6.8040
 1016.0000  -999.2500     6.8050
 1016.5000  -999.2500     6.8040
 1017.0000  -999.2500     6.8030
 1017.5000  -999.2500     6.8030
 1018.0000  -999.2500     6.8020
 1018.5000  -999.2500     6.8030
 1019.0000  -999.2500     6.8040
 1019.5000  -999.2500     6.8060
 1020.0000  -999.2500     6.8070
 1020.5000  -999.2500     6.8080
 1021.0000  -999.2500     6.8080
 1021.5000  -999.2500     6.8080
 1022.0000  -999.2500     6.8080
 1022.5000  -999.2500     6.8080
 1023.0000  -999.2500     6.8080
 1023.5000  -999.2500     6.8080
 1024.0000  -999.2500     6.8080
 1024.5000  -999.2500     6.8080
 1025.0000  -999.2500     6.8080
 1025.5000  -999.2500     6.8080
 1026.0000  -999.2500     6.8080
 1026.5000  -999.2500     6.8080
 1027.0000  -999.2500     6.8080
 1027.5000  -999.2500     6.8080
 1028.0000  -999.2500     6.8090
 1028.5000  -999.2500     6.8110
 1029.0000  -999.2500     6.8130
 1029.5000  -999.2500     6.8160
 1030.0000  -999.2500     6.8180
 1030.5000  -999.2500     6.8220
 1031.0000  -999.2500     6.8270
 1031.5000  -999.2500     6.8310
 1032.0000  -999.2500     6.8320
 1032.5000  -999.2500     6.8330
 1033.0000  -999.2500     6.8350
 1033.5000  -999.2500     6.8470
 1034.0000  -999.2500     6.9490
 1034.5000  -999.2500     6.7550
 1035.0000  -999.2500     6.7700
 1035.5000  -999.2500     6.7690
 1036.0000  -999.2500     6.7630
 1036.5000  -999.2500     6.7570
 1037.0000  -999.2500     6.7520
 1037.5000  -999.2500     6.7490
 1038.0000  -999.2500     6.7480
 1038.5000  -999.2500     6.7480
 1039.0000  -999.2500     6.7480
 1039.5000  -999.2500     6.7480
 1040.0000  -999.2500     6.7470
 1040.5000  -999.2500     6.7470
 1041.0000  -999.2500     6.7470
 1041.5000  -999.2500     6.7480
 1042.0000  -999.2500     6.7490
 1042.5000  -999.2500     6.7490
 1043.0000  -999.2500     6.7500
 1043.5000  -999.2500     6.7510
 1044.0000  -999.2500     6.7520
 1044.5000  -999.2500     6.7520
 1045.0000  -999.2500     6.7510
 1045.5000  -999.2500     6.7510
 1046.0000  -999.2500     6.7510
 1046.5000  -999.2500     6.7500
 1047.0000  -999.2500     6.7510
 1047.5000  -999.2500     6.7530
 1048.0000  -999.2500     6.7550
 1048.5000  -999.2500     6.7570
 1049.0000  -999.2500     6.7590
 1049.5000  -999.2500     6.7610
 1050.0000  -999.2500     6.7660
 1050.5000  -999.2500     6.7710
 1051.0000  -999.2500     6.7750
 1051.5000  -999.2500     6.7790
 1052.0000  -999.2500     6.7820
 1052.5000  -999.2500     6.7970
 1053.0000  -999.2500     6.7970
 1053.5000  -999.2500     6.9390
 1054.0000  -999.2500     6.7880
 1054.5000  -999.2500     6.7800
 1055.0000  -999.2500     6.7730
 1055.5000  -999.2500     6.7660
 1056.0000  -999.2500     6.7590
 1056.5000  -999.2500     6.7570
 1057.0000  -999.2500     6.7570
 1057.5000  -999.2500     6.7590
 1058.0000  -999.2500     6.7620
 1058.5000  -999.2500     6.7630
 1059.0000  -999.2500     6.7630
 1059.5000  -999.2500     6.7630
 1060.0000  -999.2500     6.7630
 1060.5000  -999.2500     6.7630
 1061.0000  -999.2500     6.7620
 1061.5000  -999.2500     6.7600
 1062.0000  -999.2500     6.7590
 1062.5000  -999.2500     6.7570
 1063.0000  -999.2500     6.7550
 1063.5000  -999.2500     6.7550
 1064.0000  -999.2500     6.7550
 1064.5000  -999.2500     6.7550
 1065.0000  -999.2500     6.7550
 1065.5000  -999.2500     6.7550
 1066.0000  -999.2500     6.7550
 1066.5000  -999.2500     6.7550
 1067.0000  -999.2500     6.7570
 1067.5000  -999.2500     6.7580
 1068.0000  -999.2500     6.7570
 1068.5000  -999.2500     6.7590
 1069.0000  -999.2500     6.7630
 1069.5000  -999.2500     6.7660
 1070.0000  -999.2500     6.7660
 1070.5000  -999.2500     6.7660
 1071.0000  -999.2500     6.7650
 1071.5000  -999.2500     6.7650
 1072.0000  -999.2500     6.7660
 1072.5000  -999.2500     6.7670
 1073.0000  -999.2500     6.7710
 1073.5000  -999.2500     6.7740
 1074.0000  -999.2500     6.7660
 1074.5000  -999.2500     6.9090
 1075.0000  -999.2500     6.8350
 1075.5000  -999.2500     6.8040
 1076.0000  -999.2500     6.7930
 1076.5000  -999.2500     6.7940
 1077.0000  -999.2500     6.8130
 1077.5000  -999.2500     6.8240
 1078.0000  -999.2500     6.8290
 1078.5000  -999.2500     6.8370
 1079.0000  -999.2500     6.8330
 1079.5000  -999.2500     6.8300
 1080.0000  -999.2500     6.8270
 1080.5000  -999.2500     6.8270
 1081.0000  -999.2500     6.8320
 1081.5000  -999.2500     6.8390
 1082.0000  -999.2500     6.8390
 1082.5000  -999.2500     6.8380
 1083.0000  -999.2500     6.8380
 1083.5000  -999.2500     6.8380
 1084.0000  -999.2500     6.8380
 1084.5000  -999.2500     6.8370
 1085.0000  -999.2500     6.8370
 1085.5000  -999.2500     6.8310
 1086.0000  -999.2500     6.8240
 1086.5000  -999.2500     6.8230
 1087.0000  -999.2500     6.8240
 1087.5000  -999.2500     6.8210
 1088.0000  -999.2500     6.8180
 1088.5000  -999.2500     6.8180
 1089.0000  -999.2500     6.8180
 1089.5000  -999.2500     6.8190
 1090.0000  -999.2500     6.8190
 1090.5000  -999.2500     6.8280
 1091.0000  -999.2500     6.8270
 1091.5000  -999.2500     6.8270
 1092.0000  -999.2500     6.8330
 1092.5000  -999.2500     6.8350
 1093.0000  -999.2500     6.8410
