~VERSION INFORMATION
 VERS.                2.0:   CWLS LOG ASCII STANDARD - VERSION 2.0
 WRAP.                 NO:   ONE LINE PER DEPTH STEP
~WELL INFORMATION
#MNEM.UNIT      DATA TYPE    INFORMATION
#----------   ------------   ------------------------------
 STRT.F            0.0000:   START DEPTH
 STOP.F         3982.0000:   STOP DEPTH
 STEP.F            0.5000:   STEP LENGTH
 NULL.          -999.2500:   NO VALUE
 COMP.   LAWRENCE ALLISON:   COMPANY
 WELL. LAWRENCE NPR 3 "LX" #61-10:   WELL
 FLD .                NPR:   FIELD
 LOC .      S10 T38N R78W:   LOCATION
 CNTY.            NATRONA:   COUNTY
 STAT.            WYOMING:   STATE
 CTRY. UNITED STATES OF AMERICA:   COUNTRY
 SRVC.      DRESSER ATLAS:   SERVICE COMPANY
 DATE.        14-APR-1983:   LOGDATE
 API .     49025109180000:   API NUMBER
~CURVE INFORMATION
#MNEM.UNIT       API CODE    CURVE DESCRIPTION
#----------   ------------   ------------------------------
 DEPT.F                  :   
 CALD.IN     45 280 60 00:   CALIPER FROM DENSITY LOG
 RHOB.G/C3   45 350 01 00:   BULK DENSITY
 DRHO.G/C3   45 356 01 00:   DENSITY CORRECTION
 TEND.LBS    45 635 01 00:   TENSION FROM DENSITY LOG
 CNC .DEC    42 890 03 00:   NEUTRON PORISITY SANDSTONE
 GRR .GAPI   07 310 01 00:   GAMMA RAY FROM RESISTIVITY
 SPR .MV     07 010 01 00:   SPONTANEOUS POTENTIAL
 ILD .OHMM   07 120 46 00:   DEEP INDUCTION RESISTIVITY
 ILM .OHMM   07 120 44 00:   INDUCTION LOG MEDIUM RESISTIVITY
 SFL .OHMM   07 220 01 00:   SHALLOW FOCUSED LOG RESISTIVITY
 TENS.LBS    60 635 01 00:   TENSION FROM SONIC LOG
 DT  .US/F   60 520 00 00:   DELTA TIME
 TENR.LBS    07 635 01 00:   TENSION FROM RESISTIVITY
~PARAMETER INFORMATION
#MNEM.UNIT          VALUE    DESCRIPTION
#----------   ------------   ------------------------------
 EKB .F         5164.0000:   Kelly bushing
 EGL .F         5154.0000:   Ground level
 EDF .F            0.0000:   Drilling floor
 TD  .F         3985.0000:   Total depth
 DATE.        14-APR-1983:   Date logged
 CLNT.            A2DTECH:   Client Code
 SL  . 138' FNL & 1331' FEL:   Surface Location
 PD  .                 GL:   Permanent Datum
 EPD .F              5154:   Elevation Permanent Datum
 LMF .                 KB:   Log Measured From
 DMF .                 KB:   Drilling Measured From
 DD  .F              3985:   Depth driller
 DL  .F              3948:   Depth logger
 BLI .F              3945:   Bottom log interval
 CS1 .IN            8.625:   Casing size
 CBD1.      8.625" @ 442':   Casing driller 1
 CBL1.F               453:   Casing logger 1
 BS1 .IN            7.875:   Bit size
 DFT .                KCI:   Type fluid in hole
 DFD .                8.9:   Density
 DFV .                 40:   Viscosity
 DFPH.                8.5:   pH
 DFL .                 10:   Fluid loss
 MSS .           FLOWLINE:   Source of sample
 RMS .OHMM           0.38:   Rm
 MST .F                68:   Rm Meas. temp.
 RMF .OHMM           0.30:   Rmf
 MFST.F                68:   Rmf Meas. temp.
 RMC .OHMM           0.49:   Rmc
 MCST.F                68:   Rmc Meas. temp.
 MFSS.               MEAS:   Source Rmf.
 RMB .OHMM           0.22:   Rm. at BHT
 BHT .F               122:   BHT.
 TCS .HRS               4:   Time Circ. stopped
 MRT .F               122:   Maximum recorded temp.
 LUN .               6764:   Logging unit number
 LUL .              WLSTN:   Logging unit location
 ENGI.            QUICKEL:   Recorded By
 WITN.           JENNINGS:   Witnessed by
 ORIG.           5" PRINT:   Origin of data
 UWI .     49025109180000:   Unique Well ID
 DICO. A2D TECHNOLOGIES, INC.:   Digitizing Company
 DAPD.                 10:   Feet Above Permanent Datum
 BSD1.               3985:   Depth drilled with bit1
 MCSS.               CALC:   Source Rmc.
~OTHER INFORMATION
~A    DEPT    CALD       RHOB       DRHO       TEND        CNC         GRR       SPR        ILD        ILM        SFL       TENS         DT       TENR   
# ...
 1846.0000     8.1300     2.4690     0.0440   -83.5370     0.3030   137.3530   -41.9460     7.9200     7.6950     8.7150  -999.2500  -999.2500   -63.3830
 1846.5000     8.1330     2.4670     0.0550   -83.7870     0.3200   135.4760   -41.4280     7.8780     7.5270     8.5510  -999.2500  -999.2500   -63.1610
 1847.0000     8.1350     2.4620     0.0470   -84.0360     0.3360   133.4070   -40.8430     7.8370     7.6260     8.3970  -999.2500  -999.2500   -62.9390
 1847.5000     8.1370     2.4610     0.0320   -84.2860     0.3510   133.1680   -40.3910     7.8070     7.7360     7.5960  -999.2500  -999.2500   -62.7170
 1848.0000     8.1390     2.4600     0.0320   -84.5350     0.3530   133.0960   -39.6410     7.8350     7.7130     7.4590  -999.2500  -999.2500   -62.4950
 1848.5000     8.1420     2.4460     0.0590   -84.7850     0.3360   134.0220   -39.0200     7.8600     7.6940     7.6990  -999.2500  -999.2500   -62.2730
 1849.0000     8.1440     2.4260     0.0670   -85.0340     0.3220   137.3760   -38.8570     7.8860     7.6750     7.9510  -999.2500  -999.2500   -62.0510
 1849.5000     8.1460     2.4080     0.0460   -85.2840     0.3090   138.2520   -38.7460     7.9120     7.7290     8.7090  -999.2500  -999.2500   -61.8290
 1850.0000     8.1490     2.4110     0.0180   -85.5330     0.2950   135.6710   -38.5360     7.9380     7.8580     8.7090  -999.2500  -999.2500   -61.6070
 1850.5000     8.1510     2.4190    -0.0010   -85.6570     0.2960   135.1300   -38.4660     8.0290     8.0230     8.4940  -999.2500  -999.2500   -61.3850
 1851.0000     8.1530     2.4270     0.0000   -85.6570     0.3050   136.7960   -38.7740     8.1850     8.0570     8.3210  -999.2500  -999.2500   -61.1630
 1851.5000     8.1550     2.4350     0.0070   -85.6570     0.3110   138.4910   -39.1690     8.3400     8.1030     8.5720  -999.2500  -999.2500   -60.9410
 1852.0000     8.1580     2.4430     0.0060   -85.6570     0.3100   140.6170   -39.3770     8.4740     8.1500     8.7970  -999.2500  -999.2500   -60.7190
 1852.5000     8.1600     2.4560     0.0020   -85.6570     0.3090   142.5340   -39.6440     8.5470     8.2350     9.0320  -999.2500  -999.2500   -60.4970
 1853.0000     8.1620     2.4830     0.0010   -85.6570     0.3120   144.0900   -39.8010     8.6100     8.3530     9.1530  -999.2500  -999.2500   -60.2750
 1853.5000     8.1640     2.5010     0.0120   -85.6570     0.3130   145.2700   -39.6080     8.6740     8.4720     9.2830  -999.2500  -999.2500   -60.0530
 1854.0000     8.1670     2.5000     0.0490   -85.6570     0.2990   144.8870   -39.3730     8.7370     8.5900     9.2200  -999.2500  -999.2500   -59.8310
 1854.5000     8.1690     2.4930     0.0650   -85.6570     0.2940   143.5970   -39.1910     8.7890     8.7090     9.1540  -999.2500  -999.2500   -59.6090
 1855.0000     8.1700     2.4880     0.0740   -85.6570     0.3030   142.1720   -39.0360     8.8930     8.6300     9.1150  -999.2500  -999.2500   -59.3870
 1855.5000     8.1690     2.4840     0.0680   -85.6570     0.3180   140.8240   -39.0210     8.9810     8.5520     9.1150  -999.2500  -999.2500   -59.1650
 1856.0000     8.1680     2.4790     0.0570   -85.6570     0.3320   141.0190   -39.0410     8.9920     8.8690     9.1150  -999.2500  -999.2500   -58.9430
 1856.5000     8.1670     2.4740     0.0370   -86.7860     0.3250   140.8220   -39.0260     8.8960     8.6870     9.1530  -999.2500  -999.2500   -58.7210
 1857.0000     8.1660     2.4720     0.0330   -87.9770     0.3100   137.4590   -39.0330     8.8000     8.4740     9.2130  -999.2500  -999.2500   -58.4990
 1857.5000     8.1650     2.4720     0.0360   -89.1670     0.2940   135.3370   -39.0330     8.7090     8.4740     9.2830  -999.2500  -999.2500   -58.2770
 1858.0000     8.1640     2.4720     0.0410   -90.3580     0.3020   136.9860   -39.0130     8.6890     8.4740     9.1630  -999.2500  -999.2500   -58.0550
 1858.5000     8.1630     2.4740     0.0420   -91.5480     0.3220   136.9030   -38.9880     8.6700     8.5050     8.8690  -999.2500  -999.2500   -57.8330
 1859.0000     8.1630     2.4790     0.0430   -92.7390     0.3330   133.6670   -38.9640     8.6510     8.5350     8.8690  -999.2500  -999.2500   -57.6110
 1859.5000     8.1620     2.4800     0.0450   -93.9290     0.3280   132.0890   -38.9360     8.6300     8.5640     8.8690  -999.2500  -999.2500   -57.3890
 1860.0000     8.1610     2.4770     0.0530   -95.1200     0.3080   133.9300   -38.9080     8.5140     8.5940     9.1990  -999.2500  -999.2500   -57.1670
 1860.5000     8.1600     2.4710     0.0610   -93.1940     0.2980   136.4800   -38.8910     8.3970     8.6230     9.1990  -999.2500  -999.2500   -56.9450
 1861.0000     8.1590     2.4710     0.0650   -89.0270     0.3030   137.7700   -38.8510     8.4960     8.6530     9.1990  -999.2500  -999.2500   -56.7390
 1861.5000     8.1580     2.4710     0.0590   -84.8610     0.3130   139.3340   -38.8430     8.6040     8.6820     9.1480  -999.2500  -999.2500   -56.7390
 1862.0000     8.1570     2.4610     0.0530   -80.6940     0.3190   140.8750   -38.9530     8.7130     8.7110     9.1150  -999.2500  -999.2500   -56.7390
 1862.5000     8.1570     2.4470     0.0470   -76.5270     0.3180   138.8800   -39.0970     8.8210     8.7410     9.1150  -999.2500  -999.2500   -56.7390
 1863.0000     8.1560     2.4420     0.0290   -74.7870     0.3140   135.3290   -39.2210     8.9380     8.7700     9.1150  -999.2500  -999.2500   -56.7390
 1863.5000     8.1550     2.4430     0.0120   -73.6510     0.3100   135.3980   -39.3540     9.0620     8.7890     9.3440  -999.2500  -999.2500   -56.7390
 1864.0000     8.1540     2.4450     0.0050   -72.5140     0.3070   137.8420   -39.4380     9.0560     8.7890     9.5400  -999.2500  -999.2500   -56.7390
 1864.5000     8.1530     2.4450     0.0050   -71.3780     0.3090   140.0430   -39.4670     8.9540     8.7890     9.5980  -999.2500  -999.2500   -56.7390
 1865.0000     8.1520     2.4410     0.0140   -70.2420     0.3110   141.8560   -39.4900     8.8510     8.7340     9.5740  -999.2500  -999.2500   -56.7390
 1865.5000     8.1510     2.4420     0.0200   -69.1050     0.3110   141.1350   -39.5190     8.7490     8.6420     9.4410  -999.2500  -999.2500   -56.7390
 1866.0000     8.1510     2.4440     0.0140   -67.9690     0.2990   138.2380   -39.5460     8.7090     8.5520     9.2830  -999.2500  -999.2500   -56.7390
 1866.5000     8.1500     2.4460     0.0090   -66.8330     0.2770   135.4690   -39.5650     8.7090     8.5200     9.1110  -999.2500  -999.2500   -56.7390
 1867.0000     8.1510     2.4500     0.0150   -65.7370     0.2800   133.4170   -39.6030     8.7090     8.4890     8.8690  -999.2500  -999.2500   -56.7390
 1867.5000     8.1520     2.4540     0.0260   -64.0660     0.2920   134.8120   -39.6180     8.7090     8.4580     8.8460  -999.2500  -999.2500   -56.7390
 1868.0000     8.1530     2.4610     0.0280   -62.4530     0.3100   138.1900   -39.5340     8.7090     8.4260     8.8090  -999.2500  -999.2500   -56.7390
 1868.5000     8.1540     2.4680     0.0210   -60.8410     0.3340   138.8010   -39.4230     8.7090     8.3970     8.8850  -999.2500  -999.2500   -56.7390
 1869.0000     8.1550     2.4740     0.0330   -59.2280     0.3230   136.5520   -39.3250     8.7250     8.4200     9.0920  -999.2500  -999.2500   -56.7390
 1869.5000     8.1560     2.4690     0.0680   -57.6150     0.3100   132.4050   -39.2140     8.7590     8.4420     9.1990  -999.2500  -999.2500   -56.7390
 1870.0000     8.1570     2.4580     0.0780   -56.0020     0.2960   130.8080   -39.1250     8.7930     8.4640     9.1990  -999.2500  -999.2500   -56.7390
 1870.5000     8.1580     2.4450     0.0480   -72.9880     0.2930   134.2930   -39.0180     8.8260     8.5360     9.1990  -999.2500  -999.2500   -56.7390
 1871.0000     8.1590     2.4480     0.0180   -75.3930     0.3010   137.3440   -38.8600     8.8690     8.6580     9.1790  -999.2500  -999.2500   -56.7390
 1871.5000     8.1600     2.4470     0.0280   -75.0410     0.3100   138.1220   -38.6900     8.8690     8.7890     9.1640  -999.2500  -999.2500   -56.7390
