~VERSION INFORMATION
 VERS.                2.0:   CWLS LOG ASCII STANDARD - VERSION 2.0
 WRAP.                 NO:   ONE LINE PER DEPTH STEP
~WELL INFORMATION
#MNEM.UNIT      DATA TYPE    INFORMATION
#----------   ------------   ------------------------------
 STRT.F          212.0000:   START DEPTH
 STOP.F         2806.0000:   STOP DEPTH
 STEP.F            0.5000:   STEP LENGTH
 NULL.          -999.2500:   NO VALUE
 COMP.    FENIX & SCISSON:   COMPANY
 WELL.    FENIX AX #12-21:   WELL
 FLD .        TEAPOT DOME:   FIELD
 LOC .      S21 T39N R78W:   LOCATION
 CNTY.            NATRONA:   COUNTY
 STAT.            WYOMING:   STATE
 CTRY. UNITED STATES OF AMERICA:   COUNTRY
 SRVC.           BIRDWELL:   SERVICE COMPANY
 DATE.        14-AUG-1973:   LOGDATE
 API .     49025106930000:   API NUMBER
~CURVE INFORMATION
#MNEM.UNIT       API CODE    CURVE DESCRIPTION
#----------   ------------   ------------------------------
 DEPT.F                  :   
 SN  .OHMM   05 040 16 00:   SHORT NORMAL 16"
 ILD .OHMM   05 120 46 00:   INDUCTION LOG DEEP RESISTIVITY
 RHOB.G/C3   45 350 01 00:   BULK DENSITY
 CORR.G/C3   45 356 01 00:   DENSITY CORRECTION
 GRD .GAPI   45 310 01 00:   GAMMA RAY FROM DENSITY LOG
 CALD.IN     45 280 60 00:   CALIPER FROM DENSITY LOG
 SPR .MV     05 010 01 00:   SPONTANEOUS POTENTIAL
~PARAMETER INFORMATION
#MNEM.UNIT          VALUE    DESCRIPTION
#----------   ------------   ------------------------------
 EKB .F         4998.0000:   Kelly bushing
 EGL .F         4988.0000:   Ground level
 EDF .F            0.0000:   Drilling floor
 EPD .F         4988.0000:   Permanent datum
 TD  .F         2809.0000:   Total depth
 DATE.        14-AUG-1973:   Date logged
 CLNT.            A2DTECH:   Client Code
 SL  . 1300' FNL & 300' FWL:   Surface Location
 PD  .                 GL:   Permanent Datum
 DD  .F              2800:   Depth driller
 DL  .F              2809:   Depth logger
 BLI .F              2803:   Bottom log interval
 TLI .F               235:   Top log interval
 CS1 .IN            8.625:   Casing size
 BS1 .IN            7.875:   Bit size
 BSD1.F              2800:   Depth drilled with bit1
 DFT .                GEL:   Type fluid in hole
 DFD .                9.7:   Density
 DFV .                 34:   Viscosity
 DFPH.                 12:   pH
 MSS .           FLOWLINE:   Source of sample
 RMS .OHMM            .15:   Rm
 MST .F                57:   Rm Meas. temp.
 RMF .OHMM            .95:   Rmf
 MFST.F                69:   Rmf Meas. temp.
 RMC .OHMM            1.5:   Rmc
 MCST.F                78:   Rmc Meas. temp.
 MFSS.               MEAS:   Source Rmf.
 RMB .OHMM            .87:   Rm. at BHT
 BHT .F               115:   BHT.
 TCS .HRS               3:   Time Circ. stopped
 MRT .F               115:   Maximum recorded temp.
 LUN .               3006:   Logging unit number
 LUL .               CASP:   Logging unit location
 ENGI.             MILLER:   Recorded By
 WITN.           MCGINLEY:   Witnessed by
 UWI .     49025106930000:   Unique Well ID
 DICO. A2D TECHNOLOGIES, INC.:   Digitizing Company
 ORIG.           5" PRINT:   Origin of data
~OTHER INFORMATION
~A   DEPT       SN        ILD       RHOB       CORR         GRD      CALD        SPR   
# ...
 2259.5000     7.6540     6.2210     2.4030     0.3340    93.7560    10.5690   -15.4220
 2260.0000     7.5250     6.1400     2.3970     0.3340    96.5140    10.5700   -15.4140
 2260.5000     7.3960     6.0600     2.3910     0.3340    98.1570    10.5690   -15.4060
 2261.0000     7.2670     5.9790     2.3840     0.3340    99.3460    10.5640   -15.3980
 2261.5000     7.1720     5.8980     2.3780     0.3340   100.6000    10.5580   -15.3910
 2262.0000     7.1570     5.8090     2.3770     0.3330   107.9610    10.5530   -15.3830
 2262.5000     7.1420     5.7780     2.3760     0.3310   110.7020    10.5510   -15.3750
 2263.0000     7.1270     5.7430     2.3760     0.3280   110.1090    10.5560   -15.3680
 2263.5000     7.1110     5.7080     2.3740     0.3260   110.2370    10.5600   -15.3600
 2264.0000     6.9780     5.6730     2.3700     0.3240    99.1820    10.5650   -15.3520
 2264.5000     6.8300     5.6380     2.3660     0.3210   100.3180    10.5700   -15.3440
 2265.0000     6.6680     5.5990     2.3610     0.3190   102.2920    10.5890   -15.3370
 2265.5000     6.7300     5.6320     2.3570     0.3170   104.5110    10.6070   -15.3290
 2266.0000     6.7920     5.6680     2.3610     0.3140   106.7950    10.6250   -15.3210
 2266.5000     6.8690     5.7040     2.3640     0.3120   108.2160    10.6440   -15.3180
 2267.0000     6.9400     5.7400     2.3690     0.3100   109.3710    10.6620   -15.3230
 2267.5000     7.0110     5.7760     2.3740     0.3070   109.8540    10.6760   -15.3280
 2268.0000     7.1930     5.8090     2.3880     0.3050   106.1880    10.6870   -15.3330
 2268.5000     7.4870     6.0060     2.3920     0.3020    99.2630    10.6990   -15.3380
 2269.0000     7.7800     6.1850     2.3960     0.3070    98.7090    10.7110   -15.3430
 2269.5000     8.0740     6.3440     2.3990     0.3080    98.4740    10.7230   -15.3480
 2270.0000     8.1620     6.4580     2.3980     0.3070    99.0610    10.7350   -15.3530
 2270.5000     8.1620     6.5730     2.3990     0.3070    99.5360    10.7480   -15.3580
 2271.0000     8.1620     6.6110     2.4080     0.3070    99.1730    10.7610   -15.3630
 2271.5000     8.1620     6.6160     2.4170     0.3060    97.7690    10.7740   -15.3680
 2272.0000     8.1620     6.6220     2.4140     0.3060    96.9400    10.7870   -15.3730
 2272.5000     8.1620     6.6270     2.4110     0.3060    97.2520    10.7980   -15.3780
 2273.0000     8.1620     6.6330     2.4160     0.3060    97.2360    10.8100   -15.3830
 2273.5000     8.1620     6.6380     2.4220     0.3050    96.6510    10.8210   -15.3880
 2274.0000     8.1620     6.6440     2.4230     0.3050    94.9830    10.8330   -15.3930
 2274.5000     8.1620     6.6500     2.4210     0.3050    91.6350    10.8440   -15.3980
 2275.0000     8.1620     6.6550     2.4180     0.3050    91.6360    10.8560   -15.4030
 2275.5000     8.1620     6.6610     2.4170     0.3040    93.6560    10.8650   -15.4090
 2276.0000     8.1980     6.6660     2.4260     0.3040    97.5500    10.8680   -15.4140
 2276.5000     8.2370     6.6850     2.4360     0.3040    97.4490    10.8720   -15.4190
 2277.0000     8.2760     6.7200     2.4440     0.3040    98.1490    10.8770   -15.4240
 2277.5000     8.3160     6.7550     2.4460     0.3030    99.9530    10.8810   -15.4290
 2278.0000     8.3550     6.7890     2.4490     0.3030    99.7740    10.9060   -15.4340
 2278.5000     8.3900     6.8240     2.4510     0.3030    94.5330    10.9600   -15.4390
 2279.0000     8.3490     6.8590     2.4490     0.3020    89.8970    10.8560   -15.4440
 2279.5000     8.3110     6.8930     2.4460     0.3020    90.0670    10.6100   -15.4490
 2280.0000     8.2730     6.9180     2.4440     0.3020    90.1160    10.5730   -15.4540
 2280.5000     8.2340     6.7770     2.4410     0.3020    90.3120    10.8990   -15.4590
 2281.0000     8.1960     6.6680     2.4390     0.3010    93.1450    10.9540   -15.4640
 2281.5000     8.1620     6.5600     2.4380     0.3010    92.9220    10.9410   -15.4690
 2282.0000     7.9290     6.4510     2.4400     0.3010    94.1580    10.9280   -15.4740
 2282.5000     7.7170     6.3430     2.4410     0.3010    96.2280    10.9140   -15.4790
 2283.0000     7.6430     6.3010     2.4420     0.3000    96.9500    10.9000   -15.4840
 2283.5000     7.6280     6.2880     2.4410     0.3000    99.0530    10.8870   -15.4890
 2284.0000     7.6130     6.2750     2.4360     0.3000    97.3700    10.8730   -15.4940
 2284.5000     7.5990     6.2630     2.4310     0.2970    94.9930    10.8600   -15.4990
 2285.0000     7.5840     6.2500     2.4260     0.2960    95.6750    10.8470   -15.5040
 2285.5000     7.5690     6.2370     2.4230     0.2950    96.2540    10.8330   -15.5090
 2286.0000     7.5540     6.2240     2.4250     0.2930    96.4640    10.8150   -15.5140
 2286.5000     7.5390     6.2110     2.4280     0.2920    95.7640    10.7860   -15.5000
 2287.0000     7.5240     6.1990     2.4310     0.2910    95.0960    10.7570   -15.4830
 2287.5000     7.5090     6.1860     2.4340     0.2900    94.4320    10.7280   -15.4670
 2288.0000     7.4950     6.1730     2.4340     0.2900    93.7630    10.7000   -15.4500
 2288.5000     7.4800     6.1600     2.4330     0.2890    93.0620    10.6870   -15.4340
 2289.0000     7.4650     6.1470     2.4330     0.2890    93.0460    10.6870   -15.4170
 2289.5000     7.4500     6.1200     2.4330     0.2890    91.0210    10.6870   -15.4010
 2290.0000     7.4350     6.0590     2.4330     0.2890    86.0260    10.6540   -15.3840
 2290.5000     7.4200     5.9980     2.4320     0.2890    87.2220    10.6000   -15.3680
 2291.0000     7.4060     5.9370     2.4420     0.2890    89.3880    10.5450   -15.3510
 2291.5000     7.3910     5.8760     2.4490     0.2880    91.5590    10.4890   -15.3350
 2292.0000     7.3770     5.8090     2.4510     0.2880    93.5780    10.4340   -15.3180
 2292.5000     7.2810     5.8090     2.4540     0.2880    93.7510    10.3790   -15.2000
 2293.0000     7.1940     5.8090     2.4560     0.2870    93.4940    10.3240   -15.0660
 2293.5000     7.1070     5.8090     2.4550     0.2850    93.2240    10.2690   -14.9310
 2294.0000     7.0460     5.8090     2.4530     0.2830    92.3560    10.2250   -14.7970
 2294.5000     7.0930     5.8090     2.4440     0.2840    89.6860    10.1970   -14.6630
 2295.0000     7.1300     5.8090     2.4380     0.2860    87.4110    10.1690   -14.5280
 2295.5000     7.1660     5.8090     2.4360     0.2890    87.8060    10.1410   -14.3940
 2296.0000     7.2030     5.8090     2.4360     0.2920    94.3640    10.1170   -14.2600
 2296.5000     7.2430     5.8190     2.4450     0.2940    95.6190    10.1110   -14.1260
 2297.0000     7.3240     5.8310     2.4550     0.2960    95.2110    10.1040   -13.9910
 2297.5000     7.4150     5.8430     2.4640     0.2960    93.7600    10.0880   -13.8590
 2298.0000     7.5140     5.8550     2.4720     0.2890    92.3450    10.0640   -13.7320
 2298.5000     7.7610     5.9410     2.4760     0.2810    93.0130    10.0390   -13.1210
 2299.0000     8.0340     6.2010     2.4760     0.2730    92.6810    10.0140   -12.4330
 2299.5000     8.3080     6.4860     2.4760     0.2650    92.1320     9.9900   -11.7440
 2300.0000     9.3690     7.1420     2.4750     0.2570    88.5990     9.9650   -11.0510
 2300.5000    10.7680     7.9400     2.4730     0.2490    88.5810     9.9400   -10.3340
 2301.0000    12.1660     8.9410     2.4720     0.2410    89.5550     9.9190    -9.4790
 2301.5000    14.7720    10.0480     2.4640     0.2330    85.1780     9.9020    -8.6390
 2302.0000    17.8720    12.0730     2.4550     0.2250    76.7260     9.8840    -7.4250
 2302.5000    20.8980    14.4660     2.4470     0.2180    68.1450     9.8410    -6.1940
 2303.0000    23.5850    16.8590     2.4380     0.2140    59.5820     9.7940    -5.8120
 2303.5000    24.3490    18.5650     2.4300     0.2100    51.0120     9.7470    -5.6450
 2304.0000    25.1130    19.7260     2.4220     0.2120    47.0810     9.7060    -5.4340
 2304.5000    25.8770    19.8130     2.4240     0.2180    46.4900     9.6990    -4.8190
