~VERSION INFORMATION
 VERS.                2.0:   CWLS LOG ASCII STANDARD - VERSION 2.0
 WRAP.                 NO:   ONE LINE PER DEPTH STEP
~WELL INFORMATION
#MNEM.UNIT      DATA TYPE    INFORMATION
#----------   ------------   ------------------------------
 STRT.F            0.0000:   START DEPTH
 STOP.F         3040.0000:   STOP DEPTH
 STEP.F            0.5000:   STEP LENGTH
 NULL.          -999.2500:   NO VALUE
 COMP. LAWRENCE ALLISON & ASSOCIATES:   COMPANY
 WELL. LAWRENCE NPR 3 "AX" #77-28:   WELL
 FLD .      NPR - WILDCAT:   FIELD
 LOC .      S28 T39N R78W:   LOCATION
 CNTY.            NATRONA:   COUNTY
 STAT.            WYOMING:   STATE
 CTRY. UNITED STATES OF AMERICA:   COUNTRY
 SRVC.      DRESSER ATLAS:   SERVICE COMPANY
 DATE.        19-OCT-1986:   LOGDATE
 API .     49025111150000:   API NUMBER
~CURVE INFORMATION
#MNEM.UNIT       API CODE    CURVE DESCRIPTION
#----------   ------------   ------------------------------
 DEPT.F                  :   
 TENR.LBS    07 635 01 00:   TENSION FROM RESISTIVITY
 RILD.OHMM   07 120 46 00:   DEEP INDUCTION RESISTIVITY
 RILM.OHMM   07 120 44 00:   INDUCTION LOG MEDIUM RESISTIVITY
 RFOC.OHMM   07 220 04 00:   RESISTIVITY FOCUSED LOG RES.
 SPR .MV     07 010 01 00:   SPONTANEOUS POTENTIAL
 GRR .GAPI   07 310 01 00:   GAMMA RAY FROM RESISTIVITY
 CNC .DEC    42 890 03 00:   NEUTRON POROSITY SANDSTONE
 RHOB.G/C3   45 350 01 00:   BULK DENSITY
 TEND.LBS    45 635 01 00:   TENSION FROM DENSITY LOG
 CORR.G/C3   45 356 01 00:   DENSITY CORRECTION
 CALD.IN     45 280 60 00:   CALIPER FROM DENSITY LOG
~PARAMETER INFORMATION
#MNEM.UNIT          VALUE    DESCRIPTION
#----------   ------------   ------------------------------
 EKB .F         5086.0000:   Kelly bushing
 EGL .F         5074.0000:   Ground level
 EDF .F            0.0000:   Drilling floor
 TD  .F         3025.0000:   Total depth
 DATE.        19-OCT-1986:   Date logged
 CLNT.            A2DTECH:   Client Code
 SL  . 967' FSL @ 763' FEL:   Surface Location
 PD  .                 GL:   Permanent Datum
 EPD .F              5074:   Elevation Permanent Datum
 LMF .                 KB:   Log Measured From
 DMF .                 KB:   Drilling Measured From
 DAPD.F                12:   Feet Above Permanent Datum
 DD  .F              3021:   Depth driller
 DL  .F              3025:   Depth logger
 BLI .F              3023:   Bottom log interval
 CS1 .IN            8.625:   Casing size
 CBD1.      8.625" @ 620':   Casing driller 1
 CBL1.F               615:   Casing logger 1
 BS1 .IN            7.875:   Bit size
 BSD1.F              3021:   Depth drilled with bit1
 DFT .        KCL/POLTMER:   Type fluid in hole
 DFD .                8.9:   Density
 DFV .                 38:   Viscosity
 DFPH.                9.5:   pH
 DFL .                 11:   Fluid loss
 MSS .           FLOWLINE:   Source of sample
 RMS .OHMM            .25:   Rm
 MST .F                65:   Rm Meas. temp.
 RMF .OHMM           .203:   Rmf
 MFST.F                65:   Rmf Meas. temp.
 RMC .OHMM            .31:   Rmc
 MCST.F                65:   Rmc Meas. temp.
 MFSS.               MEAS:   Source Rmf.
 MCSS.               CALC:   Source Rmc.
 RMB .OHMM           .136:   Rm. at BHT
 BHT .F               119:   BHT.
 TCS .HRS               5:   Time Circ. stopped
 MRT .F               119:   Maximum recorded temp.
 LUN .               6274:   Logging unit number
 LUL .               GLTE:   Logging unit location
 ENGI.             RAUTIO:   Recorded By
 WITN.             STRONG:   Witnessed by
 ORIG.         2.5" PRINT:   Origin of data
 UWI .     49025111150000:   Unique Well ID
 DICO. A2D TECHNOLOGIES, INC.:   Digitizing Company
~OTHER INFORMATION
~A    DEPT    TENR       RILD       RILM       RFOC        SPR         GRR       CNC       RHOB       TEND       CORR       CALD   
# ...
 1586.0000   -44.1180     5.9630     5.7370     6.8290   -82.7030   117.3100  -999.2500  -999.2500  -999.2500  -999.2500  -999.2500
 1586.5000   -44.1180     5.9520     5.7050     6.9540   -82.9250   119.4860  -999.2500  -999.2500  -999.2500  -999.2500  -999.2500
 1587.0000   -44.1180     5.9410     5.6730     6.9320   -83.1340   119.3250  -999.2500  -999.2500  -999.2500  -999.2500  -999.2500
 1587.5000   -44.1180     5.9310     5.6410     6.8870   -83.3570   120.8490  -999.2500  -999.2500  -999.2500  -999.2500  -999.2500
 1588.0000   -44.1180     5.9200     5.6000     6.8430   -83.5700   123.4520  -999.2500  -999.2500  -999.2500  -999.2500  -999.2500
 1588.5000   -44.1180     5.9090     5.6040     6.7990   -83.7930   123.0040  -999.2500  -999.2500  -999.2500  -999.2500  -999.2500
 1589.0000   -44.1180     5.8980     5.6120     6.7550   -84.0010   119.2450  -999.2500  -999.2500  -999.2500  -999.2500  -999.2500
 1589.5000   -44.1180     5.8870     5.6190     6.7070   -84.2250   115.6130  -999.2500  -999.2500  -999.2500  -999.2500  -999.2500
 1590.0000   -44.1180     5.8770     5.6270     6.8690   -84.2500   114.6210  -999.2500  -999.2500  -999.2500  -999.2500  -999.2500
 1590.5000   -44.1180     5.8660     5.6340     7.0460   -84.0920   113.1890  -999.2500  -999.2500  -999.2500  -999.2500  -999.2500
 1591.0000   -44.1180     5.8550     5.6420     7.3410   -83.5860   111.7230  -999.2500  -999.2500  -999.2500  -999.2500  -999.2500
 1591.5000   -44.1180     5.8440     5.6490     7.2980   -83.1080   110.7110  -999.2500  -999.2500  -999.2500  -999.2500  -999.2500
 1592.0000   -44.1180     5.8340     5.6570     7.1700   -82.6970   112.2580  -999.2500  -999.2500  -999.2500  -999.2500  -999.2500
 1592.5000   -44.1180     5.8230     5.6640     7.0410   -82.7210   115.3010  -999.2500  -999.2500  -999.2500  -999.2500  -999.2500
 1593.0000   -44.1180     5.8060     5.6720     6.9130   -82.8130   117.9850  -999.2500  -999.2500  -999.2500  -999.2500  -999.2500
 1593.5000   -44.1180     5.8170     5.6790     6.8290   -82.9140   120.7620  -999.2500  -999.2500  -999.2500  -999.2500  -999.2500
 1594.0000   -44.1180     5.8560     5.6870     6.8930   -83.0100   119.7470  -999.2500  -999.2500  -999.2500  -999.2500  -999.2500
 1594.5000   -44.1180     5.8930     5.6940     6.9610   -83.1080   118.5270  -999.2500  -999.2500  -999.2500  -999.2500  -999.2500
 1595.0000   -44.1180     5.9300     5.7010     7.0280   -83.2060   117.8030  -999.2500  -999.2500  -999.2500  -999.2500  -999.2500
 1595.5000   -44.1180     5.9680     5.7310     7.0960   -83.3040   119.9170  -999.2500  -999.2500  -999.2500  -999.2500  -999.2500
 1596.0000   -44.1180     6.0060     5.7710     7.1630   -83.4010   122.0670  -999.2500  -999.2500  -999.2500  -999.2500  -999.2500
 1596.5000   -44.1180     6.0440     5.8110     7.2310   -83.5000   123.6450  -999.2500  -999.2500  -999.2500  -999.2500  -999.2500
 1597.0000   -44.1180     6.0810     5.8510     7.2980   -83.5970   120.2850  -999.2500  -999.2500  -999.2500  -999.2500  -999.2500
 1597.5000   -44.1180     6.1190     5.8900     7.3660   -83.6930   118.1440  -999.2500  -999.2500  -999.2500  -999.2500  -999.2500
 1598.0000   -44.1180     6.1560     5.9300     7.4740   -83.8000   116.7160  -999.2500  -999.2500  -999.2500  -999.2500  -999.2500
 1598.5000   -44.1180     6.1940     5.9700     7.4500   -83.8560   117.6890  -999.2500  -999.2500  -999.2500  -999.2500  -999.2500
 1599.0000   -44.1180     6.2320     6.0100     7.3880   -83.8410   120.8240  -999.2500  -999.2500  -999.2500  -999.2500  -999.2500
 1599.5000   -44.1180     6.2390     6.0230     7.3260   -83.7280   121.6470  -999.2500  -999.2500  -999.2500  -999.2500  -999.2500
 1600.0000   -44.1180     6.2390     6.0300     7.2640   -83.6320   121.0080  -999.2500  -999.2500  -999.2500  -999.2500  -999.2500
 1600.5000   -44.1180     6.2390     6.0360     7.2020   -83.5270   120.3660  -999.2500  -999.2500  -999.2500  -999.2500  -999.2500
 1601.0000   -44.1180     6.2390     6.0420     7.1400   -83.4260   120.8860  -999.2500  -999.2500  -999.2500  -999.2500  -999.2500
 1601.5000   -44.1180     6.2390     6.0490     7.0800   -83.3240   121.8460  -999.2500  -999.2500  -999.2500  -999.2500  -999.2500
 1602.0000   -44.1180     6.2390     6.0550     7.0800   -83.2220   123.4740  -999.2500  -999.2500  -999.2500  -999.2500  -999.2500
 1602.5000   -44.1180     6.2390     6.0620     7.1000   -83.1210   125.2210  -999.2500  -999.2500  -999.2500  -999.2500  -999.2500
 1603.0000   -44.1180     6.2390     6.0680     7.1240   -83.0190   124.7710  -999.2500  -999.2500  -999.2500  -999.2500  -999.2500
 1603.5000   -44.1180     6.2390     6.0750     7.1470   -82.9160   122.9790  -999.2500  -999.2500  -999.2500  -999.2500  -999.2500
 1604.0000   -44.1180     6.2390     6.0810     7.1700   -82.8180   121.3950  -999.2500  -999.2500  -999.2500  -999.2500  -999.2500
 1604.5000   -44.1180     6.2390     6.0880     7.1940   -82.7140   119.6980  -999.2500  -999.2500  -999.2500  -999.2500  -999.2500
 1605.0000   -44.1180     6.2390     6.0940     7.2150   -82.7720   117.8640  -999.2500  -999.2500  -999.2500  -999.2500  -999.2500
 1605.5000   -44.1180     6.2400     6.1010     7.2340   -82.9050   115.4650  -999.2500  -999.2500  -999.2500  -999.2500  -999.2500
 1606.0000   -44.1180     6.2400     6.1070     7.2520   -83.0330   116.5740  -999.2500  -999.2500  -999.2500  -999.2500  -999.2500
 1606.5000   -44.1180     6.2390     6.1140     7.2700   -83.1610   119.2680  -999.2500  -999.2500  -999.2500  -999.2500  -999.2500
 1607.0000   -44.1180     6.2390     6.1200     7.2880   -83.2900   121.7300  -999.2500  -999.2500  -999.2500  -999.2500  -999.2500
 1607.5000   -44.1180     6.2390     6.1260     7.3060   -83.4180   124.2630  -999.2500  -999.2500  -999.2500  -999.2500  -999.2500
 1608.0000   -44.1180     6.2390     6.0880     7.3230   -83.5480   122.7090  -999.2500  -999.2500  -999.2500  -999.2500  -999.2500
 1608.5000   -44.1180     6.1900     6.0370     7.3370   -83.6740   119.4370  -999.2500  -999.2500  -999.2500  -999.2500  -999.2500
 1609.0000   -44.1180     6.1400     5.9850     7.2410   -83.8030   118.1670  -999.2500  -999.2500  -999.2500  -999.2500  -999.2500
 1609.5000   -44.1180     6.0900     5.9330     7.1610   -83.8670   119.7140  -999.2500  -999.2500  -999.2500  -999.2500  -999.2500
 1610.0000   -45.0550     6.0400     5.8820     7.0820   -83.7190   120.1340  -999.2500  -999.2500  -999.2500  -999.2500  -999.2500
 1610.5000   -47.2120     5.9900     5.8300     7.0010   -83.3780   119.5780  -999.2500  -999.2500  -999.2500  -999.2500  -999.2500
 1611.0000   -49.3690     5.9400     5.7790     6.9200   -83.0520   119.9120  -999.2500  -999.2500  -999.2500  -999.2500  -999.2500
 1611.5000   -51.5260     5.8900     5.7010     6.8290   -82.7300   121.0260  -999.2500  -999.2500  -999.2500  -999.2500  -999.2500
 1612.0000   -53.6830     5.8400     5.7100     6.8510   -82.3930   122.1110  -999.2500  -999.2500  -999.2500  -999.2500  -999.2500
 1612.5000   -55.8400     5.8010     5.7300     6.8770   -82.2900   123.1620  -999.2500  -999.2500  -999.2500  -999.2500  -999.2500
 1613.0000   -57.9970     5.7900     5.7500     6.9020   -82.3060   124.0200  -999.2500  -999.2500  -999.2500  -999.2500  -999.2500
 1613.5000   -60.1530     5.7790     5.7700     6.9280   -82.4420   122.9790  -999.2500  -999.2500  -999.2500  -999.2500  -999.2500
 1614.0000   -62.3100     5.7680     5.7910     6.9530   -82.5640   122.1120  -999.2500  -999.2500  -999.2500  -999.2500  -999.2500
 1614.5000   -62.3040     5.7580     5.8110     6.9780   -82.6960   121.0010  -999.2500  -999.2500  -999.2500  -999.2500  -999.2500
 1615.0000   -58.1700     5.7470     5.8310     7.0040   -82.8230   120.1040  -999.2500  -999.2500  -999.2500  -999.2500  -999.2500
 1615.5000   -54.0360     5.7360     5.8500     7.0290   -82.9520   117.9490  -999.2500  -999.2500  -999.2500  -999.2500  -999.2500
 1616.0000   -49.9020     5.7250     5.8700     7.0550   -83.0800   116.3050  -999.2500  -999.2500  -999.2500  -999.2500  -999.2500
