~VERSION INFORMATION
 VERS.                2.0:   CWLS LOG ASCII STANDARD - VERSION 2.0
 WRAP.                 NO:   ONE LINE PER DEPTH STEP
~WELL INFORMATION
#MNEM.UNIT      DATA TYPE    INFORMATION
#----------   ------------   ------------------------------
 STRT.F           90.0000:   START DEPTH
 STOP.F         3342.0000:   STOP DEPTH
 STEP.F            0.5000:   STEP LENGTH
 NULL.          -999.2500:   NO VALUE
 COMP. LAWRENCE ALLISON AND ASSOCIATES:   COMPANY
 WELL. LAWERNCE "X" #83-3:   WELL
 FLD .             NPR #3:   FIELD
 LOC .       S3 T38N R78W:   LOCATION
 CNTY.            NATRONA:   COUNTY
 STAT.            WYOMING:   STATE
 CTRY. UNITED STATES OF AMERICA:   COUNTRY
 SRVC.      DRESSER ATLAS:   SERVICE COMPANY
 DATE.        23-APR-1985:   LOGDATE
 API .     49025110210000:   API NUMBER
~CURVE INFORMATION
#MNEM.UNIT       API CODE    CURVE DESCRIPTION
#----------   ------------   ------------------------------
 DEPT.F                  :   
 TENR.LBS    07 635 01 00:   TENSION FROM RESISTIVITY
 CALR.IN     07 280 01 00:   CALIPER FROM RESISTIVITY
 SPR .MV     07 010 01 00:   SPONTANEOUS POTENTIAL
 GRR .GAPI   07 310 01 00:   GAMMA RAY FROM RESISTIVITY
 RFOC.OHMM   07 220 04 00:   RESISTIVITY FOCUSED LOG RES.
 RILD.OHMM   07 120 46 00:   DEEP INDUCTION RESISTIVITY
 RILM.OHMM   07 120 44 00:   INDUCTION LOG MEDIUM RESISTIVITY
 NPHI.DEC    42 890 03 00:   NEUTRON POROSITY SANDSTONE
 RHOB.G/C3   45 350 01 00:   BULK DENSITY
 TEND.LBS    45 635 01 00:   TENSION FROM DENSITY LOG
 CORR.G/C3   45 356 01 00:   DENSITY CORRECTION
~PARAMETER INFORMATION
#MNEM.UNIT          VALUE    DESCRIPTION
#----------   ------------   ------------------------------
 EKB .F         5125.0000:   Kelly bushing
 EGL .F         5112.0000:   Ground level
 EDF .F            0.0000:   Drilling floor
 TD  .F         3330.0000:   Total depth
 DATE.        23-APR-1985:   Date logged
 CLNT.            A2DTECH:   Client Code
 SL  . 1745' FNL & 612' FEL:   Surface Location
 PD  .                 GL:   Permanent Datum
 DD  .F              3330:   Depth driller
 DL  .F              3328:   Depth logger
 BLI .F              3326:   Bottom log interval
 CS1 .IN            8.625:   Casing size
 CBD1.      8.625" @ 526':   Casing driller 1
 CBL1.F               528:   Casing logger 1
 BS1 .IN            7.875:   Bit size
 DFT .            KCL-GEL:   Type fluid in hole
 DFD .                9.1:   Density
 DFV .                 43:   Viscosity
 DFPH.                  8:   pH
 DFL .                  8:   Fluid loss
 MSS .           FLOWLINE:   Source of sample
 RMS .OHMM          0.445:   Rm
 MST .F                72:   Rm Meas. temp.
 RMF .OHMM           0.36:   Rmf
 MFST.F                70:   Rmf Meas. temp.
 RMC .OHMM           0.55:   Rmc
 MCST.F                72:   Rmc Meas. temp.
 MFSS.               MEAS:   Source Rmf.
 RMB .OHMM          0.286:   Rm. at BHT
 BHT .F               116:   BHT.
 TCS .HRS               3:   Time Circ. stopped
 MRT .F               116:   Maximum recorded temp.
 LUN .               6274:   Logging unit number
 LUL .               GLTE:   Logging unit location
 ENGI.             RAUTIO:   Recorded By
 WITN.             STRONG:   Witnessed by
 ORIG.           5" PRINT:   Origin of data
 UWI .     49025110210000:   Unique Well ID
 DICO. A2D TECHNOLOGIES, INC.:   Digitizing Company
 DAPD.                 13:   Feet Above Permanent Datum
 BSD1.               3330:   Depth drilled with bit1
 MCSS.               CALC:   Source Rmc.
 EPD .               5112:   Elevation Permanent Datum
 LMF .                 KB:   Log Measured From
 DMF .                 KB:   Drilling Measured From
~OTHER INFORMATION
~A   DEPT     TENR       CALR        SPR         GRR      RFOC       RILD       RILM       NPHI       RHOB       TEND       CORR   
# ...
 2377.5000   -85.4940    10.8190   -82.9680   124.2810     3.3680     2.9530     3.0890  -999.2500  -999.2500  -999.2500  -999.2500
 2378.0000   -75.5230    10.8200   -82.9100   122.0600     3.4660     3.0440     3.1580  -999.2500  -999.2500  -999.2500  -999.2500
 2378.5000   -75.5230    10.8210   -82.9190   119.0080     3.5990     2.9540     3.1690  -999.2500  -999.2500  -999.2500  -999.2500
 2379.0000   -65.5530    10.8220   -83.2390   116.9120     3.6580     2.9340     3.1800  -999.2500  -999.2500  -999.2500  -999.2500
 2379.5000   -55.4070    10.8230   -83.5600   120.2350     3.5410     2.9340     3.1920  -999.2500  -999.2500  -999.2500  -999.2500
 2380.0000   -54.9280    10.8230   -83.8800   124.3290     3.3990     2.9620     3.2030  -999.2500  -999.2500  -999.2500  -999.2500
 2380.5000   -54.4500    10.8240   -84.1970   125.6820     3.4930     2.9680     3.2150  -999.2500  -999.2500  -999.2500  -999.2500
 2381.0000   -53.9710    10.8250   -84.4650   122.2410     3.5910     2.9730     3.2260  -999.2500  -999.2500  -999.2500  -999.2500
 2381.5000   -53.4920    10.8260   -84.4160   118.8830     3.5670     2.9780     3.2370  -999.2500  -999.2500  -999.2500  -999.2500
 2382.0000   -53.0140    10.8270   -84.3650   116.8520     3.5460     2.9830     3.2460  -999.2500  -999.2500  -999.2500  -999.2500
 2382.5000   -52.5350    10.8280   -84.3160   115.1830     3.5260     2.9880     3.1710  -999.2500  -999.2500  -999.2500  -999.2500
 2383.0000   -52.0570    10.8290   -84.2670   113.8860     3.5590     2.9890     3.1150  -999.2500  -999.2500  -999.2500  -999.2500
 2383.5000   -51.5780    10.8300   -84.4390   114.0500     3.5020     2.9660     3.0720  -999.2500  -999.2500  -999.2500  -999.2500
 2384.0000   -51.1000    10.8310   -84.8640   119.5880     3.4140     2.9390     3.0820  -999.2500  -999.2500  -999.2500  -999.2500
 2384.5000   -50.6210    10.8280   -85.2870   128.2450     3.3250     2.9120     3.0890  -999.2500  -999.2500  -999.2500  -999.2500
 2385.0000   -50.1420    10.8200   -85.7110   126.2380     3.2760     2.9080     3.0970  -999.2500  -999.2500  -999.2500  -999.2500
 2385.5000   -49.6640    10.8120   -86.1340   121.4320     3.4080     2.9080     3.1380  -999.2500  -999.2500  -999.2500  -999.2500
 2386.0000   -49.1850    10.8030   -86.5590   116.4880     3.5260     2.9490     3.1710  -999.2500  -999.2500  -999.2500  -999.2500
 2386.5000   -48.7070    10.7950   -86.9800   118.2950     3.4320     3.0040     3.2040  -999.2500  -999.2500  -999.2500  -999.2500
 2387.0000   -48.2280    10.7870   -86.9700   121.1200     3.3070     3.0590     3.2360  -999.2500  -999.2500  -999.2500  -999.2500
 2387.5000   -47.7500    10.7780   -86.8820   118.4820     3.4800     3.1130     3.2940  -999.2500  -999.2500  -999.2500  -999.2500
 2388.0000   -47.2710    10.7700   -86.7930   114.3480     3.8290     3.1580     3.3680  -999.2500  -999.2500  -999.2500  -999.2500
 2388.5000   -46.7920    10.7620   -86.7050   111.3600     4.2760     3.0490     3.3680  -999.2500  -999.2500  -999.2500  -999.2500
 2389.0000   -46.3140    10.7540   -86.6170   114.6510     4.1370     2.9500     3.1980  -999.2500  -999.2500  -999.2500  -999.2500
 2389.5000   -45.8350    10.7450   -86.5280   119.1570     3.7660     2.8510     3.0690  -999.2500  -999.2500  -999.2500  -999.2500
 2390.0000   -55.5830    10.7370   -86.4270   118.9570     3.3040     2.7520     2.9400  -999.2500  -999.2500  -999.2500  -999.2500
 2390.5000   -55.5830    10.7290   -86.8520   119.2540     2.7270     2.6590     2.8380  -999.2500  -999.2500  -999.2500  -999.2500
 2391.0000   -55.5830    10.7210   -87.4080   123.8000     2.8280     2.5330     2.7580  -999.2500  -999.2500  -999.2500  -999.2500
 2391.5000   -55.5830    10.7130   -87.9670   127.9820     3.0430     2.4080     2.6780  -999.2500  -999.2500  -999.2500  -999.2500
 2392.0000   -55.5830    10.6890   -88.5280   128.1790     3.3370     2.3540     2.5800  -999.2500  -999.2500  -999.2500  -999.2500
 2392.5000   -52.9550    10.6630   -89.0960   129.3060     3.1600     2.3640     2.6120  -999.2500  -999.2500  -999.2500  -999.2500
 2393.0000   -48.3870    10.6380   -89.3190   130.6710     2.7270     2.4190     2.6650  -999.2500  -999.2500  -999.2500  -999.2500
 2393.5000   -43.8190    10.6120   -89.6240   130.0780     2.7930     2.4750     2.7190  -999.2500  -999.2500  -999.2500  -999.2500
 2394.0000   -39.2500    10.5870   -89.9220   124.5480     2.9340     2.5300     2.7700  -999.2500  -999.2500  -999.2500  -999.2500
 2394.5000   -35.6430    10.5610   -90.2220   117.4410     3.1290     2.5850     2.8630  -999.2500  -999.2500  -999.2500  -999.2500
 2395.0000   -34.2470    10.5360   -90.5200   117.4950     3.1000     2.6280     2.9550  -999.2500  -999.2500  -999.2500  -999.2500
 2395.5000   -30.8970    10.5100   -90.8170   119.4340     3.0650     2.8550     3.0440  -999.2500  -999.2500  -999.2500  -999.2500
 2396.0000   -27.5470    10.4840   -91.0080   121.1150     3.0440     3.0780     3.2930  -999.2500  -999.2500  -999.2500  -999.2500
 2396.5000   -25.8700    10.4590   -91.1010   117.6920     3.4330     3.2960     3.5360  -999.2500  -999.2500  -999.2500  -999.2500
 2397.0000   -26.6840    10.4330   -91.1930   113.1840     3.7490     3.5020     3.7780  -999.2500  -999.2500  -999.2500  -999.2500
 2397.5000   -27.4990    10.4080   -91.2770   108.4750     4.1020     3.7090     4.0200  -999.2500  -999.2500  -999.2500  -999.2500
 2398.0000   -28.3130    10.3820   -91.3790   106.7890     4.5710     3.9370     4.1980  -999.2500  -999.2500  -999.2500  -999.2500
 2398.5000   -29.1270    10.3570   -92.6740   108.3510     4.8180     3.9180     4.1440  -999.2500  -999.2500  -999.2500  -999.2500
 2399.0000   -29.9420    10.3310   -94.1180   109.6510     4.6720     3.8780     4.1220  -999.2500  -999.2500  -999.2500  -999.2500
 2399.5000   -30.7560    10.3160   -97.8380   110.0880     4.3810     3.8650     4.1220  -999.2500  -999.2500  -999.2500  -999.2500
 2400.0000   -31.5710    10.3100  -101.9980   112.5360     3.9280     3.8650     4.1480  -999.2500  -999.2500  -999.2500  -999.2500
 2400.5000   -32.3850    10.3040  -104.9970   117.1420     3.4620     3.8980     4.2000  -999.2500  -999.2500  -999.2500  -999.2500
 2401.0000   -33.1990    10.2990  -106.6090   116.9830     3.7310     3.9630     4.2520  -999.2500  -999.2500  -999.2500  -999.2500
 2401.5000   -34.0140    10.2930  -107.2710   110.7010     4.1060     4.0280     4.2900  -999.2500  -999.2500  -999.2500  -999.2500
 2402.0000   -34.8280    10.2880  -108.0510   106.1210     4.4800     4.0930     4.3160  -999.2500  -999.2500  -999.2500  -999.2500
 2402.5000   -35.6420    10.2820  -108.8460   104.0130     4.7310     4.1580     4.3420  -999.2500  -999.2500  -999.2500  -999.2500
 2403.0000   -36.4570    10.2790  -109.6440   103.3880     4.4360     4.2260     4.3690  -999.2500  -999.2500  -999.2500  -999.2500
 2403.5000   -37.2710    10.2790  -110.4400   102.7820     4.4900     4.3010     4.3950  -999.2500  -999.2500  -999.2500  -999.2500
 2404.0000   -38.0850    10.2790  -110.4140   102.7330     4.5810     4.3150     4.4210  -999.2500  -999.2500  -999.2500  -999.2500
 2404.5000   -38.9000    10.2790  -109.7370   104.2240     4.6870     4.2280     4.4360  -999.2500  -999.2500  -999.2500  -999.2500
 2405.0000   -39.7140    10.2790  -109.3980   107.2390     4.6710     4.1410     4.3310  -999.2500  -999.2500  -999.2500  -999.2500
 2405.5000   -40.5280    10.2790  -109.9080   110.2590     4.6510     4.0540     4.2450  -999.2500  -999.2500  -999.2500  -999.2500
 2406.0000   -41.3430    10.2790  -110.6720   113.5900     4.4610     3.9730     4.1980  -999.2500  -999.2500  -999.2500  -999.2500
 2406.5000   -42.1570    10.2790  -111.4270   116.9800     4.0630     3.9730     4.1220  -999.2500  -999.2500  -999.2500  -999.2500
 2407.0000   -42.9710    10.2790  -111.8090   120.4800     3.6250     3.9730     4.1220  -999.2500  -999.2500  -999.2500  -999.2500
 2407.5000   -43.7860    10.2790  -110.6280   120.8830     3.7690     4.0820     4.1600  -999.2500  -999.2500  -999.2500  -999.2500
