~VERSION INFORMATION
 VERS.                2.0:   CWLS LOG ASCII STANDARD - VERSION 2.0
 WRAP.                 NO:   ONE LINE PER DEPTH STEP
~WELL INFORMATION
#MNEM.UNIT      DATA TYPE    INFORMATION
#----------   ------------   ------------------------------
 STRT.F            5.5000:   START DEPTH
 STOP.F         3261.0000:   STOP DEPTH
 STEP.F            0.5000:   STEP LENGTH
 NULL.          -999.2500:   NO VALUE
 COMP. LAWRENCE ALLISON & ASSOCIATES:   COMPANY
 WELL. LAWRENCE "X" #12-14:   WELL
 FLD .              NPR 3:   FIELD
 LOC .      S14 T38N R78W:   LOCATION
 CNTY.            NATRONA:   COUNTY
 STAT.            WYOMING:   STATE
 CTRY. UNITED STATES OF AMERICA:   COUNTRY
 SRVC.      DRESSER ATLAS:   SERVICE COMPANY
 DATE.        18-AUG-1986:   LOGDATE
 API .     49025111080000:   API NUMBER
~CURVE INFORMATION
#MNEM.UNIT       API CODE    CURVE DESCRIPTION
#----------   ------------   ------------------------------
 DEPT.F                  :   
 RILM.OHMM   07 120 44 00:   INDUCTION LOG MEDIUM RESISTIVITY
 GRR .GAPI   07 310 01 00:   GAMMA RAY FROM RESISTIVITY
 SPR .MV     07 010 01 00:   SPONTANEOUS POTENTIAL
 NPHI.DEC    42 890 03 00:   NEUTRON POROSITY SANDSTONE
 CALD.IN     45 280 60 00:   CALIPER FROM DENSITY LOG
 TEND.LBS    45 635 01 00:   TENSION FORM DENSITY LOG
 DRHO.G/C3   45 356 01 00:   DENSITY CORRECTION
 DEN .G/C3   45 350 01 00:   BULK DENSITY
 RILD.OHMM   07 120 46 00:   DEEP INDUCTION RESISTIVITY
 RFOC.OHMM   07 220 04 00:   RESISTIVITY FOCUSED LOG RES.
~PARAMETER INFORMATION
#MNEM.UNIT          VALUE    DESCRIPTION
#----------   ------------   ------------------------------
 EKB .F         5245.0000:   Kelly bushing
 EGL .F         5234.0000:   Ground level
 TD  .F         3250.0000:   Total depth
 CLNT.            A2DTECH:   Client Code
 SL  . 901' FNL & 485' FWL:   Surface Location
 PD  .                 GL:   Permanent Datum
 EPD .F              5234:   Elevation Permanent Datum
 LMF .                 KB:   Log Measured From
 DMF .                 KB:   Drilling Measured From
 DAPD.F                11:   Feet Above Permanent Datum
 DATE.        18-AUG-1986:   Date Logged [DD-MMM-YYYY]
 DD  .F              3250:   Depth driller
 DL  .F              3246:   Depth logger
 BLI .F              3244:   Bottom log interval
 TLI .F                 0:   Top log interval
 CS1 .IN            8.625:   Casing size
 CBD1.      8.625" @ 733':   Casing driller 1
 CBL1.F               735:   Casing logger 1
 BS1 .IN            7.875:   Bit size
 BSD1.F              3250:   Depth drilled with bit1
 DFT .            KCL-GEL:   Type fluid in hole
 DFD .                8.8:   Density
 DFV .                 36:   Viscosity
 DFPH.                8.5:   pH
 DFL .               12.8:   Fluid loss
 MSS .           FLOWLINE:   Source of sample
 RMS .OHMM          0.292:   Rm
 MST .F                73:   Rm Meas. temp.
 RMF .OHMM          0.224:   Rmf
 MFST.F                73:   Rmf Meas. temp.
 MFSS.               MEAS:   Source Rmf.
 RMC .OHMM          0.365:   Rmc
 MCST.F                73:   Rmc Meas. temp.
 MCSS.               CALC:   Source Rmc.
 RMB .OHMM          0.154:   Rm. at BHT
 BHT .F               138:   BHT.
 TCS .HRS               5:   Time Circ. stopped
 MRT .F               138:   Maximum recorded temp.
 LUN .            HL-6214:   Logging unit number
 LUL .           GILLETTE:   Logging unit location
 ENGI.             RAUTIO:   Recorded By
 WITN.             STRONG:   Witnessed by
 ORIG.        2" 5" PRINT:   Origin of data
 UWI .     49025111080000:   Unique Well ID
 DICO. A2D TECHNOLOGIES, INC.:   Digitizing Company
~OTHER INFORMATION
~A    DEPT    RILM         GRR       SPR       NPHI       CALD       TEND       DRHO        DEN       RILD       RFOC   
# ...
 2551.5000     4.3108   126.2713   -42.9559     0.2725     9.7117   -62.0301    -0.0045     2.5350     3.9635     4.6034
 2552.0000     4.3718   124.4845   -43.1029     0.2936     9.7115   -62.0301     0.0032     2.5297     4.0191     4.6344
 2552.5000     4.4029   121.7941   -43.2474     0.3045     9.7114   -69.5489     0.0167     2.5236     4.1326     4.7004
 2553.0000     4.4343   120.9059   -43.3944     0.3069     9.6809   -69.5489     0.0227     2.5213     4.3390     4.8726
 2553.5000     4.4349   124.5459   -43.2377     0.3030     9.6807   -54.5113     0.0242     2.5190     4.4615     5.0771
 2554.0000     4.4375   126.6748   -43.2329     0.2942     9.6503   -54.5113     0.0211     2.5145     4.4927     5.2216
 2554.5000     4.6903   126.0600   -43.2279     0.2897     9.6501   -39.4737     0.0149     2.5069     4.6843     5.4456
 2555.0000     5.0291   125.5109   -43.2220     0.2915     9.6500   -31.9549     0.0044     2.5038     4.8841     5.7189
 2555.5000     5.2444   125.8376   -43.2171     0.3003     9.6347   -31.9549     0.0029     2.5068     5.0959     5.8817
 2556.0000     5.4309   126.4605   -43.2123     0.2985     9.6345   -31.9549     0.0059     2.5098     5.2362     6.0492
 2556.5000     5.5077   127.6858   -43.2074     0.2950     9.6344   -39.4737     0.0134     2.5158     5.2728     6.0504
 2557.0000     5.5085   129.5135   -43.3532     0.2854     9.6342   -39.4737     0.0179     2.5160     5.3097     6.0519
 2557.5000     5.5092   128.9315   -43.3483     0.2755     9.6492   -39.4737    -0.0033     2.5110     5.4217     6.0532
 2558.0000     5.5100   127.1447   -43.3434     0.2706     9.6339   -39.4737    -0.0064     2.5037     5.4596     5.9292
 2558.5000     5.5109   127.7972   -43.3374     0.2700     9.6489   -39.4737    -0.0049     2.5036     5.5361     5.8077
 2559.0000     5.5501   129.2992   -43.3326     0.2809     9.6488   -39.4737     0.0011     2.5051     5.5361     5.8904
 2559.5000     5.5897   129.3196   -43.3277     0.2912     9.6428   -54.5113     0.0116     2.5059     5.5748     6.1860
 2560.0000     5.6688   128.4314   -43.3229     0.3030     9.6424   -69.5489     0.0191     2.5051     5.6138     6.4066
 2560.5000     5.7092   127.5533   -43.4699     0.3078     9.6419   -60.4392    -0.0042     2.5035     5.6138     6.4079
 2561.0000     5.7099   127.2674   -43.4638     0.2833     9.6415   -60.3666    -0.0248     2.5005     5.6925     6.2769
 2561.5000     5.7935   128.7990   -43.6096     0.2621     9.6411   -60.2940    -0.0278     2.4959     5.7723     6.1910
 2562.0000     5.9553   133.6387   -43.6035     0.2579     9.6405   -67.7584    -0.0279     2.4912     5.8126     6.1066
 2562.5000     6.0818   137.6002   -43.5986     0.2751     9.6401   -67.6677    -0.0128     2.4860     5.9353     6.0654
 2563.0000     6.2544   138.8053   -43.5938     0.2863     9.6396   -59.6329     0.0113     2.4875     6.0185     6.1521
 2563.5000     6.3873   137.9221   -43.5889     0.2902     9.6392   -52.4668     0.0096     2.4943     6.1455     6.3715
 2564.0000     6.4327   133.7257   -43.5841     0.2816     9.6388   -52.4060    -0.0100     2.5018     6.2752     6.7979
 2564.5000     6.4786   128.6257   -43.4286     0.2660     9.6383   -52.3216    -0.0221     2.5124     6.3191     7.5872
 2565.0000     6.3898   124.4292   -43.1100     0.2512     9.6379   -52.2490    -0.0251     2.5139     6.2752     7.7490
 2565.5000     6.1236   123.8422   -42.8153     0.2452     9.6374   -52.1764    -0.0025     2.5101     6.2752     7.5902
 2566.0000     5.7982   125.3738   -42.6599     0.2458     9.6369   -52.1038     0.0140     2.5078     6.1455     7.1802
 2566.5000     5.7186   131.1811   -42.5044     0.2603     9.6365   -52.0301     0.0094     2.5038     5.8941     6.6057
 2567.0000     5.7196   134.7571   -42.6514     0.2703     9.6361   -51.9405    -0.0097     2.4911     5.6925     6.0349
 2567.5000     5.7603   137.1821   -42.6453     0.2842     9.6356   -51.8679    -0.0460     2.4858     5.7723     5.7890
 2568.0000     5.8419   138.4125   -42.6405     0.2869     9.6351   -51.7953    -0.0279     2.4948     5.7723     5.7100
 2568.5000     5.9659   137.2281   -42.7862     0.2899     9.6347   -51.7227    -0.0098     2.5031     5.7723     5.9969
 2569.0000     6.0504   133.0317   -42.9320     0.2875     9.6342   -51.6501     0.0023     2.5106     5.7723     6.2979
 2569.5000     6.0937   128.5341   -42.9259     0.2811     9.6337   -51.5775    -0.0083     2.5136     5.7723     6.5681
 2570.0000     6.0945   126.1446   -42.9211     0.2763     9.6637   -21.4286    -0.0008     2.5151     5.7723     6.7551
 2570.5000     6.0110   127.6717   -42.9162     0.2766     9.6631   -21.3390     0.0158     2.5205     5.5748     6.9474
 2571.0000     5.8061   128.2994   -43.0632     0.2766     9.6780   -21.2664     0.0263     2.5281     5.3746     7.0463
 2571.5000     5.4873   130.1271   -43.2078     0.2757     9.6774   -36.2496     0.0217     2.5288     5.1280     6.9988
 2572.0000     5.1239   133.7620   -43.2028     0.2748     9.6770   -51.2146     0.0172     2.5235     4.8841     6.7139
 2572.5000     5.0535   140.7101   -43.0462     0.2766     9.6917   -66.1796     0.0081     2.5099     4.8502     6.3072
 2573.0000     5.0544   149.4655   -42.8908     0.2824     9.6911   -51.0513    -0.0161     2.4970     4.9526     5.4879
 2573.5000     5.1978   156.7149   -42.7353     0.2905     9.6907   -50.9775    -0.0358     2.4940     5.1280     4.9100
 2574.0000     5.3453   161.9039   -42.5799     0.2947     9.6903   -50.8880    -0.0035     2.4993     5.2728     4.8092
 2574.5000     5.4589   157.5130   -42.5750     0.2814     9.6898   -50.8271     0.0412     2.5086     5.4596     4.9809
 2575.0000     5.5748   144.1756   -42.5702     0.2542     9.6894   -50.7519     0.0170     2.5189     5.4724     5.7669
 2575.5000     6.1933   123.0669   -42.5564     0.2427     9.6738   -50.6702     0.0003     2.5249     5.9353     7.5591
 2576.0000     6.7767   117.0632   -42.5605     0.2379     9.6733   -50.5976     0.0079     2.5332     6.3191     7.8935
 2576.5000     6.8726   115.8738   -42.5544     0.2417     9.6577   -50.5251     0.0425     2.5423     6.4975     7.3642
 2577.0000     6.9216   118.3090   -42.7002     0.2490     9.6573   -50.4511     0.0591     2.5408     6.6810     7.0641
 2577.5000     6.9225   121.0403   -42.6953     0.2560     9.6568   -50.3617     0.0466     2.5332     6.8220     6.8714
 2578.0000     6.9234   119.5547   -42.6905     0.2642     9.6564   -57.8080     0.0213     2.5256     6.8220     7.0179
 2578.5000     6.8763   118.3703   -42.8363     0.2690     9.6559   -65.2723     0.0092     2.5227     6.8220     7.3190
 2579.0000     6.4987   118.3916   -42.8313     0.2669     9.6554   -65.1816     0.0213     2.5196     6.6346     7.3717
 2579.5000     6.3269   118.4164   -42.8253     0.2625     9.6549   -65.1090     0.0318     2.5189     6.4077     7.3735
 2580.0000     6.3280   119.3404   -42.8205     0.2602     9.6545   -49.9988     0.0348     2.5166     6.3191     7.0240
 2580.5000     6.2847   121.4693   -42.6650     0.2620     9.6540   -49.9248     0.0438     2.5219     6.2752     6.2843
 2581.0000     6.2858   124.5018   -42.5096     0.2659     9.6536   -49.8355     0.0468     2.5264     6.2317     6.0704
 2581.5000     6.5548   122.4138   -42.6565     0.2666     9.6532   -49.7629     0.0377     2.5218     6.2752     6.1568
 2582.0000     6.7879   120.6270   -42.6505     0.2684     9.6527   -57.2272     0.0135     2.5091     6.4524     6.7890
 2582.5000     6.8362   119.7439   -42.6456     0.2786     9.6522   -64.6734    -0.0106     2.5008     6.8220     6.8378
 2583.0000     6.7897   123.4633   -42.6396     0.2898     9.6517   -72.1196    -0.0212     2.4985     6.8220     6.6977
 2583.5000     6.7909   127.0188   -42.6347     0.2953     9.6513   -79.5489     0.0044     2.5106     6.7746     6.4701
 2584.0000     6.6976   126.1357   -42.6299     0.2910     9.6509   -79.4737     0.0255     2.5196     6.7276     6.2932
 2584.5000     6.6988   123.4453   -42.7768     0.2810     9.6504   -64.3468     0.0221     2.5227     6.4975     6.7490
