~VERSION INFORMATION
 VERS.                2.0:   CWLS LOG ASCII STANDARD - VERSION 2.0
 WRAP.                 NO:   ONE LINE PER DEPTH STEP
~WELL INFORMATION
#MNEM.UNIT      DATA TYPE    INFORMATION
#----------   ------------   ------------------------------
 STRT.F            4.0000:   START DEPTH
 STOP.F         3266.0000:   STOP DEPTH
 STEP.F            0.5000:   STEP LENGTH
 NULL.          -999.2500:   NO VALUE
 COMP. LAWRENCE ALLISON & ASSOSCIATES:   COMPANY
 WELL. LAWRENCE "X" #27-11:   WELL
 FLD .          N.P.R. #3:   FIELD
 LOC .      S11 T38N R78W:   LOCATION
 CNTY.            NATRONA:   COUNTY
 STAT.            WYOMING:   STATE
 CTRY. UNITED STATES OF AMERICA:   COUNTRY
 SRVC.      DRESSER ATLAS:   SERVICE COMPANY
 DATE.        22-AUG-1986:   LOGDATE
 API .     49025111070000:   API NUMBER
~CURVE INFORMATION
#MNEM.UNIT       API CODE    CURVE DESCRIPTION
#----------   ------------   ------------------------------
 DEPT.F                  :   
 SPR .MV     07 010 01 00:   SPONTANEOUS POTENTIAL
 TENR.LBS    06 635 01 00:   TENSION FROM RESISTIVITY
 GRR .GAPI   07 310 01 00:   GAMMA RAY FROM RESISTIVITY
 RILD.OHMM   07 120 46 00:   DEEP INDUCTION RESISTIVITY
 RILM.OHMM   07 120 44 00:   INDUCTION LOG MEDIUM RESISTIVITY
 RFOC.OHMM   07 220 04 00:   RESISTIVITY FOCUSED LOG RES.
 NPHI.DEC    42 890 03 00:   NEUTRON POROSITY SANDSTONE
 CALD.IN     45 280 60 00:   CALIPER FROM DENSITY LOG
 RHOB.G/C3   45 350 01 00:   BULK DENSITY
 CORR.G/C3   45 356 01 00:   DENSITY CORRECTION
 TEND.LBS    45 635 01 00:   TENSION FORM DENSITY LOG
~PARAMETER INFORMATION
#MNEM.UNIT          VALUE    DESCRIPTION
#----------   ------------   ------------------------------
 EKB .F         5206.0000:   Kelly bushing
 EGL .F         5194.0000:   Ground level
 EDF .F         5205.0000:   Drilling floor
 EPD .F         5194.0000:   Permanent datum
 TD  .F         3250.0000:   Total depth
 CLNT.            A2DTECH:   Client Code
 SL  . 1197' FSL & 1088' FWL:   Surface Location
 PD  .                 GL:   Permanent Datum
 DAPD.F                12:   Feet Above Permanent Datum
 DATE.        22-AUG-1986:   Date Logged [DD-MMM-YYYY]
 DD  .F              3250:   Depth driller
 DL  .F              3246:   Depth logger
 BLI .F              3243:   Bottom log interval
 TLI .F               683:   Top log interval
 CS1 .IN            8.625:   Casing size
 CBD1.      8.625" @ 672':   Casing driller 1
 CBL1.F               673:   Casing logger 1
 BS1 .IN            7.875:   Bit size
 BSD1.F              3250:   Depth drilled with bit1
 DFT .            KCL-GEL:   Type fluid in hole
 DFD .                8.9:   Density
 DFV .                 35:   Viscosity
 MSS .               TANK:   Source of sample
 RMS .OHMM           0.31:   Rm
 MST .F                70:   Rm Meas. temp.
 RMF .OHMM           0.29:   Rmf
 MFST.F                67:   Rmf Meas. temp.
 MFSS.               CALC:   Source Rmf.
 RMC .OHMM           0.46:   Rmc
 MCST.F                70:   Rmc Meas. temp.
 MCSS.               CALC:   Source Rmc.
 RMB .OHMM           0.16:   Rm. at BHT
 BHT .F               136:   BHT.
 TCS .HRS               4:   Time Circ. stopped
 MRT .F               136:   Maximum recorded temp.
 LUN .            HL-6426:   Logging unit number
 LUL .          RK. SPGS.:   Logging unit location
 ENGI.               RALL:   Recorded By
 WITN.             STRONG:   Witnessed by
 ORIG.           5" PRINT:   Origin of data
 UWI .     49025111070000:   Unique Well ID
 DICO. A2D TECHNOLOGIES, INC.:   Digitizing Company
~OTHER INFORMATION
~A    DEPT     SPR       TENR         GRR      RILD       RILM       RFOC       NPHI       CALD       RHOB       CORR       TEND   
# ...
 2200.0000   -62.6016   -54.2733   142.9453     9.7372    10.2976    11.5411  -999.2500  -999.2500  -999.2500  -999.2500  -999.2500
 2200.5000   -62.5975   -58.1910   145.6855     9.4573    10.2291    11.4644  -999.2500  -999.2500  -999.2500  -999.2500  -999.2500
 2201.0000   -63.0309   -62.1087   143.2664     9.2050    10.0912    11.7128  -999.2500  -999.2500  -999.2500  -999.2500  -999.2500
 2201.5000   -63.0015   -66.0265   136.9019     9.0128    10.0253    11.0009  -999.2500  -999.2500  -999.2500  -999.2500  -999.2500
 2202.0000   -63.1752   -69.9442   132.0548     8.9489    10.0312     9.8380  -999.2500  -999.2500  -999.2500  -999.2500  -999.2500
 2202.5000   -63.4073   -73.8619   132.2056     9.0104    10.2498    10.1209  -999.2500  -999.2500  -999.2500  -999.2500  -999.2500
 2203.0000   -63.6400   -77.7797   139.9653     9.2001    10.1127    11.0121  -999.2500  -999.2500  -999.2500  -999.2500  -999.2500
 2203.5000   -63.8666   -81.6974   143.9195     9.4693    10.0455    11.4085  -999.2500  -999.2500  -999.2500  -999.2500  -999.2500
 2204.0000   -63.8102   -77.8254   146.9632     9.7264    10.2655    11.3326  -999.2500  -999.2500  -999.2500  -999.2500  -999.2500
 2204.5000   -63.2735   -77.8254   150.0068     9.9311    10.6376    11.2573  -999.2500  -999.2500  -999.2500  -999.2500  -999.2500
 2205.0000   -62.7436   -77.8254   154.5680    10.0692    10.8693    11.9111  -999.2500  -999.2500  -999.2500  -999.2500  -999.2500
 2205.5000   -62.2139   -77.8254   156.4246    10.2096    10.9511    13.5158  -999.2500  -999.2500  -999.2500  -999.2500  -999.2500
 2206.0000   -61.6884   -77.8254   154.5698    10.2798    10.8805    14.6033  -999.2500  -999.2500  -999.2500  -999.2500  -999.2500
 2206.5000   -61.3513   -77.8254   154.2909    10.2784    10.8857    14.4062  -999.2500  -999.2500  -999.2500  -999.2500  -999.2500
 2207.0000   -60.7876   -77.8254   152.7845    10.1950    10.7389    14.0129  -999.2500  -999.2500  -999.2500  -999.2500  -999.2500
 2207.5000   -60.5502   -77.8254   148.2409     9.5817    10.2284    13.6304  -999.2500  -999.2500  -999.2500  -999.2500  -999.2500
 2208.0000   -60.1769   -77.8254   139.7520     9.1614     9.4698    12.7127  -999.2500  -999.2500  -999.2500  -999.2500  -999.2500
 2208.5000   -59.8170   -77.8254   130.3526     8.9237     8.9488    11.6102  -999.2500  -999.2500  -999.2500  -999.2500  -999.2500
 2209.0000   -60.0816   -77.8254   128.8437     8.6861     8.7761    10.4558  -999.2500  -999.2500  -999.2500  -999.2500  -999.2500
 2209.5000   -61.1466   -77.8254   133.2221     8.4484     8.7813     9.0810  -999.2500  -999.2500  -999.2500  -999.2500  -999.2500
 2210.0000   -61.6498   -77.8254   150.7150     8.3035     8.8474     9.4865  -999.2500  -999.2500  -999.2500  -999.2500  -999.2500
 2210.5000   -62.1348   -77.8254   154.6691     8.4181     8.8516    10.9933  -999.2500  -999.2500  -999.2500  -999.2500  -999.2500
 2211.0000   -62.6241   -77.8254   151.6430     8.5337     8.9183    12.1300  -999.2500  -999.2500  -999.2500  -999.2500  -999.2500
 2211.5000   -63.1159   -77.8254   141.6366     8.7222     8.9854    12.4789  -999.2500  -999.2500  -999.2500  -999.2500  -999.2500
 2212.0000   -63.5971   -77.8254   138.3070     8.9561     9.1180    12.3094  -999.2500  -999.2500  -999.2500  -999.2500  -999.2500
 2212.5000   -63.7504   -77.8254   138.0121     9.1440     9.2514    11.8069  -999.2500  -999.2500  -999.2500  -999.2500  -999.2500
 2213.0000   -63.8891   -77.8254   137.3962     9.2056     9.3867    11.4845  -999.2500  -999.2500  -999.2500  -999.2500  -999.2500
 2213.5000   -64.0294   -77.8254   133.4797     9.2672     9.5241    11.4082  -999.2500  -999.2500  -999.2500  -999.2500  -999.2500
 2214.0000   -64.1708   -77.8254   129.2397     9.1360     9.5958    11.5741  -999.2500  -999.2500  -999.2500  -999.2500  -999.2500
 2214.5000   -64.3105   -77.8254   125.3031     9.0593     9.6680    11.7413  -999.2500  -999.2500  -999.2500  -999.2500  -999.2500
 2215.0000   -64.4142   -77.8254   123.1875     8.9411     9.7408    11.4208  -999.2500  -999.2500  -999.2500  -999.2500  -999.2500
 2215.5000   -64.1566   -77.8254   122.5871     8.8764     9.7465    11.1871  -999.2500  -999.2500  -999.2500  -999.2500  -999.2500
 2216.0000   -63.6425   -77.8254   125.6329     8.9369     9.6818    11.0352  -999.2500  -999.2500  -999.2500  -999.2500  -999.2500
 2216.5000   -63.1039   -77.8254   125.9452     8.9966     9.6875    11.1166  -999.2500  -999.2500  -999.2500  -999.2500  -999.2500
 2217.0000   -62.5620   -77.8254   118.9759     8.9941     9.6921    11.5176  -999.2500  -999.2500  -999.2500  -999.2500  -999.2500
 2217.5000   -62.0195   -77.8254   113.2184     9.0548     9.8339    11.8488  -999.2500  -999.2500  -999.2500  -999.2500  -999.2500
 2218.0000   -61.4772   -77.8254   116.2621     9.0733     9.8386    12.1896  -999.2500  -999.2500  -999.2500  -999.2500  -999.2500
 2218.5000   -60.9403   -77.8254   124.1617     9.1131     9.8433    12.3657  -999.2500  -999.2500  -999.2500  -999.2500  -999.2500
 2219.0000   -60.5444   -77.8254   130.5437     9.1742     9.9185    12.2836  -999.2500  -999.2500  -999.2500  -999.2500  -999.2500
 2219.5000   -60.4471   -77.8254   130.5757     9.2362     9.9232    12.2020  -999.2500  -999.2500  -999.2500  -999.2500  -999.2500
 2220.0000   -60.3439   -77.8254   130.5613     9.1374     9.9279    12.1209  -999.2500  -999.2500  -999.2500  -999.2500  -999.2500
 2220.5000   -60.2456   -77.8254   135.1246     9.1029     9.8619    11.7910  -999.2500  -999.2500  -999.2500  -999.2500  -999.2500
 2221.0000   -60.3369   -77.8254   136.9544     9.0999     9.8678    11.4682  -999.2500  -999.2500  -999.2500  -999.2500  -999.2500
 2221.5000   -60.7389   -77.8254   133.6248     9.0187     9.8725    11.2335  -999.2500  -999.2500  -999.2500  -999.2500  -999.2500
 2222.0000   -61.1363   -77.8254   129.3847     8.9064     9.8773    11.4769  -999.2500  -999.2500  -999.2500  -999.2500  -999.2500
 2222.5000   -61.5347   -77.8254   129.0878     8.8420     9.8830    11.5615  -999.2500  -999.2500  -999.2500  -999.2500  -999.2500
 2223.0000   -61.9328   -77.8254   130.9197     8.7780     9.8877    11.5654  -999.2500  -999.2500  -999.2500  -999.2500  -999.2500
 2223.5000   -62.3311   -77.8254   133.0960     8.6533     9.8231    11.5694  -999.2500  -999.2500  -999.2500  -999.2500  -999.2500
 2224.0000   -62.7295   -77.8254   135.1884     8.5911     9.7578    11.4924  -999.2500  -999.2500  -999.2500  -999.2500  -999.2500
 2224.5000   -63.1264   -77.8254   134.2867     8.4692     9.4931    11.5144  -999.2500  -999.2500  -999.2500  -999.2500  -999.2500
 2225.0000   -63.4347   -77.8254   132.1711     8.3494     9.3651    11.6634  -999.2500  -999.2500  -999.2500  -999.2500  -999.2500
 2225.5000   -63.5202   -77.8254   130.9637     8.3472     9.3039    11.1872  -999.2500  -999.2500  -999.2500  -999.2500  -999.2500
 2226.0000   -63.6017   -77.8254   131.2782     8.2291     9.2432    10.5073  -999.2500  -999.2500  -999.2500  -999.2500  -999.2500
 2226.5000   -63.2966   -77.8254   130.0730     8.1691     9.1828    10.0783  -999.2500  -999.2500  -999.2500  -999.2500  -999.2500
 2227.0000   -62.9550   -77.8254   125.0492     8.1100     9.1883    10.4044  -999.2500  -999.2500  -999.2500  -999.2500  -999.2500
 2227.5000   -62.6144   -77.8254   111.8834     8.1079     9.1926    10.8937  -999.2500  -999.2500  -999.2500  -999.2500  -999.2500
 2228.0000   -62.2741   -77.8254   105.8223     8.1057     9.1970    11.0512  -999.2500  -999.2500  -999.2500  -999.2500  -999.2500
 2228.5000   -61.9354   -77.8254   108.7679     8.1035     9.2014    10.9777  -999.2500  -999.2500  -999.2500  -999.2500  -999.2500
 2229.0000   -61.4694   -77.8254   116.4628     8.1013     9.2068    10.7531  -999.2500  -999.2500  -999.2500  -999.2500  -999.2500
 2229.5000   -60.9188   -77.8254   124.9693     8.1085     9.1456    10.4596  -999.2500  -999.2500  -999.2500  -999.2500  -999.2500
 2230.0000   -60.3945   -77.8254   137.4212     8.2104     9.1510    10.3152  -999.2500  -999.2500  -999.2500  -999.2500  -999.2500
