~VERSION INFORMATION
 VERS.                2.0:   CWLS LOG ASCII STANDARD - VERSION 2.0
 WRAP.                 NO:   ONE LINE PER DEPTH STEP
~WELL INFORMATION
#MNEM.UNIT      DATA TYPE    INFORMATION
#----------   ------------   ------------------------------
 STRT.F           76.0000:   START DEPTH
 STOP.F         4972.0000:   STOP DEPTH
 STEP.F            0.5000:   STEP LENGTH
 NULL.          -999.2500:   NO VALUE
 COMP.    PENIX & SCISSON:   COMPANY
 WELL. FENIX NPR 3 "LX" #85-9:   WELL
 FLD .                NPR:   FIELD
 LOC .       S9 T38N R78W:   LOCATION
 CNTY.            NATRONA:   COUNTY
 STAT.            WYOMING:   STATE
 CTRY. UNITED STATES OF AMERICA:   COUNTRY
 SRVC.       SCHLUMBERGER:   SERVICE COMPANY
 DATE.        10-OCT-1978:   LOGDATE
 API .     49025107250000:   API NUMBER
~CURVE INFORMATION
#MNEM.UNIT       API CODE    CURVE DESCRIPTION
#----------   ------------   ------------------------------
 DEPT.F                  :   
 TENR.LBS    07 635 01 00:   TENSION FROM RESISTIVITY
 SPR .MV     07 010 01 00:   SPONTANEOUS POTENTIAL
 SFL .OHMM   07 220 01 00:   SHALLOW FOCUSED LOG RESISTIVITY
 ILD .OHMM   07 120 46 00:   DEEP INDUCTION RESISTIVITY
 ILM .OHMM   07 120 44 00:   INDUCTION LOG MEDIUM RESISTIVITY
 CALD.IN     45 280 60 00:   CALIPER FROM DENSITY LOG
 GRD .GAPI   45 310 01 00:   GAMMA RAY FROM DENSITY LOG
 CORR.G/C3   45 356 01 00:   DENSITY CORRECTION
 TEND.LBS    45 635 01 00:   TENSION FROM DENSITY LOG
 RHOB.G/C3   45 350 01 00:   BULK DENSITY
 NPHI.DEC    42 890 03 00:   NEUTRON POROSITY SANDSTONE
~PARAMETER INFORMATION
#MNEM.UNIT          VALUE    DESCRIPTION
#----------   ------------   ------------------------------
 EKB .F         5288.0000:   Kelly bushing
 EGL .F         5278.0000:   Ground level
 EDF .F            0.0000:   Drilling floor
 TD  .F         4950.0000:   Total depth
 DATE.        10-OCT-1978:   Date logged
 CLNT.            A2DTECH:   Client Code
 SL  . 2310' FSL & 230' FEL:   Surface Location
 PD  .                 GL:   Permanent Datum
 EPD .F              5278:   Elevation Permanent Datum
 LMF .                 KB:   Log Measured From
 DMF .                 KB:   Drilling Measured From
 DAPD.F                10:   Feet Above Permanent Datum
 DD  .F              4950:   Depth driller
 DL  .F              4950:   Depth logger
 BLI .F              4947:   Bottom log interval
 TLI .F               499:   Top log interval
 CS1 .IN            8.625:   Casing size
 CBD1.      8.625" @ 489':   Casing driller 1
 CBL1.F               499:   Casing logger 1
 BS1 .IN            7.875:   Bit size
 BSD1.F              4950:   Depth drilled with bit1
 DFT .            GEL/MUD:   Type fluid in hole
 DFD .                9.3:   Density
 DFV .                175:   Viscosity
 DFPH.                 12:   pH
 DFL .                  4:   Fluid loss
 MSS .               TANK:   Source of sample
 RMS .OHMM           .600:   Rm
 MST .F                71:   Rm Meas. temp.
 RMF .OHMM           .804:   Rmf
 MFST.F                71:   Rmf Meas. temp.
 MFSS.               MEAS:   Source Rmf.
 RMB .OHMM           .308:   Rm. at BHT
 BHT .F               138:   BHT.
 TCS .HRS            1200:   Time Circ. stopped
 TLAB.HRS            0330:   Time logger at bottom
 MRT .F               138:   Maximum recorded temp.
 LUN .               8035:   Logging unit number
 LUL .               CSPR:   Logging unit location
 ENGI.        CRAIG/DFARR:   Recorded By
 WITN.              AMEND:   Witnessed by
 ORIG.           5" PRINT:   Origin of data
 UWI .     49025107250000:   Unique Well ID
 DICO. A2D TECHNOLOGIES, INC.:   Digitizing Company
~OTHER INFORMATION
~A   DEPT     TENR        SPR        SFL        ILD        ILM       CALD         GRD      CORR       TEND       RHOB         NPHI 
# ...
 3736.0000  1726.2600   -30.9800    15.8420    13.9040    12.4320     9.3440    48.5980     0.0660  1884.7960     2.4180     0.1760
 3736.5000  1726.4230   -30.9340    15.8420    13.9040    12.4730     9.2920    51.2020     0.0550  1884.9969     2.3900     0.1760
 3737.0000  1726.5870   -30.8900    15.8420    13.9040    12.5320     9.3090    54.3780     0.0420  1885.1990     2.3830     0.1760
 3737.5000  1726.7500   -30.8430    15.8420    14.4070    12.5900     9.3250    57.3650     0.0410  1885.4010     2.3910     0.1720
 3738.0000  1726.9130   -30.8000    15.2500    14.8660    12.6490     9.3420    57.0610     0.0470  1885.6021     2.4020     0.1680
 3738.5000  1727.0770   -30.7580    14.4320    15.3250    13.1090     9.3580    54.2800     0.0530  1885.8040     2.4110     0.1730
 3739.0000  1727.2400   -30.7810    14.4320    15.5500    13.7360     9.3840    50.1490     0.0580  1886.0060     2.4140     0.1800
 3739.5000  1727.4030   -30.8050    15.2820    17.5990    15.1020     9.4230    45.9710     0.0520  1886.2070     2.4210     0.1780
 3740.0000  1727.5670   -30.8330    17.9830    19.4420    18.0770     9.4630    45.3350     0.0470  1886.4091     2.4260     0.1610
 3740.5000  1727.7300   -30.8580    29.8650    22.1600    21.0520     9.4900    44.6290     0.0410  1886.6100     2.4760     0.1330
 3741.0000  1727.8940   -30.8840    45.2960    21.7500    24.0270     9.4930    44.8930     0.0400  1886.8120     2.5360     0.1050
 3741.5000  1728.0570   -30.9110    60.7280    25.4220    27.2040     9.4990    46.4780     0.0540  1887.0140     2.5980     0.0850
 3742.0000  1728.2200   -30.9370    76.1600    28.2380    27.9360     9.5050    50.6260     0.0760  1887.2150     2.6240     0.0730
 3742.5000  1728.3840   -30.9630    80.2170    29.1030    28.7690     9.5110    54.6920     0.0960  1887.4170     2.6540     0.0620
 3743.0000  1728.5470   -30.9890    71.8560    29.3100    27.1430     9.5170    59.0150     0.1170  1887.6190     2.6610     0.0650
 3743.5000  1728.7100   -31.0160    56.4240    27.0570    25.2150     9.5220    60.2680     0.1300  1887.8199     2.5800     0.0920
 3744.0000  1728.8740   -31.0410    40.9930    24.0330    22.3490     9.5280    60.3800     0.1330  1888.0220     2.5010     0.1220
 3744.5000  1729.0370   -31.0670    25.5610    21.0090    19.4820     9.5340    56.8280     0.0940  1888.2240     2.4380     0.1520
 3745.0000  1729.2010   -31.0980    18.1530    17.9850    16.6160     9.5390    53.7690     0.0590  1888.4250     2.4020     0.1830
 3745.5000  1729.3640   -31.1130    17.0690    14.9600    13.6470     9.5450    52.0960     0.0380  1888.6270     2.3910     0.1890
 3746.0000  1729.5270   -31.1430    16.0050    13.6470    12.9180     9.5510    50.9980     0.0360  1888.8280     2.3910     0.1840
 3746.5000  1729.6910   -30.6960    14.9020    13.6470    12.1620     9.5570    51.2340     0.0520  1889.0300     2.4130     0.1760
 3747.0000  1729.8540   -30.1380    14.2710    13.6470    11.5390     9.5600    52.9590     0.0660  1889.2321     2.4320     0.1720
 3747.5000  1730.0170   -29.5910    13.9910    13.6470    11.4930     9.5940    53.8130     0.0710  1889.4330     2.4330     0.1740
 3748.0000  1730.1810   -29.5700    13.7110    13.6470    11.4330     9.6820    54.3920     0.0640  1889.6350     2.4130     0.1870
 3748.5000  1730.3440   -29.5550    13.4310    13.6470    11.3740     9.7290    51.0280     0.0520  1889.8370     2.3950     0.2020
 3749.0000  1730.5081   -29.5680    13.1510    13.6470    11.3260     9.7290    49.7110     0.0430  1890.0380     2.3940     0.2090
 3749.5000  1730.6710   -29.5580    12.8700    12.7530    11.1070     9.7360    49.5920     0.0450  1890.2440     2.3960     0.2110
 3750.0000  1730.8340   -29.5640    12.5900    12.0030    10.8310     9.7410    50.0430     0.0500  1886.2510     2.3990     0.2070
 3750.5000  1730.9980   -29.5710    12.3100    11.2520    10.5550     9.7460    58.9370     0.0410  1879.4620     2.4020     0.1980
 3751.0000  1731.1610   -29.5240    12.0000    10.5020    10.2790     9.7510    65.4200     0.0320  1872.6740     2.4030     0.2030
 3751.5000  1731.3240   -29.9770    11.6720     9.7510    10.0030     9.7560    69.3420     0.0360  1865.8860     2.4150     0.2110
 3752.0000  1731.4880   -31.0060    11.3440     8.8880     9.5760     9.7640    71.8590     0.0450  1859.0970     2.4220     0.2240
 3752.5000  1731.6510   -31.9010    11.0160     8.8880     9.6060     9.7470    71.5600     0.0550  1852.3090     2.4240     0.2370
 3753.0000  1731.8149   -31.9330    10.6870     9.0480     9.6730     9.7000    71.3250     0.0630  1849.5930     2.4140     0.2420
 3753.5000  1731.9780   -31.9570    10.3590     9.2890     9.7390     9.6550    70.9770     0.0660  1849.5930     2.4110     0.2420
 3754.0000  1732.1410   -31.9420    10.1270     9.5300     9.8050     9.6100    70.0190     0.0700  1849.5930     2.4120     0.2400
 3754.5000  1732.3051   -31.9460    10.1620     9.7720     9.8720     9.5670    66.7270     0.0650  1849.5930     2.4110     0.2370
 3755.0000  1732.4680   -31.9460    10.2310    10.0130     9.9380     9.5560    63.4740     0.0570  1849.5930     2.3990     0.2330
 3755.5000  1732.6310   -31.9550    10.2990    10.2930    10.0050     9.5450    60.1310     0.0490  1849.5930     2.3860     0.2300
 3756.0000  1732.7950   -31.8140    10.3180    10.2420    10.0710     9.5360    57.3990     0.0470  1849.5930     2.3810     0.2270
 3756.5000  1732.9580   -31.4030    10.3180    10.1390    10.1270     9.5260    57.7000     0.0590  1849.5930     2.3800     0.2240
 3757.0000  1733.1219   -31.0070    10.3180    10.0360     9.9560     9.5260    59.2480     0.0710  1849.5930     2.3760     0.2200
 3757.5000  1733.2850   -30.6040    10.4730     9.9330     9.8080     9.5260    60.7280     0.0720  1849.5930     2.3590     0.2200
 3758.0000  1733.4480   -30.2010    10.4060     9.8300     9.6600     9.5260    62.3500     0.0620  1849.5930     2.3500     0.2200
 3758.5000  1733.6121   -29.8010    10.2700     9.7270     9.5130     9.5260    62.3580     0.0440  1849.5930     2.3520     0.2200
 3759.0000  1733.7750   -29.3960    10.1350     9.6240     9.3650     9.5260    60.1470     0.0320  1849.5930     2.3550     0.2200
 3759.5000  1733.9380   -28.9960     9.9990     9.5210     9.2170     9.5250    60.1130     0.0250  1849.5930     2.3580     0.2130
 3760.0000  1734.1021   -28.5970     9.8630     9.4180     9.0690     9.5340    60.0280     0.0180  1849.5930     2.3590     0.2070
 3760.5000  1734.2650   -28.1750     9.7280     9.3150     8.9210     9.5600    59.8460     0.0130  1849.5930     2.3540     0.2010
 3761.0000  1734.4290   -27.9530     9.5920     9.2120     8.7730     9.5880    57.1100     0.0060  1849.5930     2.3500     0.1960
 3761.5000  1734.5920   -27.9830     9.4570     9.1090     8.5230     9.6150    54.8070     0.0050  1849.5930     2.3600     0.1900
 3762.0000  1734.7550   -27.9950     9.3210     8.9200     8.2490     9.6400    56.1840     0.0140  1849.5930     2.3780     0.1870
 3762.5000  1734.9189   -28.2910     9.1990     8.7150     8.1880     9.6790    59.1080     0.0310  1849.5930     2.3950     0.1880
 3763.0000  1735.0820   -28.5710     9.1090     8.6860     8.1310     9.7550    60.9640     0.0490  1849.5930     2.4200     0.1920
 3763.5000  1735.2450   -28.8620     9.0180     8.6570     8.0740     9.8280    61.2720     0.0500  1849.5930     2.4150     0.1970
 3764.0000  1735.4091   -29.1480     8.9280     8.6280     8.0170     9.8990    61.7920     0.0500  1849.5930     2.4000     0.2010
 3764.5000  1735.5720   -29.4350     8.8380     8.5990     7.9600     9.9600    62.3210     0.0420  1849.5930     2.3850     0.2050
 3765.0000  1735.7360   -29.7220     8.7470     8.5700     7.9040     9.9310    61.6140     0.0370  1849.5930     2.3780     0.2090
 3765.5000  1735.8990   -30.0090     8.6570     8.4930     7.8470     9.9040    60.3800     0.0310  1849.5930     2.3800     0.2130
 3766.0000  1736.0620   -30.2970     8.5670     8.4010     7.8010     9.8750    59.2130     0.0400  1849.5930     2.3830     0.2170
