~VERSION INFORMATION
 VERS.                2.0:   CWLS LOG ASCII STANDARD - VERSION 2.0
 WRAP.                 NO:   ONE LINE PER DEPTH STEP
~WELL INFORMATION
#MNEM.UNIT      DATA TYPE    INFORMATION
#----------   ------------   ------------------------------
 STRT.F           31.5000:   START DEPTH
 STOP.F         4204.0000:   STOP DEPTH
 STEP.F            0.5000:   STEP LENGTH
 NULL.          -999.2500:   NO VALUE
 COMP.   LAWRENCE ALLISON:   COMPANY
 WELL. LAWRENCE 3 "X" #32-10:   WELL
 FLD .                NPR:   FIELD
 LOC .      S10 T38N R78W:   LOCATION
 CNTY.            NATRONA:   COUNTY
 STAT.            WYOMING:   STATE
 CTRY. UNITED STATES OF AMERICA:   COUNTRY
 SRVC.      DRESSER ATLAS:   SERVICE COMPANY
 DATE.        05-NOV-1983:   LOGDATE
 API .     49025109460000:   API NUMBER
~CURVE INFORMATION
#MNEM.UNIT       API CODE    CURVE DESCRIPTION
#----------   ------------   ------------------------------
 DEPT.F                  :   
 CALD.IN     45 280 60 00:   CALIPER FROM DENSITY LOG
 CNC .DEC    42 890 01 00:   NEUTRON POROSITY LIMESTONE
 CORR.G/C3   45 356 01 00:   DENSITY CORRECTION
 TEND.LBS    45 635 01 00:   TENSION FORM DENSITY LOG
 RHOB.G/C3   45 350 01 00:   BULK DENSITY
 DT  .US/F   60 520 00 00:   DELTA TIME
 TENS.LBS    60 635 01 00:   TENSION FROM SONIC
 GRR .GAPI   07 310 01 00:   GAMMA RAY FROM RESISTIVITY
 TENR.LBS    06 635 01 00:   TENSION FROM RESISTIVITY
 RFOC.OHMM   07 220 04 00:   RESISTIVITY FOCUSED LOG RES.
 RILM.OHMM   07 120 44 00:   INDUCTION LOG MEDIUM RESISTIVITY
 RILD.OHMM   07 120 46 00:   DEEP INDUCTION RESISTIVITY
 SPR .MV     07 010 01 00:   SPONTANEOUS POTENTIAL
~PARAMETER INFORMATION
#MNEM.UNIT          VALUE    DESCRIPTION
#----------   ------------   ------------------------------
 EKB .F         5237.0000:   Kelly bushing
 EGL .F         5227.0000:   Ground level
 TD  .F         4202.0000:   Total depth
 CLNT.            A2DTECH:   Client Code
 SL  . 1871' FWL & 1152' FNL:   Surface Location
 PD  .                 GL:   Permanent Datum
 EPD .F              5227:   Elevation Permanent Datum
 LMF .                 KB:   Log Measured From
 DMF .                 KB:   Drilling Measured From
 DAPD.F                10:   Feet Above Permanent Datum
 DATE.        05-NOV-1983:   Date Logged [DD-MMM-YYYY]
 DD  .F              4200:   Depth driller
 DL  .F              4202:   Depth logger
 BLI .F              4200:   Bottom log interval
 TLI .F                30:   Top log interval
 CS1 .IN            8.625:   Casing size
 CBD1.      8.625" @ 545':   Casing driller 1
 CBL1.F               545:   Casing logger 1
 BS1 .IN            7.875:   Bit size
 BSD1.F              4200:   Depth drilled with bit1
 DFT .            GEL KCL:   Type fluid in hole
 DFD .                8.9:   Density
 DFV .                 42:   Viscosity
 DFPH.                8.5:   pH
 DFL .               12.4:   Fluid loss
 MSS .           FLOWLINE:   Source of sample
 RMS .OHMM           0.43:   Rm
 MST .F                97:   Rm Meas. temp.
 RMF .OHMM           0.42:   Rmf
 MFST.F                74:   Rmf Meas. temp.
 MFSS.               MEAS:   Source Rmf.
 RMC .OHMM           0.53:   Rmc
 MCST.F                97:   Rmc Meas. temp.
 MCSS.               CALC:   Source Rmc.
 RMB .OHMM           0.32:   Rm. at BHT
 BHT .F               131:   BHT.
 TCS .HRS               3:   Time Circ. stopped
 MRT .F               131:   Maximum recorded temp.
 LUN .               6307:   Logging unit number
 LUL .               GLTE:   Logging unit location
 ENGI.            DEYOUNG:   Recorded By
 WITN.             STRONG:   Witnessed by
 ORIG.        2" 5" PRINT:   Origin of data
 UWI .     49025109460000:   Unique Well ID
 DICO. A2D TECHNOLOGIES, INC.:   Digitizing Company
~OTHER INFORMATION
~A   DEPT     CALD        CNC       CORR       TEND       RHOB         DT       TENS         GRR      TENR       RFOC       RILM       RILD        SPR   
# ...
 2241.5000    10.1308     0.3368     0.1139   -17.7812     2.5145    93.6611   -29.6188   126.8396   -16.6377     7.5971     7.2381     7.1438   -32.9033
 2242.0000    10.1342     0.3284     0.1155   -17.9045     2.5099    94.1210   -29.6188   129.2392   -19.1016     7.5842     7.2870     7.1922   -33.0671
 2242.5000    10.1375     0.3202     0.1124   -21.1094     2.5084    94.3622   -29.6188   128.6281   -21.5656     8.2090     7.4398     7.3437   -33.0804
 2243.0000    10.1396     0.3155     0.1108   -24.3143     2.5100    94.3167   -29.6188   128.4689   -24.0295     8.7506     7.5431     7.4013   -33.2442
 2243.5000    10.1454     0.3129     0.1033   -24.4376     2.5108    94.0118   -29.6188   128.4602   -26.4934     9.0454     7.7019     7.6027   -33.2575
 2244.0000    10.1531     0.3123     0.0926   -24.5609     2.5038    93.7070   -29.6188   130.2648   -28.9574     9.1713     7.8640     7.8172   -33.2711
 2244.5000    10.1607     0.3202     0.0880   -24.6892     2.4977    93.4022   -29.6188   132.2078   -31.4213     9.3644     8.0295     7.9258   -33.1333
 2245.0000    10.1684     0.3126     0.0911   -24.8084     2.4955    93.0974   -29.6188   133.4048   -33.8852     9.6967     8.1410     8.0366   -33.1498
 2245.5000    10.1760     0.3104     0.0942   -23.2311     2.4947    92.7351   -29.6188   130.5319   -36.3492    10.0408     8.0239     8.0335   -33.0091
 2246.0000    10.1836     0.3094     0.0988   -21.9722     2.4978    92.4394   -29.6188   128.7160   -38.8131    10.1810     7.8537     7.8628   -32.8717
 2246.5000    10.1913     0.3110     0.1051   -22.0955     2.4979    92.2912   -29.6188   127.3519   -40.5738    10.2506     7.5794     7.6417   -32.8883
 2247.0000    10.1989     0.3126     0.1081   -22.2333     2.4956    92.4380   -29.6188   124.6310   -40.5738    10.1763     7.2634     7.3745   -33.0521
 2247.5000    10.2065     0.3161     0.1020   -25.4342     2.4941    93.0272   -29.6188   122.3117   -40.3957     9.7549     6.9605     7.0667   -33.2159
 2248.0000    10.2142     0.3319     0.0944   -28.6350     2.4951    93.4690   -29.6188   121.0014   -40.1952     9.0922     6.5769     6.7893   -33.2291
 2248.5000    10.2218     0.3421     0.0928   -28.7542     2.4964    93.3208   -29.6188   123.7007   -39.9947     8.5210     6.2145     6.4159   -33.2425
 2249.0000    10.2294     0.3453     0.0990   -28.8752     2.4834    93.4676   -29.6188   124.1453   -39.7943     7.8638     6.0399     6.2367   -32.9544
 2249.5000    10.2371     0.3358     0.1006   -29.0224     2.4665    93.7927   -29.6188   123.1792   -39.5938     6.4886     6.0807     6.1923   -32.6664
 2250.0000    10.2232     0.3289     0.1037   -29.1416     2.4611    94.5232   -29.6188   122.0173   -38.5386     5.9218     6.1289     6.2358   -32.6829
 2250.5000    10.1880     0.3234     0.1037   -29.2608     2.4665    94.7929   -29.6188   120.7394   -35.2570     6.1751     6.2507     6.2795   -33.1480
 2251.0000    10.1528     0.3184     0.1038   -29.3800     2.4835    94.5590   -29.6188   119.2585   -35.0474     6.7160     6.4269     6.3684   -33.4624
 2251.5000    10.1175     0.3156     0.1022   -29.4992     2.4957    93.5515   -29.6188   117.8012   -34.8380     7.6719     6.5622     6.5044   -33.3217
 2252.0000    10.0826     0.3146     0.1007   -29.6183     2.4942    92.3952   -23.7537   117.4641   -34.6286     9.3378     6.6533     6.8336   -32.8864
 2252.5000    10.0788     0.3149     0.0928   -29.9412     2.4965    91.6925   -23.7537   123.1760   -37.4808     9.4022     6.6988     7.0787   -32.2972
 2253.0000    10.0789     0.3181     0.0989   -30.3432     2.5026    91.8392   -23.7537   124.9745   -41.3410     9.0726     6.6025     7.0204   -32.1596
 2253.5000    10.0794     0.3194     0.0866   -30.7452     2.5088    92.1333   -23.7537   124.3633   -46.2365     8.7537     6.5080     6.4334   -32.1732
 2254.0000    10.0811     0.3390     0.0789   -31.1472     2.5166    92.5751   -23.7537   124.6557   -49.0993     8.5190     6.2367     5.9316   -32.1867
 2254.5000    10.0827     0.3632     0.0727   -31.5492     2.5219    92.8694   -23.7537   126.9059   -52.0144     8.2821     5.7250     5.4878   -32.0215
 2255.0000    10.0843     0.3594     0.0680   -31.8992     2.5234    93.1636   -23.7537   127.8822   -54.8771     8.1086     5.3964     5.1495   -31.5824
 2255.5000    10.0860     0.3464     0.0633   -28.7802     2.5211    93.6054   -23.7537   129.7483   -51.5431     7.5054     5.1147     5.0057   -31.2915
 2256.0000    10.0876     0.3337     0.0572   -28.7502     2.5149    94.0472   -23.7537   130.1936   -51.3336     6.0377     4.9710     4.9004   -30.9979
 2256.5000    10.0892     0.3147     0.1002   -28.7211     2.5088    95.5214   -23.7537   128.8272   -44.9769     5.2467     4.8656     4.8313   -30.8599
 2257.0000    10.0909     0.2989     0.1248   -28.6904     2.5172    96.2581   -23.7537   125.9569   -44.7619     4.9250     4.7960     4.7632   -31.1808
 2257.5000    10.0925     0.2979     0.1339   -31.7421     2.5422    96.2439   -23.7537   122.4843   -44.5085     5.1782     4.6942     4.7294   -32.2385
 2258.0000    10.0941     0.3039     0.1186   -31.7047     2.5734    95.4063   -23.7537   119.3128   -44.2989     5.7451     4.7259     4.8302   -32.7006
 2258.5000    10.0958     0.3103     0.0909   -31.6748     2.5772    93.7690   -23.7537   117.3462   -44.0895     6.2928     4.9285     4.9333   -33.0120
 2259.0000    10.0974     0.3138     0.0801   -32.4083     2.5734    92.7812   -23.7537   118.4400   -43.8801     6.5624     4.9618     5.0387   -33.3234
 2259.5000    10.0991     0.3138     0.0832   -34.7041     2.5680    92.4196   -23.7537   121.7188   -43.6706     6.3799     4.9591     5.1462   -33.4843
 2260.0000    10.0993     0.3176     0.1039   -34.6667     2.5626    92.4779   -23.7537   121.0827   -43.4611     6.1592     4.8505     5.0380   -33.4945
 2260.5000    10.0974     0.3271     0.1261   -36.3949     2.5580    92.6337   -23.7537   119.5679   -40.1794     6.2454     4.7183     4.8628   -33.2844
 2261.0000    10.0804     0.3348     0.1383   -40.7702     2.5495    92.7896   -23.7537   118.8061   -39.9692     6.5588     4.6181     4.6938   -32.9109
 2261.5000    10.0632     0.3355     0.1460   -40.5970     2.5324    93.2404   -23.7537   119.8515   -39.7542     6.6506     4.5521     4.5950   -32.7468
 2262.0000    10.0460     0.3269     0.1490   -37.6212     2.5056    93.7432   -23.7537   123.3066   -39.4987     6.1876     4.5507     4.5946   -32.3306
 2262.5000    10.0289     0.3183     0.1413   -37.5913     2.4871    94.3325   -23.7537   128.4183   -39.2893     5.6977     4.5493     4.5943   -32.1928
 2263.0000    10.0117     0.3132     0.1290   -36.0732     2.4786    94.7743   -23.7537   132.7770   -36.0075     5.3484     4.6450     4.6266   -31.7512
 2263.5000     9.9945     0.3107     0.1259   -34.4498     2.4802    95.2160   -23.7537   135.3465   -35.7981     5.0914     4.6765     4.7254   -31.4602
 2264.0000     9.9774     0.3091     0.1238   -34.4222     2.5133    95.5103   -23.7537   135.7715   -35.6068     4.9153     4.6750     4.8605   -31.3173
 2264.5000     9.9602     0.3075     0.0997   -34.3875     2.5363    95.5163   -23.7537   129.5858   -35.3791     5.4599     4.6735     4.8946   -31.7819
 2265.0000     9.9431     0.3076     0.0982   -34.3551     2.5480    94.6113   -23.7537   125.9625   -35.1697     6.1076     4.6720     4.8597   -31.9428
 2265.5000     9.9259     0.3180     0.1027   -31.2435     2.5456    93.2494   -23.7537   126.8574   -34.9602     6.8321     4.6703     4.8594   -32.2545
 2266.0000     9.9088     0.3190     0.1088   -31.2161     2.5348    92.2006   -23.7537   129.4088   -34.7465     7.6001     4.6688     4.8935   -32.4175
 2266.5000     9.8966     0.3181     0.1211   -28.1048     2.5286    91.8194   -23.7537   130.9061   -34.4889     6.8781     4.7008     4.9279   -32.2746
 2267.0000     9.8973     0.3212     0.1241   -27.4359     2.5286    93.3404   -23.7537   130.9197   -34.2795     5.5331     4.7993     4.9975   -32.2874
