~VERSION INFORMATION
 VERS.                2.0:   CWLS LOG ASCII STANDARD - VERSION 2.0
 WRAP.                 NO:   ONE LINE PER DEPTH STEP
~WELL INFORMATION
#MNEM.UNIT      DATA TYPE    INFORMATION
#----------   ------------   ------------------------------
 STRT.F         2200.0000:   START DEPTH
 STOP.F         3200.0000:   STOP DEPTH
 STEP.F            0.5000:   STEP LENGTH
 NULL.          -999.2500:   NO VALUE
 COMP.   LAWRENCE ALLISON:   COMPANY
 WELL. LAWRENCE "X" #18-34:   WELL
 FLD .          NPR NO. 3:   FIELD
 LOC .      S34 T39N R78W:   LOCATION
 CNTY.            NATRONA:   COUNTY
 STAT.            WYOMING:   STATE
 CTRY. UNITED STATES OF AMERICA:   COUNTRY
 SRVC.      DRESSER ATLAS:   SERVICE COMPANY
 DATE.        14-MAY-1986:   LOGDATE
 API .     49025110720000:   API NUMBER
~CURVE INFORMATION
#MNEM.UNIT       API CODE    CURVE DESCRIPTION
#----------   ------------   ------------------------------
 DEPT.F                  :   
 CALD.IN     45 280 60 00:   CALIPER FROM DENSITY LOG
 GRD .GAPI   45 310 01 00:   GAMMA RAY FROM DENSITY LOG
 TEND.LBS    45 635 01 00:   TENSION FORM DENSITY LOG
 CORR.G/C3   45 356 01 00:   DENSITY CORRECTION
 DEN .G/C3   45 350 01 00:   BULK DENSITY
 CNC .DEC    42 890 03 00:   NEUTRON POROSITY SANDSTONE
~PARAMETER INFORMATION
#MNEM.UNIT          VALUE    DESCRIPTION
#----------   ------------   ------------------------------
 EKB .F         5192.0000:   Kelly bushing
 EGL .F         5181.0000:   Ground level
 EDF .F         5189.0000:   Drilling floor
 TD  .F         3195.0000:   Total depth
 CLNT.            A2DTECH:   Client Code
 SL  . 722' FWL & 239' FSL:   Surface Location
 PD  .                 GL:   Permanent Datum
 EPD .F              5181:   Elevation Permanent Datum
 LMF .                 KB:   Log Measured From
 DMF .                 KB:   Drilling Measured From
 DAPD.F                11:   Feet Above Permanent Datum
 DATE.        14-MAY-1986:   Date Logged [DD-MMM-YYYY]
 DD  .F              3195:   Depth driller
 DL  .F              3194:   Depth logger
 BLI .F              3192:   Bottom log interval
 TLI .F                 0:   Top log interval
 CS1 .IN            8.625:   Casing size
 CBD1.      8.625" @ 601':   Casing driller 1
 CBL1.F               596:   Casing logger 1
 BS1 .IN            7.875:   Bit size
 BSD1.F              3195:   Depth drilled with bit1
 DFT .        POLYMER-KCL:   Type fluid in hole
 DFD .                  9:   Density
 DFV .                 35:   Viscosity
 DFPH.                9.5:   pH
 DFL .               16.2:   Fluid loss
 MSS .           FLOWLINE:   Source of sample
 RMS .OHMM          0.378:   Rm
 MST .F                65:   Rm Meas. temp.
 RMF .OHMM          0.306:   Rmf
 MFST.F                65:   Rmf Meas. temp.
 MFSS.               MEAS:   Source Rmf.
 RMC .OHMM          0.472:   Rmc
 MCST.F                65:   Rmc Meas. temp.
 MCSS.               CALC:   Source Rmc.
 RMB .OHMM          0.208:   Rm. at BHT
 BHT .F               118:   BHT.
 TCS .HRS               3:   Time Circ. stopped
 MRT .F               118:   Maximum recorded temp.
 LUN .            HL-6274:   Logging unit number
 LUL .           GILLETTE:   Logging unit location
 ENGI.             RAUTIO:   Recorded By
 WITN.             STRONG:   Witnessed by
 ORIG.           5" PRINT:   Origin of data
 UWI .     49025110720000:   Unique Well ID
 DICO. A2D TECHNOLOGIES, INC.:   Digitizing Company
~OTHER INFORMATION
~A  DEPT        CALD      GRD        TEND        CORR        DEN        CNC 
# ...
 2564.0000    10.2878   120.9132    -6.4001     0.0585     2.5610     0.2691
 2564.5000    10.2880   122.0839   -13.8582     0.0237     2.5503     0.2680
 2565.0000    10.2730   122.9860   -13.7823     0.0116     2.5394     0.2756
 2565.5000    10.2580   124.1897   -13.6612    -0.0065     2.5375     0.2825
 2566.0000    10.2733   124.4892   -13.6592    -0.0126     2.5375     0.2865
 2566.5000    10.2885   123.8822   -13.5852    -0.0035     2.5375     0.2916
 2567.0000    10.3189   120.8627   -13.5338     0.0088     2.5405     0.2956
 2567.5000    10.3341   117.1592   -11.5384     0.0206     2.5419     0.2956
 2568.0000    10.3343   116.0304    -5.8843     0.0100     2.5578     0.2922
 2568.5000    10.3344   117.5350     9.2139     0.0025     2.5615     0.2974
 2569.0000    10.3496   119.3421     9.2746    -0.0021     2.5614     0.2893
 2569.5000    10.3498   120.2449     1.8165    -0.0021     2.5614     0.2793
 2570.0000    10.3348   117.8280    -5.6416    -0.0051     2.5543     0.2706
 2570.5000    10.3350   117.2217    -5.5658    -0.0127     2.5438     0.2715
 2571.0000    10.3351   118.4255    -5.5051    -0.0006     2.5387     0.2790
 2571.5000    10.3202   119.9301    -5.4444     0.0190     2.5470     0.2812
 2572.0000    10.2902   120.8329    -5.3837     0.0582     2.5590     0.2700
 2572.5000    10.2904   122.0359    -5.3231     0.0356     2.5552     0.2664
 2573.0000    10.2603   122.6370    -5.2624     0.0144     2.5461     0.2754
 2573.5000    10.2454   122.9351    -5.2005     0.0008     2.5385     0.2852
 2574.0000    10.2456   124.1504    -5.1259    -0.0083     2.5363     0.2894
 2574.5000    10.2608   124.4375    -5.0652    -0.0143     2.5377     0.2939
 2575.0000    10.2760   122.8658    -5.0045     0.0008     2.5415     0.2970
 2575.5000    10.2913   118.2660   -12.4778     0.0163     2.5437     0.2964
 2576.0000    10.2914   116.2830   -12.4020     0.0249     2.5354     0.2822
 2576.5000    10.3066   114.7718   -12.3413    -0.0099     2.5256     0.2762
 2577.0000    10.3219   107.5291   -12.2806    -0.0582     2.5266     0.2795
 2577.5000    10.3220   104.2079   -12.2180    -0.0552     2.5413     0.2783
 2578.0000    10.3373   105.1100   -12.1441    -0.0401     2.5511     0.2638
 2578.5000    10.3374   106.3296   -12.0834    -0.0190     2.5601     0.2535
 2579.0000    10.3527   110.2317   -12.0227     0.0057     2.5737     0.2511
 2579.5000    10.3528   112.3404    -4.4433     0.0278     2.5872     0.2620
 2580.0000    10.3529   112.9415    -4.3826     0.0353     2.5962     0.2787
 2580.5000    10.3682   109.6196    -4.3219     0.0399     2.5914     0.2742
 2581.0000    10.3697   105.6952   -11.7800     0.0414     2.5826     0.2660
 2581.5000    10.3836   109.3122   -11.7168     0.0383     2.5780     0.2760
 2582.0000    10.3837   118.1396   -11.6435     0.0353     2.5756     0.2881
 2582.5000    10.3990   121.6744   -11.7991     0.0336     2.5780     0.2959
 2583.0000    10.3991   120.1624   -13.7331     0.0292     2.5757     0.2935
 2583.5000    10.3993   116.8413   -15.6670     0.0262     2.5741     0.2860
 2584.0000    10.3994   114.1234   -17.6010     0.0201     2.5734     0.2733
 2584.5000    10.4146   112.3106   -19.5349     0.0156     2.5726     0.2567
 2585.0000    10.4148   110.4977   -21.4689     0.0140     2.5703     0.2543
 2585.5000    10.4149   108.3592   -23.4028     0.0246     2.5680     0.2634
 2586.0000    10.4151   109.2845   -25.3368     0.0369     2.5703     0.2770
 2586.5000    10.4303   112.2982   -27.2707     0.0351     2.5679     0.2870
 2587.0000    10.4305   114.7085   -29.2047     0.0276     2.5619     0.2933
 2587.5000    10.4306   116.5156   -31.1386     0.0140     2.5543     0.2967
 2588.0000    10.4308   118.0210   -33.4465    -0.0132     2.5460     0.2954
 2588.5000    10.4008   118.3198   -33.3858    -0.0314     2.5361     0.2837
 2589.0000    10.4009   120.1591   -33.3252    -0.0374     2.5338     0.2731
 2589.5000    10.4162   121.6322   -25.7457    -0.0358     2.5376     0.2589
 2590.0000    10.4163   119.5169   -25.6850    -0.0314     2.5368     0.2484
 2590.5000    10.4315   116.1957   -18.1055    -0.0269     2.5375     0.2535
 2591.0000    10.4468   115.8919   -10.5261     0.0003     2.5458     0.2689
 2591.5000    10.4620   118.3015   -10.4637     0.0169     2.5480     0.2815
 2592.0000    10.4621   119.2079   -32.9459     0.0259     2.5586     0.2865
 2592.5000    10.4774   117.0487   -40.4192     0.0304     2.5669     0.2771
 2593.0000    10.4776   115.8795   -47.8622     0.0304     2.5683     0.2723
 2593.5000    10.4777   118.2892   -47.8015     0.0259     2.5660     0.2741
 2594.0000    10.4778   118.5887   -47.7408     0.0328     2.5675     0.2799
 2594.5000    10.4629   117.3784   -47.6801     0.0410     2.5780     0.2848
 2595.0000    10.4631   114.0572   -47.2455     0.0425     2.5810     0.2781
 2595.5000    10.4632   110.4344   -45.6800     0.0251     2.5644     0.2701
 2596.0000    10.4483   111.3365   -44.1145    -0.0195     2.5409     0.2642
 2596.5000    10.4333   111.3328   -42.5489    -0.0090     2.5341     0.2661
 2597.0000    10.4184   110.4249   -40.9834     0.0031     2.5341     0.2612
 2597.5000    10.4186   109.8187   -39.7870     0.0061     2.5326     0.2573
 2598.0000    10.3885   111.6258   -39.7243     0.0046     2.5295     0.2606
 2598.5000    10.3284   115.8462   -32.1319     0.0041     2.5378     0.2718
 2599.0000    10.2983   115.8431   -32.0712     0.0061     2.5476     0.2884
 2599.5000    10.2834   114.6329   -39.5445    -0.0302     2.5325     0.2998
 2600.0000    10.2685   118.8532   -39.4686    -0.0453     2.5166     0.3160
 2600.5000    10.2686   121.5652   -46.9419    -0.0287     2.5151     0.3137
 2601.0000    10.2688   121.6477   -46.8661     0.0090     2.5309     0.2976
 2601.5000    10.2840   119.7315   -46.8054     0.0332     2.5520     0.2762
 2602.0000    10.2992   116.9350   -49.7068     0.0483     2.5633     0.2547
 2602.5000    10.2994   114.5834   -52.5677     0.0316     2.5610     0.2665
 2603.0000    10.3297   114.8785   -55.4287    -0.0032     2.5511     0.2810
 2603.5000    10.3450   119.6940   -58.2896    -0.0168     2.5398     0.2898
 2604.0000    10.3602   123.9084   -53.2878     0.0058     2.5375     0.2959
 2604.5000    10.3622   126.0112   -53.1409     0.0209     2.5518     0.3164
 2605.0000    10.3672   127.2090   -52.9940     0.0254     2.5593     0.3228
 2605.5000    10.3722   127.5040   -52.8472    -0.0052     2.5556     0.3020
 2606.0000    10.3891   125.6831   -37.6628     0.0082     2.5450     0.2814
 2606.5000    10.4042   122.9472   -22.4784     0.0328     2.5442     0.2799
 2607.0000    10.4344   118.6582   -22.3315     0.0464     2.5608     0.2821
 2607.5000    10.4344   115.6996   -38.1035     0.0569     2.5781     0.2806
 2608.0000    10.4344   112.9759   -52.1131     0.0630     2.5834     0.2751
 2608.5000    10.4344   111.1571   -51.9296     0.0478     2.5796     0.2745
 2609.0000    10.4344   110.5450   -51.7827     0.0402     2.5749     0.2625
 2609.5000    10.4344   111.1417   -51.6359     0.0342     2.5702     0.2525
 2610.0000    10.4495   111.7362   -51.4891     0.0266     2.5644     0.2513
 2610.5000    10.4495   108.4069   -51.3423     0.0190     2.5546     0.2583
 2611.0000    10.4495   107.4751   -51.1954     0.0082     2.5417     0.2610
 2611.5000    10.4495   109.6085   -58.5715    -0.0143     2.5327     0.2692
 2612.0000    10.4495   111.3970   -58.4206    -0.0385     2.5274     0.2750
 2612.5000    10.4495   111.6898   -58.2707    -0.0174     2.5236     0.2716
 2613.0000    10.4495   111.9827   -58.1203     0.0083     2.5205     0.2496
 2613.5000    10.4495   112.2755   -57.9434     0.0324     2.5198     0.2463
 2614.0000    10.4495   114.9794   -50.2777     0.0158     2.5267     0.2596
 2614.5000    10.4495   115.5761   -50.1310     0.0037     2.5365     0.2796
 2615.0000    10.4495   113.4535   -49.9841    -0.0130     2.5400     0.2893
 2615.5000    10.4495   111.6347   -49.8372    -0.0221     2.5378     0.2736
