~VERSION INFORMATION
 VERS.                2.0:   CWLS LOG ASCII STANDARD - VERSION 2.0
 WRAP.                 NO:   ONE LINE PER DEPTH STEP
~WELL INFORMATION
#MNEM.UNIT      DATA TYPE    INFORMATION
#----------   ------------   ------------------------------
 STRT.F          200.0000:   START DEPTH
 STOP.F         3124.0000:   STOP DEPTH
 STEP.F            0.5000:   STEP LENGTH
 NULL.          -999.2500:   NO VALUE
 COMP.    FENIX & SCISSON:   COMPANY
 WELL. FENIX SCISSON #18-27:   WELL
 FLD .                NPR:   FIELD
 LOC .      S27 T39N R78W:   LOCATION
 CNTY.            NATRONA:   COUNTY
 STAT.            WYOMING:   STATE
 CTRY. UNITED STATES OF AMERICA:   COUNTRY
 SRVC.              WELEX:   SERVICE COMPANY
 DATE.        26-SEP-1977:   LOGDATE
 API .     49025104210000:   API NUMBER
~CURVE INFORMATION
#MNEM.UNIT       API CODE    CURVE DESCRIPTION
#----------   ------------   ------------------------------
 DEPT.F                  :   
 CALD.IN     45 280 60 00:   CALIPER FROM DENSITY LOG
 GRD .GAPI   45 310 01 00:   GAMMA RAY FROM DENSITY LOG
 RHOB.G/C3   45 350 01 00:   BULK DENSITY
 CORR.G/C3   45 356 01 00:   DENSITY CORRECTION
 NPHI.DEC    42 890 03 00:   NEUTRON POROSITY SANDSTONE
 SPR .MV     07 010 01 00:   SPONTANEOUS POTENTIAL
 GURD.OHMM   07 220 05 00:   GUARD LOG RESISTIVITY
 ILD .OHMM   07 120 46 00:   DEEP INDUCTION RESISTIVITY
 ILM .OHMM   07 120 44 00:   INDUCTION LOG MEDIUM RESISTIVITY
 TENR.LBS    07 635 01 00:   TENSION FROM RESISTIVITY
~PARAMETER INFORMATION
#MNEM.UNIT          VALUE    DESCRIPTION
#----------   ------------   ------------------------------
 EKB .F         5080.0000:   Kelly bushing
 EGL .F         5070.0000:   Ground level
 EDF .F            0.0000:   Drilling floor
 EPD .F            0.0000:   Permanent datum
 TD  .F         3117.0000:   Total depth
 DATE.        26-SEP-1977:   Date logged
 CLNT.            A2DTECH:   Client Code
 SL  . 330' FSL & 1650' FWL:   Surface Location
 PD  .                 GL:   Permanent Datum
 DAPD.F                10:   Feet Above Permanent Datum
 DD  .F              3115:   Depth driller
 DL  .F              3117:   Depth logger
 BLI .F              3115:   Bottom log interval
 TLI .F               200:   Top log interval
 CS1 .IN            8.625:   Casing size
 CBD1.      8.625" @ 219':   Casing driller 1
 CBL1.F               220:   Casing logger 1
 BS1 .IN            7.875:   Bit size
 BSD1.F              3115:   Depth drilled with bit1
 DFT .            KCL MUD:   Type fluid in hole
 DFD .                9.1:   Density
 DFV .                 35:   Viscosity
 DFPH.                 11:   pH
 DFL .               17.2:   Fluid loss
 MSS .           FLOWLINE:   Source of sample
 RMS .OHMM            .59:   Rm
 MST .F                98:   Rm Meas. temp.
 RMF .OHMM            .56:   Rmf
 MFST.F                98:   Rmf Meas. temp.
 RMC .OHMM            .24:   Rmc
 MCST.F                98:   Rmc Meas. temp.
 MFSS.               MEAS:   Source Rmf.
 MCSS.               MEAS:   Source Rmc.
 RMB .OHMM            .48:   Rm. at BHT
 BHT .F               116:   BHT.
 TCS .HRS               4:   Time Circ. stopped
 MRT .F               116:   Maximum recorded temp.
 LUN .               8611:   Logging unit number
 LUL .             CASPER:   Logging unit location
 ENGI.            C. DOAK:   Recorded By
 WITN.         PETTINGILL:   Witnessed by
 ORIG.           5" PRINT:   Origin of data
 UWI .     49025104210000:   Unique Well ID
 DICO. A2D TECHNOLOGIES, INC.:   Digitizing Company
~OTHER INFORMATION
~A   DEPT     CALD        GRD       RHOB       CORR         NPHI      SPR       GURD        ILD        ILM        TENR  
# ...
  568.5000     8.9048    96.6711     2.4511     0.0299     0.3433   -64.5489     8.9608     6.2112     6.8073   380.0332
  569.0000     8.9050    94.7901     2.4322     0.0299     0.3473   -64.5382     8.4853     5.7748     6.5653   379.5290
  569.5000     8.9050    99.2474     2.4262     0.0300     0.3497   -64.9230     7.8905     4.8546     6.2742   379.0247
  570.0000     8.9051   102.1188     2.4203     0.0320     0.3509   -64.7147     7.5479     4.6589     5.9407   378.5204
  570.5000     8.9052   104.0998     2.4084     0.0340     0.3493   -65.4949     7.2048     4.1201     5.4234   378.0161
  571.0000     8.9053   101.1305     2.3995     0.0380     0.3413   -65.6821     6.8225     3.8299     4.9056   377.5118
  571.5000     8.9054   100.7356     2.3826     0.0380     0.3397   -65.8692     6.3431     3.4016     4.4781   377.0076
  572.0000     8.9055   103.9054     2.3712     0.0380     0.3357   -65.8586     5.5824     3.1917     3.9769   376.5033
  572.5000     8.9254   102.9157     2.3499     0.0360     0.3361   -65.8480     4.5235     2.8345     3.4997   385.9604
  573.0000     8.9453   101.5305     2.3285     0.0281     0.3385   -65.8374     3.9083     2.6596     3.0237   375.4947
  573.5000     8.9652   102.3236     2.3081     0.0262     0.3429   -65.6291     3.2852     2.4730     2.6608   374.9905
  574.0000     8.9851   104.7005     2.3002     0.0182     0.3485   -65.0252     2.7113     2.4070     2.5478   384.4476
  574.5000     8.9852    93.9110     2.3131     0.0163     0.3565   -64.8168     2.4750     2.4079     2.8457   373.9819
  575.0000     8.9853    88.6632     2.3469     0.0143     0.3573   -64.8061     3.4126     2.4990     3.2077   373.4776
  575.5000     8.9854    93.3188     2.4075     0.0143     0.3553   -64.3999     4.1011     2.5935     3.5175   372.9733
  576.0000     8.9855    98.2701     2.4274     0.0183     0.3513   -64.3893     7.0452     3.0603     3.9649   372.5699
  576.5000     8.9856    99.8553     2.4483     0.0223     0.3469   -63.9831     7.5169     3.3553     4.6359   372.0656
  577.0000     8.9857   102.1326     2.4652     0.0223     0.3441   -63.7746     7.5190     3.8164     5.2113   381.5228
  577.5000     8.9858    96.4909     2.4751     0.0243     0.3413   -63.5662     7.6616     4.2617     5.6103   371.0571
  578.0000     8.9859    94.0161     2.4851     0.0264     0.3397   -63.3577     7.8788     4.9825     6.2850   350.6299
  578.5000     8.9860    96.4929     2.4871     0.0303     0.3397   -63.3470     8.7980     5.5643     6.5218   380.0100
  579.0000     8.9663    98.1759     2.4811     0.0304     0.3397   -63.1385     9.5589     6.1012     6.7069   379.2031
  579.5000     8.9268    93.0291     2.4732     0.0304     0.3405   -63.1279     9.3896     6.4490     6.7514   379.0014
  580.0000     8.9071    97.2880     2.4712     0.0284     0.3449   -63.1172     8.8102     6.5714     6.8795   388.4586
  580.5000     8.8874   101.7438     2.4841     0.0284     0.3505   -63.1061     8.8148     6.6756     6.9455   387.9135
  581.0000     8.8875   101.5463     2.5030     0.0324     0.3573   -63.0971     8.9831     6.6996     6.9498   386.9873
  581.5000     8.8678   101.5471     2.5060     0.0364     0.3621   -63.0872     9.1544     6.7033     6.9536   386.2393
  582.0000     8.8679   102.9345     2.5070     0.0385     0.3672   -63.0772    10.2245     6.7070     6.9574   385.4909
  582.5000     8.8482   106.6980     2.4981     0.0385     0.3724   -63.0692     9.4202     6.6494     6.9613   384.7425
  583.0000     8.8483   106.1047     2.4772     0.0322     0.3824   -63.0592     9.0861     6.6531     6.9643   383.9940
  583.5000     8.8484   104.3235     2.4634     0.0266     0.3872   -63.0492     9.0912     6.6567     6.9689   393.2098
  584.0000     8.8485   107.2950     2.4564     0.0207     0.3927   -62.4457     9.0132     6.5996     7.1018   362.7189
  584.5000     8.8486   110.6622     2.4644     0.0207     0.3916   -63.0292     9.1852     6.4241     7.1712   391.8629
  585.0000     8.8883   109.4751     2.4604     0.0187     0.3860   -63.0192     9.4466     6.3109     7.3079   391.1145
  585.5000     8.9874   105.7138     2.4555     0.0187     0.3788   -62.8114     9.2801     6.3157     7.4472   390.3665
  586.0000     8.9875   106.9032     2.4644     0.0188     0.3772   -62.9992     9.1166     6.2843     7.4064   389.6181
  586.5000     8.9876   104.5277     2.4724     0.0247     0.3808   -62.9892     9.1217     6.2636     7.4105   378.9042
  587.0000     8.9877   104.7265     2.4744     0.0248     0.3824   -62.9792     9.1258     6.2663     7.4146   378.1554
  587.5000     8.9878   104.1339     2.4734     0.0248     0.3840   -62.9692     9.1308     6.2705     7.4187   377.4070
  588.0000     8.9879   105.3226     2.4754     0.0248     0.3856   -62.9592     9.3061     6.3317     7.4229   386.6243
  588.5000     8.9880   106.3135     2.4814     0.0248     0.3816   -62.9492     9.1056     6.3352     7.4270   385.8757
  589.0000     8.9881   105.3244     2.4834     0.0268     0.3741   -63.1370     8.8980     6.3971     7.4311   385.1270
  589.5000     8.9882   106.1175     2.4854     0.0249     0.3641   -63.1270     8.7412     6.4595     7.3673   384.3787
  590.0000     8.9883   103.9404     2.4804     0.0209     0.3557   -62.9192     8.4311     6.5226     7.3040   383.6300
  590.5000     8.9686    98.4970     2.4784     0.0229     0.3502   -63.1070     8.6711     6.5262     7.3072   383.0309
  591.0000     8.9093    96.4176     2.4705     0.0210     0.3486   -63.0970     9.1666     6.5298     7.3113   382.2821
  591.5000     8.9094   100.5775     2.4596     0.0190     0.3478   -63.0870     9.4276     6.5334     7.3153   381.5337
  592.0000     8.8897   101.3701     2.4606     0.0230     0.3490   -62.8812     9.6075     6.5370     7.3194   380.7848
  592.5000     8.8898   101.3711     2.4596     0.0270     0.3530   -62.8712     9.6129     6.5399     7.3234   380.0358
  593.0000     8.8899   102.1642     2.4686     0.0310     0.3569   -63.0591     9.6172     6.5435     7.3275   379.2869
  593.5000     8.8900   103.7492     2.4716     0.0310     0.3613   -63.0491     9.4487     6.5470     7.3315   378.5382
  594.0000     8.9099   105.9287     2.4726     0.0251     0.3713   -62.6434     9.1974     6.4908     7.3356   357.8507
  594.5000     8.8902   107.1176     2.4795     0.0271     0.3745   -63.0291     8.8711     6.4351     7.3397   377.0401
  595.0000     8.8903   109.6929     2.4865     0.0291     0.3729   -63.0191     8.7950     6.3216     7.2766   366.3212
  595.5000     8.8903   111.6742     2.4885     0.0311     0.3665   -63.0091     8.7999     6.2101     7.2141   375.5422
  596.0000     8.8905   115.8335     2.4905     0.0331     0.3629   -63.3947     8.7244     6.1006     7.0867   374.7930
  596.5000     8.9104   117.8145     2.4875     0.0351     0.3597   -63.3847     8.7302     5.9383     6.8980   384.0143
  597.0000     8.9105   118.4104     2.4825     0.0332     0.3562   -63.5725     8.5828     5.7287     6.6529   373.2945
  597.5000     8.9106   118.2127     2.4746     0.0352     0.3534   -63.3647     8.4241     5.6264     6.4165   372.6954
  598.0000     8.9107   117.0254     2.4687     0.0392     0.3526   -63.5525     8.0509     5.3771     6.2455   371.9460
  598.5000     8.9108   114.0563     2.4607     0.0372     0.3582   -63.5425     7.7652     5.1862     6.0792   371.1966
  599.0000     8.9109   105.9385     2.4449     0.0372     0.3582   -63.5325     7.0884     5.0482     5.9172   370.4472
  599.5000     8.8912   103.9593     2.4439     0.0308     0.3582   -63.7164     6.4130     4.9591     5.8127   369.6977
  600.0000     8.8912    95.7435     2.4499     0.0253     0.3550   -63.5126     8.6824     4.9165     5.8159   368.9482
  600.5000     8.8561    92.2138     2.4568     0.0254     0.3512   -63.3361     9.0755     4.9195     5.9161   368.1325
  601.0000     8.8527    91.2940     2.4668     0.0254     0.3502   -63.1049     8.5297     5.0105     6.1489   375.7377
  601.5000     8.8530    99.8224     2.4628     0.0215     0.3466   -63.0965     7.7855     5.1517     6.3808   367.9878
