~VERSION INFORMATION
 VERS.                2.0:   CWLS LOG ASCII STANDARD - VERSION 2.0
 WRAP.                 NO:   ONE LINE PER DEPTH STEP
~WELL INFORMATION
#MNEM.UNIT      DATA TYPE    INFORMATION
#----------   ------------   ------------------------------
 STRT.F           36.0000:   START DEPTH
 STOP.F         3488.0000:   STOP DEPTH
 STEP.F            0.5000:   STEP LENGTH
 NULL.          -999.2500:   NO VALUE
 COMP. LAWRENCE - ALLISON  & ASSOCIATE:   COMPANY
 WELL. LAWRENCE "STX" #76-23:   WELL
 FLD .              NPR 3:   FIELD
 LOC .      S23 T38N R78W:   LOCATION
 CNTY.            NATRONA:   COUNTY
 STAT.            WYOMING:   STATE
 CTRY. UNITED STATES OF AMERICA:   COUNTRY
 SRVC.       SCHLUMBERGER:   SERVICE COMPANY
 DATE.        07-MAY-1982:   LOGDATE
 API .     49025108920000:   API NUMBER
~CURVE INFORMATION
#MNEM.UNIT       API CODE    CURVE DESCRIPTION
#----------   ------------   ------------------------------
 DEPT.F                  :   
 CORR.G/C3   45 356 01 00:   DENSITY CORRECTION
 CALD.IN     45 280 60 00:   CALIPER FROM DENSITY LOG
 GRD .GAPI   45 310 01 00:   GAMMA RAY FROM DENSITY LOG
 RHOB.G/C3   45 350 01 00:   BULK DENSITY
 SFL .OHMM   07 220 01 00:   SHALLOW FOCUSED LOG RESISTIVITY
 ILD .OHMM   07 120 46 00:   DEEP INDUCTION RESISTIVITY
 ILM .OHMM   07 120 44 00:   INDUCTION LOG MEDIUM RESISTIVITY
 TENR.LBS    07 635 01 00:   TENSION
 SPR .MV     07 010 01 00:   SPONTANEOUS POTENTIAL
 NPHI.DEC    42 890 03 00:   NEUTRON POROSITY SANDSTONE
 TEND.LBS    45 635 01 00:   TENSION FROM DENSITY LOG
~PARAMETER INFORMATION
#MNEM.UNIT          VALUE    DESCRIPTION
#----------   ------------   ------------------------------
 EKB .F         5441.0000:   Kelly bushing
 EGL .F         5431.0000:   Ground level
 EDF .F            0.0000:   Drilling floor
 EPD .F            0.0000:   Permanent datum
 TD  .F         3788.0000:   Total depth
 DATE.        07-MAY-1982:   Date logged
 CLNT.            A2DTECH:   Client Code
 SL  . 1327' FSL & 1190' FEL:   Surface Location
 PD  .                 GL:   Permanent Datum
 DAPD.F                10:   Feet Above Permanent Datum
 DD  .F              3788:   Depth driller
 DL  .F              3478:   Depth logger
 BLI .F              3471:   Bottom log interval
 TLI .F              1615:   Top log interval
 CS1 .IN            9.625:   Casing size
 CBD1.     9.625" @ 1603':   Casing driller 1
 CBL1.F              1615:   Casing logger 1
 BS1 .IN            7.875:   Bit size
 BSD1.F              3788:   Depth drilled with bit1
 DFT .                AIR:   Type fluid in hole
 TCS .HRS            1230:   Time Circ. stopped
 TLAB.HRS            1500:   Time logger at bottom
 MRT .F               125:   Maximum recorded temp.
 LUN .               8035:   Logging unit number
 LUL .               CSPR:   Logging unit location
 ENGI.              PENNY:   Recorded By
 WITN.    JENNINGS/STRONG:   Witnessed by
 ORIG.       2.5"5" PRINT:   Origin of data
 UWI .     49025108920000:   Unique Well ID
 DICO. A2D TECHNOLOGIES, INC.:   Digitizing Company
~OTHER INFORMATION
~A   DEPT       CORR     CALD        GRD         RHOB      SFL        ILD        ILM       TENR        SPR        NPHI      TEND   
# ...
 3208.0000    -0.0100     9.7590   176.3440     2.4280  -999.2500    10.0700    10.0140  2362.3181  -999.2500  -999.2500  -999.2500
 3208.5000    -0.0070     9.7590   173.2260     2.4200  -999.2500     9.8970     9.7830  2363.0610  -999.2500  -999.2500  -999.2500
 3209.0000     0.0060     9.7590   175.2340     2.4270  -999.2500     9.7240     9.5530  2363.6360  -999.2500  -999.2500  -999.2500
 3209.5000     0.0190     9.7580   177.1230     2.4340  -999.2500     9.5510     9.3220  2363.6360  -999.2500  -999.2500  -999.2500
 3210.0000     0.0240     9.7580   173.5680     2.4460  -999.2500     9.3780     9.1550  2363.6360  -999.2500  -999.2500  -999.2500
 3210.5000     0.0080     9.7580   166.1960     2.4390  -999.2500     9.2050     9.1550  2363.6360  -999.2500  -999.2500  -999.2500
 3211.0000    -0.0050     9.7570   160.3290     2.4310  -999.2500     9.1550     9.2780  2363.6360  -999.2500  -999.2500  -999.2500
 3211.5000    -0.0130     9.7570   150.6500     2.4330  -999.2500     9.1550     9.4510  2363.6360  -999.2500  -999.2500  -999.2500
 3212.0000    -0.0200     9.7570   145.5830     2.4350  -999.2500     9.2560     9.6240  2363.6360  -999.2500  -999.2500  -999.2500
 3212.5000    -0.0260     9.7570   143.2760     2.4350  -999.2500     9.3910     9.7970  2363.6360  -999.2500  -999.2500  -999.2500
 3213.0000    -0.0290     9.7560   147.8970     2.4330  -999.2500     9.5250     9.9700  2363.6360  -999.2500  -999.2500  -999.2500
 3213.5000    -0.0170     9.7560   157.6700     2.4400  -999.2500     9.6600    10.1430  2363.6360  -999.2500  -999.2500  -999.2500
 3214.0000    -0.0010     9.7560   169.9570     2.4560  -999.2500     9.7940    10.2360  2363.6360  -999.2500  -999.2500  -999.2500
 3214.5000     0.0230     9.7560   179.3430     2.4720  -999.2500     9.9280    10.2360  2363.6360  -999.2500  -999.2500  -999.2500
 3215.0000     0.0150     9.7550   181.7290     2.4710  -999.2500    10.0470    10.2360  2363.6360  -999.2500  -999.2500  -999.2500
 3215.5000     0.0000     9.7550   178.2000     2.4580  -999.2500    10.2360    10.0890  2363.6360  -999.2500  -999.2500  -999.2500
 3216.0000    -0.0140     9.7550   174.2660     2.4430  -999.2500    10.0250     9.8870  2363.6360  -999.2500  -999.2500  -999.2500
 3216.5000    -0.0240     9.7540   171.6800     2.4290  -999.2500     9.8030     9.6840  2363.6360  -999.2500  -999.2500  -999.2500
 3217.0000    -0.0190     9.7540   171.7380     2.4320  -999.2500     9.5810     9.4820  2363.6360  -999.2500  -999.2500  -999.2500
 3217.5000    -0.0100     9.7540   171.3330     2.4410  -999.2500     9.3580     9.2800  2363.6360  -999.2500  -999.2500  -999.2500
 3218.0000    -0.0060     9.7540   169.0600     2.4500  -999.2500     9.1360     9.0780  2363.6360  -999.2500  -999.2500  -999.2500
 3218.5000    -0.0020     9.7530   166.6630     2.4570  -999.2500     8.9130     8.8760  2363.6360  -999.2500  -999.2500  -999.2500
 3219.0000     0.0050     9.7530   165.5170     2.4510  -999.2500     8.6910     8.6730  2363.6360  -999.2500  -999.2500  -999.2500
 3219.5000     0.0130     9.7530   169.2800     2.4590  -999.2500     8.4980     8.4980  2363.6360  -999.2500  -999.2500  -999.2500
 3220.0000     0.0190     9.7520   172.1900     2.4690  -999.2500     8.6600     8.6600  2363.6360  -999.2500  -999.2500  -999.2500
 3220.5000     0.0100     9.7520   175.1120     2.4740  -999.2500     8.8780     8.8780  2363.6360  -999.2500  -999.2500  -999.2500
 3221.0000    -0.0010     9.7520   176.6850     2.4580  -999.2500     9.0960     9.0960  2363.6360  -999.2500  -999.2500  -999.2500
 3221.5000    -0.0120     9.7520   173.9760     2.4380  -999.2500     9.3150     9.3150  2363.6360  -999.2500  -999.2500  -999.2500
 3222.0000    -0.0230     9.7510   171.2240     2.4200  -999.2500     9.5330     9.5330  2363.6360  -999.2500  -999.2500  -999.2500
 3222.5000    -0.0290     9.7510   165.4780     2.4170  -999.2500     9.8620     9.8620  2363.6360  -999.2500  -999.2500  -999.2500
 3223.0000    -0.0280     9.7510   159.2920     2.4180  -999.2500     9.8270     9.8270  2363.6360  -999.2500  -999.2500  -999.2500
 3223.5000    -0.0280     9.7510   154.8780     2.4190  -999.2500     9.7560     9.7560  2363.6360  -999.2500  -999.2500  -999.2500
 3224.0000    -0.0210     9.7500   159.1990     2.4240  -999.2500     9.6850     9.6850  2363.6360  -999.2500  -999.2500  -999.2500
 3224.5000    -0.0060     9.7500   167.3400     2.4430  -999.2500     9.6140     9.6140  2363.6360  -999.2500  -999.2500  -999.2500
 3225.0000     0.0100     9.7560   175.4980     2.4620  -999.2500     9.5430     9.5430  2363.6360  -999.2500  -999.2500  -999.2500
 3225.5000     0.0150     9.7610   183.8220     2.4720  -999.2500     9.4910     9.4910  2363.6360  -999.2500  -999.2500  -999.2500
 3226.0000     0.0070     9.7660   184.4460     2.4690  -999.2500     9.4640     9.4640  2363.6360  -999.2500  -999.2500  -999.2500
 3226.5000    -0.0040     9.7710   173.9170     2.4660  -999.2500     9.4380     9.4380  2363.6360  -999.2500  -999.2500  -999.2500
 3227.0000    -0.0040     9.7770   165.4740     2.4630  -999.2500     9.4120     9.4120  2363.6360  -999.2500  -999.2500  -999.2500
 3227.5000    -0.0020     9.7820   164.5400     2.4650  -999.2500     9.3850     9.3850  2363.6360  -999.2500  -999.2500  -999.2500
 3228.0000     0.0030     9.7870   164.0670     2.4690  -999.2500     9.3590     9.3590  2363.6360  -999.2500  -999.2500  -999.2500
 3228.5000     0.0080     9.7920   158.8320     2.4730  -999.2500     9.3320     9.3320  2363.6360  -999.2500  -999.2500  -999.2500
 3229.0000     0.0130     9.7980   156.0050     2.4780  -999.2500     9.2010     9.2010  2363.6360  -999.2500  -999.2500  -999.2500
 3229.5000     0.0130     9.8030   152.9650     2.4790  -999.2500     9.0390     9.0390  2363.6360  -999.2500  -999.2500  -999.2500
 3230.0000     0.0100     9.8080   149.7620     2.4750  -999.2500     8.8770     8.8770  2363.6360  -999.2500  -999.2500  -999.2500
 3230.5000     0.0130     9.8130   143.8440     2.4720  -999.2500     8.7150     8.7150  2363.6360  -999.2500  -999.2500  -999.2500
 3231.0000     0.0170     9.8190   146.5240     2.4680  -999.2500     8.5530     8.5530  2363.6360  -999.2500  -999.2500  -999.2500
 3231.5000     0.0210     9.8240   150.2520     2.4650  -999.2500     8.3910     8.3910  2363.6360  -999.2500  -999.2500  -999.2500
 3232.0000     0.0250     9.8290   155.0000     2.4610  -999.2500     8.2290     8.2290  2363.6360  -999.2500  -999.2500  -999.2500
 3232.5000     0.0290     9.8340   158.7570     2.4650  -999.2500     8.1590     8.1590  2363.6360  -999.2500  -999.2500  -999.2500
 3233.0000     0.0320     9.8400   163.4680     2.4700  -999.2500     8.1200     8.1200  2363.6360  -999.2500  -999.2500  -999.2500
 3233.5000     0.0300     9.8450   167.2450     2.4610  -999.2500     8.0820     8.0820  2363.6360  -999.2500  -999.2500  -999.2500
 3234.0000     0.0180     9.8500   163.0350     2.4490  -999.2500     8.0370     8.0370  2363.6360  -999.2500  -999.2500  -999.2500
 3234.5000     0.0070     9.8490   160.8990     2.4430  -999.2500     8.1200     8.1200  2363.6360  -999.2500  -999.2500  -999.2500
 3235.0000     0.0120     9.8480   159.6580     2.4770  -999.2500     8.2210     8.2210  2363.6360  -999.2500  -999.2500  -999.2500
 3235.5000     0.0230     9.8460   156.3320     2.5030  -999.2500     8.3210     8.3210  2363.6360  -999.2500  -999.2500  -999.2500
 3236.0000     0.0240     9.8450   148.7250     2.5090  -999.2500     8.4210     8.4210  2363.6360  -999.2500  -999.2500  -999.2500
 3236.5000     0.0240     9.8440   150.2440     2.4960  -999.2500     8.5220     8.5220  2363.6360  -999.2500  -999.2500  -999.2500
 3237.0000     0.0280     9.8430   151.8240     2.4900  -999.2500     8.6220     8.6220  2363.6360  -999.2500  -999.2500  -999.2500
 3237.5000     0.0310     9.8420   153.9820     2.4920  -999.2500     8.7220     8.7220  2363.6360  -999.2500  -999.2500  -999.2500
 3238.0000     0.0280     9.8410   154.2840     2.4870  -999.2500     8.8200     8.8200  2363.6360  -999.2500  -999.2500  -999.2500
