~VERSION INFORMATION
 VERS.                2.0:   CWLS LOG ASCII STANDARD - VERSION 2.0
 WRAP.                 NO:   ONE LINE PER DEPTH STEP
~WELL INFORMATION
#MNEM.UNIT      DATA TYPE    INFORMATION
#----------   ------------   ------------------------------
 STRT.F          200.0000:   START DEPTH
 STOP.F         3038.0000:   STOP DEPTH
 STEP.F            0.5000:   STEP LENGTH
 NULL.          -999.2500:   NO VALUE
 COMP.    FENIX & SCISSON:   COMPANY
 WELL. FENIX NPR 3 "A" #63-28:   WELL
 FLD .            WILDCAT:   FIELD
 LOC .      S28 T39N R78W:   LOCATION
 CNTY.            NATRONA:   COUNTY
 STAT.            WYOMING:   STATE
 CTRY. UNITED STATES OF AMERICA:   COUNTRY
 SRVC.              WELEX:   SERVICE COMPANY
 DATE.        29-MAY-1977:   LOGDATE
 API .     49025103740000:   API NUMBER
~CURVE INFORMATION
#MNEM.UNIT       API CODE    CURVE DESCRIPTION
#----------   ------------   ------------------------------
 DEPT.F                  :   
 SPR .MV     07 010 01 00:   SPONTANEOUS POTENTIAL
 ILM .OHMM   07 120 44 00:   INDUCTION LOG MEDIUM RESISTIVITY
 ILD .OHMM   07 120 46 00:   DEEP INDUCTION RESISTIVITY
 SGRD.OHMM   07 220 05 00:   SHALLOW SHORT GUARD RESISTIVITY
 GRD .GAPI   45 310 01 00:   GAMMA RAY FROM DENSITY LOG
 CALD.IN     45 280 60 00:   CALIPER FROM DENSITY LOG
 RHOB.G/C3   45 350 01 00:   BULK DENSITY
 CORR.G/C3   45 356 01 00:   DENSITY CORRECTION
~PARAMETER INFORMATION
#MNEM.UNIT          VALUE    DESCRIPTION
#----------   ------------   ------------------------------
 EKB .F         5040.0000:   Kelly bushing
 EGL .F         5029.0000:   Ground level
 EDF .F            0.0000:   Drilling floor
 EPD .F         5029.0000:   Permanent datum
 TD  .F         3040.0000:   Total depth
 DATE.        29-MAY-1977:   Date logged
 CLNT.            A2DTECH:   Client Code
 SL  . 1650' FNL & 1650' FEL:   Surface Location
 PD  .                 GL:   Permanent Datum
 LMF .                 KB:   Log Measured From
 DMF .                 KB:   Drilling Measured From
 DD  .F              3040:   Depth driller
 DL  .F              3038:   Depth logger
 BLI .F              3036:   Bottom log interval
 TLI .F               200:   Top log interval
 CS1 .IN            8.625:   Casing size
 BSD1.F              3040:   Depth drilled with bit1
 DFT .            KCL MUD:   Type fluid in hole
 ORIG.     2.5", 5" PRINT:   Origin of data
 UWI .     49025103740000:   Unique Well ID
 DICO. A2D TECHNOLOGIES, INC.:   Digitizing Company
 DAPD.                 11:   Feet Above Permanent Datum
 CBD1.      8.625" @ 220':   Casing driller 1
 BS1 .              7.875:   Bit size
 DFD .                8.7:   Density
 MRT .                108:   Maximum recorded temp.
 ENGI.            C. DOAK:   Recorded By
 WITN.      W. PETTINGILL:   Witnessed by
~OTHER INFORMATION
~A   DEPT      SPR        ILM          ILD     SGRD         GRD        CALD       RHOB      CORR  
# ...
 1860.5000   -65.0990     8.7610     7.6240    12.0080   125.1350     8.9210     2.4150     0.0010
 1861.0000   -65.1220     8.8660     7.6630    12.1050   124.1500     8.9250     2.4180     0.0020
 1861.5000   -65.1460     8.5460     7.7030    12.4580   122.9890     8.9270     2.4220     0.0020
 1862.0000   -65.1690     8.5710     7.7420    12.3500   123.6440     8.9290     2.4260     0.0030
 1862.5000   -65.1920     8.6280     7.7960    12.1190   124.6030     8.9310     2.4300     0.0050
 1863.0000   -65.2230     8.6850     7.7290    12.0240   125.5900     8.9330     2.4360     0.0100
 1863.5000   -65.2550     8.7950     7.6540    11.8120   125.9100     8.9350     2.4470     0.0140
 1864.0000   -65.2870     8.9330     7.6540    11.2600   124.4270     8.9370     2.4530     0.0180
 1864.5000   -65.3190     9.0710     7.7440    12.1430   123.2570     8.9390     2.4540     0.0220
 1865.0000   -65.3500     9.1980     7.8290    12.8410   122.0540     8.9410     2.4540     0.0230
 1865.5000   -65.3820     9.1980     7.9140    12.9570   120.8640     8.9430     2.4550     0.0230
 1866.0000   -65.4140     9.0310     7.9400    12.9950   121.1460     8.9450     2.4530     0.0180
 1866.5000   -65.4460     8.9020     7.8980    13.0320   122.0480     8.9470     2.4500     0.0120
 1867.0000   -65.4780     8.7590     7.8510    13.0440   122.8870     8.9490     2.4480     0.0060
 1867.5000   -65.5090     8.5090     7.8040    12.4580   123.6090     8.9510     2.4440     0.0030
 1868.0000   -65.5410     8.2380     7.7560    12.3440   122.7750     8.9530     2.4420     0.0030
 1868.5000   -65.5730     8.0770     7.7240    12.3440   121.5150     8.9550     2.4430     0.0040
 1869.0000   -65.5880     7.8680     7.6890    12.1190   120.2980     8.9570     2.4420     0.0050
 1869.5000   -65.5880     8.0410     7.6220    11.2600   119.0280     8.9600     2.4410     0.0050
 1870.0000   -65.5880     8.2320     7.5550    12.1190   117.8120     8.9620     2.4410     0.0060
 1870.5000   -65.5880     8.4220     7.4880    12.0440   116.8640     8.9640     2.4410     0.0070
 1871.0000   -65.5880     8.5900     7.4210    11.8980   117.6430     8.9660     2.4470     0.0070
 1871.5000   -65.5880     8.8790     7.3790    12.3600   117.9120     8.9680     2.4540     0.0080
 1872.0000   -65.5880     8.9480     7.3940    12.5730   118.3750     8.9700     2.4620     0.0080
 1872.5000   -65.5880     8.9480     7.4070    11.4690   118.7630     8.9720     2.4690     0.0090
 1873.0000   -65.5930     8.9480     7.4200    11.4690   119.1650     8.9750     2.4720     0.0100
 1873.5000   -65.4440     8.9480     7.4330    11.7890   119.5770     8.9770     2.4640     0.0100
 1874.0000   -65.2600     8.9480     7.4450    11.6810   119.9680     8.9790     2.4550     0.0110
 1874.5000   -65.0740     8.9670     7.5080    12.5730   120.4020     8.9810     2.4550     0.0110
 1875.0000   -65.0010     9.0640     7.5700    12.6890   120.4320     8.9840     2.4540     0.0120
 1875.5000   -65.0000     9.1600     7.6330    11.8980   120.1730     8.9860     2.4600     0.0120
 1876.0000   -65.0000     9.2360     7.6960    12.3610   119.9530     8.9880     2.4660     0.0120
 1876.5000   -65.0000     9.2980     7.7590    12.6520   119.7310     8.9900     2.4640     0.0120
 1877.0000   -65.0000     9.3600     7.8350    12.8060   119.4950     8.9930     2.4630     0.0130
 1877.5000   -65.0000     9.4220     7.9270    13.0850   119.2860     8.9950     2.4610     0.0130
 1878.0000   -65.0000     9.4830     8.0200    13.3630   119.0560     8.9970     2.4560     0.0130
 1878.5000   -65.0000     9.5430     8.1130    13.4080   119.5030     8.9990     2.4520     0.0140
 1879.0000   -65.0000     9.5890     8.2380    13.0440   120.2170     9.0010     2.4480     0.0140
 1879.5000   -65.0000     9.6310     8.1620    13.1470   120.9170     9.0040     2.4500     0.0140
 1880.0000   -65.0000     9.6990     8.2280    13.3760   121.6120     9.0010     2.4530     0.0140
 1880.5000   -65.0000     9.7790     8.2800    13.5890   122.3150     8.9980     2.4590     0.0150
 1881.0000   -65.0000     9.8580     8.3320    13.7830   123.0070     8.9950     2.4650     0.0150
 1881.5000   -65.0000     9.9000     8.3840    13.9110   123.7210     8.9920     2.4560     0.0140
 1882.0000   -65.0000     9.9000     8.4360    13.2860   124.3960     8.9900     2.4430     0.0120
 1882.5000   -65.0000     9.9000     8.4890    13.5160   125.1370     8.9870     2.4360     0.0100
 1883.0000   -65.0000     9.9000     8.5410    13.9900   125.1800     8.9840     2.4320     0.0090
 1883.5000   -65.0000     9.9000     8.4830    14.0390   125.2270     8.9810     2.4290     0.0070
 1884.0000   -65.0000     9.8990     8.4120    13.9200   124.9020     8.9780     2.4300     0.0060
 1884.5000   -65.0320     9.8300     8.3420    13.8290   124.2120     8.9750     2.4300     0.0040
 1885.0000   -65.0930     9.7560     8.2710    13.7370   123.5490     8.9720     2.4250     0.0020
 1885.5000   -65.1550     9.5960     8.1910    13.6190   122.8810     8.9690     2.4210     0.0010
 1886.0000   -65.2160     9.2160     8.1030    13.3120   122.2110     8.9660     2.4190    -0.0010
 1886.5000   -65.2780     8.8440     8.0140    13.0040   121.5420     8.9650     2.4190    -0.0010
 1887.0000   -65.3390     8.4680     7.9250    12.4580   120.8780     8.9650     2.4190    -0.0010
 1887.5000   -65.3850     8.1620     7.8680    11.1880   120.2040     8.9650     2.4190    -0.0010
 1888.0000   -65.3190     9.1140     7.8950    10.3660   119.5300     8.9650     2.4190    -0.0010
 1888.5000   -65.2550     9.0790     7.9150    13.2660   119.0130     8.9650     2.4190    -0.0010
 1889.0000   -65.1920     8.9480     7.9360    13.9110   118.9880     8.9650     2.4220    -0.0010
 1889.5000   -65.1280     8.9880     7.9790    13.5020   119.0000     8.9650     2.4310     0.0000
 1890.0000   -65.0640     9.0470     8.0820    12.2310   119.0530     8.9650     2.4410     0.0010
 1890.5000   -65.0020     9.1360     8.1860    12.5560   120.1340     8.9650     2.4470     0.0020
 1891.0000   -65.0000     9.2260     8.2900    13.4080   121.2980     8.9650     2.4480     0.0030
 1891.5000   -65.0000     9.3150     8.3930    13.5320   122.5080     8.9650     2.4490     0.0040
 1892.0000   -65.0000     9.3970     8.4970    12.9240   123.6570     8.9650     2.4540     0.0050
 1892.5000   -65.0000     9.5360     8.6010    13.7700   124.8570     8.9650     2.4610     0.0060
 1893.0000   -65.0000     9.6740     8.7040    14.5650   124.9640     8.9650     2.4680     0.0060
 1893.5000   -65.0000     9.8100     8.7940    14.4260   124.5720     8.9650     2.4760     0.0100
 1894.0000   -65.0000     9.9030     8.8350    14.1690   124.2070     8.9650     2.4810     0.0150
 1894.5000   -65.0000     9.9920     8.8760    14.2160   123.8650     8.9650     2.4800     0.0210
 1895.0000   -65.0000     9.9530     8.9170    14.2550   123.4810     8.9650     2.4780     0.0230
 1895.5000   -65.0000     9.8920     8.9480    14.2940   123.1370     8.9650     2.4720     0.0220
 1896.0000   -65.0000     9.8100     8.9050    14.3000   122.8840     8.9630     2.4650     0.0170
 1896.5000   -65.0000     9.9240     8.8700    14.3000   122.7880     8.9600     2.4590     0.0150
 1897.0000   -65.0000    10.0990     8.8360    14.3380   123.6690     8.9570     2.4510     0.0110
 1897.5000   -65.0000    10.3660     8.8010    14.4210   124.4160     8.9530     2.4510     0.0110
 1898.0000   -65.0000    10.2260     8.7670    14.5050   125.1960     8.9500     2.4500     0.0110
 1898.5000   -65.0000     9.9310     8.7320    14.5650   126.6610     8.9470     2.4500     0.0120
 1899.0000   -65.0000     9.7200     8.6980    13.7830   128.1530     8.9440     2.4530     0.0120
 1899.5000   -65.0000     9.8650     8.6630    12.8060   128.1620     8.9400     2.4590     0.0130
 1900.0000   -65.0000    10.0270     8.6250    13.4620   126.0560     8.9370     2.4630     0.0130
 1900.5000   -65.0000    10.1900     8.6390    14.0610   123.9890     8.9340     2.4680     0.0140
