~VERSION INFORMATION
 VERS.                2.0:   CWLS LOG ASCII STANDARD - VERSION 2.0
 WRAP.                 NO:   ONE LINE PER DEPTH STEP
~WELL INFORMATION
#MNEM.UNIT      DATA TYPE    INFORMATION
#----------   ------------   ------------------------------
 STRT.F           40.0000:   START DEPTH
 STOP.F         3032.5000:   STOP DEPTH
 STEP.F            0.5000:   STEP LENGTH
 NULL.          -999.2500:   NO VALUE
 COMP.   TESORO PETROLEUM:   COMPANY
 WELL. TESORO NPR 3 "AX" #51-15:   WELL
 FLD .        TEAPOT DOME:   FIELD
 LOC .      S15 T38N R78W:   LOCATION
 CNTY.            NATRONA:   COUNTY
 STAT.            WYOMING:   STATE
 CTRY. UNITED STATES OF AMERICA:   COUNTRY
 SRVC.       SCHLUMBERGER:   SERVICE COMPANY
 DATE.        21-JUL-1969:   LOGDATE
 API .     49025100240000:   API NUMBER
~CURVE INFORMATION
#MNEM.UNIT       API CODE    CURVE DESCRIPTION
#----------   ------------   ------------------------------
 DEPT.F                  :   
 CALD.IN     45 280 60 00:   CALIPER FROM DENSITY LOG
 GRD .GAPI   45 310 01 00:   GAMMA RAY FROM DENSITY LOG
 RHOB.G/C3   45 350 01 00:   BULK DENSITY
 CORR.G/C3   45 356 01 00:   DENSITY CORRECTION
 GR  .GAPI   35 310 01 00:   GAMMA RAY FROM GAMMA RAY LOG
 SPR .MV     05 010 01 00:   SPONTANEOUS POTENTIAL
 ASN .OHMM   05 041 16 00:   AMPLIFIED SHORT NORMAL 16"
 ILD .OHMM   05 120 46 00:   DEEP INDUCTION RESISTIVITY
~PARAMETER INFORMATION
#MNEM.UNIT          VALUE    DESCRIPTION
#----------   ------------   ------------------------------
 EKB .F         5235.0000:   Kelly bushing
 EGL .F         5222.0000:   Ground level
 EDF .F            0.0000:   Drilling floor
 TD  .F         3027.0000:   Total depth
 DATE.        21-JUL-1969:   Date logged
 CLNT.            A2DTECH:   Client Code
 SL  . 2000' FEL & 660' FNL:   Surface Location
 PD  .                 GL:   Permanent Datum
 EPD .F              5222:   Elevation Permanent Datum
 LMF .                 KB:   Log Measured From
 DMF .                 KB:   Drilling Measured From
 DAPD.F                13:   Feet Above Permanent Datum
 DD  .F              3027:   Depth driller
 DL  .F              3025:   Depth logger
 BLI .F              3024:   Bottom log interval
 TLI .F              2604:   Top log interval
 CS1 .IN            10.75:   Casing size
 CBD1.      10.75" @ 622':   Casing driller 1
 BS1 .IN                9:   Bit size
 BSD1.F              3027:   Depth drilled with bit1
 DFT .          FRESH/GEL:   Type fluid in hole
 DFD .                9.7:   Density
 DFV .                 65:   Viscosity
 DFPH.                9.5:   pH
 DFL .                  7:   Fluid loss
 MSS .           FLOWLINE:   Source of sample
 RMS .OHMM           2.48:   Rm
 MST .F                80:   Rm Meas. temp.
 RMF .OHMM           2.80:   Rmf
 MFST.F                80:   Rmf Meas. temp.
 MFSS.               MEAS:   Source Rmf.
 RMB .OHMM           2.20:   Rm. at BHT
 BHT .F               106:   BHT.
 TCS .HRS               1:   Time Circ. stopped
 MRT .F               106:   Maximum recorded temp.
 LUN .               4507:   Logging unit number
 LUL .               CSPR:   Logging unit location
 ENGI.           CHAMPLIN:   Recorded By
 WITN.                MAY:   Witnessed by
 ORIG.           5" PRINT:   Origin of data
 UWI .     49025100240000:   Unique Well ID
 DICO. A2D TECHNOLOGIES, INC.:   Digitizing Company
~OTHER INFORMATION
~A   DEPT     CALD        GRD       RHOB       CORR         GR        SPR        ASN          ILD 
# ...
  445.0000  -999.2500  -999.2500  -999.2500  -999.2500    37.7700   -33.8430    22.5420    22.1000
  445.5000  -999.2500  -999.2500  -999.2500  -999.2500    37.5080   -33.9750    22.3720    21.9010
  446.0000  -999.2500  -999.2500  -999.2500  -999.2500    38.6210   -34.2670    21.9050    21.6830
  446.5000  -999.2500  -999.2500  -999.2500  -999.2500    40.0470   -34.4330    21.4380    21.1110
  447.0000  -999.2500  -999.2500  -999.2500  -999.2500    41.4520   -33.8710    20.9610    20.5790
  447.5000  -999.2500  -999.2500  -999.2500  -999.2500    40.5130   -33.2330    20.4930    20.0210
  448.0000  -999.2500  -999.2500  -999.2500  -999.2500    38.2660   -32.5850    20.0170    19.4830
  448.5000  -999.2500  -999.2500  -999.2500  -999.2500    38.2750   -31.9650    19.5600    18.9330
  449.0000  -999.2500  -999.2500  -999.2500  -999.2500    39.2020   -31.2600    19.0730    18.3850
  449.5000  -999.2500  -999.2500  -999.2500  -999.2500    40.2530   -30.8830    18.5580    17.8480
  450.0000  -999.2500  -999.2500  -999.2500  -999.2500    41.2140   -30.8430    18.0660    17.2670
  450.5000  -999.2500  -999.2500  -999.2500  -999.2500    41.9520   -30.6830    17.5610    16.8440
  451.0000  -999.2500  -999.2500  -999.2500  -999.2500    42.1120   -30.5140    17.0650    16.6250
  451.5000  -999.2500  -999.2500  -999.2500  -999.2500    41.1890   -30.7360    16.5900    16.3660
  452.0000  -999.2500  -999.2500  -999.2500  -999.2500    42.3120   -31.3930    16.4050    16.1200
  452.5000  -999.2500  -999.2500  -999.2500  -999.2500    43.4190   -31.7290    16.2330    15.8710
  453.0000  -999.2500  -999.2500  -999.2500  -999.2500    43.9950   -31.5240    16.1520    15.6220
  453.5000  -999.2500  -999.2500  -999.2500  -999.2500    43.1680   -30.9490    16.1190    15.3670
  454.0000  -999.2500  -999.2500  -999.2500  -999.2500    40.9230   -30.3560    16.0860    15.2030
  454.5000  -999.2500  -999.2500  -999.2500  -999.2500    41.0340   -29.7540    16.0510    15.2740
  455.0000  -999.2500  -999.2500  -999.2500  -999.2500    41.5000   -29.1790    16.0190    15.3430
  455.5000  -999.2500  -999.2500  -999.2500  -999.2500    41.3280   -28.5200    15.9840    15.4200
  456.0000  -999.2500  -999.2500  -999.2500  -999.2500    41.6040   -28.1010    15.9780    15.4910
  456.5000  -999.2500  -999.2500  -999.2500  -999.2500    42.2540   -28.1040    16.0010    15.5650
  457.0000  -999.2500  -999.2500  -999.2500  -999.2500    42.8150   -28.0320    16.0230    15.6380
  457.5000  -999.2500  -999.2500  -999.2500  -999.2500    41.9490   -27.9890    16.0460    15.7110
  458.0000  -999.2500  -999.2500  -999.2500  -999.2500    39.3680   -27.9390    16.0680    15.7860
  458.5000  -999.2500  -999.2500  -999.2500  -999.2500    40.0940   -27.8830    16.0910    15.8560
  459.0000  -999.2500  -999.2500  -999.2500  -999.2500    41.0210   -27.8410    16.1140    15.9400
  459.5000  -999.2500  -999.2500  -999.2500  -999.2500    41.5270   -27.7800    16.1340    15.9310
  460.0000  -999.2500  -999.2500  -999.2500  -999.2500    41.2140   -27.7280    16.1630    15.8210
  460.5000  -999.2500  -999.2500  -999.2500  -999.2500    40.6530   -27.3140    16.1270    15.7260
  461.0000  -999.2500  -999.2500  -999.2500  -999.2500    38.8460   -26.8670    16.0200    15.6250
  461.5000  -999.2500  -999.2500  -999.2500  -999.2500    38.7980   -26.3900    15.9230    15.5260
  462.0000  -999.2500  -999.2500  -999.2500  -999.2500    36.3300   -25.9580    15.8230    15.4270
  462.5000  -999.2500  -999.2500  -999.2500  -999.2500    35.3880   -25.4490    15.7240    15.3270
  463.0000  -999.2500  -999.2500  -999.2500  -999.2500    35.2660   -25.5430    15.6250    15.2280
  463.5000  -999.2500  -999.2500  -999.2500  -999.2500    34.3540   -25.7280    15.5180    15.1280
  464.0000  -999.2500  -999.2500  -999.2500  -999.2500    34.3320   -25.9210    15.4020    15.0290
  464.5000  -999.2500  -999.2500  -999.2500  -999.2500    35.4170   -26.1010    15.2870    14.9300
  465.0000  -999.2500  -999.2500  -999.2500  -999.2500    34.3230   -26.2860    15.1750    14.8290
  465.5000  -999.2500  -999.2500  -999.2500  -999.2500    32.9910   -26.4820    15.0490    14.7460
  466.0000  -999.2500  -999.2500  -999.2500  -999.2500    33.0460   -26.5830    14.9740    14.6810
  466.5000  -999.2500  -999.2500  -999.2500  -999.2500    33.3430   -26.5700    14.9840    14.6140
  467.0000  -999.2500  -999.2500  -999.2500  -999.2500    33.1740   -26.5740    14.9800    14.5480
  467.5000  -999.2500  -999.2500  -999.2500  -999.2500    32.3550   -26.5740    14.9810    14.4820
  468.0000  -999.2500  -999.2500  -999.2500  -999.2500    32.5340   -26.5720    14.9800    14.4150
  468.5000  -999.2500  -999.2500  -999.2500  -999.2500    32.2220   -26.5750    14.9800    14.3490
  469.0000  -999.2500  -999.2500  -999.2500  -999.2500    32.6050   -26.5720    14.9790    14.2820
  469.5000  -999.2500  -999.2500  -999.2500  -999.2500    33.1680   -26.5620    14.9800    14.2160
  470.0000  -999.2500  -999.2500  -999.2500  -999.2500    34.1380   -26.3480    14.9780    14.1500
  470.5000  -999.2500  -999.2500  -999.2500  -999.2500    35.0660   -26.1000    14.9770    14.0810
  471.0000  -999.2500  -999.2500  -999.2500  -999.2500    34.5530   -25.8520    14.8550    14.0200
  471.5000  -999.2500  -999.2500  -999.2500  -999.2500    33.5770   -25.6030    14.6860    13.9270
  472.0000  -999.2500  -999.2500  -999.2500  -999.2500    33.1630   -25.3600    14.5200    13.8060
  472.5000  -999.2500  -999.2500  -999.2500  -999.2500    34.0770   -25.1020    14.3550    13.6930
  473.0000  -999.2500  -999.2500  -999.2500  -999.2500    35.4350   -24.9800    14.1890    13.5780
  473.5000  -999.2500  -999.2500  -999.2500  -999.2500    36.2150   -24.8870    14.0240    13.4630
  474.0000  -999.2500  -999.2500  -999.2500  -999.2500    35.0650   -24.7830    13.8570    13.3480
  474.5000  -999.2500  -999.2500  -999.2500  -999.2500    33.8480   -24.6860    13.6930    13.2330
  475.0000  -999.2500  -999.2500  -999.2500  -999.2500    34.3690   -24.6080    13.5250    13.1190
  475.5000  -999.2500  -999.2500  -999.2500  -999.2500    35.1560   -24.5780    13.3600    13.0040
  476.0000  -999.2500  -999.2500  -999.2500  -999.2500    35.7350   -24.1570    13.2030    12.8870
  476.5000  -999.2500  -999.2500  -999.2500  -999.2500    35.3170   -23.7350    13.1600    12.8000
  477.0000  -999.2500  -999.2500  -999.2500  -999.2500    36.0200   -23.2500    13.1230    12.7990
  477.5000  -999.2500  -999.2500  -999.2500  -999.2500    36.8410   -23.0530    13.0890    12.7970
  478.0000  -999.2500  -999.2500  -999.2500  -999.2500    36.7830   -23.1790    13.0520    12.7980
  478.5000  -999.2500  -999.2500  -999.2500  -999.2500    36.5080   -23.2600    13.0160    12.7990
  479.0000  -999.2500  -999.2500  -999.2500  -999.2500    37.6730   -23.3580    12.9750    12.7760
  479.5000  -999.2500  -999.2500  -999.2500  -999.2500    38.6820   -23.4520    12.9270    12.7200
  480.0000  -999.2500  -999.2500  -999.2500  -999.2500    39.8130   -23.5430    12.8780    12.6680
  480.5000  -999.2500  -999.2500  -999.2500  -999.2500    40.5290   -23.6420    12.8290    12.6140
  481.0000  -999.2500  -999.2500  -999.2500  -999.2500    40.8250   -23.7260    12.7810    12.5610
  481.5000  -999.2500  -999.2500  -999.2500  -999.2500    41.5670   -23.8270    12.7320    12.5080
  482.0000  -999.2500  -999.2500  -999.2500  -999.2500    42.0530   -23.6680    12.6840    12.4550
  482.5000  -999.2500  -999.2500  -999.2500  -999.2500    41.4040   -23.4040    12.6350    12.4010
  483.0000  -999.2500  -999.2500  -999.2500  -999.2500    41.2110   -23.1700    12.5860    12.3480
  483.5000  -999.2500  -999.2500  -999.2500  -999.2500    41.7270   -22.9310    12.5380    12.2950
  484.0000  -999.2500  -999.2500  -999.2500  -999.2500    42.3790   -22.6910    12.4890    12.2410
  484.5000  -999.2500  -999.2500  -999.2500  -999.2500    43.0340   -22.4530    12.4410    12.1940
  485.0000  -999.2500  -999.2500  -999.2500  -999.2500    42.6520   -22.2140    12.3920    12.1610
