~VERSION INFORMATION
 VERS.                2.0:   CWLS LOG ASCII STANDARD - VERSION 2.0
 WRAP.                 NO:   ONE LINE PER DEPTH STEP
~WELL INFORMATION
#MNEM.UNIT      DATA TYPE    INFORMATION
#----------   ------------   ------------------------------
 STRT.F           10.0000:   START DEPTH
 STOP.F         5812.0000:   STOP DEPTH
 STEP.F            0.5000:   STEP LENGTH
 NULL.          -999.2500:   NO VALUE
 COMP. LAWRENCE - ALLSISON:   COMPANY
 WELL. LAWRENCE "X" #11-11:   WELL
 FLD .              NPR 3:   FIELD
 LOC .      S11 T38N R78W:   LOCATION
 CNTY.            NATRONA:   COUNTY
 STAT.            WYOMING:   STATE
 CTRY. UNITED STATES OF AMERICA:   COUNTRY
 SRVC.      DRESSER ATLAS:   SERVICE COMPANY
 DATE.        12-NOV-1982:   LOGDATE
 API .     49025109160000:   API NUMBER
~CURVE INFORMATION
#MNEM.UNIT       API CODE    CURVE DESCRIPTION
#----------   ------------   ------------------------------
 DEPT.F                  :   
 TEND.LBS    45 635 01 00:   TENSION FROM DENSITY LOG
 CALD.IN     45 280 60 00:   CALIPER FROM DENSITY LOG
 CORR.G/C3   45 356 01 00:   DENSITY CORRECTION
 RHOB.G/C3   45 350 01 00:   BULK DENSITY
 CN  .DEC    42 890 03 00:   COMPENSATED NEUTRON POROSITY SANDSTONE
 AC  .US/F   60 520 00 00:   ACOUSTIC
 TENS.LBS    60 635 01 00:   TENSION FROM SONIC
 GRR .GAPI   11 310 01 00:   GAMMA RAY FROM RESISTIVITY
 RD  .OHMM   11 220 10 00:   RESISTIVITY DEEP
 RMLL.OHMM   11 270 04 00:   RESISTIVITY MICROLATEROLOG
 RS  .OHMM   11 220 09 00:   RESISTIVITY SHALLOW
 SPR .MV     11 010 01 00:   SPONTANEOUS POTENTIAL FROM RESISTIVITY
 TENR.LBS    11 635 01 00:   TENSION FROM RESISTIVITY
~PARAMETER INFORMATION
#MNEM.UNIT          VALUE    DESCRIPTION
#----------   ------------   ------------------------------
 EKB .F         5160.0000:   Kelly bushing
 EGL .F         5150.0000:   Ground level
 EDF .F            0.0000:   Drilling floor
 TD  .F         5800.0000:   Total depth
 CLNT.            A2DTECH:   Client Code
 SL  . 660' FNL & 660' FWL:   Surface Location
 PD  .                 GL:   Permanent Datum
 EPD .F              5150:   Elevation Permanent Datum
 LMF .                 KB:   Log Measured From
 DMF .                 KB:   Drilling Measured From
 DAPD.F                10:   Feet Above Permanent Datum
 DATE.        12-NOV-1982:   Date Logged [DD-MMM-YYYY]
 DD  .F              5800:   Depth driller
 DL  .F              5795:   Depth logger
 BLI .F              5702:   Bottom log interval
 TLI .F                 0:   Top log interval
 CS1 .IN            9.625:   Casing size
 CBD1.      9.625" @ 664':   Casing driller 1
 CBL1.F               660:   Casing logger 1
 BS1 .IN             8.75:   Bit size
 BSD1.F              5800:   Depth drilled with bit1
 DFT .                KCL:   Type fluid in hole
 DFD .                8.6:   Density
 DFV .                 45:   Viscosity
 DFPH.                8.5:   pH
 DFL .                7.8:   Fluid loss
 MSS .           FLOWLINE:   Source of sample
 RMS .OHMM           0.32:   Rm
 MST .F                92:   Rm Meas. temp.
 RMF .OHMM           0.26:   Rmf
 MFST.F                90:   Rmf Meas. temp.
 MFSS.               MEAS:   Source Rmf.
 RMB .OHMM           0.19:   Rm. at BHT
 BHT .F               160:   BHT.
 TCS .HRS               3:   Time Circ. stopped
 MRT .F               160:   Maximum recorded temp.
 LUN .               6270:   Logging unit number
 LUL .              WLSTN:   Logging unit location
 ENGI.            QUICKEL:   Recorded By
 WITN.             STRONG:   Witnessed by
 ORIG.        2" 5" PRINT:   Origin of data
 UWI .     49025109160000:   Unique Well ID
 DICO. A2D TECHNIOLOGIES,INC.:   Digitizing Company
 RMC .OHMM           0.40:   Rmc
 MCST.F                92:   Rmc Meas. temp.
 MCSS.               CALC:   Source Rmc.
~OTHER INFORMATION
~A  DEPTH     TEND       CALD       CORR       RHOB         CN         AC       TENS        GRR         RD       RMLL         RS        SPR       TENR
# ...
 1336.0000   -73.8381    11.1323     0.0423     2.5260     0.3169    90.8383   -66.9670    88.5886     7.9908     6.4597     7.0581   -59.9519   -74.4361
 1336.5000   -70.0900    11.1319     0.0573     2.5351     0.3247    90.3168   -70.3841    88.8889     8.1005     6.5027     7.1060   -59.6501   -74.5099
 1337.0000   -70.0900    11.1314     0.0753     2.5442     0.3267    90.2588   -70.1201    88.2883     8.2118     6.6824     7.2033   -59.4985   -74.5852
 1337.5000   -66.3418    11.1309     0.0941     2.5503     0.3210    90.4902   -69.8198    87.9880     8.2668     6.8677     7.4050   -59.4967   -70.2614
 1338.0000   -66.3418    11.1305     0.1023     2.5510     0.3078    90.3440   -61.9934    88.5886     8.3223     7.1568     7.5595   -59.4953   -67.1899
 1338.5000   -66.3418    11.1451     0.1038     2.5441     0.2934    89.5201   -61.6989    88.2702     8.4366     7.3045     7.6641   -59.4938   -67.2822
 1339.0000   -70.0900    11.1595     0.1022     2.5365     0.2747    88.0938   -57.6508    88.3405     8.4987     7.2509     7.7151   -59.6425   -67.3560
 1339.5000   -70.0900    11.1591     0.0991     2.5289     0.2705    87.3453   -53.6026    90.6907     8.7413     7.2480     7.8213   -59.6410   -67.4298
 1340.0000   -66.3418    11.1736     0.0780     2.5197     0.2708    87.0474   -49.2990    91.2913     8.9737     7.5671     7.9326   -59.7901   -63.7144
 1340.5000   -62.5937    11.1732     0.0629     2.5174     0.2700    87.5047   -45.4955    90.0901     9.1605     7.8703     8.0943   -59.9384   -67.5774
 1341.0000   -66.3418    11.1877     0.0784     2.5189     0.2670    88.2622   -49.3752    87.9880     9.1580     7.7050     8.3204   -59.9369   -67.6512
 1341.5000   -70.0900    11.1873     0.0884     2.5166     0.2652    88.7937   -52.4250    85.2853     9.1555     7.2859     8.3182   -59.9354   -67.7251
 1342.0000   -70.0900    11.2017     0.0688     2.5098     0.2762    88.9488   -52.0570    84.6847     9.1530     7.0835     8.2581   -60.0842   -75.3403
 1342.5000   -70.0900    11.2013     0.0191     2.5045     0.2894    88.7927   -55.5899    85.8859     9.0871     7.0316     8.1415   -60.2329   -75.4148
 1343.0000   -66.3418    11.2008    -0.0155     2.5006     0.2912    88.5822   -59.0493    88.3124     9.0216     6.9809     8.0828   -60.2310   -75.9418
 1343.5000   -62.5937    11.1854    -0.0157     2.5060     0.2906    88.5866   -58.6813    91.5916     8.9566     7.0266     7.9687   -60.2296   -83.1217
 1344.0000   -58.8456    11.1850     0.0057     2.5229     0.2792    88.7417   -62.1622    93.6937     8.9542     7.2208     7.8562   -60.2281   -83.1955
 1344.5000   -55.0975    11.1846     0.0159     2.5287     0.2642    89.0473   -61.8461    94.8949     8.9517     7.4210     7.8540   -60.3772   -83.2694
 1345.0000   -51.3493    11.1841     0.0023     2.5180     0.2624    89.4282   -61.5616    93.0931     8.9492     7.5217     7.9068   -60.3753   -75.7832
 1345.5000   -47.6012    11.1837    -0.0278     2.5135     0.2726    89.7339   -61.2574    90.6907     8.9463     7.3126     7.9046   -60.3739   -68.3156
 1346.0000   -51.3493    11.1832    -0.0429     2.5127     0.2760    89.8889   -57.2072    87.0871     8.9438     7.1584     7.9573   -60.3724   -68.4078
 1346.5000   -51.3493    11.1828    -0.0083     2.5225     0.2724    89.3662   -56.9069    87.0871     8.9414     7.2054     7.9551   -60.3706   -68.4817
 1347.0000   -55.0975    11.1972     0.0202     2.5423     0.2691    88.7682   -56.6066    87.6877     9.0020     7.2533     7.9530   -60.2192   -72.3262
 1347.5000   -58.8456    11.1968     0.0467     2.5605     0.2691    88.3962   -56.3063    88.2883     9.0617     7.4537     8.0070   -60.2175   -76.1708
 1348.0000   -55.0975    11.1963     0.1104     2.5794     0.2710    88.2500   -56.0060    88.8889     9.1231     7.7138     8.0042   -60.2161   -72.4736
 1348.5000   -51.3493    11.1959     0.1104     2.5650     0.2746    88.4122   -55.6635    89.4895     9.1843     7.6573     8.0021   -60.0644   -72.8275
 1349.0000   -47.6012    11.1955     0.0802     2.5391     0.2819    88.6486   -55.4054    90.0901     9.1812     7.5487     7.9443   -59.9128   -76.3952
 1349.5000   -43.8531    11.1950     0.0230     2.5186     0.3078    88.9421   -55.0747    89.7898     9.1787     7.3901     7.9421   -59.9114   -76.4845
 1350.0000   -43.8531    11.1946    -0.0192     2.5118     0.3018    89.3230   -54.7803    88.8889     9.1126     7.2853     7.8848   -59.9099   -77.4885
 1350.5000   -47.9764    11.1942    -0.0554     2.5165     0.2994    89.7040   -54.4859    87.6751     8.9788     6.9851     8.1629   -59.7943   -84.1252
 1351.0000   -62.5230    11.1937    -0.0305     2.5232     0.3127    90.0096   -61.6568    87.9640     8.6746     6.6511     8.1041   -59.9099   -80.3903
 1351.5000   -66.4544    11.1933     0.0078     2.5262     0.3224    90.2399   -61.3656    88.8531     8.5524     6.3772     7.9902   -60.0601   -76.6564
 1352.0000   -70.2399    11.1927     0.0258     2.5307     0.3314    90.3950   -61.0742    89.4421     8.2577     6.1526     7.9331   -60.2102   -72.9224
 1352.5000   -62.7884    11.1923     0.0348     2.5406     0.3254    90.4736   -60.7829    89.7307     8.2550     6.0693     7.7673   -60.2102   -69.1885
 1353.0000   -55.3195    11.1919     0.0407     2.5532     0.3074    90.2532   -60.4916    89.4159     8.3690     6.1091     7.6582   -60.2102   -69.2344
 1353.5000   -55.3652    11.1915     0.0497     2.5622     0.3008    90.0310   -60.2002    89.1040     8.4251     6.1919     7.4981   -60.2102   -73.0420
 1354.0000   -51.6444    11.1910     0.0618     2.5644     0.3020    89.5214   -59.9099    89.0924     8.5402     6.3197     7.4890   -60.2102   -76.8495
 1354.5000   -47.9328    11.2055     0.0740     2.5621     0.3030    88.9994   -61.6925    89.3811     8.6581     6.4949     7.5475   -59.9099   -73.1146
 1355.0000   -44.2303    11.2051     0.0767     2.5546     0.3039    88.4019   -63.0800    89.9701     8.7162     6.5382     7.6023   -59.6096   -73.1523
 1355.5000   -44.2668    11.2196     0.0586     2.5470     0.3051    87.1257   -58.9621    90.6611     8.8354     6.5349     7.7039   -58.7087   -69.4184
 1356.0000   -40.5547    11.2192     0.0359     2.5432     0.3057    85.9249   -58.6709    92.3463     8.9567     6.8574     7.8101   -57.5075   -65.6844
 1356.5000   -29.3473    11.2187     0.0133     2.5440     0.3052    85.9308   -58.3795    92.6379     8.9602     7.4600     7.8635   -56.5906   -69.5012
 1357.0000   -25.6357    11.2182     0.0058     2.5424     0.3016    86.2404   -58.0882    91.1219     8.9512     7.7100     7.8615   -55.9819   -77.0794
 1357.5000   -40.6739    11.2028    -0.0049     2.5394     0.2925    88.5870   -57.7969    90.5126     8.7640     7.5998     7.7511   -55.7057   -80.8869
 1358.0000   -51.9548    11.2023     0.0297     2.5318     0.2775    90.5501   -57.5055    92.9005     8.4621     7.2365     7.5891   -55.4054   -84.6945
 1358.5000   -59.4875    11.2019     0.0372     2.5258     0.2739    90.7822   -57.2072    94.6907     8.2851     7.0355     7.5348   -55.4054   -80.9513
 1359.0000   -59.5240    11.2015     0.0282     2.5197     0.2775    90.6372   -56.8501    94.6408     8.2254     6.9357     7.5333   -55.2553   -80.9973
 1359.5000   -59.5605    11.2161     0.0311     2.5137     0.2941    90.1906   -56.5588    93.7636     8.2232     6.8849     7.5318   -55.2553   -81.0341
 1360.0000   -63.3452    11.2155     0.0356     2.5197     0.3131    89.8933   -56.3063    93.4517     8.2210     6.8345     7.5302   -55.2553   -81.0709
 1360.5000   -63.3817    11.2151     0.0100     2.5242     0.2999    89.5990   -57.1131    93.1398     8.2187     6.8318     7.5814   -55.2553   -77.3369
 1361.0000   -59.6700    11.1997     0.0099     2.5241     0.2849    89.5294   -59.4595    92.8279     8.2214     6.8289     7.5795   -55.5575   -69.8414
 1361.5000   -59.7076    11.2142     0.0129     2.5226     0.2975    89.4599   -59.1473    93.4169     8.2137     6.8738     7.5779   -56.0239   -69.8782
