~VERSION INFORMATION
 VERS.                2.0:   CWLS LOG ASCII STANDARD - VERSION 2.0
 WRAP.                 NO:   ONE LINE PER DEPTH STEP
~WELL INFORMATION
#MNEM.UNIT      DATA TYPE    INFORMATION
#----------   ------------   ------------------------------
 STRT.F          290.0000:   START DEPTH
 STOP.F         2884.0000:   STOP DEPTH
 STEP.F            0.5000:   STEP LENGTH
 NULL.          -999.2500:   NO VALUE
 COMP.   FENNIX & SCISSON:   COMPANY
 WELL. FENIX & SCISSON AX #22-28:   WELL
 FLD .             NPR #3:   FIELD
 LOC .      S28 T39N R78W:   LOCATION
 CNTY.            NATRONA:   COUNTY
 STAT.            WYOMING:   STATE
 CTRY. UNITED STATES OF AMERICA:   COUNTRY
 SRVC.              WELEX:   SERVICE COMPANY
 DATE.        29-DEC-1979:   LOGDATE
 API .     49025107930000:   API NUMBER
~CURVE INFORMATION
#MNEM.UNIT       API CODE    CURVE DESCRIPTION
#----------   ------------   ------------------------------
 DEPT.F                  :   
 GRD .GAPI   45 310 01 00:   GAMMA RAY FROM DENSITY LOG
 CALD.IN     45 280 60 00:   CALIPER FROM DENSITY LOG
 CORR.G/C3   45 356 01 00:   DENSITY CORRECTION
 RHOB.G/C3   45 350 01 00:   BULK DENSITY
 NPHI.DEC    42 890 03 00:   NEUTRON POROSITY SANDSTONE
 SPR .MV     07 010 01 00:   SPONTANEOUS POTENTIAL
 TENR.LBS    07 635 01 00:   TENSION FROM RESISTIVITY
 ILD .OHMM   07 120 46 00:   DEEP INDUCTION RESISTIVITY
 ILM .OHMM   07 120 44 00:   INDUCTION LOG MEDIUM RESISTIVITY
 SGRD.OHMM   07 220 08 00:   LATEROLOG-8 RES.
~PARAMETER INFORMATION
#MNEM.UNIT          VALUE    DESCRIPTION
#----------   ------------   ------------------------------
 EKB .F         4988.0000:   Kelly bushing
 EGL .F         4978.0000:   Ground level
 EPD .F         4978.0000:   Permanent datum
 TD  .F         2872.0000:   Total depth
 CLNT.            A2DTECH:   Client Code
 SL  . 803' FNL & 938' FWL:   Surface Location
 DATE.        29-DEC-1979:   Date Logged [DD-MMM-YYYY]
 DD  .F              2868:   Depth driller
 DL  .F              2872:   Depth logger
 BLI .F              2870:   Bottom log interval
 TLI .F               300:   Top log interval
 CS1 .              8.625:   Casing size
 CBD1.      8.625" @ 318':   Casing driller 1
 CBL1.IN              318:   Casing logger 1
 BS1 .IN            7.875:   Bit size
 BSD1.F              2868:   Depth drilled with bit1
 DFT .          GEL-BENEX:   Type fluid in hole
 DFD .                8.8:   Density
 TCS .HRS              10:   Time Circ. stopped
 MRT .F               109:   Maximum recorded temp.
 ENGI.               REIN:   Recorded By
 WITN.          MR. AMEND:   Witnessed by
 ORIG.      2.5" 5" PRINT:   Origin of data
 UWI .     49025107930000:   Unique Well ID
 DICO. A2D TECHNOLOGIES, INC.:   Digitizing Company
 PD  .                 GL:   Permanent Datum
 LMF .                 KB:   Log Measured From
 DMF .                 KB:   Drilling Measured From
~OTHER INFORMATION
~A   DEPT       GRD        CALD     CORR         RHOB       NPHI      SPR       TENR        ILD        ILM       SGRD   
# ...
 1295.0000   102.0404     8.7685    -0.0009     2.5573     0.2564   -66.1310  1434.5238    10.6251     9.8572    11.4232
 1295.5000   100.8618     8.7694    -0.0164     2.5417     0.2548   -66.1250  1433.9286    10.0603     9.8599    11.4285
 1296.0000    99.0836     8.7703    -0.0241     2.5478     0.2572   -66.1191  1433.3334     9.9253     9.8626    11.5912
 1296.5000    98.4480     8.7713    -0.0038     2.5523     0.2596   -66.1131  1432.7382    10.0644     9.8653    11.7563
 1297.0000   100.6245     8.7876     0.0010     2.5532     0.2593   -66.1071  1432.1428    10.3462    10.4232    11.9704
 1297.5000   102.1446     8.8042     0.0042     2.5428     0.2589   -66.1012  1431.5476    10.4912    11.4743    12.1422
 1298.0000   101.2659     8.8205     0.0090     2.5511     0.2617   -66.0952  1430.9524    10.4933    12.2903    12.6593
 1298.5000    99.1878     8.8369     0.0137     2.5519     0.2649   -66.0893  1430.3572    10.3526    11.9617    12.5591
 1299.0000    97.1097     8.8378     0.0201     2.5453     0.2656   -66.0833  1429.7620    10.0747    11.6419    12.2227
 1299.5000    99.2295     8.8387     0.0233     2.5423     0.2644   -66.0774  1429.1667    10.0768    11.0247    11.8954
 1300.0000   101.6492     8.8240     0.0280     2.5582     0.2631   -66.0714  1428.5714     9.9417    10.5841    11.0434
 1300.5000   101.9699     8.8251     0.0390     2.5651     0.2595   -66.0655  1427.9762     9.9437    10.3008    10.8931
 1301.0000   100.7754     8.8104     0.0469     2.5712     0.2543   -66.0595  1427.3810     9.8103    10.1629    10.7965
 1301.5000   101.4606     8.8270     0.0501     2.5803     0.2577   -66.3523  1426.7858     9.6788    10.0268    10.9472
 1302.0000   104.8922     8.8279     0.0487     2.5751     0.2660   -66.3453  1426.1906     9.6808    10.0288    11.0051
 1302.5000   108.6905     8.8443     0.0441     2.5707     0.2688   -66.3393  1425.5952     9.5509     9.8942    11.1600
 1303.0000   108.6238     8.8452     0.0348     2.5625     0.2659   -66.3333  1425.0000     9.5530     9.7618    11.2561
 1303.5000   106.8375     8.8770     0.0287     2.5559     0.2634   -66.3274  1424.4048     9.5641     9.6313    11.3203
 1304.0000   104.7901     8.8779     0.0226     2.5379     0.2603   -66.6190  1423.8094     9.6995     9.5022    11.7317
 1304.5000   106.0116     8.8942     0.0133     2.5372     0.2573   -66.6131  1423.2142     9.9724     9.9026    11.7333
 1305.0000   105.7293     8.8952     0.0025     2.5359     0.2546   -66.6071  1422.6190    10.2675    10.4620    11.5752
 1305.5000   103.0483     8.9115    -0.0021     2.5352     0.2530   -66.6012  1422.0237    10.8513    10.9027    11.4891
 1306.0000   100.3673     8.9124     0.0058     2.5450     0.2551   -66.5952  1421.4285    11.4492    11.3619    11.8116
 1306.5000    97.6863     8.9288     0.0183     2.5579     0.2507   -66.5893  1420.8333    11.5904    11.8405    12.0661
 1307.0000    97.1035     8.9297     0.0293     2.5655     0.2495   -66.6667  1420.1738    11.4131    11.5232    11.7511
 1307.5000    98.6211     8.9460     0.0509     2.5844     0.2491   -66.6667  1419.5811    11.1052    11.0619    11.5832
 1308.0000   100.7376     8.9313     0.0741     2.5980     0.2494   -66.7296  1418.9883    10.5135    10.4748    11.7437
 1308.5000   103.5039     8.9325     0.0692     2.5883     0.2512   -66.9617  1418.3956    10.0907    10.0555    11.7464
 1309.0000   105.9714     8.9334     0.0601     2.5786     0.2527   -66.9617  1417.8029     9.7947     9.7860    11.4302
 1309.5000   106.1878     8.9189     0.0618     2.5855     0.2518   -66.9617  1417.2100     9.4479     9.6549    11.1958
 1310.0000   104.1109     8.9198     0.0418     2.5833     0.2511   -66.9617  1416.6172    10.0102    10.0616    11.3607
 1310.5000   102.6293     8.9247     0.0139     2.5609     0.2535   -66.9617  1416.0245    10.4645    10.6300    11.6797
 1311.0000   101.7429     8.9312    -0.0016     2.5422     0.2550   -66.9617  1415.4318    10.8755    11.2304    11.6657
 1311.5000   101.4607     8.9345     0.0110     2.5520     0.2572   -66.9617  1414.8390    11.1464    11.5444    12.0594
 1312.0000   100.8830     8.9197     0.0252     2.5619     0.2618   -66.9617  1414.2461    11.1486    11.5467    12.8404
 1312.5000    99.1016     8.8743     0.0316     2.5665     0.2639   -66.9617  1413.6533    10.7760    11.5491    12.7670
 1313.0000    97.3201     8.7979     0.0332     2.5613     0.2605   -66.9617  1383.2988    10.3412    11.5514    11.7318
 1313.5000    97.0374     8.7215     0.0334     2.5577     0.2552   -66.9617  1382.7061     9.9967    11.2418    11.6023
 1314.0000    98.2549     8.6758     0.0366     2.5510     0.2517   -66.9617  1382.1133     9.9991    10.9406    11.6041
 1314.5000    99.4971     8.7848     0.0383     2.5472     0.2510   -66.9617  1411.3096    10.0411    10.5012    11.6057
 1315.0000   100.6896     8.8627     0.0369     2.5632     0.2550   -66.9617  1410.6895    10.1832     9.9452    11.6073
 1315.5000   100.7110     8.8943     0.0513     2.5768     0.2581   -66.9617  1439.8810    10.3272     9.9472    12.0962
 1316.0000    99.2293     8.8951     0.0641     2.5852     0.2590   -66.9617  1469.0278    10.4273     9.9492    12.2648
 1316.5000    97.4479     8.8958     0.0763     2.5920     0.2534   -66.9617  1468.4351    10.5734     9.9584    11.9348
 1317.0000    95.3665     8.8966     0.0842     2.5989     0.2511   -66.9617  1497.6190    10.5756    10.2385    11.6133
 1317.5000    93.5850     8.8975     0.0719     2.5892     0.2505   -66.9617  1497.0116    10.7237    10.5156    12.4391
 1318.0000    92.4033     8.8983     0.0549     2.5657     0.2511   -66.9617  1496.4187    10.7259    10.5303    12.2715
 1318.5000    91.8168     8.8990     0.0286     2.5383     0.2523   -66.9617  1495.8259    10.8762    10.6792    11.6184
 1319.0000    92.4385     8.8689     0.0209     2.5431     0.2513   -66.9617  1495.2332    11.0285    10.8304    11.6200
 1319.5000    94.5551     8.8543     0.0335     2.5538     0.2491   -66.9617  1494.6404    11.0308    10.9836    12.4459
 1320.0000    96.6717     8.8396     0.0383     2.5628     0.2506   -66.9617  1494.0477    11.1853    11.1186    12.1110
 1320.5000    97.5892     8.8093     0.0431     2.5689     0.2512   -66.9617  1493.4525    11.1877    11.2742    11.9476
 1321.0000    97.0068     8.7637     0.0433     2.5740     0.2390   -66.9617  1492.8572    11.1900    11.3008    12.4510
 1321.5000    96.1292     8.7619     0.0341     2.5599     0.2446   -66.9617  1492.2618    11.1922    11.4342    12.9754
 1322.0000    95.8426     8.7809     0.0249     2.5509     0.2473   -66.9617  1490.6741    11.1275    11.5942    13.1562
 1322.5000    95.8646     8.7816     0.0250     2.5585     0.2495   -66.9617  1461.3096    10.7615    11.5965    12.8023
 1323.0000    96.4820     8.7664     0.0330     2.5639     0.2510   -66.9617  1460.7144    10.3273    11.7587    12.4578
 1323.5000    97.0993     8.7695     0.0346     2.5520     0.2525   -66.6667  1460.1190    10.4458    11.7612    12.4932
 1324.0000    97.7166     8.7531     0.0301     2.5453     0.2512   -66.6667  1459.5237    11.0963    11.7636    12.2916
 1324.5000    98.3339     8.6921     0.0287     2.5484     0.2481   -66.6667  1458.9285    11.7016    11.6058    12.1258
 1325.0000    98.6514     8.7393     0.0288     2.5522     0.2443   -66.6667  1458.3333    11.8398    11.6085    12.1275
 1325.5000    98.9689     8.8327     0.0290     2.5561     0.2421   -66.3717  1457.7380    11.3111    11.4123    11.9641
 1326.0000    99.5862     8.8797     0.0275     2.5599     0.2417   -66.3717  1457.1427    10.7070    11.1047    11.9657
 1326.5000   100.5286     8.8496     0.0245     2.5638     0.2429   -66.6667  1456.5475    10.1351    10.7639    11.8044
 1327.0000   102.0710     8.8193     0.0263     2.5586     0.2472   -66.6667  1455.9523     9.9156    10.4128    11.6454
 1327.5000   103.5415     8.8820     0.0280     2.5489     0.2478   -66.9617  1455.3571     9.9178    10.1338    11.4884
 1328.0000   104.4587     8.9445     0.0250     2.5460     0.2453   -66.9617  1454.7618     9.9198     9.9981    11.6485
