~VERSION INFORMATION
 VERS.                2.0:   CWLS LOG ASCII STANDARD - VERSION 2.0
 WRAP.                 NO:   ONE LINE PER DEPTH STEP
~WELL INFORMATION
#MNEM.UNIT      DATA TYPE    INFORMATION
#----------   ------------   ------------------------------
 STRT.F           31.5000:   START DEPTH
 STOP.F         4204.0000:   STOP DEPTH
 STEP.F            0.5000:   STEP LENGTH
 NULL.          -999.2500:   NO VALUE
 COMP.   LAWRENCE ALLISON:   COMPANY
 WELL. LAWRENCE 3 "X" #32-10:   WELL
 FLD .                NPR:   FIELD
 LOC .      S10 T38N R78W:   LOCATION
 CNTY.            NATRONA:   COUNTY
 STAT.            WYOMING:   STATE
 CTRY. UNITED STATES OF AMERICA:   COUNTRY
 SRVC.      DRESSER ATLAS:   SERVICE COMPANY
 DATE.        05-NOV-1983:   LOGDATE
 API .     49025109460000:   API NUMBER
~CURVE INFORMATION
#MNEM.UNIT       API CODE    CURVE DESCRIPTION
#----------   ------------   ------------------------------
 DEPT.F                  :   
 CALD.IN     45 280 60 00:   CALIPER FROM DENSITY LOG
 CNC .DEC    42 890 01 00:   NEUTRON POROSITY LIMESTONE
 CORR.G/C3   45 356 01 00:   DENSITY CORRECTION
 TEND.LBS    45 635 01 00:   TENSION FORM DENSITY LOG
 RHOB.G/C3   45 350 01 00:   BULK DENSITY
 DT  .US/F   60 520 00 00:   DELTA TIME
 TENS.LBS    60 635 01 00:   TENSION FROM SONIC
 GRR .GAPI   07 310 01 00:   GAMMA RAY FROM RESISTIVITY
 TENR.LBS    06 635 01 00:   TENSION FROM RESISTIVITY
 RFOC.OHMM   07 220 04 00:   RESISTIVITY FOCUSED LOG RES.
 RILM.OHMM   07 120 44 00:   INDUCTION LOG MEDIUM RESISTIVITY
 RILD.OHMM   07 120 46 00:   DEEP INDUCTION RESISTIVITY
 SPR .MV     07 010 01 00:   SPONTANEOUS POTENTIAL
~PARAMETER INFORMATION
#MNEM.UNIT          VALUE    DESCRIPTION
#----------   ------------   ------------------------------
 EKB .F         5237.0000:   Kelly bushing
 EGL .F         5227.0000:   Ground level
 TD  .F         4202.0000:   Total depth
 CLNT.            A2DTECH:   Client Code
 SL  . 1871' FWL & 1152' FNL:   Surface Location
 PD  .                 GL:   Permanent Datum
 EPD .F              5227:   Elevation Permanent Datum
 LMF .                 KB:   Log Measured From
 DMF .                 KB:   Drilling Measured From
 DAPD.F                10:   Feet Above Permanent Datum
 DATE.        05-NOV-1983:   Date Logged [DD-MMM-YYYY]
 DD  .F              4200:   Depth driller
 DL  .F              4202:   Depth logger
 BLI .F              4200:   Bottom log interval
 TLI .F                30:   Top log interval
 CS1 .IN            8.625:   Casing size
 CBD1.      8.625" @ 545':   Casing driller 1
 CBL1.F               545:   Casing logger 1
 BS1 .IN            7.875:   Bit size
 BSD1.F              4200:   Depth drilled with bit1
 DFT .            GEL KCL:   Type fluid in hole
 DFD .                8.9:   Density
 DFV .                 42:   Viscosity
 DFPH.                8.5:   pH
 DFL .               12.4:   Fluid loss
 MSS .           FLOWLINE:   Source of sample
 RMS .OHMM           0.43:   Rm
 MST .F                97:   Rm Meas. temp.
 RMF .OHMM           0.42:   Rmf
 MFST.F                74:   Rmf Meas. temp.
 MFSS.               MEAS:   Source Rmf.
 RMC .OHMM           0.53:   Rmc
 MCST.F                97:   Rmc Meas. temp.
 MCSS.               CALC:   Source Rmc.
 RMB .OHMM           0.32:   Rm. at BHT
 BHT .F               131:   BHT.
 TCS .HRS               3:   Time Circ. stopped
 MRT .F               131:   Maximum recorded temp.
 LUN .               6307:   Logging unit number
 LUL .               GLTE:   Logging unit location
 ENGI.            DEYOUNG:   Recorded By
 WITN.             STRONG:   Witnessed by
 ORIG.        2" 5" PRINT:   Origin of data
 UWI .     49025109460000:   Unique Well ID
 DICO. A2D TECHNOLOGIES, INC.:   Digitizing Company
~OTHER INFORMATION
~A   DEPT     CALD        CNC       CORR       TEND       RHOB         DT       TENS         GRR      TENR       RFOC       RILM       RILD        SPR   
# ...
 2007.5000     9.4010     0.2918     0.0554   -19.8767     2.5340  -999.2500  -999.2500   135.8607   -19.1983     9.6620     7.7825     7.7381   -35.2111
 2008.0000     9.4061     0.2915     0.0569   -19.8767     2.5263  -999.2500  -999.2500   133.7266   -19.7097     9.5222     7.7775     7.7330   -35.6868
 2008.5000     9.4111     0.3064     0.0519   -22.9584     2.5140  -999.2500  -999.2500   130.9951   -20.2212     9.5169     7.7724     7.7280   -36.0000
 2009.0000     9.4162     0.3011     0.0460   -22.9584     2.5032  -999.2500  -999.2500   129.4685   -20.7326     9.5117     7.8236     7.7776   -36.3226
 2009.5000     9.4212     0.2972     0.0490   -22.9584     2.4993  -999.2500  -999.2500   128.3937   -21.2441     9.5734     7.7234     7.6778   -36.4908
 2010.0000     9.4262     0.2979     0.0551   -22.0339     2.5078  -999.2500  -999.2500   129.4274   -21.7555     9.6368     7.7737     7.7278   -36.6590
 2010.5000     9.4313     0.3048     0.0597   -19.8767     2.5101  -999.2500  -999.2500   132.2952   -22.2670     9.6993     7.7147     7.7236   -36.5216
 2011.0000     9.4363     0.3086     0.0643   -19.8767     2.5047  -999.2500  -999.2500   135.8057   -26.6910     9.7611     7.7095     7.6650   -35.9412
 2011.5000     9.4413     0.3118     0.0565   -19.8767     2.5000  -999.2500  -999.2500   138.6978   -25.7491     9.8243     7.7053     7.6608   -35.3564
 2012.0000     9.4464     0.3169     0.0027   -19.8767     2.4931  -999.2500  -999.2500   139.1290   -24.8071     9.8188     7.7010     7.6566   -34.7716
 2012.5000     9.4513     0.3232    -0.0204   -19.8767     2.4823  -999.2500  -999.2500   141.5181   -23.8651     9.7447     7.6968     7.6524   -34.1867
 2013.0000     9.4514     0.3208    -0.0050   -19.8767     2.4838  -999.2500  -999.2500   143.6059   -22.9231     9.6035     7.7480     7.6481   -33.5863
 2013.5000     9.4512     0.3121     0.0226   -19.8767     2.4900  -999.2500  -999.2500   142.5311   -21.9811     9.5972     7.8537     7.7546   -33.0215
 2014.0000     9.4498     0.3071     0.0376   -19.8767     2.4938  -999.2500  -999.2500   139.0467   -21.0391     9.5919     7.9037     7.8323   -33.0391
 2014.5000     9.4484     0.3042     0.0532   -16.7951     2.4922  -999.2500  -999.2500   135.4168   -20.0820     9.7234     7.9554     7.9085   -33.0567
 2015.0000     9.4470     0.3036     0.0485   -16.7951     2.4867  -999.2500  -999.2500   137.0477   -23.7705     9.8540     7.9509     7.9041   -33.2249
 2015.5000     9.4457     0.3074     0.0070   -13.7134     2.4791  -999.2500  -999.2500   138.2319   -28.4805     9.9877     7.9464     7.8998   -33.2425
 2016.0000     9.4443     0.3230    -0.0161   -13.7134     2.4814  -999.2500  -999.2500   138.5125   -33.1904    10.0539     7.8862     7.8954   -33.2601
 2016.5000     9.4430     0.3369     0.0041   -10.6317     2.4929  -999.2500  -999.2500   136.6796   -37.9004    10.1191     7.8809     7.8356   -33.2778
 2017.0000     9.4416     0.3388     0.0207    -7.5501     2.5006  -999.2500  -999.2500   134.2493   -42.6103    10.4314     7.8765     7.8312   -33.2954
 2017.5000     9.4403     0.3340    -0.0055    -7.5501     2.4945  -999.2500  -999.2500   131.6685   -44.6721    10.2040     7.8729     7.8269   -33.4740
 2018.0000     9.4389     0.3302    -0.0332    -7.5501     2.4865  -999.2500  -999.2500   131.2013   -44.1655    10.0533     7.8678     7.8228   -33.7831
 2018.5000     9.4375     0.3283    -0.0378    -7.5501     2.4829  -999.2500  -999.2500   132.8322   -43.6376     9.9049     7.8635     7.8184   -33.9550
 2019.0000     9.4362     0.3270    -0.0378    -7.5501     2.4821  -999.2500  -999.2500   134.7694   -43.1098     9.7573     7.8588     7.8140   -34.2738
 2019.5000     9.4348     0.3245    -0.0036   -10.6317     2.4836  -999.2500  -999.2500   135.0552   -42.5820     9.7494     7.8551     7.8096   -34.5926
 2020.0000     9.4335     0.3210     0.0312   -11.5559     2.4859  -999.2500  -999.2500   132.3186   -42.0541     9.7414     7.8507     7.8052   -35.0620
 2020.5000     9.4321     0.3144     0.0388   -14.2996     2.4882  -999.2500  -999.2500   130.4908   -41.5263     9.8035     7.7911     7.7938   -35.2302
 2021.0000     9.4308     0.3071     0.0280   -17.6582     2.4813  -999.2500  -999.2500   130.0184   -40.9984     9.7942     7.7868     7.7408   -35.3984
 2021.5000     9.4294     0.3036     0.0080   -19.8767     2.4674  -999.2500  -999.2500   131.9461   -40.4706     9.8566     7.7824     7.7366   -35.4160
 2022.0000     9.4281     0.3020    -0.0028   -26.0401     2.4620  -999.2500  -999.2500   135.0977   -39.9428     9.8459     7.7234     7.6779   -35.5842
 2022.5000     9.4267     0.3220     0.0140   -29.1217     2.4812  -999.2500  -999.2500   132.2105   -39.4149     9.8379     7.7127     7.6737   -35.4317
 2023.0000     9.4253     0.3239     0.0447   -32.2034     2.4997  -999.2500  -999.2500   130.8345   -38.8871     9.8299     7.6060     7.6155   -35.1720
 2023.5000     9.4240     0.3239     0.0647   -29.1217     2.5099  -999.2500  -999.2500   131.8681   -38.3592     9.8206     7.6018     7.5578   -34.8840
 2024.0000     9.4226     0.3223     0.0800   -29.1217     2.5143  -999.2500  -999.2500   134.4078   -37.8314     9.8126     7.5976     7.5537   -34.6004
 2024.5000     9.4213     0.3265     0.0907   -32.2034     2.5050  -999.2500  -999.2500   135.5920   -37.3036     9.8046     7.5939     7.5495   -34.1662
 2025.0000     9.4199     0.3391     0.0660   -32.2034     2.4935  -999.2500  -999.2500   136.1738   -36.7757     9.7966     7.5360     7.5453   -33.7364
 2025.5000     9.4186     0.3382     0.0445   -32.2034     2.4888  -999.2500  -999.2500   136.3148   -36.2479     9.7890     7.5318     7.4880   -33.4528
 2026.0000     9.4172     0.3284     0.0368   -32.2034     2.4966  -999.2500  -999.2500   134.2928   -35.7200     9.7794     7.5276     7.4830   -33.0186
 2026.5000     9.4158     0.3179     0.0398   -32.2034     2.5042  -999.2500  -999.2500   129.7833   -35.1922     9.7714     7.5235     7.4788   -32.8856
 2027.0000     9.4145     0.3106     0.0444   -29.1217     2.5088  -999.2500  -999.2500   127.3548   -34.6644     9.6287     7.5193     7.4753   -32.6020
 2027.5000     9.4131     0.3075     0.0474   -29.1217     2.5142  -999.2500  -999.2500   126.8774   -34.1365     9.2662     7.5151     7.4706   -32.6240
 2028.0000     9.4118     0.3125     0.0489   -29.1217     2.5134  -999.2500  -999.2500   128.4036   -33.6084     9.0852     7.5100     7.4665   -32.9428
 2028.5000     9.4109     0.2961     0.0488   -31.1201     2.5034  -999.2500  -999.2500   129.7818   -33.0802     9.2063     7.5059     7.4623   -33.1110
 2029.0000     9.4125     0.2973     0.0488   -32.2034     2.4892  -999.2500  -999.2500   130.2811   -32.5558     9.3937     7.5017     7.4582   -33.4298
 2029.5000     9.4151     0.3078     0.0487   -32.2034     2.4833  -999.2500  -999.2500   132.0677   -32.1954     9.5202     7.4455     7.4017   -33.7486
 2030.0000     9.4177     0.3335     0.0487   -32.2034     2.4879  -999.2500  -999.2500   133.8544   -31.8054     9.6485     7.4408     7.3976   -34.0674
 2030.5000     9.4204     0.3596     0.0486   -32.2034     2.4979  -999.2500  -999.2500   134.8880   -31.4154     9.7073     7.4371     7.3935   -34.5368
 2031.0000     9.4230     0.3525     0.0471   -32.2034     2.4964  -999.2500  -999.2500   134.1144   -31.0254     9.7679     7.4329     7.3894   -35.0063
 2031.5000     9.4256     0.3386     0.0224   -32.2034     2.4848  -999.2500  -999.2500   131.3012   -30.6354     9.6889     7.4509     7.3847   -35.3333
 2032.0000     9.4282     0.3208     0.0132   -32.2034     2.4771  -999.2500  -999.2500   128.1946   -30.2454     9.7520     7.4773     7.4333   -35.6446
 2032.5000     9.4309     0.3028     0.0162   -32.2034     2.4801  -999.2500  -999.2500   128.0286   -29.8554     9.8115     7.4728     7.4291   -35.9671
 2033.0000     9.4335     0.2992     0.0380   -32.2034     2.4863  -999.2500  -999.2500   130.8643   -29.4654     9.8028     7.4687     7.4249   -36.2859
