~VERSION INFORMATION
 VERS.                2.0:   CWLS LOG ASCII STANDARD - VERSION 2.0
 WRAP.                 NO:   ONE LINE PER DEPTH STEP
~WELL INFORMATION
#MNEM.UNIT      DATA TYPE    INFORMATION
#----------   ------------   ------------------------------
 STRT.F           31.5000:   START DEPTH
 STOP.F         3370.0000:   STOP DEPTH
 STEP.F            0.5000:   STEP LENGTH
 NULL.          -999.2500:   NO VALUE
 COMP. LAWRENCE ALLISON & ASSOC - WEST:   COMPANY
 WELL. LAWRENCE "AX" #46-34:   WELL
 FLD .             NPR #3:   FIELD
 LOC .      S34 T39N R78W:   LOCATION
 CNTY.            NATRONA:   COUNTY
 STAT.            WYOMING:   STATE
 CTRY. UNITED STATES OF AMERICA:   COUNTRY
 SRVC.       SCHLUMBERGER:   SERVICE COMPANY
 DATE.        30-APR-1986:   LOGDATE
 API .     49025111380000:   API NUMBER
~CURVE INFORMATION
#MNEM.UNIT       API CODE    CURVE DESCRIPTION
#----------   ------------   ------------------------------
 DEPT.F                  :   
 TENR.LBS    07 635 01 00:   TENSION FROM RESISTIVITY
 GRR .GAPI   07 310 01 00:   GAMMA RAY FROM RESISTIVITY
 CALR.IN     07 280 01 00:   CALIPER FROM RESISTIVITY
 SPR .MV     07 010 01 00:   SPONTANEOUS POTENTIAL
 TEND.LBS    45 635 01 00:   TENSION FROM DENSITY LOG
 DEN .G/C3   45 350 01 00:   BULK DENSITY
 CORR.G/C3   45 356 01 00:   DENSITY CORRECTION
 CNC .DEC    42 890 03 00:   NEUTRON PORISITY SANDSTONE
 RFOC.OHMM   07 220 04 00:   RESISTIVITY FOCUSED LOG
 RILD.OHMM   07 120 46 00:   RESISTIVITY INDUCTION LOG DEEP
 RILM.OHMM   07 120 44 00:   RESISTIVITY INDUCTION LOG MEDIUM
~PARAMETER INFORMATION
#MNEM.UNIT          VALUE    DESCRIPTION
#----------   ------------   ------------------------------
 EKB .F         5094.0000:   Kelly bushing
 EGL .F         5082.0000:   Ground level
 EDF .F            0.0000:   Drilling floor
 TD  .F         3370.0000:   Total depth
 DATE.        30-APR-1986:   Date logged
 CLNT.            A2DTECH:   Client Code
 SL  . 2462' FWL & 1545' FSL:   Surface Location
 PD  .                 GL:   Permanent Datum
 EPD .F              5082:   Elevation Permanent Datum
 LMF .                 KB:   Log Measured From
 DMF .                 KB:   Drilling Measured From
 DAPD.F                12:   Feet Above Permanent Datum
 DD  .F              3370:   Depth driller
 DL  .F              3369:   Depth logger
 BLI .F              3367:   Bottom log interval
 CS1 .IN            8.625:   Casing size
 CBD1.      8.625" @ 642':   Casing driller 1
 CBL1.F               642:   Casing logger 1
 BS1 .IN            7.875:   Bit size
 BSD1.F              3370:   Depth drilled with bit1
 DFT .        POLYMER/KCL:   Type fluid in hole
 DFD .                8.9:   Density
 DFV .                 36:   Viscosity
 DFPH.                8.5:   pH
 DFL .               10.2:   Fluid loss
 MSS .           FLOWLINE:   Source of sample
 RMS .OHMM           .319:   Rm
 MST .F                79:   Rm Meas. temp.
 RMF .OHMM            .24:   Rmf
 MFST.F                79:   Rmf Meas. temp.
 RMC .OHMM            .40:   Rmc
 MCST.F                79:   Rmc Meas. temp.
 MFSS.               CALC:   Source Rmf.
 MCSS.               CALC:   Source Rmc.
 RMB .OHMM            .21:   Rm. at BHT
 BHT .F               117:   BHT.
 TCS .HRS               4:   Time Circ. stopped
 MRT .F               117:   Maximum recorded temp.
 LUN .            HL-6264:   Logging unit number
 LUL .           GILLETTE:   Logging unit location
 ENGI.     P. M. FAHLSING:   Recorded By
 WITN.             STRONG:   Witnessed by
 ORIG.        2" 5" PRINT:   Origin of data
 UWI .     49025111380000:   Unique Well ID
 DICO. A2D TECHNOLOGIES, INC.:   Digitizing Company
 TLI .                  0:   Top log interval
~OTHER INFORMATION
~A   DEPT     TENR        GRR       CALR        SPR       TEND        DEN       CORR        CNC       RFOC       RILD       RILM   
# ...
 1007.5000   -39.5420    94.3370    10.7640   -86.9110  -999.2500  -999.2500  -999.2500  -999.2500     7.8730     8.1610     6.8450
 1008.0000   -37.5860    89.3800    10.7610   -87.2820  -999.2500  -999.2500  -999.2500  -999.2500     7.9440     8.1250     6.8320
 1008.5000   -35.6300    84.4040    10.7580   -87.3150  -999.2500  -999.2500  -999.2500  -999.2500     8.0160     8.0890     6.8190
 1009.0000   -33.5120    83.7670    10.7540   -87.2870  -999.2500  -999.2500  -999.2500  -999.2500     8.0870     8.0440     6.7470
 1009.5000   -31.0910    86.4710    10.7510   -87.3090  -999.2500  -999.2500  -999.2500  -999.2500     7.9990     7.9700     6.7470
 1010.0000   -28.6690    89.3040    10.7470   -87.2950  -999.2500  -999.2500  -999.2500  -999.2500     7.8770     7.9620     6.7240
 1010.5000   -26.2480    91.1110    10.7440   -87.3010  -999.2500  -999.2500  -999.2500  -999.2500     7.7550     7.9500     6.7030
 1011.0000   -24.3230    91.2580    10.7410   -87.3020  -999.2500  -999.2500  -999.2500  -999.2500     7.6090     7.9380     6.6830
 1011.5000   -29.4480    90.1490    10.7370   -87.2960  -999.2500  -999.2500  -999.2500  -999.2500     7.6090     7.9250     6.6630
 1012.0000   -34.5340    87.7920    10.7340   -87.0880  -999.2500  -999.2500  -999.2500  -999.2500     7.6090     7.9130     6.6420
 1012.5000   -39.6190    85.5190    10.7300   -86.7280  -999.2500  -999.2500  -999.2500  -999.2500     7.6190     7.9010     6.6220
 1013.0000   -44.3830    87.0820    10.7300   -86.3940  -999.2500  -999.2500  -999.2500  -999.2500     7.6290     7.8880     6.6020
 1013.5000   -44.3830    89.4940    10.7300   -86.0320  -999.2500  -999.2500  -999.2500  -999.2500     7.6390     7.8760     6.5810
 1014.0000   -44.3830    91.3000    10.7300   -85.6980  -999.2500  -999.2500  -999.2500  -999.2500     7.6490     7.8640     6.5610
 1014.5000   -44.3830    94.0010    10.7300   -85.3380  -999.2500  -999.2500  -999.2500  -999.2500     7.6580     7.8510     6.5410
 1015.0000   -44.3830    96.7890    10.7300   -84.9070  -999.2500  -999.2500  -999.2500  -999.2500     7.6680     7.8390     6.5200
 1015.5000   -44.3830    99.8240    10.7300   -84.8970  -999.2500  -999.2500  -999.2500  -999.2500     7.6800     7.8230     6.5020
 1016.0000   -44.3830    96.4800    10.7300   -85.3010  -999.2500  -999.2500  -999.2500  -999.2500     7.7510     7.8230     6.5270
 1016.5000   -44.3830    90.0750    10.7300   -85.6680  -999.2500  -999.2500  -999.2500  -999.2500     7.7130     7.8960     6.5490
 1017.0000   -44.3830    91.0070    10.7300   -86.0810  -999.2500  -999.2500  -999.2500  -999.2500     7.6730     7.8960     6.5710
 1017.5000   -44.3830    93.3790    10.7300   -86.4390  -999.2500  -999.2500  -999.2500  -999.2500     7.6330     7.8350     6.5930
 1018.0000   -44.3830    94.9330    10.7300   -86.8600  -999.2500  -999.2500  -999.2500  -999.2500     7.5930     7.7720     6.6150
 1018.5000   -44.3830    95.1180    10.7300   -87.2820  -999.2500  -999.2500  -999.2500  -999.2500     7.5530     7.7090     6.5810
 1019.0000   -44.3830    92.2750    10.7300   -87.3160  -999.2500  -999.2500  -999.2500  -999.2500     7.5130     7.6470     6.5120
 1019.5000   -44.3830    89.3860    10.7300   -87.3640  -999.2500  -999.2500  -999.2500  -999.2500     7.4730     7.5840     6.4420
 1020.0000   -44.3830    87.5450    10.7300   -87.4510  -999.2500  -999.2500  -999.2500  -999.2500     7.4330     7.5210     6.3720
 1020.5000   -44.3830    88.4200    10.7340   -87.4990  -999.2500  -999.2500  -999.2500  -999.2500     7.3930     7.4590     6.3030
 1021.0000   -44.3830    92.2260    10.7410   -87.5700  -999.2500  -999.2500  -999.2500  -999.2500     7.3530     7.4010     6.2660
 1021.5000   -44.3830    94.8180    10.7470   -87.6310  -999.2500  -999.2500  -999.2500  -999.2500     7.3650     7.4650     6.3470
 1022.0000   -44.3830    92.8010    10.7510   -87.7000  -999.2500  -999.2500  -999.2500  -999.2500     7.4280     7.5360     6.4090
 1022.5000   -44.3830    91.7200    10.7530   -87.4530  -999.2500  -999.2500  -999.2500  -999.2500     7.4920     7.6070     6.4720
 1023.0000   -44.3830    93.2760    10.7550   -86.9930  -999.2500  -999.2500  -999.2500  -999.2500     7.5560     7.6790     6.5340
 1023.5000   -44.3830    94.4950    10.7580   -86.5100  -999.2500  -999.2500  -999.2500  -999.2500     7.6090     7.7500     6.5970
 1024.0000   -44.3830    94.6250    10.7600   -86.0650  -999.2500  -999.2500  -999.2500  -999.2500     7.6090     7.8230     6.5880
 1024.5000   -44.3830    92.4250    10.7620   -85.5670  -999.2500  -999.2500  -999.2500  -999.2500     7.5610     7.7500     6.5240
 1025.0000   -44.3830    90.2560    10.7640   -85.3180  -999.2500  -999.2500  -999.2500  -999.2500     7.4980     7.6750     6.4600
 1025.5000   -44.3830    90.3720    10.7660   -85.6760  -999.2500  -999.2500  -999.2500  -999.2500     7.4360     7.6000     6.3970
 1026.0000   -44.3830    91.9900    10.7680   -86.0320  -999.2500  -999.2500  -999.2500  -999.2500     7.3730     7.5240     6.3330
 1026.5000   -44.3830    93.5540    10.7700   -86.3380  -999.2500  -999.2500  -999.2500  -999.2500     7.3110     7.4490     6.2690
 1027.0000   -44.3830    95.2380    10.7720   -86.6760  -999.2500  -999.2500  -999.2500  -999.2500     7.2480     7.3740     6.2090
 1027.5000   -44.3830    96.9310    10.7750   -87.0020  -999.2500  -999.2500  -999.2500  -999.2500     7.1860     7.3330     6.1750
 1028.0000   -44.3830    97.2380    10.7770   -87.2940  -999.2500  -999.2500  -999.2500  -999.2500     7.1230     7.3160     6.1350
 1028.5000   -44.3830    97.3000    10.7790   -87.3080  -999.2500  -999.2500  -999.2500  -999.2500     7.0670     7.3030     6.0960
 1029.0000   -44.3830    99.5170    10.7810   -87.2920  -999.2500  -999.2500  -999.2500  -999.2500     7.0570     7.2900     6.0560
 1029.5000   -44.3830   101.6800    10.7830   -87.3060  -999.2500  -999.2500  -999.2500  -999.2500     7.0460     7.2770     6.0170
 1030.0000   -44.3830   101.0900    10.7850   -87.2970  -999.2500  -999.2500  -999.2500  -999.2500     7.0350     7.2640     5.9770
 1030.5000   -44.3830    99.9340    10.7880   -87.2990  -999.2500  -999.2500  -999.2500  -999.2500     7.0240     7.2510     5.9280
 1031.0000   -44.3830    99.2890    10.7900   -87.3050  -999.2500  -999.2500  -999.2500  -999.2500     7.0130     7.2380     5.9990
 1031.5000   -44.3830    99.2460    10.7890   -87.2920  -999.2500  -999.2500  -999.2500  -999.2500     7.0020     7.2250     6.0950
 1032.0000   -44.3830   100.2950    10.7860   -87.3110  -999.2500  -999.2500  -999.2500  -999.2500     7.0020     7.2120     6.0860
 1032.5000   -44.3830   100.1460    10.7840   -87.2880  -999.2500  -999.2500  -999.2500  -999.2500     6.9730     7.1990     6.0750
 1033.0000   -44.3830   100.1910    10.7820   -86.9990  -999.2500  -999.2500  -999.2500  -999.2500     6.9500     7.1850     6.0640
 1033.5000   -44.3830   103.3400    10.7800   -86.6660  -999.2500  -999.2500  -999.2500  -999.2500     6.9260     7.1720     6.0530
 1034.0000   -44.3830   105.5480    10.7780   -86.3770  -999.2500  -999.2500  -999.2500  -999.2500     6.9020     7.1590     6.0430
 1034.5000   -44.3830   104.8240    10.7760   -86.0510  -999.2500  -999.2500  -999.2500  -999.2500     6.8790     7.1460     6.0060
 1035.0000   -44.1140    99.5900    10.7740   -85.7520  -999.2500  -999.2500  -999.2500  -999.2500     6.8550     7.1330     5.9570
 1035.5000   -43.5460    95.4930    10.7720   -85.4370  -999.2500  -999.2500  -999.2500  -999.2500     6.8310     7.1200     5.9080
 1036.0000   -42.9780    96.4710    10.7700   -85.0980  -999.2500  -999.2500  -999.2500  -999.2500     6.8100     7.1070     5.8860
 1036.5000   -42.4100    99.5610    10.7670   -85.1050  -999.2500  -999.2500  -999.2500  -999.2500     6.8100     7.0940     5.9250
 1037.0000   -41.8410   104.4700    10.7650   -85.5020  -999.2500  -999.2500  -999.2500  -999.2500     6.8100     7.0810     5.9650
 1037.5000   -41.2730   103.1580    10.7630   -85.8780  -999.2500  -999.2500  -999.2500  -999.2500     6.8100     7.0670     6.0040
