~VERSION INFORMATION
 VERS.                2.0:   CWLS LOG ASCII STANDARD - VERSION 2.0
 WRAP.                 NO:   ONE LINE PER DEPTH STEP
~WELL INFORMATION
#MNEM.UNIT      DATA TYPE    INFORMATION
#----------   ------------   ------------------------------
 STRT.F           46.0000:   START DEPTH
 STOP.F         2736.5000:   STOP DEPTH
 STEP.F            0.5000:   STEP LENGTH
 NULL.          -999.2500:   NO VALUE
 COMP.          INTEX OIL:   COMPANY
 WELL. INTEX NPR 3 "AX" #72-20:   WELL
 FLD .             TEAPOT:   FIELD
 LOC .      S20 T39N R78W:   LOCATION
 CNTY.            NATRONA:   COUNTY
 STAT.            WYOMING:   STATE
 CTRY. UNITED STATES OF AMERICA:   COUNTRY
 SRVC.       SCHLUMBERGER:   SERVICE COMPANY
 DATE.        11-MAY-1966:   LOGDATE
 API .     49025095110000:   API NUMBER
~CURVE INFORMATION
#MNEM.UNIT       API CODE    CURVE DESCRIPTION
#----------   ------------   ------------------------------
 DEPT.F                  :   
 SPR .MV     05 010 01 00:   SPONTANEOUS POTENTIAL FROM RES.
 ILD .OHMM   05 120 46 00:   INDUCTION LOG DEEP
 ASN .OHMM   05 041 16 00:   AMPLIFIED SHORT NORMAL 16"
 CALD.IN     45 280 60 00:   CALIPER FROM DENSITY LOG
 CORR.G/C3   45 356 01 00:   DENSITY CORRECTION
 RHOB.G/C3   45 350 01 00:   BULK DENSITY
 GRD .GAPI   45 310 01 00:   GAMMA RAY FROM DENSITY LOG
~PARAMETER INFORMATION
#MNEM.UNIT          VALUE    DESCRIPTION
#----------   ------------   ------------------------------
 EKB .F         5042.3000:   Kelly bushing
 EGL .F         5032.0000:   Ground level
 EDF .F            0.0000:   Drilling floor
 EPD .F         5032.0000:   Permanent datum
 TD  .F         2740.0000:   Total depth
 DATE.        11-MAY-1966:   Date logged
 CLNT.            A2DTECH:   Client Code
 DAPD.F              10.3:   Feet Above Permanent Datum
 DD  .F              2740:   Depth driller
 DL  .F              2737:   Depth logger
 BLI .F              2736:   Bottom log interval
 TLI .F                88:   Top log interval
 CS1 .IN            10.75:   Casing size
 CBD1.       10.75" @ 24':   Casing driller 1
 BS1 .IN            7.875:   Bit size
 BSD1.F              2740:   Depth drilled with bit1
 DFT .           OIL EMUL:   Type fluid in hole
 DFD .                9.8:   Density
 DFV .                 58:   Viscosity
 MSS .         CIRCULATED:   Source of sample
 RMS .OHMM           3.04:   Rm
 MST .F                54:   Rm Meas. temp.
 RMF .OHMM           1.95:   Rmf
 MFST.F                55:   Rmf Meas. temp.
 MFSS.                 FR:   Source Rmf.
 RMB .OHMM           1.64:   Rm. at BHT
 BHT .F               100:   BHT.
 TCS .HRS               4:   Time Circ. stopped
 MRT .F               100:   Maximum recorded temp.
 LUN .               4507:   Logging unit number
 LUL .               CSPR:   Logging unit location
 ENGI.               HAUG:   Recorded By
 WITN.             TUTTLE:   Witnessed by
 ORIG.        2" 5" PRINT:   Origin of data
 UWI .     49025095110000:   Unique Well ID
 DICO. A2D TECHNOLOGIES, INC.:   Digitizing Company
~OTHER INFORMATION
~A   DEPT      SPR        ILD        ASN       CALD       CORR       RHOB         GRD  
# ...
 1138.0000   -52.5570     7.7420  -999.2500     8.2900     0.0640     2.5130   106.4050
 1138.5000   -52.5470     7.7290  -999.2500     8.2860     0.0490     2.5010   108.0530
 1139.0000   -52.4110     7.6910  -999.2500     8.2820     0.0330     2.4780   112.4730
 1139.5000   -52.2840     7.6560  -999.2500     8.2780     0.0160     2.4590   110.7230
 1140.0000   -52.1530     7.6200  -999.2500     8.2750     0.0040     2.4380   108.9550
 1140.5000   -52.0210     7.5850  -999.2500     8.2710     0.0100     2.4370   109.5830
 1141.0000   -51.8920     7.5490  -999.2500     8.2670     0.0140     2.4370   109.8750
 1141.5000   -51.7870     7.5140  -999.2500     8.2640     0.0180     2.4370   111.1250
 1142.0000   -51.8920     7.4780  -999.2500     8.2670     0.0110     2.4360   113.3940
 1142.5000   -51.9930     7.4420  -999.2500     8.2700     0.0210     2.4410   114.2900
 1143.0000   -52.1040     7.4080  -999.2500     8.2730     0.0250     2.4510   112.9560
 1143.5000   -52.2080     7.3680  -999.2500     8.2760     0.0280     2.4730   111.1660
 1144.0000   -52.3160     7.3730  -999.2500     8.2790     0.0240     2.4770   109.1100
 1144.5000   -52.4220     7.4230  -999.2500     8.2810     0.0100     2.4700   108.9600
 1145.0000   -52.5290     7.4660  -999.2500     8.2840     0.0110     2.4790   108.9660
 1145.5000   -52.6340     7.5120  -999.2500     8.2870     0.0260     2.4820   108.6020
 1146.0000   -52.7420     7.5570  -999.2500     8.2900     0.0230     2.4680   107.7160
 1146.5000   -52.8480     7.6020  -999.2500     8.2930     0.0250     2.4570   106.8730
 1147.0000   -52.9460     7.6470  -999.2500     8.2960     0.0370     2.4520   106.6460
 1147.5000   -52.9500     7.6920  -999.2500     8.2990     0.0360     2.4470   106.9310
 1148.0000   -52.9540     7.7370  -999.2500     8.3020     0.0330     2.4490   107.1960
 1148.5000   -52.9500     7.7820  -999.2500     8.3040     0.0360     2.4570   107.4570
 1149.0000   -52.9420     7.8280  -999.2500     8.3070     0.0420     2.4720   107.7640
 1149.5000   -52.7920     7.8710  -999.2500     8.3100     0.0480     2.4880   108.2150
 1150.0000   -52.6380     7.9220  -999.2500     8.3130     0.0510     2.4940   108.7790
 1150.5000   -52.4790     7.9180  -999.2500     8.3160     0.0450     2.4940   109.3260
 1151.0000   -52.3250     7.8590  -999.2500     8.3190     0.0370     2.4810   109.8700
 1151.5000   -52.1680     7.8070  -999.2500     8.3220     0.0280     2.4800   110.4460
 1152.0000   -52.0110     7.7540  -999.2500     8.3250     0.0290     2.4860   110.9560
 1152.5000   -51.8570     7.7000  -999.2500     8.3270     0.0340     2.4880   111.7290
 1153.0000   -51.6960     7.6470  -999.2500     8.3300     0.0380     2.4850   112.6920
 1153.5000   -51.5450     7.5940  -999.2500     8.3330     0.0310     2.4750   115.1200
 1154.0000   -51.3960     7.5410  -999.2500     8.3360     0.0200     2.4660   117.2470
 1154.5000   -51.4830     7.4870  -999.2500     8.3390     0.0100     2.4630   117.8990
 1155.0000   -51.5860     7.4360  -999.2500     8.3420     0.0240     2.4690   118.1030
 1155.5000   -51.6970     7.3750  -999.2500     8.3540     0.0340     2.4760   118.2170
 1156.0000   -51.8010     7.3850  -999.2500     8.3730     0.0350     2.4770   118.1720
 1156.5000   -51.9090     7.4660  -999.2500     8.3800     0.0290     2.4610   115.2300
 1157.0000   -52.0140     7.5370  -999.2500     8.3720     0.0240     2.4570   112.6820
 1157.5000   -52.1220     7.6110  -999.2500     8.3660     0.0250     2.4640   111.3180
 1158.0000   -52.2260     7.6840  -999.2500     8.3580     0.0340     2.4720   111.2920
 1158.5000   -52.3360     7.7570  -999.2500     8.3510     0.0430     2.5030   111.9540
 1159.0000   -52.4380     7.8310    10.5500     8.3440     0.0530     2.5110   113.6790
 1159.5000   -52.5440     7.9040    10.6420     8.3370     0.0560     2.5080   113.2450
 1160.0000   -52.4510     7.9800    10.6830     8.3300     0.0520     2.5050   112.0830
 1160.5000   -52.3360     8.0590    10.7420     8.3230     0.0480     2.5040   110.8430
 1161.0000   -52.2150     8.1370    10.8020     8.3160     0.0530     2.5050   111.2480
 1161.5000   -52.1000     8.2150    10.8460     8.3090     0.0470     2.5050   111.7370
 1162.0000   -51.9820     8.2940    10.9900     8.3040     0.0410     2.5090   112.4210
 1162.5000   -51.8650     8.3720    11.2270     8.3050     0.0450     2.5240   111.7330
 1163.0000   -51.7500     8.4500    11.4530     8.3070     0.0490     2.5370   110.4410
 1163.5000   -51.6290     8.5290    11.6830     8.3080     0.0440     2.5330   108.6780
 1164.0000   -51.5170     8.6050    11.9040     8.3100     0.0330     2.5210   105.7130
 1164.5000   -51.3920     8.6910    12.1550     8.3120     0.0350     2.5090   102.8850
 1165.0000   -51.4350     8.7000    12.1810     8.3130     0.0400     2.5010    99.7340
 1165.5000   -51.4990     8.6320    11.9820     8.3150     0.0360     2.4990    99.5700
 1166.0000   -51.5660     8.5750    11.8130     8.3170     0.0190     2.4860   101.0350
 1166.5000   -51.6300     8.5140    11.6360     8.3180     0.0100     2.4670   107.7970
 1167.0000   -51.6960     8.4530    11.4590     8.3200     0.0110     2.4610   110.8530
 1167.5000   -51.7600     8.3940    11.2850     8.3220     0.0160     2.4650   110.4770
 1168.0000   -51.8250     8.3330    11.1080     8.3230     0.0210     2.4700   110.3470
 1168.5000   -51.8910     8.2730    10.9320     8.3250     0.0260     2.4910   110.2680
 1169.0000   -51.9550     8.2130    10.7590     8.3270     0.0310     2.5000   109.7860
 1169.5000   -52.0220     8.1530    10.5710     8.3280     0.0350     2.5020   109.0920
 1170.0000   -52.0840     8.0920    10.4960     8.3300     0.0390     2.4920   108.4920
 1170.5000   -52.1580     8.0340    10.5350     8.3320     0.0430     2.4920   109.9300
 1171.0000   -52.1650     7.9680    10.5570     8.3330     0.0470     2.5070   111.3190
 1171.5000   -52.1650     7.9560    10.5850     8.3350     0.0520     2.5100   112.8410
 1172.0000   -52.1650     7.9980    10.6110     8.3370     0.0370     2.4950   114.7500
 1172.5000   -52.1630     8.0330    10.6370     8.3390     0.0210     2.4790   117.1600
 1173.0000   -52.1630     8.0700    10.6640     8.3400     0.0310     2.4880   119.4190
 1173.5000   -52.0660     8.1070    10.6910     8.3420     0.0380     2.5210   118.7290
 1174.0000   -51.9340     8.1430    10.7170     8.3440     0.0430     2.5120   119.0750
 1174.5000   -51.8040     8.1800    10.7440     8.3450     0.0350     2.4870   121.1840
 1175.0000   -51.7120     8.2170    10.7710     8.3470     0.0280     2.4740   121.2100
 1175.5000   -51.6350     8.2540    10.7980     8.3490     0.0200     2.4760   119.1070
 1176.0000   -51.5560     8.2900    10.8240     8.3500     0.0140     2.4760   116.7480
 1176.5000   -51.4800     8.3270    10.8510     8.3520     0.0160     2.4700   113.9550
 1177.0000   -51.4010     8.3640    10.8780     8.3540     0.0160     2.4660   112.5420
 1177.5000   -51.4390     8.4000    10.9040     8.3550     0.0180     2.4660   113.0620
 1178.0000   -51.5300     8.4370    10.9310     8.3570     0.0200     2.4670   112.2020
 1178.5000   -51.6160     8.4730    10.9580     8.3590     0.0420     2.4970   111.4880
 1179.0000   -51.7030     8.5110    10.9840     8.3600     0.0460     2.5050   109.8470
 1179.5000   -51.7900     8.5320    11.0110     8.3620     0.0420     2.5050   108.2800
 1180.0000   -51.8760     8.5100    11.0360     8.3640     0.0370     2.4900   107.0430
 1180.5000   -51.9640     8.4700    11.0690     8.3650     0.0340     2.4870   107.2080
 1181.0000   -52.0480     8.4310    11.0440     8.3670     0.0330     2.4860   109.9220
 1181.5000   -52.1410     8.3910    10.9620     8.3690     0.0440     2.5100   111.8500
 1182.0000   -52.1330     8.3540    10.8880     8.3700     0.0530     2.5210   113.0560
 1182.5000   -52.0690     8.3010    10.8110     8.3720     0.0630     2.5210   112.2640
 1183.0000   -52.0150     8.2350    10.7350     8.3740     0.0550     2.5130   111.4720
