~VERSION INFORMATION
 VERS.                2.0:   CWLS LOG ASCII STANDARD - VERSION 2.0
 WRAP.                 NO:   ONE LINE PER DEPTH STEP
~WELL INFORMATION
#MNEM.UNIT      DATA TYPE    INFORMATION
#----------   ------------   ------------------------------
 STRT.F            0.0000:   START DEPTH
 STOP.F         5576.0000:   STOP DEPTH
 STEP.F            0.5000:   STEP LENGTH
 NULL.          -999.2500:   NO VALUE
 COMP.      FLUCOR DANIEL:   COMPANY
 WELL.  FLUCOR "X" #76-10:   WELL
 FLD .          N.P.R. #3:   FIELD
 LOC .      S10 T38N R78W:   LOCATION
 CNTY.            NATRONA:   COUNTY
 STAT.            WYOMING:   STATE
 CTRY. UNITED STATES OF AMERICA:   COUNTRY
 SRVC. ATLAS WIRELINE SERVICES:   SERVICE COMPANY
 DATE.        16-MAR-1995:   LOGDATE
 API .     49025226860000:   API NUMBER
~CURVE INFORMATION
#MNEM.UNIT       API CODE    CURVE DESCRIPTION
#----------   ------------   ------------------------------
 DEPT.F                  :   
 CNC .DEC    42 890 01 00:   NEUTRON POROSITY LIMESTONE
 CALD.IN     45 280 60 00:   CALIPER FROM DENSITY LOG
 ZDEN.G/C3   45 350 01 00:   BULK DENSITY
 ZCOR.G/C3   45 356 01 00:   DENSITY CORRECTION
 RILD.OHMM   07 120 46 00:   INDUCTION LOG DEEP RESISTIVITY
 RILM.OHMM   07 120 44 00:   INDUCTION LOG MEDIUM RESISTIVITY
 RS  .OHMM   11 220 10 00:   RESISTIVITY SHALLOW
 RD  .OHMM   11 220 09 00:   RESISTIVITY DEEP
 GRR .GAPI   07 310 01 00:   GAMMA RAY
 TENR.LBS    07 635 01 00:   TENSION FROM RESISTIVITY
~PARAMETER INFORMATION
#MNEM.UNIT          VALUE    DESCRIPTION
#----------   ------------   ------------------------------
 EKB .F         5191.0000:   Kelly bushing
 EGL .F         5101.0000:   Ground level
 EDF .F         5190.0000:   Drilling floor
 TD  .F         5582.0000:   Total depth
 CLNT.            A2DTECH:   Client Code
 SL  . 1896' FSL & 832' FEL:   Surface Location
 PD  .                 GL:   Permanent Datum
 EPD .F              5181:   Elevation Permanent Datum
 LMF .                 KB:   Log Measured From
 DMF .                 KB:   Drilling Measured From
 DAPD.F                10:   Feet Above Permanent Datum
 DATE.        16-MAR-1995:   Date Logged [DD-MMM-YYYY]
 DD  .F              5582:   Depth driller
 DL  .F              5578:   Depth logger
 BLI .F              5566:   Bottom log interval
 TLI .F               518:   Top log interval
 CS1 .IN            8.625:   Casing size
 CBD1.      8.625" @ 519':   Casing driller 1
 CBL1.F               518:   Casing logger 1
 BS1 .IN             8.75:   Bit size
 BSD1.F              5582:   Depth drilled with bit1
 DFT .               LSND:   Type fluid in hole
 DFD .               10.1:   Density
 DFV .                 52:   Viscosity
 DFPH.                9.5:   pH
 DFL .                7.2:   Fluid loss
 MSS .           FLOWLINE:   Source of sample
 RMS .OHMM          0.536:   Rm
 MST .F                70:   Rm Meas. temp.
 RMF .OHMM          0.415:   Rmf
 MFST.F                70:   Rmf Meas. temp.
 MFSS.               MEAS:   Source Rmf.
 RMC .OHMM          0.646:   Rmc
 MCST.F                70:   Rmc Meas. temp.
 MCSS.               MEAS:   Source Rmc.
 RMB .OHMM          0.228:   Rm. at BHT
 BHT .F               165:   BHT.
 TCS .HRS             6.5:   Time Circ. stopped
 MRT .F               165:   Maximum recorded temp.
 LUN .            HL-6530:   Logging unit number
 LUL .             CASPER:   Logging unit location
 ENGI.      PAT RASMUSSEN:   Recorded By
 WITN.        GARY STRONG:   Witnessed by
 ORIG.           5" PRINT:   Origin of data
 UWI .     49025226860000:   Unique Well ID
 DICO. A2D TECHNOLOGIES, INC.:   Digitizing Company
~OTHER INFORMATION
~A  DEPTH      CNC       CALD       ZDEN       ZCOR       RILD       RILM         RS         RD        GRR       TENR
# ...
 1507.5000     0.2903    10.2458     2.5183     0.0770  -999.2500  -999.2500     7.0686     9.7552    87.5168   -18.8501
 1508.0000     0.2780    10.2446     2.5242     0.0444  -999.2500  -999.2500     7.1642    10.0253    85.0643   -18.5648
 1508.5000     0.2816    10.2282     2.5333     0.0178  -999.2500  -999.2500     6.9522     9.6093    85.0417   -18.2779
 1509.0000     0.2877    10.2268     2.5287     0.0510  -999.2500  -999.2500     6.6257     9.1478    87.4377   -10.3702
 1509.5000     0.2889    10.2105     2.5257     0.0569  -999.2500  -999.2500     6.4846     8.9542    89.5363    -2.5321
 1510.0000     0.2852    10.2093     2.5321     0.0492  -999.2500  -999.2500     6.4804     8.9485    89.8223    20.3404
 1510.5000     0.2768    10.1626     2.5627     0.0189  -999.2500  -999.2500     6.5670     9.1974    89.7939     5.5913
 1511.0000     0.2738    10.1615     2.5665     0.0188  -999.2500  -999.2500     6.7000     9.4509    89.1597    -1.6764
 1511.5000     0.2710    10.2055     2.5589     0.0187  -999.2500  -999.2500     6.7895     9.7124    88.5310    -1.3198
 1512.0000     0.2701    10.2198     2.5165     0.0322  -999.2500  -999.2500     6.8325     9.5720    86.0842   -16.2116
 1512.5000     0.2756    10.2339     2.4975     0.0668  -999.2500  -999.2500     6.6396     9.3045    83.0256    -8.3022
 1513.0000     0.2865    10.2628     2.4922     0.0925  -999.2500  -999.2500     6.4532     9.0277    83.0030   -15.4986
 1513.5000     0.2914    10.2768     2.4967     0.1014  -999.2500  -999.2500     6.3114     8.6692    83.5921   -15.2133
 1514.0000     0.2908    10.2928     2.5172     0.0846  -999.2500  -999.2500     6.1804     8.6046    87.8457     0.1777
 1514.5000     0.2899    10.3351     2.5179     0.0664  -999.2500  -999.2500     6.1764     8.5405    93.8385     0.4629
 1515.0000     0.2935    10.3337     2.4989     0.0573  -999.2500  -999.2500     6.2155     8.4758    94.4276     0.7553
 1515.5000     0.3035    10.3480     2.4812     0.0843  -999.2500  -999.2500     6.2549     8.4127    93.1872     1.1047
 1516.0000     0.3126    10.3618     2.4747     0.1084  -999.2500  -999.2500     6.2498     8.4084    90.4317     1.3900
 1516.5000     0.3017    10.3757     2.4958     0.1234  -999.2500  -999.2500     6.3334     8.4616    89.5056     1.6752
 1517.0000     0.2854    10.3897     2.5216     0.1021  -999.2500  -999.2500     6.3281     8.6958    90.6895     1.9637
 1517.5000     0.2820    10.4338     2.5367     0.0643  -999.2500  -999.2500     6.4137     8.8758    91.2930     2.3170
 1518.0000     0.2796    10.5085     2.5397     0.0504  -999.2500  -999.2500     6.4993     9.0110    91.8564     2.6022
 1518.5000     0.2775    10.5529     2.5374     0.0827  -999.2500  -999.2500     6.5439     9.2421    91.8281    -4.7368
 1519.0000     0.2774    10.5821     2.5374     0.0987  -999.2500  -999.2500     6.6719     9.3680    91.1994    -4.3802
 1519.5000     0.2736    10.6113     2.5442     0.0699  -999.2500  -999.2500     6.7610     9.4931    89.0499   -11.6478
 1520.0000     0.2642    10.6098     2.5532     0.0411  -999.2500  -999.2500     6.8513     9.4869    88.1239     3.8144
 1520.5000     0.2606    10.6241     2.5524     0.0651  -999.2500  -999.2500     6.6579     9.3510    90.2168     4.0997
 1521.0000     0.2684    10.6075     2.5206     0.0688  -999.2500  -999.2500     6.5162     9.2170    91.7215    19.4907
 1521.5000     0.2739    10.5760     2.4986     0.1012  -999.2500  -999.2500     6.2894     8.8962    93.1962    12.2944
 1522.0000     0.2803    10.5283     2.4812     0.1071  -999.2500  -999.2500     6.1118     8.5876    89.2342     4.9554
 1522.5000     0.2860    10.4368     2.4494     0.0693  -999.2500  -999.2500     5.9817     8.2323    88.6055   -17.3467
 1523.0000     0.2982    10.4356     2.3971     0.0556  -999.2500  -999.2500     5.9364     8.0505    89.7893   -39.7281
 1523.5000     0.3127    10.4345     2.3530     0.0638  -999.2500  -999.2500     5.9822     8.2227    90.9788   -39.4260
 1524.0000     0.3218    10.4940     2.3471     0.1037  -999.2500  -999.2500     6.3548     8.8105    91.5679    -8.8668
 1524.5000     0.3176    10.5384     2.4455     0.0915  -999.2500  -999.2500     6.7141     9.3121    91.5394    -1.0286
 1525.0000     0.3015    10.5827     2.5401     0.0687  -999.2500  -999.2500     6.8991     9.5677    90.2993     6.8095
 1525.5000     0.2867    10.4447     2.5628     0.0535  -999.2500  -999.2500     6.9428     9.4952    89.0645     7.0947
 1526.0000     0.2809    10.4284     2.5556     0.0504  -999.2500  -999.2500     6.8752     9.5566    89.0419   -45.4188
 1526.5000     0.2867    10.4427     2.5173     0.0941  -999.2500  -999.2500     6.8369     9.5504    89.9227   -52.7578
 1527.0000     0.2897    10.4412     2.5014     0.1136  -999.2500  -999.2500     6.8314     9.5454    89.2940   -22.1897
 1527.5000     0.2891    10.4059     2.5059     0.0954  -999.2500  -999.2500     6.8757     9.6754    87.7563    -6.6726
 1528.0000     0.2903    10.2110     2.5097     0.0741  -999.2500  -999.2500     6.9181     9.8046    84.0970     1.1106
 1528.5000     0.2943    10.1798     2.5051     0.0894  -999.2500  -999.2500     6.9619     9.9368    84.6807     1.3959
 1529.0000     0.2934    10.2393     2.5006     0.1238  -999.2500  -999.2500     7.1030    10.0708    85.2641     1.6811
 1529.5000     0.2898    10.2379     2.5293     0.1252  -999.2500  -999.2500     7.1978    10.2076    85.2359    -5.5865
 1530.0000     0.2856    10.2215     2.5391     0.0797  -999.2500  -999.2500     7.2434    10.4138    84.6015   -27.9599
 1530.5000     0.2989    10.1746     2.4695     0.0494  -999.2500  -999.2500     6.9417    10.0526    84.2759   -27.6033
 1531.0000     0.3013    10.1734     2.4081     0.0599  -999.2500  -999.2500     6.7468     9.3722    84.2533   -27.3181
 1531.5000     0.3020    10.2178     2.3974     0.1096  -999.2500  -999.2500     6.4668     8.9833    84.5337   -34.5921
 1532.0000     0.3128    10.3077     2.4527     0.1247  -999.2500  -999.2500     6.2843     8.8546    86.3236   -25.6280
 1532.5000     0.3058    10.4127     2.4686     0.0928  -999.2500  -999.2500     6.2802     8.8500    88.4222    -3.7324
 1533.0000     0.2965    10.3948     2.4557     0.0821  -999.2500  -999.2500     6.2761     8.9693    88.7030     4.1057
 1533.5000     0.2996    10.3646     2.4156     0.1138  -999.2500  -999.2500     6.3643     9.0891    88.9830    -3.1722
 1534.0000     0.3245    10.3789     2.3883     0.1463  -999.2500  -999.2500     6.5352     9.2129    87.4396   -10.4296
 1534.5000     0.3386    10.4081     2.4034     0.1649  -999.2500  -999.2500     6.7152     9.2712    88.6291    -2.5915
 1535.0000     0.3274    10.4066     2.4360     0.1708  -999.2500  -999.2500     6.8991     9.3311    88.6061   -32.5178
 1535.5000     0.3001    10.3291     2.4980     0.0952  -999.2500  -999.2500     6.8943     9.4557    87.3660   -32.1612
 1536.0000     0.2923    10.2371     2.5230     0.0769  -999.2500  -999.2500     6.7939     9.3853    86.1313    -1.3570
 1536.5000     0.2892    10.1904     2.5275     0.1214  -999.2500  -999.2500     6.6957     9.3142    84.8966    13.7978
 1537.0000     0.2874    10.1589     2.5265     0.0903  -999.2500  -999.2500     6.5067     9.1807    84.2622    14.0831
 1537.5000     0.2832    10.1577     2.4850     0.0888  -999.2500  -999.2500     6.4126     9.0492    84.2396    14.3683
 1538.0000     0.2896    10.2628     2.4525     0.1204  -999.2500  -999.2500     6.4085     8.9734    85.7321    14.6535
 1538.5000     0.2996    10.3999     2.4600     0.1666  -999.2500  -999.2500     6.4042     8.9138    89.0868     7.4572
 1539.0000     0.3038    10.5789     2.5031     0.1173  -999.2500  -999.2500     6.4899     8.9092    92.3479   -30.0932
 1539.5000     0.3026    10.6687     2.5307     0.0808  -999.2500  -999.2500     6.5765     9.1558    93.8404   -29.7366
 1540.0000     0.3002    10.6372     2.5417     0.0701  -999.2500  -999.2500     6.7098     9.2793    93.8178   -29.4514
 1540.5000     0.2959    10.4843     2.5326     0.0670  -999.2500  -999.2500     6.8469     9.4032    91.0623   -21.5420
