~VERSION INFORMATION
 VERS.                2.0:   CWLS LOG ASCII STANDARD - VERSION 2.0
 WRAP.                 NO:   ONE LINE PER DEPTH STEP
~WELL INFORMATION
#MNEM.UNIT      DATA TYPE    INFORMATION
#----------   ------------   ------------------------------
 STRT.F            0.0000:   START DEPTH
 STOP.F         1165.5000:   STOP DEPTH
 STEP.F            0.5000:   STEP LENGTH
 NULL.          -999.2500:   NO VALUE
 COMP.   JOHN BROWN E & C:   COMPANY
 WELL. BROWN NPR 3 "X" 1 #63-14:   WELL
 FLD .                NPR:   FIELD
 LOC .      S14 T38N R78W:   LOCATION
 CNTY.            NATRONA:   COUNTY
 STAT.            WYOMING:   STATE
 CTRY. UNITED STATES OF AMERICA:   COUNTRY
 SRVC.     ATLAS WIRELINE:   SERVICE COMPANY
 DATE.        15-JAN-1992:   LOGDATE
 API .     49025224960000:   API NUMBER
~CURVE INFORMATION
#MNEM.UNIT       API CODE    CURVE DESCRIPTION
#----------   ------------   ------------------------------
 DEPT.F                  :   
 GRR .GAPI   07 310 01 00:   GAMMA RAY FROM RESISTIVITY
 RILD.OHMM   07 120 46 00:   INDUCTION LOG DEEP RESISTIVITY
 RILM.OHMM   07 120 44 00:   INDUCTION LOG MEDIUM RESISTIVITY
 TENR.LBS    07 635 01 00:   TENSION
~PARAMETER INFORMATION
#MNEM.UNIT          VALUE    DESCRIPTION
#----------   ------------   ------------------------------
 EKB .F         5270.0000:   Kelly bushing
 EGL .F         5260.0000:   Ground level
 EDF .F         5269.0000:   Drilling floor
 TD  .F         1160.0000:   Total depth
 DATE.        15-JAN-1992:   Date logged
 CLNT.            A2DTECH:   Client Code
 SL  . 1893' FNL & 1971' FEL:   Surface Location
 PD  .                 GL:   Permanent Datum
 EPD .F              5260:   Elevation Permanent Datum
 LMF .                 KB:   Log Measured From
 DMF .                 KB:   Drilling Measured From
 DAPD.F                10:   Feet Above Permanent Datum
 DD  .F              1160:   Depth driller
 DL  .F              1158:   Depth logger
 BLI .F              1150:   Bottom log interval
 CS1 .IN            9.625:   Casing size
 CBD1.       9.625" @ 50':   Casing driller 1
 CBL1.F                48:   Casing logger 1
 BS1 .IN             8.75:   Bit size
 BSD1.F              1160:   Depth drilled with bit1
 DFT .                AIR:   Type fluid in hole
 MRT .F                90:   Maximum recorded temp.
 LUN .            HL-6274:   Logging unit number
 LUL .             CASPER:   Logging unit location
 ENGI.             RAUTIO:   Recorded By
 WITN.        GARY STRONG:   Witnessed by
 ORIG.           5" PRINT:   Origin of data
 UWI .     49025224960000:   Unique Well ID
 DICO. A2D TECHNOLOGIES, INC.:   Digitizing Company
 TLI .F                 0:   Top log interval
~OTHER INFORMATION
~A    DEPT      GRR      RILD       RILM       TENR   
# ...
  511.0000   133.3200     6.5560     6.6950     7.0270
  511.5000   133.4630     6.5840     6.7230     7.1410
  512.0000   134.8120     6.6110     6.7550     7.2550
  512.5000   137.2700     6.6390     6.7880     7.3680
  513.0000   137.9630     6.6670     6.8210     7.4820
  513.5000   135.5120     6.6950     6.8540     7.5960
  514.0000   132.3870     6.7220     6.8870     7.7090
  514.5000   129.8580     6.7500     6.9200     7.8230
  515.0000   129.9430     6.8300     6.9530     7.9370
  515.5000   130.1740     6.8570     6.9860     8.0510
  516.0000   131.2400     6.8840     7.0180     8.1640
  516.5000   135.3420     6.9110     7.0440     8.2780
  517.0000   139.3670     6.9380     7.0710     8.3920
  517.5000   138.7500     6.9660     7.0980     8.5050
  518.0000   135.3580     6.9930     7.1240     8.6190
  518.5000   132.7670     7.0120     7.1430     8.7330
  519.0000   131.8370     6.8850     7.0420     8.8470
  519.5000   130.8940     6.7860     6.9500     8.9600
  520.0000   130.9090     6.6870     6.8570     9.0740
  520.5000   132.3850     6.5890     6.7640     9.1880
  521.0000   133.8630     6.4900     6.6720     9.3010
  521.5000   134.8440     6.3910     6.5890     9.4150
  522.0000   138.7120     6.2920     6.5140     9.5290
  522.5000   142.3020     6.2150     6.4390     9.6420
  523.0000   140.7790     6.1440     6.3640     9.7560
  523.5000   136.9740     6.0720     6.2890     9.8700
  524.0000   133.1250     6.0000     6.2140     9.9840
  524.5000   131.6170     5.9340     6.1390    10.0970
  525.0000   135.6660     5.9430     6.1010    10.2110
  525.5000   139.9180     5.9510     6.1290    10.3250
  526.0000   143.5910     5.9590     6.1480    10.4380
  526.5000   141.0240     5.9680     6.1670    10.5520
  527.0000   137.1170     5.9760     6.1850    10.6660
  527.5000   133.5280     5.9840     6.2040    10.7800
  528.0000   134.0660     6.0210     6.2440    10.8930
  528.5000   135.9840     6.1840     6.3900    11.0070
  529.0000   137.9510     6.3470     6.5360    11.1210
  529.5000   138.3040     6.5110     6.6820    11.2340
  530.0000   134.9240     6.6320     6.8200    11.3480
  530.5000   125.4420     6.7500     7.0080    11.4620
  531.0000   118.0060     6.8870     7.1870    11.5750
  531.5000   114.7670     7.0240     7.3650    11.6890
  532.0000   119.8980     7.1610     7.5430    11.8030
  532.5000   125.0910     7.2980     7.7220    11.9170
  533.0000   127.9030     7.4130     7.8480    12.0300
  533.5000   127.9290     7.3950     7.9190    12.1440
  534.0000   127.0680     7.3760     7.9890    12.2580
  534.5000   125.4390     7.3560     8.0590    12.3710
  535.0000   123.7710     7.3450     7.8560    12.4850
  535.5000   125.7370     7.3450     7.6550    12.5990
  536.0000   130.2990     7.2560     7.5040    12.7130
  536.5000   134.4730     7.2100     7.3950    12.8260
  537.0000   136.8530     7.1260     7.2860    12.9400
  537.5000   139.2650     7.0770     7.2100    13.0540
  538.0000   141.6940     7.0770     7.2100    13.1670
  538.5000   140.9630     7.0770     7.2100    13.2810
  539.0000   140.2680     7.0770     7.2100    13.3950
  539.5000   140.0660     7.0770     7.2540    13.5080
  540.0000   137.7830     7.2560     7.5280    13.6220
  540.5000   133.6970     7.4890     7.9110    13.7360
  541.0000   129.6510     7.7650     7.8380    13.8500
  541.5000   127.2600     7.7440     7.8380    13.9630
  542.0000   129.6380     7.7180     7.9110    14.0770
  542.5000   132.3040     7.6940     7.8800    14.1910
  543.0000   131.8320     7.6940     7.8550    14.3040
  543.5000   131.7330     7.3950     7.7530    14.4180
  544.0000   132.8900     7.1170     7.4590    14.5320
  544.5000   135.9660     6.8380     7.1650    14.6460
  545.0000   136.5940     6.5600     6.8700    14.7590
  545.5000   138.0150     6.2820     6.5760    14.8730
  546.0000   139.7360     6.2080     6.3320    14.9870
  546.5000   140.9100     6.1950     6.3230    15.1000
  547.0000   138.9900     6.1820     6.3070    15.2140
  547.5000   137.1130     6.1680     6.2920    15.3280
  548.0000   135.2390     6.1580     6.2730    15.4410
  548.5000   133.3830     6.2840     6.3820    15.5550
  549.0000   132.3100     6.4060     6.5110    15.6690
  549.5000   135.3550     6.5270     6.6400    15.7830
  550.0000   137.7730     6.6490     6.7690    15.8960
  550.5000   139.4650     6.7570     6.8830    16.0100
  551.0000   135.1920     6.8010     6.9430    16.1240
  551.5000   128.3770     6.8490     7.0070    16.2370
  552.0000   124.6260     6.8970     7.0720    16.3510
  552.5000   128.3010     6.9450     7.1370    16.4650
  553.0000   132.9490     6.9930     7.2010    16.5790
  553.5000   137.4180     7.0120     7.2660    16.6920
  554.0000   137.2960     7.0120     7.2770    16.8060
  554.5000   135.7050     7.0120     7.2770    16.8160
  555.0000   134.1350     7.0120     7.2770    16.7030
  555.5000   134.8700     7.0120     7.2770    16.5890
  556.0000   135.9860     7.0120     7.2770    16.4760
  556.5000   137.1090     7.0120     7.2770    16.3620
  557.0000   138.2270     7.0120     7.2770    16.2480
  557.5000   139.3480     7.0110     7.2770    16.1350
  558.0000   140.5570     7.0140     7.1570    16.0210
  558.5000   138.0990     6.9130     7.0680    15.9070
  559.0000   134.4770     6.8260     6.9800    15.7940
  559.5000   133.3480     6.7390     6.8640    15.6800
  560.0000   132.3440     6.6520     6.8210    15.5660
  560.5000   131.3220     6.5710     6.7780    15.4530
  561.0000   130.3500     6.5530     6.7350    15.3390
  561.5000   130.5840     6.5140     6.6920    15.2250
  562.0000   133.4780     6.4760     6.6490    15.1120
  562.5000   136.8290     6.4380     6.6060    14.9980
  563.0000   139.9520     6.4000     6.5630    14.8840
  563.5000   140.7160     6.3910     6.5110    14.7710
  564.0000   139.6490     6.4330     6.5490    14.6570
  564.5000   141.1140     6.4690     6.5990    14.5430
  565.0000   141.3020     6.5050     6.6480    14.4300
  565.5000   140.0790     6.5410     6.6970    14.3160
  566.0000   138.7810     6.5770     6.7460    14.2020
  566.5000   136.3340     6.6130     6.7950    14.0890
  567.0000   136.2910     6.6490     6.8320    13.9750
  567.5000   134.3080     6.6850     6.8570    13.8610
  568.0000   131.1730     6.7000     6.8820    13.7480
  568.5000   127.4700     6.7070     6.9070    13.6340
  569.0000   130.0730     6.7140     6.9320    13.5200
  569.5000   132.5160     6.7220     6.9520    13.4070
  570.0000   134.2020     6.7290     6.9640    13.2930
  570.5000   133.3660     6.7370     6.9750    13.1800
  571.0000   132.5040     6.7440     6.9870    13.0660
  571.5000   135.8090     6.7500     6.9990    12.9520
  572.0000   140.5840     6.7570     7.0110    12.8390
  572.5000   143.2830     6.9060     7.0700    12.7250
  573.0000   140.8450     7.0430     7.1860    12.6110
  573.5000   140.2720     7.1790     7.3010    12.4980
  574.0000   139.7590     7.3160     7.4170    12.3840
  574.5000   140.4220     7.4820     7.5320    12.2700
  575.0000   141.9010     7.4130     7.6480    12.1570
  575.5000   143.8710     7.4310     7.7010    12.0430
  576.0000   146.5970     7.4430     7.7140    11.9290
  576.5000   149.3250     7.4560     7.7280    11.8160
  577.0000   151.7180     7.4690     7.7410    11.7020
  577.5000   152.3470     7.4810     7.7540    11.5880
  578.0000   149.6380     7.5270     7.7740    11.4750
  578.5000   146.9910     7.6160     7.8610    11.3610
  579.0000   147.0210     7.7050     7.9480    11.2470
  579.5000   146.4680     7.7930     8.0350    11.1340
  580.0000   145.4450     7.8820     8.1220    11.0200
  580.5000   144.4210     7.9710     8.2090    10.9060
  581.0000   143.8580     8.0590     8.2960    10.7930
  581.5000   143.6430     8.1910     8.3940    10.6790
  582.0000   142.9780     8.3220     8.5260    10.5650
  582.5000   141.4560     8.4520     8.6580    10.4520
  583.0000   136.5200     8.5830     8.7910    10.3380
  583.5000   131.5940     8.7130     8.9230    10.2240
