~VERSION INFORMATION
 VERS.                2.0:   CWLS LOG ASCII STANDARD - VERSION 2.0
 WRAP.                 NO:   ONE LINE PER DEPTH STEP
~WELL INFORMATION
#MNEM.UNIT      DATA TYPE    INFORMATION
#----------   ------------   ------------------------------
 STRT.F          492.0000:   START DEPTH
 STOP.F         3008.0000:   STOP DEPTH
 STEP.F            0.5000:   STEP LENGTH
 NULL.          -999.2500:   NO VALUE
 COMP.    FENIX & SCISSON:   COMPANY
 WELL. FENIX & SCISSON AX #24-28:   WELL
 FLD .             TEAPOT:   FIELD
 LOC .      S28 T39N R78W:   LOCATION
 CNTY.            NATRONA:   COUNTY
 STAT.            WYOMING:   STATE
 CTRY. UNITED STATES OF AMERICA:   COUNTRY
 SRVC.              WELEX:   SERVICE COMPANY
 DATE.        03-AUG-1980:   LOGDATE
 API .     49025108490000:   API NUMBER
~CURVE INFORMATION
#MNEM.UNIT       API CODE    CURVE DESCRIPTION
#----------   ------------   ------------------------------
 DEPT.F                  :   
 SPR .MV     07 010 01 00:   SPONTANEOUS POTENTIAL
 ILD .OHMM   07 120 46 00:   DEEP INDUCTION RESISTIVITY
 ILM .OHMM   07 120 44 00:   INDUCTION LOG MEDIUM RESISTIVITY
 SGRD.OHMM   07 220 05 00:   SHALLOW SHORT GUARD RESISTIVITY
 GRD .GAPI   45 310 01 00:   GAMMA RAY FROM DENSITY LOG
 CALD.IN     45 280 60 00:   CALIPER FROM DENSITY LOG
 CORR.G/C3   45 356 01 00:   DENSITY CORRECTION
 RHOB.G/C3   45 350 01 00:   BULK DENSITY
~PARAMETER INFORMATION
#MNEM.UNIT          VALUE    DESCRIPTION
#----------   ------------   ------------------------------
 EKB .F         5061.0000:   Kelly bushing
 EGL .F         5051.0000:   Ground level
 TD  .F         3000.0000:   Total depth
 CLNT.            A2DTECH:   Client Code
 SL  . 2350' FNL & 1000' FWL:   Surface Location
 DATE.         3-AUG-1980:   Date Logged [DD-MMM-YYYY]
 DD  .F              3000:   Depth driller
 DL  .F              3010:   Depth logger
 BLI .F              3008:   Bottom log interval
 TLI .F               308:   Top log interval
 CS1 .              8.625:   Casing size
 CBD1.      8.625" @ 393':   Casing driller 1
 BS1 .IN            7.875:   Bit size
 BSD1.F              3000:   Depth drilled with bit1
 DFT .     WATER BASE MUD:   Type fluid in hole
 DFD .                8.9:   Density
 TCS .HRS               8:   Time Circ. stopped
 MRT .F               115:   Maximum recorded temp.
 ENGI.           WACHTELL:   Recorded By
 WITN.           DINSMORE:   Witnessed by
 ORIG.      2.5" 5" PRINT:   Origin of data
 UWI .     49025108490000:   Unique Well ID
 DICO. A2D TECHNOLOGIES, INC.:   Digitizing Company
 PD  .                 GL:   Permanent Datum
 EPD .F              3051:   Elevation Permanent Datum
 LMF .                 KB:   Log Measured From
 DMF .                 KB:   Drilling Measured From
 DAPD.F                10:   Feet Above Permanent Datum
 DFV .                 43:   Viscosity
 DFPH.                9.5:   pH
 DFL .                7.2:   Fluid loss
 MSS .           FLOWLINE:   Source of sample
 RMS .OHMM             .9:   Rm
 MST .F                80:   Rm Meas. temp.
 RMF .OHMM            .72:   Rmf
 MFST.F                80:   Rmf Meas. temp.
 MFSS.               MEAS:   Source Rmf.
 RMC .OHMM           1.08:   Rmc
 MCST.F                80:   Rmc Meas. temp.
 MCSS.               MEAS:   Source Rmc.
 RMB .OHMM            .06:   Rm. at BHT
 BHT .F               115:   BHT.
 LUN .               1892:   Logging unit number
 LUL .             CASPER:   Logging unit location
~OTHER INFORMATION
~A   DEPT      SPR        ILD        ILM       SGRD        GRD       CALD       CORR       RHOB   
# ...
 1302.0000   -20.1849     6.2357     7.0265     8.3108    89.0645     9.2839     0.0971     2.6043
 1302.5000   -20.2840     6.2327     7.0679     8.3073    90.1912     9.3141     0.1329     2.6089
 1303.0000   -20.2926     6.2297     7.0644     8.3038    89.9816     9.3742     0.1515     2.5972
 1303.5000   -20.3012     6.2266     7.0616     8.3004    89.5373     9.4343     0.1095     2.5638
 1304.0000   -20.9050     6.2236     7.1581     8.2969    86.8430     9.4195     0.1251     2.5575
 1304.5000   -21.2183     6.2206     7.2552     8.2935    84.3736     9.3135     0.1546     2.5854
 1305.0000   -21.5179     6.2175     7.2523     8.2900    84.1530     9.2549     0.1701     2.6079
 1305.5000   -21.5793     6.2145     7.2493     8.2866    84.3823     9.2400     0.1530     2.6190
 1306.0000   -21.8333     6.2115     7.3481     8.2831    84.8606     9.2702     0.1196     2.6218
 1306.5000   -21.7441     6.2084     7.4512     8.2797    85.5166     9.3453     0.1032     2.6093
 1307.0000   -21.5518     6.2054     7.6932     8.2762    86.6454     9.4054     0.1219     2.5821
 1307.5000   -21.1210     6.2024     7.9352     8.2727    87.9991     9.4505     0.0954     2.5502
 1308.0000   -20.8095     6.1994     7.9844     8.2693    89.5777     9.3008     0.0596     2.5230
 1308.5000   -20.6875     6.1963     7.8708     8.2658    91.6060     9.2259     0.0767     2.5074
 1309.0000   -20.6977     6.1933     7.7593     8.2624    92.9597     9.2111     0.0831     2.5010
 1309.5000   -20.7063     6.1903     7.7567     8.2589    92.9760     9.2263     0.0860     2.5096
 1310.0000   -20.7149     6.1873     7.6468     8.2555    92.0689     9.2564     0.0876     2.5476
 1310.5000   -20.7235     6.1843     7.4291     8.2520    93.6486     9.3165     0.0891     2.5624
 1311.0000   -20.7321     6.0957     7.2143     8.2486    95.0023     9.3766     0.0704     2.5328
 1311.5000   -20.7123     6.0927     6.9087     8.2451    95.2304     9.4517     0.0362     2.5351
 1312.0000   -20.4516     6.0898     6.8307     8.2417    93.6617     9.4669    -0.0027     2.5552
 1312.5000   -20.4613     6.0863     6.6989     8.2382    92.3167     9.4070     0.0128     2.5474
 1313.0000   -20.4702     6.0834     6.5964     8.2348    91.6453     9.3454     0.0377     2.5318
 1313.5000   -20.7768     6.0805     6.5442     8.2313    91.4258     9.2724     0.0750     2.5574
 1314.0000   -20.9285     6.1630     6.5415     8.2279    91.4303     9.2126     0.1061     2.5892
 1314.5000   -21.0923     6.1601     6.6311     8.2245    91.4678     9.1677     0.1202     2.6101
 1315.0000   -21.1028     6.1572     6.6288     8.2210    91.6650     9.1529     0.1263     2.6140
 1315.5000   -21.1114     6.1542     6.7196     8.2170    92.1191     9.1531     0.0874     2.6031
 1316.0000   -21.1200     6.1661     6.8116     8.3293    92.5733     9.2432     0.0283     2.5626
 1316.5000   -21.1286     6.2348     7.0018     8.3255    92.3527     9.3183     0.0609     2.5437
 1317.0000   -21.1372     6.2314     7.0976     8.3221    91.0078     9.3484     0.0267     2.5283
 1317.5000   -20.8481     6.3164     7.1141     8.4354    89.8877     9.1837    -0.0062     2.5104
 1318.0000   -20.8571     6.3558     7.1924     8.4319    88.7676     9.1538     0.0640     2.5205
 1318.5000   -20.8154     6.4489     7.1896     8.4284    87.8724     9.1540     0.0857     2.5445
 1319.0000   -20.5763     6.4847     7.2758     8.4248    88.5526     9.1841     0.0935     2.5701
 1319.5000   -20.4901     6.4812     7.4413     8.4213    89.2316     9.2292     0.0204     2.5742
 1320.0000   -20.2959     6.4781     7.6998     8.4178    89.6857     9.2444    -0.0061     2.5366
 1320.5000   -20.0089     6.4751     7.9147     8.4143    89.4652     9.2745     0.0380     2.5226
 1321.0000   -20.0179     6.4720     8.0231     8.4108    87.6705     9.3046     0.0141     2.5357
 1321.5000   -20.0284     6.4689     8.1329     8.4067    85.2011     9.3198     0.0576     2.5450
 1322.0000   -20.0370     6.4658     8.3600     8.5215    82.2819     9.3500     0.0887     2.5356
 1322.5000   -20.3432     6.4626     8.4744     8.6370    82.0614     9.4101     0.0203     2.5084
 1323.0000   -20.6494     6.4595     8.4715     8.6335    84.7655     9.4702    -0.0093     2.4944
 1323.5000   -20.6580     6.4563     8.4685     8.6301    87.4685     9.5453    -0.0186     2.4865
 1324.0000   -20.6667     6.4532     8.3484     8.7571    90.1715     9.2756     0.0265     2.4772
 1324.5000   -20.6756     6.4500     8.0785     8.8665    92.4248     9.2907     0.0482     2.5323
 1325.0000   -20.7340     6.4469     7.7363     8.8625    93.7785     9.3358     0.0575     2.5354
 1325.5000   -20.9911     6.5342     7.5647     8.8588    93.1082     9.3678     0.0622     2.5135
 1326.0000   -21.0953     6.5306     7.3976     8.9072    91.0886     9.4261     0.0401     2.5026
 1326.5000   -21.3065     6.5275     7.2495     8.9754    88.8379     9.4562     0.0108     2.5142
 1327.0000   -21.1746     6.5245     7.1468     9.0974    89.1395     9.4414     0.0575     2.5266
 1327.5000   -21.0268     6.5214     7.1444     9.2204    91.1028     9.4116     0.0746     2.5359
 1328.0000   -21.0373     6.5183     7.1420     9.3462    92.4564     9.3367     0.0839     2.5430
 1328.5000   -20.7470     6.4249     7.1396     9.4732    93.3604     9.3195     0.0885     2.5389
 1329.0000   -20.7569     6.4031     7.2444     9.3383    94.2643     9.3820     0.0884     2.5288
 1329.5000   -20.7655     6.3298     7.4551     9.0765    94.4924     9.5045     0.0683     2.5217
 1330.0000   -20.4765     6.2947     7.5908     8.8256    89.5504     9.4423     0.0232     2.5178
 1330.5000   -20.4851     6.2362     7.8606     8.8219    87.0810     9.3225     0.0340     2.5302
 1331.0000   -20.4940     6.2331     7.7062     8.8182    84.7887     9.3377     0.1351     2.5760
 1331.5000   -20.5030     6.2295     7.4833     8.8145    82.8179     9.3528     0.1631     2.6091
 1332.0000   -20.2133     6.3140     7.3235     8.8109    81.4730     9.4129     0.1126     2.6295
 1332.5000   -20.2232     6.3110     7.2193     8.8072    79.0036     9.4580     0.0946     2.6030
 1333.0000   -20.2321     6.3080     7.2168     8.8028    76.9840     9.4432     0.1117     2.6170
 1333.5000   -20.2411     6.3937     7.2144     8.7993    75.8628     9.2610     0.1304     2.6449
 1334.0000   -20.5476     6.3905     7.1122     8.7958    80.1411     9.1136     0.1755     2.6417
 1334.5000   -20.5582     6.4772     7.1098     8.7922    82.6192     9.1888     0.1895     2.6184
 1335.0000   -20.8644     6.4875     7.2072     8.7887    83.7631     9.2639     0.1695     2.6067
 1335.5000   -20.8730     6.5619     7.2179     8.7851    84.8780     9.3540     0.1225     2.6177
 1336.0000   -20.8816     6.6508     7.4278     8.7815    85.7819     9.4291     0.0945     2.5840
 1336.5000   -20.8902     6.7410     7.5696     8.7778    86.0111     9.5042     0.0945     2.5654
 1337.0000   -20.8988     6.7371     7.8660     8.7742    86.2404     9.5493     0.0947     2.5645
 1337.5000   -20.9077     6.7338     7.9827     8.7705    86.4696     9.4445     0.1100     2.5730
 1338.0000   -20.9167     6.7299     8.2148     8.7668    86.6989     9.3997     0.1302     2.5854
 1338.5000   -20.9256     6.7268     8.3805     8.7632    87.1530     9.4449     0.1380     2.5994
 1339.0000   -20.9345     6.7236     8.4947     8.7589    87.6072     9.4900     0.1349     2.6316
 1339.5000   -20.9435     6.7205     8.6113     8.7554    87.8366     9.5501     0.1129     2.6412
 1340.0000   -20.8135     6.7173     8.7291     8.7519    88.0668     9.6252     0.0742     2.5720
 1340.5000   -20.6637     6.7141     8.8485     8.7484    88.2960     9.7003     0.0664     2.5510
 1341.0000   -20.6743     6.7109     8.8454     8.7449    88.7502     9.7178     0.0850     2.5494
 1341.5000   -20.6828     6.6148     8.7065     8.7413    89.2043     9.5657     0.1037     2.5494
 1342.0000   -20.3929     6.6116     8.2938     8.7376    89.4336     9.4759     0.1254     2.5726
