~VERSION INFORMATION
 VERS.                2.0:   CWLS LOG ASCII STANDARD - VERSION 2.0
 WRAP.                 NO:   ONE LINE PER DEPTH STEP
~WELL INFORMATION
#MNEM.UNIT      DATA TYPE    INFORMATION
#----------   ------------   ------------------------------
 STRT.F            0.0000:   START DEPTH
 STOP.F         1064.0000:   STOP DEPTH
 STEP.F            0.5000:   STEP LENGTH
 NULL.          -999.2500:   NO VALUE
 COMP.  JOHN BROWN E. & C:   COMPANY
 WELL. JOHN BROWN NPR 3-1 "X" #68-2:   WELL
 FLD .                NPR:   FIELD
 LOC .       S2 T38N R78W:   LOCATION
 CNTY.            NATRONA:   COUNTY
 STAT.            WYOMING:   STATE
 CTRY. UNITED STATES OF AMERICA:   COUNTRY
 SRVC.     ATLAS WIRELINE:   SERVICE COMPANY
 DATE.        25-JAN-1992:   LOGDATE
 API .     49025224850000:   API NUMBER
~CURVE INFORMATION
#MNEM.UNIT       API CODE    CURVE DESCRIPTION
#----------   ------------   ------------------------------
 DEPT.F                  :   
 GRR .GAPI   07 310 01 00:   GAMMA RAY FROM RESISTIVITY
 TENR.LBS    07 635 01 00:   TENSION
 RILD.OHMM   07 120 46 00:   INDUCTION LOG DEEP RESISTIVITY
 RILM.OHMM   07 120 44 00:   INDUCTION LOG MEDIUM RESISTIVITY
~PARAMETER INFORMATION
#MNEM.UNIT          VALUE    DESCRIPTION
#----------   ------------   ------------------------------
 EKB .F         5197.0000:   Kelly bushing
 EGL .F         5187.0000:   Ground level
 TD  .F         1060.0000:   Total depth
 DATE.        25-JAN-1992:   Date logged
 CLNT.            A2DTECH:   Client Code
 PD  .                 GL:   Permanent Datum
 EPD .F               518:   Elevation Permanent Datum
 LMF .                 KB:   Log Measured From
 DMF .                 KB:   Drilling Measured From
 DAPD.F                10:   Feet Above Permanent Datum
 DD  .F              1060:   Depth driller
 DL  .F              1057:   Depth logger
 BLI .F              1055:   Bottom log interval
 CS1 .IN            10.75:   Casing size
 CBD1.       10.75" @ 50':   Casing driller 1
 CBL1.F                50:   Casing logger 1
 BS1 .IN             8.75:   Bit size
 BSD1.F              1060:   Depth drilled with bit1
 DFT .                AIR:   Type fluid in hole
 LUN .            HL-6307:   Logging unit number
 LUL .             CASPER:   Logging unit location
 ENGI.             ZIEGER:   Recorded By
 WITN.             STRONG:   Witnessed by
 ORIG.           5" PRINT:   Origin of data
 UWI .     49025224850000:   Unique Well ID
 DICO. A2D TECHNOLOGIES, INC.:   Digitizing Company
~OTHER INFORMATION
~A    DEPT      GRR      TENR       RILD       RILM   
# ...
  657.0000   123.0410   -34.3530     8.4040     8.2140
  657.5000   124.3700   -34.3530     8.5860     8.3570
  658.0000   126.1760   -34.3530     8.7670     8.5000
  658.5000   127.1010   -34.3530     8.9480     8.6430
  659.0000   125.1300   -34.3530     9.1290     8.7890
  659.5000   122.6090   -34.3530     9.3110     9.0850
  660.0000   121.6090   -34.3530     9.4920     9.3890
  660.5000   123.8620   -34.3530     9.6630     9.6940
  661.0000   128.1140   -34.3530     9.7900     9.8540
  661.5000   132.0580   -34.3530     9.9180     9.9120
  662.0000   130.6630   -34.3530    10.0450     9.9700
  662.5000   125.6360   -34.3530    10.1720    10.0290
  663.0000   122.3600   -34.3530    10.2990    10.0870
  663.5000   123.4210   -34.3530    10.4260    10.1450
  664.0000   124.9250   -34.3530    10.4760    10.2030
  664.5000   123.5640   -34.3530    10.4760    10.2620
  665.0000   120.7850   -34.3530    10.4760    10.2840
  665.5000   120.6320   -34.3530    10.4760    10.1570
  666.0000   120.8100   -34.3530    10.3740    10.0120
  666.5000   119.2880   -34.3530    10.2510     9.8680
  667.0000   118.1070   -34.3530    10.1280     9.7230
  667.5000   119.6070   -34.3530    10.0040     9.5780
  668.0000   121.0550   -34.3530     9.8000     9.4340
  668.5000   121.8350   -34.3530     9.6400     9.2890
  669.0000   120.9150   -34.3530     9.5350     9.1440
  669.5000   120.0370   -34.3530     9.4300     9.0360
  670.0000   119.8390   -34.3530     9.3240     9.0720
  670.5000   119.4330   -34.3530     9.2190     9.1000
  671.0000   117.3160   -34.3530     9.1200     9.0360
  671.5000   116.6430   -34.3530     9.1990     9.1020
  672.0000   118.4850   -34.3530     9.3170     9.1620
  672.5000   121.4350   -34.3530     9.4340     9.2230
  673.0000   121.1100   -34.3530     9.5520     9.2840
  673.5000   118.5550   -34.3530     9.7300     9.3770
  674.0000   116.0370   -34.3530     9.6570     9.3350
  674.5000   114.6730   -34.3530     9.5090     9.2490
  675.0000   113.8150   -34.3530     9.3770     9.1640
  675.5000   115.7320   -34.3530     9.3770     9.0790
  676.0000   121.1020   -34.3530     9.3770     8.9930
  676.5000   125.8120   -34.3530     9.3030     8.9080
  677.0000   124.2360   -34.3530     9.1580     8.8230
  677.5000   120.8900   -34.3530     9.0140     8.7370
  678.0000   120.2470   -34.3530     8.8700     8.6520
  678.5000   118.7380   -34.3530     8.7250     8.5710
  679.0000   116.7200   -34.3530     8.6060     8.4910
  679.5000   115.2150   -34.3530     8.5370     8.4120
  680.0000   114.3660   -34.3530     8.4670     8.3320
  680.5000   113.6140   -34.3530     8.3980     8.2520
  681.0000   114.9270   -34.3530     8.3290     8.1730
  681.5000   118.3320   -34.3530     8.2600     8.0930
  682.0000   121.8980   -34.3530     8.1910     8.0130
  682.5000   124.3500   -34.3530     8.1220     7.9340
  683.0000   123.4750   -34.3530     8.0530     7.8540
  683.5000   123.5860   -34.3530     7.9840     7.7750
  684.0000   124.0280   -34.3530     7.9400     7.6950
  684.5000   124.4350   -34.3530     7.9570     7.5820
  685.0000   122.1160   -34.3530     7.9710     7.6480
  685.5000   119.5180   -34.3530     7.9850     7.7640
  686.0000   116.9430   -34.3530     7.9990     7.8800
  686.5000   115.4900   -34.3530     8.0140     7.9950
  687.0000   116.6600   -34.3530     8.0630     8.0880
  687.5000   117.5200   -34.3530     8.1120     8.0650
  688.0000   116.6170   -34.3530     8.1610     8.0420
  688.5000   115.7470   -34.3530     8.2390     8.0180
  689.0000   115.5410   -34.3530     8.1310     7.9580
  689.5000   116.8080   -34.3530     7.8670     7.6940
  690.0000   119.0260   -34.3530     7.6020     7.4300
  690.5000   121.2650   -34.3530     7.3380     7.1650
  691.0000   123.5050   -34.3530     7.1520     6.9010
  691.5000   125.7450   -34.3530     7.0130     6.6370
  692.0000   127.9540   -34.3530     6.8730     6.5230
  692.5000   129.4400   -34.3530     6.7340     6.4800
  693.0000   127.5130   -34.3530     6.6010     6.5090
  693.5000   125.7340   -34.3530     6.6140     6.5750
  694.0000   125.4270   -34.3530     6.6300     6.6420
  694.5000   123.4850   -34.3530     6.6470     6.7080
  695.0000   121.3200   -34.3530     6.6620     6.7740
  695.5000   123.6360   -34.3530     6.7050     6.8450
  696.0000   126.4920   -34.3530     6.7460     6.8220
  696.5000   124.8120   -34.3530     6.7870     6.7900
  697.0000   122.5980   -34.3530     6.8280     6.7590
  697.5000   121.6990   -34.3530     6.8740     6.7240
  698.0000   120.9250   -34.3530     6.9260     6.7550
  698.5000   122.1380   -34.3530     6.9770     6.8200
  699.0000   123.3530   -34.3530     7.0290     6.8850
  699.5000   124.5580   -34.3530     7.0810     6.9490
  700.0000   125.7660   -34.3530     7.1330     7.0140
  700.5000   127.0260   -34.3530     7.1840     7.0790
  701.0000   126.4820   -34.3530     7.2360     7.1440
  701.5000   125.3310   -34.3530     7.2880     7.2080
  702.0000   124.1410   -34.3530     7.3400     7.2390
  702.5000   124.0850   -34.3530     7.3740     7.2220
  703.0000   124.3950   -34.3530     7.3290     7.1690
  703.5000   126.7960   -34.3530     7.2950     7.1160
  704.0000   128.7890   -34.3530     7.2610     7.0630
  704.5000   127.4900   -34.3530     7.2250     7.0100
  705.0000   126.8840   -34.3530     7.1860     6.9570
  705.5000   128.6750   -34.3530     7.1460     6.9040
  706.0000   130.5740   -34.3530     7.1060     6.8490
  706.5000   128.6080   -34.3530     7.0460     6.8730
  707.0000   126.7380   -34.3530     7.0590     6.9150
  707.5000   126.0670   -34.3530     7.1060     6.9570
  708.0000   125.3530   -34.3530     7.1520     6.9980
  708.5000   125.1520   -34.3530     7.1990     7.0400
  709.0000   125.8000   -34.3530     7.2450     7.0820
  709.5000   127.8050   -34.3530     7.2920     7.1240
  710.0000   126.8780   -34.2970     7.3380     7.1660
  710.5000   125.6870   -34.1640     7.3740     7.2070
  711.0000   126.1400   -34.0300     7.4370     7.2390
  711.5000   128.2580   -33.8970     7.4070     7.2010
  712.0000   127.6280   -33.7630     7.3500     7.1690
  712.5000   125.5190   -33.6300     7.2930     7.1370
  713.0000   125.4560   -33.4970     7.2390     7.1060
  713.5000   127.9060   -33.3630     7.2190     7.0740
  714.0000   131.2110   -33.2300     7.1950     7.0430
  714.5000   133.4090   -33.0960     7.1710     7.0110
  715.0000   131.1720   -32.9630     7.1480     6.9790
  715.5000   129.1860   -32.8290     7.1240     6.9480
  716.0000   128.7630   -32.6960     7.0420     6.9160
  716.5000   127.6430   -32.5620     6.9390     6.8680
  717.0000   125.8200   -32.4290     6.8450     6.7780
  717.5000   126.3520   -32.2950     6.7510     6.6880
  718.0000   128.4700   -32.1620     6.4770     6.4660
  718.5000   128.0680   -32.0280     6.1310     6.1910
  719.0000   127.6240   -31.8950     5.7850     5.9160
  719.5000   127.4210   -31.7610     5.4390     5.6400
  720.0000   128.5270   -31.6280     5.0920     5.3650
  720.5000   131.2390   -31.4940     5.0030     5.1910
  721.0000   132.8600   -31.3610     5.1730     5.2320
  721.5000   130.8840   -31.2280     5.3430     5.3810
  722.0000   127.8260   -31.0940     5.3780     5.5640
  722.5000   127.9460   -30.9610     5.5570     5.7240
  723.0000   130.8990   -30.8270     5.7800     5.8850
  723.5000   131.6250   -30.6940     6.0030     6.0450
  724.0000   132.0720   -30.5600     6.2260     6.2050
  724.5000   130.9270   -30.4270     6.3610     6.3200
  725.0000   127.7320   -30.2930     6.4110     6.3640
  725.5000   124.9200   -30.1600     6.4620     6.4080
  726.0000   125.6450   -30.0260     6.5120     6.4530
  726.5000   127.3040   -29.8930     6.5630     6.4970
  727.0000   127.7110   -29.7590     6.6130     6.5400
  727.5000   128.0100   -29.6260     6.6620     6.4590
  728.0000   130.2260   -29.4920     6.6160     6.3800
  728.5000   132.5730   -29.3590     6.5440     6.3000
  729.0000   133.7240   -29.2260     6.4710     6.2210
  729.5000   134.8120   -29.0920     6.3990     6.1420
