~VERSION INFORMATION
 VERS.                2.0:   CWLS LOG ASCII STANDARD - VERSION 2.0
 WRAP.                 NO:   ONE LINE PER DEPTH STEP
~WELL INFORMATION
#MNEM.UNIT      DATA TYPE    INFORMATION
#----------   ------------   ------------------------------
 STRT.F          176.0000:   START DEPTH
 STOP.F         3380.0000:   STOP DEPTH
 STEP.F            0.5000:   STEP LENGTH
 NULL.          -999.2500:   NO VALUE
 COMP.    PENIX & SCISSON:   COMPANY
 WELL.  FENIX "AX" #85-15:   WELL
 FLD .             NPR #3:   FIELD
 LOC .      S15 T38N R78W:   LOCATION
 CNTY.            NATRONA:   COUNTY
 STAT.            WYOMING:   STATE
 CTRY. UNITED STATES OF AMERICA:   COUNTRY
 SRVC.       SCHLUMBERGER:   SERVICE COMPANY
 DATE.        28-APR-1981:   LOGDATE
 API .     49025108700000:   API NUMBER
~CURVE INFORMATION
#MNEM.UNIT       API CODE    CURVE DESCRIPTION
#----------   ------------   ------------------------------
 DEPT.F                  :   
 TEND.LBS    45 635 01 00:   TENSION FROM DENSITY LOG
 CALD.IN     45 280 60 00:   CALIPER FROM DENSITY LOG
 CORR.G/C3   45 356 01 00:   DENSITY CORRECTION
 GRD .GAPI   45 310 01 00:   GAMMA RAY FROM DENSITY LOG
 RHOB.G/C3   45 350 01 00:   BULK DENSITY
 SFL .OHMM   07 220 01 00:   SHALLOW FOCUSED LOG RESISTIVITY
 ILD .OHMM   07 120 46 00:   INDUCTIONLOG DEEP RESISTIVITY
 ILM .OHMM   07 120 44 00:   INDUCTION LOG MEDIUM RESISTIVITY
 TENR.LBS    07 635 01 00:   TENSION FROM RESISTIVITY
 SPR .MV     07 010 01 00:   SPONTANEOUS POTENTIAL
~PARAMETER INFORMATION
#MNEM.UNIT          VALUE    DESCRIPTION
#----------   ------------   ------------------------------
 EKB .F         5259.0000:   Kelly bushing
 EGL .F         5249.0000:   Ground level
 EDF .F            0.0000:   Drilling floor
 TD  .F         3333.0000:   Total depth
 DATE.        28-APR-1981:   Date logged
 CLNT.            A2DTECH:   Client Code
 SL  . 1927' FSL & 140' FEL:   Surface Location
 PD  .                 GL:   Permanent Datum
 DD  .F              3333:   Depth driller
 DL  .F              3382:   Depth logger
 BLI .F              3376:   Bottom log interval
 TLI .F               182:   Top log interval
 CS1 .IN            8.625:   Casing size
 CBD1.      8.625" @ 181':   Casing driller 1
 CBL1.F               182:   Casing logger 1
 BS1 .IN            7.875:   Bit size
 BSD1.F              3333:   Depth drilled with bit1
 DFT .                GEL:   Type fluid in hole
 DFD .                8.7:   Density
 DFV .                 35:   Viscosity
 DFPH.                9.5:   pH
 DFL .                  7:   Fluid loss
 MSS .               TANK:   Source of sample
 RMS .OHMM           1.79:   Rm
 MST .F                58:   Rm Meas. temp.
 RMF .OHMM           1.43:   Rmf
 MFST.F                58:   Rmf Meas. temp.
 MFSS.               MEAS:   Source Rmf.
 RMB .OHMM            .93:   Rm. at BHT
 BHT .F               112:   BHT.
 TCS .HRS             800:   Time Circ. stopped
 TLAB.HRS             200:   Time logger at bottom
 MRT .F               112:   Maximum recorded temp.
 LUN .               8039:   Logging unit number
 LUL .               CAPR:   Logging unit location
 ENGI.           HARRINER:   Recorded By
 WITN.              SCOTT:   Witnessed by
 ORIG.           5" PRINT:   Origin of data
 UWI .     49025108700000:   Unique Well ID
 DICO. A2D TECHNOLOGIES, INC.:   Digitizing Company
 EPD .               5249:   Elevation Permanent Datum
 LMF .                 KB:   Log Measured From
 DMF .                 KB:   Drilling Measured From
 DAPD.                 10:   Feet Above Permanent Datum
~OTHER INFORMATION
~A   DEPT     TEND       CALD       CORR         GRD      RHOB        SFL        ILD        ILM       TENR        SPR   
# ...
 1013.5000   970.2970     9.2350    -0.0070   122.1280     2.4790     6.8170     5.9420     5.3960   982.3960   -40.7440
 1014.0000   970.2970     9.2350    -0.0030   123.3900     2.4810     6.8010     6.0660     5.4310   982.6720   -40.8200
 1014.5000   970.2970     9.2350     0.0010   124.7040     2.4840     6.7850     6.0520     5.4660   982.9490   -40.8960
 1015.0000   970.2970     9.2350     0.0050   125.7160     2.4900     6.7690     6.0490     5.5010   983.2250   -40.9750
 1015.5000   970.2970     9.2360     0.0070   126.0760     2.4960     6.7540     6.0390     5.5340   983.5020   -41.0480
 1016.0000   970.2970     9.2370     0.0070   125.1270     2.5000     6.7540     6.0290     5.5340   983.7780   -41.1360
 1016.5000   970.2970     9.2390     0.0060   124.3020     2.5030     6.7540     6.0210     5.5200   984.0550   -41.1380
 1017.0000   970.2970     9.2400     0.0100   122.6270     2.5040     6.7520     6.0120     5.4850   984.3310   -41.1390
 1017.5000   970.2970     9.2420     0.0120   120.3920     2.5040     6.7530     6.0030     5.4490   984.6080   -40.9520
 1018.0000   970.2970     9.2430     0.0130   119.8270     2.5030     6.7570     5.9930     5.4140   984.8840   -40.7070
 1018.5000   970.2970     9.2440     0.0110   121.0650     2.4980     6.7490     5.9840     5.3790   985.1610   -40.4630
 1019.0000   970.2970     9.2460     0.0090   121.9570     2.4930     6.7660     5.9750     5.3430   985.4370   -40.2200
 1019.5000   970.2970     9.2470     0.0060   121.2080     2.4880     6.6170     5.9650     5.3080   985.7140   -39.9780
 1020.0000   970.2970     9.2490     0.0040   118.9740     2.4870     6.5710     5.9560     5.2720   985.9900   -39.7320
 1020.5000   970.2970     9.2500     0.0020   117.5330     2.4970     6.5250     5.9510     5.2360   986.2670   -39.3880
 1021.0000   970.2970     9.2510     0.0010   117.2500     2.5000     6.4800     5.9230     5.2000   986.5430   -39.1400
 1021.5000   970.2970     9.2530     0.0010   118.5160     2.4970     6.4340     5.8690     5.1640   986.8200   -39.3160
 1022.0000   970.2970     9.2540     0.0020   118.4270     2.4920     6.3880     5.8150     5.1440   987.0960   -39.5470
 1022.5000   970.2970     9.2560     0.0050   116.7280     2.5000     6.3430     5.7610     5.1520   987.3730   -39.7650
 1023.0000   970.2970     9.2570     0.0090   115.3720     2.5020     6.2970     5.7070     5.0560   987.6490   -39.9840
 1023.5000   970.2970     9.2580     0.0110   114.1810     2.5020     6.2510     5.6530     5.0560   987.9260   -40.2040
 1024.0000   970.2970     9.2600     0.0110   113.1180     2.4960     6.2050     5.5990     5.0560   988.2020   -40.4230
 1024.5000   970.2970     9.2610     0.0040   111.8660     2.4890     6.1600     5.5340     5.0560   988.4790   -40.6430
 1025.0000   970.2970     9.2630    -0.0020   111.7920     2.4870     6.1140     5.5340     5.0560   988.7550   -40.8610
 1025.5000   970.2970     9.2640     0.0010   113.3460     2.5020     6.0680     5.5340     5.0560   989.0320   -41.0850
 1026.0000   970.2970     9.2660     0.0030   116.6870     2.5020     6.0590     5.4350     5.0560   989.3080   -41.2970
 1026.5000   970.2970     9.2670     0.0060   120.0840     2.4980     6.0590     5.5340     5.0550   989.5850   -41.5220
 1027.0000   970.2970     9.2680     0.0140   121.0350     2.4960     6.1050     5.5340     5.0560   989.8610   -41.7510
 1027.5000   970.2970     9.2700     0.0130   121.9590     2.5160     6.1660     5.6140     5.0540   990.1380   -41.8470
 1028.0000   970.2970     9.2710     0.0680   120.5520     2.5500     6.2280     5.6980     5.0570   990.4140   -41.4160
 1028.5000   970.2970     9.2730     0.1440   118.9540     2.5940     6.2820     5.7380     5.0580   990.6910   -41.1220
 1029.0000   970.2970     9.2740     0.2380   116.6660     2.5890     6.2820     5.7380     5.0580   990.9670   -41.1530
 1029.5000   970.2970     9.2740     0.2290   113.9330     2.5520     6.2820     5.7380     5.0510   991.2440   -41.1360
 1030.0000   970.2970     9.2650     0.1930   110.9940     2.5120     6.2420     5.7380     5.3620   991.5200   -41.1430
 1030.5000   970.2970     9.2530     0.1530   111.5420     2.4750     6.1690     5.7380     5.6370   991.7970   -41.1420
 1031.0000   970.2970     9.2410     0.1100   112.7000     2.4840     6.6180     6.0590     5.9140   992.0730   -41.1410
 1031.5000   970.2970     9.2350     0.0740   113.6180     2.4970     7.1230     6.2530     6.1920   992.3500   -41.1420
 1032.0000   970.2970     9.2360     0.0460   111.0720     2.5130     7.6290     6.6850     6.4690   992.6260   -41.1400
 1032.5000   970.2970     9.2360     0.0140   108.7250     2.5180     8.1350     7.1180     6.7470   992.9030   -41.1460
 1033.0000   970.2970     9.2520     0.0120   106.7210     2.5180     8.6410     7.5500     7.0240   993.1790   -41.0930
 1033.5000   970.2970     9.2680     0.0110   107.4300     2.5190     9.1470     7.9820     7.3020   993.4560   -40.9990
 1034.0000   970.2970     9.2740     0.0090   109.2980     2.5240     9.3530     8.4150     7.5280   993.7320   -40.9070
 1034.5000   970.2970     9.2700     0.0060   110.2640     2.5220     9.5240     8.8590     7.6650   994.0090   -40.8290
 1035.0000   970.2970     9.2670     0.0020   109.6320     2.5220     9.6980     9.0210     7.8050   994.2850   -40.7430
 1035.5000   970.2970     9.2640     0.0000   110.8360     2.5200     9.6980     9.1860     7.8050   994.5620   -40.7490
 1036.0000   970.2970     9.2610     0.0150   109.9240     2.5250     9.6980     9.1860     7.8050   994.8380   -40.8180
 1036.5000   970.2970     9.2580     0.0310   107.6730     2.5420     9.6080     9.1550     7.8050   995.1150   -41.2810
 1037.0000   970.2970     9.2550     0.0350   105.5200     2.5530     9.5290     9.0630     7.8050   995.3910   -41.5380
 1037.5000   970.2970     9.2530     0.0360   103.6140     2.5520     9.4500     8.9710     7.8050   995.6680   -41.8670
 1038.0000   970.2970     9.2500     0.0280   103.2140     2.5390     9.3710     8.8790     7.8050   995.9440   -42.1720
 1038.5000   970.2970     9.2470     0.0160   105.2560     2.5290     9.2920     8.7870     7.8050   996.2210   -42.4770
 1039.0000   970.2970     9.2440     0.0080   107.9680     2.5310     9.1860     8.7000     7.8050   996.4970   -42.7960
 1039.5000   970.4880     9.2400     0.0090   110.7200     2.5390     9.2430     8.7000     7.8060   996.7740   -43.0910
 1040.0000   970.9340     9.2400     0.0090   111.1660     2.5410     9.3300     8.8590     7.8060   997.0500   -43.4140
 1040.5000   971.3800     9.2310     0.0090   110.7440     2.5390     9.4160     8.9290     7.8060   997.3270   -43.7370
 1041.0000   971.8250     9.2670     0.0060   109.3320     2.5300     9.5030     9.0380     7.8460   997.6030   -43.8340
 1041.5000   972.2710     9.2730     0.0020   108.2970     2.5200     9.5900     9.1470     7.8950   997.8800   -43.4660
 1042.0000   972.7170     9.2700    -0.0020   107.9560     2.5110     9.6770     9.2560     7.9430   998.1560   -43.5020
 1042.5000   973.1630     9.2660    -0.0040   106.8690     2.5020     9.7630     9.3650     7.9920   998.4330   -43.7250
 1043.0000   973.6080     9.2640    -0.0050   103.4170     2.5060     9.8500     9.4740     8.0410   998.7090   -44.1980
 1043.5000   974.0540     9.2610     0.0000   100.3470     2.5110     9.9370     9.5830     8.0900   998.9860   -44.6210
 1044.0000   974.5000     9.2590     0.0090    97.6950     2.5190    10.0240     9.6980     8.1380   999.2620   -45.0440
 1044.5000   974.9460     9.2560     0.0110   101.0370     2.5150    10.1100     9.6980     8.1850   999.5390   -45.0580
 1045.0000   975.3910     9.2530     0.0070   103.9360     2.5060    10.1970     9.6720     8.2380   999.8150   -44.7980
 1045.5000   975.8370     9.2500     0.0010   107.6300     2.4950    10.2390     9.5890     8.1810  1000.0920   -44.5700
 1046.0000   976.2830     9.2480     0.0120   107.6490     2.4980    10.0630     9.5070     8.1200  1000.3680   -44.2970
 1046.5000   976.7290     9.2450     0.0240   106.0090     2.5120     9.9050     9.4250     8.0570  1000.6450   -44.4370
