~VERSION INFORMATION
 VERS.                2.0:   CWLS LOG ASCII STANDARD - VERSION 2.0
 WRAP.                 NO:   ONE LINE PER DEPTH STEP
~WELL INFORMATION
#MNEM.UNIT      DATA TYPE    INFORMATION
#----------   ------------   ------------------------------
 STRT.F          180.0000:   START DEPTH
 STOP.F         3044.0000:   STOP DEPTH
 STEP.F            0.5000:   STEP LENGTH
 NULL.          -999.2500:   NO VALUE
 COMP.    FENIX & SCISSON:   COMPANY
 WELL.   FENIX "A" #55-29:   WELL
 FLD .           N P R #3:   FIELD
 LOC .      S29 T39N R78W:   LOCATION
 CNTY.            NATRONA:   COUNTY
 STAT.            WYOMING:   STATE
 CTRY. UNITED STATES OF AMERICA:   COUNTRY
 SRVC.              WELEX:   SERVICE COMPANY
 DATE.        21-JUL-1977:   LOGDATE
 API .     49025104020000:   API NUMBER
~CURVE INFORMATION
#MNEM.UNIT       API CODE    CURVE DESCRIPTION
#----------   ------------   ------------------------------
 DEPT.F                  :   
 CALD.IN     45 280 60 00:   CALIPER FROM DENSITY LOG
 RHOB.G/C3   45 350 01 00:   BULK DENSITY
 CORR.G/C3   45 356 01 00:   DENSITY CORRECTION
 GRD .GAPI   45 310 01 00:   GAMMA RAY FROM DENSITY LOG
 SPR .MV     07 010 01 00:   SPONTANEOUS POTENTIAL
 ILD .OHMM   07 120 46 00:   DEEP INDUCTION RESISTIVITY
 ILM .OHMM   07 120 44 00:   INDUCTION LOG MEDIUM RESISTIVITY
 SGRD.OHMM   07 220 05 00:   SHALLOW SHORT GUARD RESISTIVITY
~PARAMETER INFORMATION
#MNEM.UNIT          VALUE    DESCRIPTION
#----------   ------------   ------------------------------
 EKB .F         4995.0000:   Kelly bushing
 EGL .F         4985.0000:   Ground level
 EDF .F            0.0000:   Drilling floor
 EPD .F         4985.0000:   Permanent datum
 TD  .F         3045.0000:   Total depth
 DATE.        21-JUL-1977:   Date logged
 CLNT.            A2DTECH:   Client Code
 SL  . 2310' FSL & 2310' FEL:   Surface Location
 PD  .                 GL:   Permanent Datum
 DD  .F              3045:   Depth driller
 DL  .F              3045:   Depth logger
 BLI .F              3043:   Bottom log interval
 CS1 .IN            8.625:   Casing size
 CBD1.      8.625" @ 230':   Casing driller 1
 CBL1.F               216:   Casing logger 1
 BS1 .IN            7.875:   Bit size
 DFT .            KCL-MUD:   Type fluid in hole
 DFD .                8.8:   Density
 DFV .                 45:   Viscosity
 DFPH.                7.5:   pH
 DFL .                8.4:   Fluid loss
 MSS .           FLOWLINE:   Source of sample
 RMS .OHMM            .45:   Rm
 MST .F                86:   Rm Meas. temp.
 RMF .OHMM            .33:   Rmf
 MFST.F                86:   Rmf Meas. temp.
 RMC .OHMM            .72:   Rmc
 MCST.F                86:   Rmc Meas. temp.
 MFSS.               MEAS:   Source Rmf.
 RMB .OHMM            .30:   Rm. at BHT
 BHT .F               127:   BHT.
 TCS .HRS             2.5:   Time Circ. stopped
 MRT .F               127:   Maximum recorded temp.
 LUN .               8611:   Logging unit number
 LUL .             CASPER:   Logging unit location
 ENGI.            C. DOAK:   Recorded By
 WITN.      W. PETTINGILL:   Witnessed by
 ORIG.           5" PRINT:   Origin of data
 UWI .     49025104020000:   Unique Well ID
 DICO. A2D TECHNOLOGIES, INC.:   Digitizing Company
 DAPD.                 10:   Feet Above Permanent Datum
 BSD1.               3045:   Depth drilled with bit1
 MCSS.               MEAS:   Source Rmc.
 LMF .                 KB:   Log Measured From
 DMF .                 KB:   Drilling Measured From
 TLI .                200:   Top log interval
~OTHER INFORMATION
~A   DEPT       CALD     RHOB       CORR         GRD       SPR        ILD        ILM       SGRD   
# ...
 1516.5000     8.4410     2.4570     0.0790    97.8760   -68.3390     7.4250     9.1380    11.9710
 1517.0000     8.4410     2.4700     0.0800    99.4200   -68.3560     7.4330     9.0840    12.2930
 1517.5000     8.4410     2.4790     0.0820    98.7150   -68.3730     7.3410     9.0240    12.7650
 1518.0000     8.4410     2.4850     0.0830    96.7680   -68.3890     7.2750     8.9640    12.7650
 1518.5000     8.4380     2.4910     0.0830    94.5210   -68.4060     7.2090     8.9040    12.1230
 1519.0000     8.4320     2.4950     0.0830    92.2030   -68.4230     7.1430     8.8440    11.6470
 1519.5000     8.4260     2.4960     0.0830    91.0160   -68.4400     7.0770     8.7840    12.4600
 1520.0000     8.4210     2.4960     0.0830    90.7270   -68.4570     7.0360     8.6940    12.7650
 1520.5000     8.4150     2.4950     0.0830    91.2850   -68.4740     7.1030     8.7210    11.5400
 1521.0000     8.4090     2.4960     0.0830    92.5320   -68.4910     7.1900     8.8110    11.6100
 1521.5000     8.4030     2.5080     0.0830    93.7730   -68.5080     7.2760     8.9010    11.6470
 1522.0000     8.3980     2.5220     0.0830    94.5950   -68.5250     7.3630     8.9910    13.8620
 1522.5000     8.3910     2.5350     0.0830    92.4030   -68.5420     7.4490     9.0810    13.4550
 1523.0000     8.3840     2.5400     0.0830    90.2660   -68.5590     7.5360     9.1710    12.1930
 1523.5000     8.3770     2.5370     0.0830    88.3730   -68.5760     7.6230     9.2620    12.3880
 1524.0000     8.3690     2.5320     0.0800    88.6420   -68.5920     7.6520     9.3940    12.6480
 1524.5000     8.3620     2.5280     0.0780    89.8570   -68.6090     7.6660     9.6080    11.7540
 1525.0000     8.3640     2.5280     0.0760    90.8160   -68.6260     7.6800     9.4960    13.2410
 1525.5000     8.3670     2.5320     0.0740    92.6910   -68.6430     7.6940     9.2150    15.2000
 1526.0000     8.3690     2.5340     0.0730    94.5780   -68.6600     7.7110     8.9340    16.6510
 1526.5000     8.3720     2.5320     0.0730    94.9190   -68.6770     7.6140     8.7660    11.9120
 1527.0000     8.3740     2.5350     0.0740    94.6870   -68.6940     7.4930     8.7660    11.4350
 1527.5000     8.3770     2.5390     0.0740    94.4330   -68.7110     7.3730     8.9260    11.8490
 1528.0000     8.3800     2.5380     0.0750    94.2560   -68.7280     7.2520     9.0840    12.2590
 1528.5000     8.3870     2.5180     0.0750    93.3160   -68.7450     7.1320     9.1770    12.5330
 1529.0000     8.4080     2.5120     0.0750    91.5420   -68.7620     7.0110     8.6190    11.1250
 1529.5000     8.4280     2.5080     0.0750    90.2550   -68.7780     6.8500     8.2220    10.6270
 1530.0000     8.4470     2.5120     0.0750    91.5210   -68.7950     6.8710     8.2220    10.7050
 1530.5000     8.4610     2.5210     0.0750    93.1330   -68.8110     6.9140     8.1470    11.0620
 1531.0000     8.4590     2.5310     0.0750    94.6870   -68.8120     6.9580     8.2450    11.5630
 1531.5000     8.4490     2.5310     0.0750    93.5690   -68.8120     7.0010     8.4030    12.0820
 1532.0000     8.4390     2.5250     0.0740    90.8750   -68.8120     7.0440     8.5610    11.5400
 1532.5000     8.4290     2.5170     0.0720    91.2590   -68.8120     7.0870     8.7200    11.8490
 1533.0000     8.4200     2.5200     0.0700    92.4470   -68.8120     7.1300     8.8780    11.9710
 1533.5000     8.4170     2.5260     0.0680    93.6460   -68.8120     7.1730     9.0750    11.7540
 1534.0000     8.4130     2.5270     0.0660    94.3720   -68.8120     7.2160     8.9990    12.1410
 1534.5000     8.4090     2.5250     0.0620    92.3300   -68.8120     7.2980     8.8500    12.5790
 1535.0000     8.4060     2.5180     0.0580    91.5540   -68.8120     7.2980     8.7660    13.0010
 1535.5000     8.4020     2.5110     0.0580    93.2230   -68.8120     7.2980     8.8660    11.7580
 1536.0000     8.4010     2.5000     0.0600    95.1900   -68.8120     7.2980     8.9430    11.3310
 1536.5000     8.4010     2.4920     0.0610    97.9030   -68.8120     7.2980     9.0200    12.0820
 1537.0000     8.4010     2.4880     0.0630    97.8880   -68.8120     7.2980     9.0940    12.8820
 1537.5000     8.4010     2.4940     0.0650    94.2870   -68.8120     7.2980     9.0100    12.6100
 1538.0000     8.4010     2.4970     0.0640    90.8330   -68.8120     7.2980     8.8820    12.1890
 1538.5000     8.4020     2.4970     0.0620    89.9760   -68.8120     7.2640     8.7540    11.5400
 1539.0000     8.4170     2.5010     0.0590    90.0520   -68.8120     7.1890     8.6260    11.7160
 1539.5000     8.4330     2.5060     0.0600    90.2780   -68.8120     7.1140     8.6070    12.0820
 1540.0000     8.4480     2.5090     0.0630    90.4020   -68.8120     7.0380     8.6000    11.8110
 1540.5000     8.4620     2.5090     0.0660    90.8300   -68.8120     6.9630     8.5000    11.0240
 1541.0000     8.4670     2.5060     0.0650    91.2630   -68.8120     6.9080     8.4000    11.3310
 1541.5000     8.4730     2.5020     0.0670    91.8530   -68.8120     6.9080     8.3000    10.9970
 1542.0000     8.4790     2.5020     0.0680    93.5020   -68.8120     6.9080     8.1470    10.5300
 1542.5000     8.4840     2.5060     0.0670    94.9760   -68.8120     6.9080     8.1730    11.7160
 1543.0000     8.4900     2.5070     0.0660    96.6160   -68.8120     6.9080     8.2290    12.1350
 1543.5000     8.4960     2.5040     0.0650    98.3950   -68.8120     6.9080     8.2860    12.1930
 1544.0000     8.5000     2.5000     0.0660    99.9580   -68.8120     6.9080     8.3420    11.2200
 1544.5000     8.5000     2.4960     0.0660   100.9010   -68.8120     6.9080     8.3980    11.0240
 1545.0000     8.5000     2.4970     0.0680    98.8090   -68.8120     6.9080     8.4550    11.3540
 1545.5000     8.5000     2.4990     0.0720    95.7640   -68.8120     6.9080     8.5290    11.5400
 1546.0000     8.5000     2.4980     0.0760    92.7380   -68.8120     6.9080     8.4090    12.2160
 1546.5000     8.5000     2.4980     0.0790    90.7210   -68.8120     6.9070     8.2330    12.3050
 1547.0000     8.4940     2.5030     0.0810    93.1140   -68.8120     6.9290     8.0720    10.5300
 1547.5000     8.4830     2.5080     0.0810    96.1780   -68.8110     6.9480     8.0720    10.8160
 1548.0000     8.4710     2.5120     0.0820    96.5820   -68.8030     6.9680     8.1470    11.6470
 1548.5000     8.4590     2.5130     0.0820    95.0490   -68.7940     6.9870     8.2630    11.5000
 1549.0000     8.4480     2.5130     0.0830    96.1850   -68.7850     7.0060     8.3690    11.3310
 1549.5000     8.4360     2.5160     0.0800    97.6650   -68.7760     7.0260     8.4750    10.9230
 1550.0000     8.4240     2.5190     0.0780    99.0220   -68.7680     7.0350     8.5810    11.3130
 1550.5000     8.4200     2.5230     0.0760    96.9700   -68.7590     7.0350     8.6870    11.9030
 1551.0000     8.4160     2.5270     0.0740    93.6970   -68.7500     7.0360     8.8470    12.0750
 1551.5000     8.4120     2.5230     0.0720    90.4310   -68.7420     7.0360     8.7840    12.2830
 1552.0000     8.4080     2.5110     0.0690    87.5650   -68.7330     7.0360     8.6570    13.3590
 1552.5000     8.4040     2.5020     0.0710    88.4030   -68.7240     6.9640     8.5300    12.1700
 1553.0000     8.4010     2.4970     0.0730    91.5510   -68.7160     6.8840     8.4030    10.8230
 1553.5000     8.4040     2.4960     0.0700    95.1060   -68.7070     6.8040     8.2760    10.8230
 1554.0000     8.4070     2.4970     0.0680    98.6510   -68.6980     6.7240     8.1480    11.1250
 1554.5000     8.4100     2.5020     0.0660   100.6600   -68.6900     6.6430     8.0210    10.1510
 1555.0000     8.4130     2.4980     0.0640   101.4160   -68.6810     6.5630     7.8940    10.3530
 1555.5000     8.4160     2.4930     0.0640   102.1430   -68.6730     6.4830     7.7930    10.7720
 1556.0000     8.4190     2.4890     0.0660   100.8010   -68.6640     6.3610     7.7050    10.8230
 1556.5000     8.4240     2.4940     0.0670   100.5860   -68.6550     6.3980     7.6400     9.7850
