~VERSION INFORMATION
 VERS.                2.0:   CWLS LOG ASCII STANDARD - VERSION 2.0
 WRAP.                 NO:   ONE LINE PER DEPTH STEP
~WELL INFORMATION
#MNEM.UNIT      DATA TYPE    INFORMATION
#----------   ------------   ------------------------------
 STRT.F           48.5000:   START DEPTH
 STOP.F         3509.0000:   STOP DEPTH
 STEP.F            0.5000:   STEP LENGTH
 NULL.          -999.2500:   NO VALUE
 COMP.   TESORO PETROLEUM:   COMPANY
 WELL. TESORO "TX" #45-33:   WELL
 FLD .        TEAPOT DOME:   FIELD
 LOC .      S33 T39N R78W:   LOCATION
 CNTY.            NATRONA:   COUNTY
 STAT.            WYOMING:   STATE
 CTRY. UNITED STATES OF AMERICA:   COUNTRY
 SRVC.      DRESSER ATLAS:   SERVICE COMPANY
 DATE.        03-OCT-1976:   LOGDATE
 API .     49025102700000:   API NUMBER
~CURVE INFORMATION
#MNEM.UNIT       API CODE    CURVE DESCRIPTION
#----------   ------------   ------------------------------
 DEPT.F                  :   
 SPR .MV     07 010 01 00:   SPONTANEOUS POTENTIAL
 TENR.LBS    07 635 01 00:   TENSION FROM RESISTIVITY
 SFL .OHMM   07 220 01 00:   SHALLOW FOCUSED LOG RESISTIVITY
 ILM .OHMM   07 120 44 00:   INDUCTION LOG MEDIUM RESISTIVITY
 ILD .OHMM   07 120 46 00:   DEEP INDUCTION RESISTIVITY
 GRD .GAPI   45 310 01 00:   GAMMA RAY FROM DENSITY LOG
 CALD.IN     45 280 60 00:   CALIPER FROM DENSITY LOG
 NPHI.DEC    42 890 03 00:   NEUTRON POROSITY SANDSTONE
 DPHI.DEC    45 890 12 00:   DENSITY POROSITY SANDSTONE
 TEND.LBS    45 635 01 00:   TENSION FROM DENSITY LOG
~PARAMETER INFORMATION
#MNEM.UNIT          VALUE    DESCRIPTION
#----------   ------------   ------------------------------
 EKB .F         5217.0000:   Kelly bushing
 EGL .F         5206.0000:   Ground level
 EDF .F         5216.0000:   Drilling floor
 EPD .F         5206.0000:   Permanent datum
 TD  .F         3491.0000:   Total depth
 DATE.        03-OCT-1976:   Date logged
 CLNT.            A2DTECH:   Client Code
 SL  . 2030' FWL & 2145' FSL:   Surface Location
 PD  .                 GL:   Permanent Datum
 DD  .F              3491:   Depth driller
 DL  .F              3487:   Depth logger
 BLI .F              3485:   Bottom log interval
 TLI .F               813:   Top log interval
 CS1 .IN            8.625:   Casing size
 CBD1.      8.625" @ 823':   Casing driller 1
 CBL1.F               819:   Casing logger 1
 BS1 .IN            7.875:   Bit size
 BSD1.F              3491:   Depth drilled with bit1
 DFT .           CHEM GEL:   Type fluid in hole
 DFD .                9.4:   Density
 DFV .                 47:   Viscosity
 DFPH.                 10:   pH
 DFL .                5.8:   Fluid loss
 MSS .           FLOWLINE:   Source of sample
 RMS .OHMM           1.09:   Rm
 MST .F                68:   Rm Meas. temp.
 RMF .OHMM              1:   Rmf
 MFST.F                68:   Rmf Meas. temp.
 RMC .OHMM           1.24:   Rmc
 MCST.F                68:   Rmc Meas. temp.
 MFSS.               MEAS:   Source Rmf.
 MCSS.               MEAS:   Source Rmc.
 RMB .OHMM            .62:   Rm. at BHT
 BHT .F               119:   BHT.
 TCS .HRS              12:   Time Circ. stopped
 MRT .F               119:   Maximum recorded temp.
 LUN .               6134:   Logging unit number
 LUL .              GLTTE:   Logging unit location
 ENGI.            VAUGHIN:   Recorded By
 WITN.        WOLF-CARTER:   Witnessed by
 ORIG.     2.5", 5" PRINT:   Origin of data
 UWI .     49025102700000:   Unique Well ID
 DICO. A2D TECHNOLOGIES, INC.:   Digitizing Company
 DAPD.                 11:   Feet Above Permanent Datum
~OTHER INFORMATION
~A   DEPT      SPR        TENR       SFL        ILM        ILD        GRD       CALD       NPHI       DPHI       TEND   
# ...
 2125.5000   -25.6300  -999.2500     5.2470     5.1980     4.8310   154.5660     9.2070     0.2990     0.0570   265.6710
 2126.0000   -25.5870  -999.2500     5.2950     5.0150     4.6860   156.5930     9.2010     0.3040     0.0570   266.2800
 2126.5000   -25.5450  -999.2500     5.1300     4.8280     4.5680   157.5760     9.1950     0.3080     0.0570   266.8900
 2127.0000   -25.5030  -999.2500     4.9640     4.8280     4.5680   157.5810     9.1890     0.3080     0.0590   267.5000
 2127.5000   -25.4610  -999.2500     4.8280     4.8280     4.5680   157.8640     9.1830     0.3050     0.0600   268.1100
 2128.0000   -25.4190  -999.2500     4.9350     4.8000     4.5280   158.4010     9.1770     0.3020     0.0600   268.7200
 2128.5000   -25.3770  -999.2500     5.0100     4.7640     4.4930   159.5280     9.1710     0.2980     0.0590   269.3290
 2129.0000   -25.3350  -999.2500     5.0100     4.7270     4.4590   160.1570     9.1680     0.2930     0.0620   269.9390
 2129.5000   -25.2930  -999.2500     5.0100     4.6910     4.4250   160.8810     9.1670     0.2970     0.0660   270.5490
 2130.0000   -25.2510  -999.2500     5.1980     4.6530     4.3630   163.5250     9.1660     0.3040     0.0670   271.1590
 2130.5000   -25.2090  -999.2500     5.1110     4.5430     4.2550   165.5580     9.1640     0.3110     0.0660   271.7680
 2131.0000   -25.1660  -999.2500     4.8890     4.4280     4.1460   167.3420     9.1630     0.3170     0.0650   272.3780
 2131.5000   -25.1270  -999.2500     4.3220     4.3130     4.0370   171.1060     9.1620     0.3230     0.0670   272.9880
 2132.0000   -25.0800  -999.2500     4.4400     4.1980     3.9290   174.3090     9.1600     0.3290     0.0750   273.5980
 2132.5000   -25.0420  -999.2500     5.0100     4.0840     3.8200   176.4080     9.1590     0.3300     0.0820   274.2070
 2133.0000   -25.0230  -999.2500     4.7520     3.9690     3.6610   178.9520     9.1580     0.3210     0.0700   274.8170
 2133.5000   -25.2880  -999.2500     4.0890     3.8690     3.7810   181.6100     9.1570     0.3110     0.0610   275.0000
 2134.0000   -25.5460  -999.2500     4.5080     4.1380     4.0050   183.4300     9.1550     0.3030     0.0570   275.0000
 2134.5000   -25.8110  -999.2500     5.5470     4.3760     4.2300   186.8280     9.1540     0.3020     0.0640   275.0000
 2135.0000   -26.0790  -999.2500     6.2520     4.6130     4.4550   191.1280     9.1530     0.3100     0.0700   275.0000
 2135.5000   -26.3380  -999.2500     5.7010     4.8510     4.6530   193.7920     9.1510     0.3180     0.0760   275.0000
 2136.0000   -26.5670  -999.2500     5.7220     4.9180     4.6530   196.5550     9.1500     0.3210     0.0800   275.0000
 2136.5000   -26.3550  -999.2500     5.7880     4.8800     4.5890   198.5060     9.1480     0.3220     0.0850   275.0000
 2137.0000   -26.1320  -999.2500     5.8550     4.7950     4.4950   198.4240     9.1170     0.3220     0.0880   275.0000
 2137.5000   -25.8880  -999.2500     5.9150     4.6860     4.4030   198.3880     9.0870     0.3160     0.0840   275.0000
 2138.0000   -25.6660  -999.2500     4.8740     4.4310     4.0710   198.3550     9.0580     0.3180     0.0730   275.0000
 2138.5000   -25.4250  -999.2500     4.0150     4.0150     3.7980   198.3200     9.0290     0.3210     0.0630   275.0000
 2139.0000   -25.1950  -999.2500     4.1390     4.3040     4.2310   198.2850     9.0070     0.3200     0.0610   275.0000
 2139.5000   -25.0340  -999.2500     4.2430     4.7230     4.6270   198.2500     9.0040     0.3230     0.0650   275.0000
 2140.0000   -25.3010  -999.2500     5.1550     5.1420     5.0240   198.2150     9.0010     0.3220     0.0730   275.0000
 2140.5000   -25.5350  -999.2500     5.9960     5.5600     5.4200   198.1800     8.9980     0.3230     0.0820   275.4020
 2141.0000   -25.7900  -999.2500     6.6930     5.9790     5.8160   198.1450     8.9950     0.3300     0.0840   275.9770
 2141.5000   -26.0390  -999.2500     6.9840     6.3980     6.2130   198.1100     8.9920     0.3360     0.0890   276.5520
 2142.0000   -26.4100  -999.2500     7.2760     6.8170     6.6090   198.0750     8.9890     0.3430     0.0950   277.1260
 2142.5000   -27.0310  -999.2500     7.3880     7.2360     7.0050   198.0400     8.9940     0.3460     0.0980   277.7010
 2143.0000   -27.6420  -999.2500     7.4990     7.6550     7.4020   198.0050     9.0050     0.3350     0.1020   278.2760
 2143.5000   -28.1530  -999.2500     7.6100     8.0740     7.7980   197.9700     9.0170     0.3270     0.1050   278.8510
 2144.0000   -27.9130  -999.2500     7.7210     8.5560     8.0960   197.9350     9.0290     0.3190     0.1080   279.4250
 2144.5000   -27.6860  -999.2500     7.8320     8.5560     8.0960   197.8960     9.0400     0.3160     0.1080   280.0000
 2145.0000   -27.4250  -999.2500     7.9440     8.6330     8.4570   197.9530     9.0480     0.3170     0.1050   280.5750
 2145.5000   -27.1770  -999.2500     8.0550     8.9530     9.0200   198.0060     9.0480     0.3140     0.1020   281.1490
 2146.0000   -27.0400  -999.2500     8.3440     9.2730     9.5820   194.9230     9.0480     0.3100     0.0980   281.7240
 2146.5000   -27.1850  -999.2500     8.7350     9.5930    10.1450   184.8910     9.0480     0.3080     0.1000   282.2990
 2147.0000   -27.3200  -999.2500     9.1260     9.9120    10.7070   178.7600     9.0480     0.2980     0.1030   282.8740
 2147.5000   -27.4640  -999.2500     9.5170    10.2320    11.2700   174.0490     9.0480     0.2920     0.1030   283.4480
 2148.0000   -27.6110  -999.2500     9.9080    12.3770    12.0830   154.2640     9.0480     0.2860     0.1000   284.0230
 2148.5000   -27.7300  -999.2500    10.2990    14.0080    13.8040   146.1170     9.0480     0.2840     0.0930   284.5980
 2149.0000   -27.9680  -999.2500    10.6900    16.0100    15.5250   143.0740     9.0480     0.2810     0.0840   284.6670
 2149.5000   -28.2530  -999.2500    11.0790    18.0110    17.2460   139.9390     9.0480     0.2790     0.0760   283.5580
 2150.0000   -28.5650  -999.2500    10.8280    20.0120    20.0000   137.5480     9.0550     0.2740     0.0810   282.4480
 2150.5000   -28.4690  -999.2500    10.2160    22.0130    19.7850   135.5370     9.0790     0.2690     0.0880   281.3390
 2151.0000   -28.2920  -999.2500     9.0620    23.3980    19.2460   136.8910     9.1030     0.2650     0.0790   280.2290
 2151.5000   -28.1870  -999.2500     7.9080    21.8250    18.4950   138.0950     9.1270     0.2730     0.0690   279.1200
 2152.0000   -28.2040  -999.2500     6.9840    20.1270    17.4270   139.6730     9.1520     0.2820     0.0660   278.0100
 2152.5000   -28.1970  -999.2500     7.8590    18.4300    16.3580   142.4580     9.2160     0.2920     0.0730   276.9010
 2153.0000   -28.2000  -999.2500     8.9520    16.7330    15.2890   144.4960     9.2780     0.3030     0.0780   275.7920
 2153.5000   -28.1980  -999.2500    10.4830    15.0350    14.2210   144.7410     9.3390     0.3120     0.0800   275.9230
 2154.0000   -28.2010  -999.2500     9.9080    13.3380    13.1520   146.9550     9.3920     0.3180     0.0810   279.1420
 2154.5000   -28.1960  -999.2500     8.9510    11.6410    12.0840   148.3050     9.4350     0.3210     0.0790   282.3610
 2155.0000   -28.1900  -999.2500     7.8020     9.9440    11.0150   149.3160     9.4780     0.3180     0.0810   285.5810
 2155.5000   -27.9670  -999.2500     7.7080     8.2460     9.9460   150.3130     9.5210     0.3130     0.0840   288.8000
 2156.0000   -27.6860  -999.2500     7.5900     7.5190     8.8780   150.1860     9.5730     0.3190     0.0860   292.0190
 2156.5000   -27.4070  -999.2500     7.4820     7.5140     7.8090   149.8380     9.6510     0.3250     0.0900   295.0000
 2157.0000   -27.1310  -999.2500     7.3880     7.5000     7.2330   146.5630     9.7290     0.3220     0.0940   291.7520
 2157.5000   -26.8470  -999.2500     7.2940     7.4860     6.9840   144.1670     9.8100     0.3160     0.0980   288.7270
 2158.0000   -26.5810  -999.2500     7.2000     7.4730     6.9980   143.0330     9.8000     0.3000     0.0990   285.7030
 2158.5000   -26.2800  -999.2500     7.1060     7.4590     7.0110   142.4280     9.7810     0.2960     0.0990   282.6790
