~VERSION INFORMATION
 VERS.                2.0:   CWLS LOG ASCII STANDARD - VERSION 2.0
 WRAP.                 NO:   ONE LINE PER DEPTH STEP
~WELL INFORMATION
#MNEM.UNIT      DATA TYPE    INFORMATION
#----------   ------------   ------------------------------
 STRT.F          200.5000:   START DEPTH
 STOP.F         3118.5000:   STOP DEPTH
 STEP.F            0.5000:   STEP LENGTH
 NULL.          -999.2500:   NO VALUE
 COMP.    FENIX & SCISSON:   COMPANY
 WELL. FENIX SCISSON "A" #16-27:   WELL
 FLD .                NPR:   FIELD
 LOC .      S27 T39N R78W:   LOCATION
 CNTY.            NATRONA:   COUNTY
 STAT.            WYOMING:   STATE
 CTRY. UNITED STATES OF AMERICA:   COUNTRY
 SRVC.       SCHLUMBERGER:   SERVICE COMPANY
 DATE.        31-AUG-1977:   LOGDATE
 API .     49025104180000:   API NUMBER
~CURVE INFORMATION
#MNEM.UNIT       API CODE    CURVE DESCRIPTION
#----------   ------------   ------------------------------
 DEPT.F                  :   
 CALD.IN     45 280 60 00:   CALIPER FROM DENSITY LOG
 GRD .GAPI   45 310 01 00:   GAMMA RAY FROM DENSITY LOG
 DPHI.DEC    42 890 03 00:   DENSITY POROSITY SANDSTONE
 RHOB.G/C3   45 350 01 00:   BULK DENSITY
 CORR.G/C3   45 356 01 00:   DENSITY CORRECTION
 SPR .MV     07 010 01 00:   SPONTANEOUS POTENTIAL
 GURD.OHMM   07 220 05 00:   GUARD LOG RESISTIVITY
 ILD .OHMM   07 120 46 00:   DEEP INDUCTION RESISTIVITY
 ILM .OHMM   07 120 44 00:   INDUCTION LOG MEDIUM RESISTIVITY
~PARAMETER INFORMATION
#MNEM.UNIT          VALUE    DESCRIPTION
#----------   ------------   ------------------------------
 EKB .F         5095.0000:   Kelly bushing
 EGL .F         5085.0000:   Ground level
 EDF .F            0.0000:   Drilling floor
 TD  .F         3121.0000:   Total depth
 DATE.        31-AUG-1977:   Date logged
 CLNT.            A2DTECH:   Client Code
 SL  . 1430' FSL & 330' FNL:   Surface Location
 PD  .                 GL:   Permanent Datum
 EPD .F              5085:   Elevation Permanent Datum
 LMF .                 KB:   Log Measured From
 DMF .                 KB:   Drilling Measured From
 DAPD.F                10:   Feet Above Permanent Datum
 DD  .F              3120:   Depth driller
 DL  .F              3121:   Depth logger
 BLI .F              3119:   Bottom log interval
 TLI .F               200:   Top log interval
 CS1 .IN            8.625:   Casing size
 CBD1.      8.625" @ 206':   Casing driller 1
 CBL1.F               215:   Casing logger 1
 BS1 .IN            7.875:   Bit size
 BSD1.F              3120:   Depth drilled with bit1
 DFT .            KCL/MUD:   Type fluid in hole
 DFD .                  9:   Density
 DFV .                 36:   Viscosity
 DFPH.                 11:   pH
 DFL .                8.4:   Fluid loss
 MSS .           FLOWLINE:   Source of sample
 RMS .OHMM            2.5:   Rm
 MST .F                89:   Rm Meas. temp.
 RMF .OHMM           2.45:   Rmf
 MFST.F                89:   Rmf Meas. temp.
 RMC .OHMM           3.30:   Rmc
 MCST.F                89:   Rmc Meas. temp.
 MFSS.               FANN:   Source Rmf.
 MCSS.                KIT:   Source Rmc.
 RMB .OHMM           1.91:   Rm. at BHT
 BHT .F               116:   BHT.
 TCS .HRS              12:   Time Circ. stopped
 MRT .F               116:   Maximum recorded temp.
 LUN .               9585:   Logging unit number
 LUL .             CASPEN:   Logging unit location
 ENGI.         G. BENTSEN:   Recorded By
 WITN.      W. PETTINGILL:   Witnessed by
 ORIG.           5" PRINT:   Origin of data
 UWI .     49025104180000:   Unique Well ID
 DICO. A2D TECHNOLOGIES, INC.:   Digitizing Company
~OTHER INFORMATION
~A   DEPT     CALD         GRD      DPHI       RHOB        CORR       SPR       GURD        ILD        ILM   
# ...
  602.0000     8.6381    46.4598     0.1057     2.4698     0.0722   -60.7201    11.3278     6.9701     7.1652
  602.5000     8.6184    46.2630     0.1105     2.4688     0.0683   -60.7142    11.2268     6.9714     7.1668
  603.0000     8.6184    46.0661     0.1137     2.4629     0.0643   -60.7082    11.1268     6.9730     7.1681
  603.5000     8.6381    45.8693     0.1164     2.4559     0.0604   -60.7023    11.2320     6.9750     7.1701
  604.0000     8.6381    45.6724     0.1192     2.4490     0.0564   -60.6963    11.2346     6.9769     7.1721
  604.5000     8.6184    45.4756     0.1192     2.4530     0.0544   -60.6904    11.2372     6.9782     7.2400
  605.0000     8.5987    44.8850     0.1192     2.4560     0.0545   -60.6844    11.3435     6.9795     7.3083
  605.5000     8.6184    43.7039     0.1184     2.4570     0.0545   -60.2828    11.4507     6.9817     7.3103
  606.0000     8.5987    43.7039     0.1160     2.4630     0.0605   -60.2769    11.4534     6.9830     7.3120
  606.5000     8.6184    43.5071     0.1160     2.4630     0.0645   -60.2709    11.6684     6.9846     7.3137
  607.0000     8.6184    42.9165     0.1176     2.4621     0.0665   -59.8693    11.7787     6.9862     7.3150
  607.5000     8.6184    42.5197     0.1179     2.4591     0.0705   -59.8634    11.8901     6.9881     7.1829
  608.0000     8.6184    43.7008     0.1175     2.4581     0.0725   -60.2531    11.2553     6.9891     7.1839
  608.5000     8.5987    43.8976     0.1175     2.4582     0.0785   -60.4449    11.1549     6.8639     7.0559
  609.0000     8.5987    43.3071     0.1179     2.4572     0.0805   -60.4390    11.3643     6.8020     6.9926
  609.5000     8.6184    42.7165     0.1179     2.4523     0.0785   -60.4330    11.1601     6.7410     6.9302
  610.0000     8.6184    43.5039     0.1183     2.4533     0.0765   -60.4271    10.5642     6.6814     6.9972
  610.5000     8.6381    44.0945     0.1151     2.4583     0.0706   -60.4211    10.9620     6.6829     6.9975
  611.0000     8.6775    44.6850     0.1055     2.4623     0.0686   -60.4152    10.9645     6.5629     6.9991
  611.5000     8.6381    44.6850     0.1028     2.4723     0.0667   -60.6070    10.8668     6.6863     7.0010
  612.0000     8.5987    44.2913     0.0962     2.4902     0.0687   -60.6011    10.3815     6.6263     7.0023
  612.5000     8.5594    44.0945     0.0912     2.4932     0.0687   -60.5951    10.2889     6.5675     7.0039
  613.0000     8.5594    45.2756     0.0912     2.4932     0.0707   -60.3890    10.2913     6.5687     7.0055
  613.5000     8.5594    45.2756     0.0916     2.4932     0.0707   -60.3854    10.3886     6.5696     7.0068
  614.0000     8.5987    44.4882     0.0924     2.4932     0.0708   -60.3795    10.3910     6.5720     7.0088
  614.5000     8.5791    44.2913     0.0940     2.4933     0.0668   -60.3735    10.3934     6.5735     6.7590
  615.0000     8.5987    45.0787     0.0971     2.4923     0.0668   -60.3676    10.3008     6.5750     6.7606
  615.5000     8.5987    44.8819     0.0995     2.4913     0.0668   -60.3616    10.3982     6.5765     6.7621
  616.0000     8.6381    43.8976     0.1011     2.4844     0.0649   -60.3557    10.4966     6.5781     6.7637
  616.5000     8.5987    42.5197     0.1015     2.4814     0.0649   -60.5475    10.7918     6.5796     6.7652
  617.0000     8.6184    42.1260     0.1007     2.4805     0.0669   -60.5416    10.8938     6.5208     6.7051
  617.5000     8.6184    42.3228     0.0998     2.4805     0.0669   -60.5356    10.7967     6.5220     6.8918
  618.0000     8.6184    42.9134     0.0990     2.4815     0.0709   -60.1340    10.5057     6.5238     6.8309
  618.5000     8.6578    44.0945     0.0978     2.4825     0.0710   -59.9303    11.0019     6.5253     6.8325
  619.0000     8.6381    45.0819     0.0978     2.4846     0.0690   -59.9243    11.0044     6.5265     6.8340
  619.5000     8.6381    45.2787     0.0966     2.4856     0.0710   -59.9183    10.9064     6.7107     6.8985
  620.0000     8.6972    45.4756     0.0950     2.4876     0.0790   -59.9124    10.4202     6.7122     6.9001
  620.5000     8.6381    45.8693     0.0954     2.4886     0.0750   -59.9064    10.4217     6.7138     6.9654
  621.0000     8.6381    45.6724     0.0986     2.4896     0.0730   -59.9005    10.4241     6.6542     6.9673
  621.5000     8.6578    45.2787     0.1045     2.4847     0.0691   -59.8945    10.4265     6.5944     6.9686
  622.0000     8.8743    45.6724     0.1105     2.4837     0.0691   -60.0864    10.5251     6.5960     6.9702
  622.5000     8.8940    46.0661     0.1232     2.4632     0.0672   -60.0805    11.2265     6.5978     7.1013
  623.0000     8.8153    46.2630     0.1224     2.4510     0.0592   -60.0757    11.2291     6.6603     7.1033
  623.5000     8.7365    46.8535     0.1208     2.4540     0.0632   -60.2676    11.2317     6.7855     7.1046
  624.0000     8.7562    47.4441     0.1200     2.4540     0.0632   -60.2616    11.3379     6.7868     7.1062
  624.5000     8.7365    48.0346     0.1192     2.4541     0.0613   -60.2557    11.3405     6.7880     7.1082
  625.0000     8.7562    48.4283     0.1188     2.4541     0.0613   -59.8541    11.2394     6.7896     7.1091
  625.5000     8.7365    48.6252     0.1187     2.4591     0.0593   -59.8481    11.1392     6.7918     7.1114
  626.0000     8.7169    48.6252     0.1112     2.4651     0.0554   -59.8422    11.6653     6.7933     7.1124
  626.5000     8.6775    49.0189     0.1068     2.4701     0.0554   -59.8362    11.7757     6.8577     7.1147
  627.0000     8.6381    49.0189     0.1060     2.4721     0.0594   -59.8303    11.5640     6.9227     7.1157
  627.5000     8.6184    49.0189     0.1040     2.4741     0.0614   -59.8243    11.3562     6.9879     7.1180
  628.0000     8.6184    49.0189     0.1036     2.4751     0.0614   -59.8005    11.4636     6.9898     7.1190
  628.5000     8.6184    49.0189     0.1036     2.4761     0.0615   -59.7946    11.6788     6.9911     7.1868
  629.0000     8.6184    49.0189     0.1040     2.4761     0.0635   -59.5944    11.7892     6.9931     7.2552
  629.5000     8.6184    48.8220     0.1048     2.4762     0.0635   -59.5881    12.0105     6.9944     7.5980
  630.0000     8.6184    48.6252     0.1052     2.4752     0.0635   -59.5818    12.3489     6.9963     7.9579
  630.5000     8.6331    48.6252     0.1063     2.4744     0.0580   -59.5756    12.4657     6.9979     7.8868
  631.0000     8.5994    48.6327     0.1079     2.4732     0.0556   -59.5693    12.4685     6.9995     7.3290
  631.5000     8.5998    48.8338     0.1083     2.4712     0.0556   -59.5630    12.2444     7.0008     7.3307
  632.0000     8.6001    48.6411     0.1075     2.4712     0.0556   -59.5567    12.0243     7.0027     7.3320
  632.5000     8.6005    48.6439     0.1040     2.4732     0.0576   -59.5505    12.2501     7.0040     7.4011
  633.0000     8.6008    48.0558     0.1028     2.4762     0.0577   -59.5442    12.2529     7.1357     7.4035
  633.5000     8.6012    47.4693     0.1020     2.4792     0.0597   -59.5379    12.2557     7.2037     7.4730
  634.0000     8.6016    46.8827     0.1028     2.4802     0.0617   -59.5317    12.4857     7.2053     7.5441
  634.5000     8.6216    46.4931     0.1032     2.4812     0.0617   -59.5254    12.6038     7.2066     7.6863
  635.0000     8.6023    46.3003     0.1032     2.4812     0.0637   -59.5191    12.8404     7.2086     7.6881
  635.5000     8.6026    46.1075     0.1028     2.4802     0.0677   -59.3334    12.9619     7.2766     7.6891
  636.0000     8.6027    46.1117     0.1008     2.4802     0.0697   -59.5217    12.9649     7.4137     7.6916
  636.5000     8.6033    46.3128     0.1000     2.4802     0.0717   -59.5193    12.8493     7.4151     7.6930
  637.0000     8.6036    46.7108     0.0992     2.4812     0.0777   -59.4956    13.0905     7.4857     7.7656
  637.5000     8.6040    47.3058     0.0992     2.4812     0.0797   -59.2942    13.2143     7.4874     7.6932
  638.0000     8.6043    48.0978     0.1028     2.4812     0.0797   -59.2115    12.8582     7.4881     7.6939
