~VERSION INFORMATION
 VERS.                2.0:   CWLS LOG ASCII STANDARD - VERSION 2.0
 WRAP.                 NO:   ONE LINE PER DEPTH STEP
~WELL INFORMATION
#MNEM.UNIT      DATA TYPE    INFORMATION
#----------   ------------   ------------------------------
 STRT.F           57.0000:   START DEPTH
 STOP.F         5817.0000:   STOP DEPTH
 STEP.F            0.5000:   STEP LENGTH
 NULL.          -999.2500:   NO VALUE
 COMP. DEPARTMENT OF ENERGY:   COMPANY
 WELL. DEPARTMENT NPR 371 "X" #1-4:   WELL
 FLD .              NPR-3:   FIELD
 LOC .       S4 T38N R78W:   LOCATION
 CNTY.            NATRONA:   COUNTY
 STAT.            WYOMING:   STATE
 CTRY. UNITED STATES OF AMERICA:   COUNTRY
 SRVC.       SCHLUMBERGER:   SERVICE COMPANY
 DATE.        25-AUG-2002:   LOGDATE
 API .     49025230480000:   API NUMBER
~CURVE INFORMATION
#MNEM.UNIT       API CODE    CURVE DESCRIPTION
#----------   ------------   ------------------------------
 DEPT.F                  :   
 HCAL.IN     07 280 01 00:   HRLT CALIPER
 RLA1.OHMM   06 120 01 00:   HRLT RESISTIVITY 1
 RLA2.OHMM   06 120 02 00:   HRLT RESISTIVITY 2
 RLA3.OHMM   06 120 03 00:   HRLT RESISTIVITY 3
 RXOZ.OHMM   06 270 04 00:   STAN RES. MICROCFL RESISTIVITY
 TENR.LBS    06 635 01 00:   TENSION FROM RESITIVITY
 GRR .GAPI   07 310 01 00:   GAMMA RAY FROM RESISTIVITY
 SPHI.DEC    60 890 22 00:   SONIC POROSITY SANDSTONE
 DT  .US/F   60 520 00 00:   DELTA TIME
 TENS.LBS    60 635 01 00:   TENSION FROM SONIC
 RT  .OHMM   06 120 00 00:   HRLT TRUE RESISTIVITY
~PARAMETER INFORMATION
#MNEM.UNIT          VALUE    DESCRIPTION
#----------   ------------   ------------------------------
 EKB .F         5196.0000:   Kelly bushing
 EGL .F         5186.0000:   Ground level
 EDF .F         5194.0000:   Drilling floor
 TD  .F         5803.0000:   Total depth
 CLNT.            A2DTECH:   Client Code
 SL  . 794' FEL & 333' FNL:   Surface Location
 PD  .                 GL:   Permanent Datum
 EPD .F              5186:   Elevation Permanent Datum
 LMF .                 KB:   Log Measured From
 DMF .                 KB:   Drilling Measured From
 DAPD.F                10:   Feet Above Permanent Datum
 DATE.        25-AUG-2002:   Date Logged [DD-MMM-YYYY]
 DD  .F              5800:   Depth driller
 DL  .F              5803:   Depth logger
 BLI .F              5803:   Bottom log interval
 TLI .F               656:   Top log interval
 CS1 .IN            9.625:   Casing size
 CBD1.      9.625" @ 660':   Casing driller 1
 CBL1.F               656:   Casing logger 1
 BS1 .IN            8.750:   Bit size
 BSD1.F              5800:   Depth drilled with bit1
 DFT .           GEL CHEM:   Type fluid in hole
 DFD .                  9:   Density
 DFV .                 36:   Viscosity
 DFPH.                8.5:   pH
 DFL .                7.6:   Fluid loss
 MSS .           FLOWLINE:   Source of sample
 RMS .OHMM          0.846:   Rm
 MST .F                90:   Rm Meas. temp.
 RMF .OHMM          0.670:   Rmf
 MFST.F                90:   Rmf Meas. temp.
 MFSS.               MEAS:   Source Rmf.
 RMC .OHMM          1.075:   Rmc
 MCST.F                90:   Rmc Meas. temp.
 MCSS.               CALC:   Source Rmc.
 TCS .HRS            0300:   Time Circ. stopped
 TLAB.HRS            0915:   Time logger at bottom
 MRT .F               156:   Maximum recorded temp.
 LUN .               2211:   Logging unit number
 LUL .             CASPER:   Logging unit location
 ENGI.        J.L. FLORES:   Recorded By
 WITN.        STEVE HARDY:   Witnessed by
 ORIG.        2" 5" PRINT:   Origin of data
 UWI .     49025230480000:   Unique Well ID
 DICO. A2D TECHNOLOGIES, INC.:   Digitizing Company
~OTHER INFORMATION
~A   DEPT     HCAL       RLA1       RLA2       RLA3       RXOZ       TENR         GRR      SPHI         DT       TENS         RT   
# ...
 4052.5000    13.0617     1.1749     1.2610     1.2002     2.2952  2440.3813    89.7055  -999.2500   112.7940  1805.6650     1.2022
 4053.0000    13.1066     1.9234     1.2012     2.6049     3.2987  2390.9727    91.5135  -999.2500   106.9652  1805.3931     1.9521
 4053.5000    13.8744     3.0839     2.2091     3.0191     1.8965  2391.5437    83.5784  -999.2500   100.9982  1805.1205     2.6292
 4054.0000    14.1904     3.1057     2.5545     3.1397     1.3053  2342.2498    77.4564  -999.2500    97.0751  1804.7811     3.0612
 4054.5000    14.6569     3.0847     3.0793     2.9295     1.8196  2342.8208    72.3535  -999.2500    97.5256  1804.5092     3.1467
 4055.0000    12.3373     2.9388     3.1654     2.0725     2.4674  2442.7861    66.3443  -999.2500   101.9028  1819.2976     2.5729
 4055.5000    11.8100     1.8843     2.4666     1.6266     2.6812  2492.9885    65.6603  -999.2500   107.1871  1818.9575     1.8513
 4056.0000    12.6229     1.4184     1.6851     1.6042     1.6653  2394.0571    67.4678  -999.2500   111.9420  1818.6176     1.6968
 4056.5000    11.6587     2.0925     1.4874     2.2829     1.2017  2344.7629    76.5271  -999.2500   112.1666  1818.3457     2.0595
 4057.0000    11.1916     2.3570     2.1171     2.7708     1.3240  2345.3342    88.7586  -999.2500   107.6108  1818.0723     2.5189
 4057.5000    11.1612     3.4740     2.5698     3.7567     2.4009  2395.5422    95.3244     0.2978    94.3350  1802.6735     3.2520
 4058.0000    10.9349     3.9918     3.2969     4.2843     4.4450  2396.1133    97.3595     0.2651    90.7824  1817.5298     3.8930
 4058.5000    10.9798     4.8152     4.4092     4.8992     5.6635  2346.7051    95.0895     0.2536    86.3983  1817.1687     4.6283
 4059.0000    11.0548     5.2343     4.9288     5.2721     6.1117  2347.2764    90.5525     0.2518    85.8669  1801.8575     5.2783
 4059.5000    11.0771     4.6847     5.3144     4.8853     5.5058  2347.8474    89.6420     0.2572    86.3167  1816.5779     5.0617
 4060.0000    11.0843     4.0218     4.6909     4.5026     5.3226  2348.3042    89.6379     0.2663    88.1266  1816.2650     4.4669
 4060.5000    11.1443     3.7789     4.3085     4.1010     5.8645  2348.7612    89.6327     0.2736    88.7324  1815.9640     3.8875
 4061.0000    11.2946     3.6759     3.8629     3.8219     5.8770  2399.0837    91.4412     0.2772    89.4045  1815.6260     3.7542
 4061.5000    11.3545     3.6764     3.7310     3.7687     4.7989  2399.5408    93.0226     0.2820    90.0815  1815.3539     3.7273
 4062.0000    11.1886     3.7542     3.7304     3.7418     4.7660  2350.2463    94.1509     0.2844    90.0781  1815.0603     3.7550
 4062.5000    11.1883     3.8605     3.7819     3.7932     4.8664  2350.8176    94.5999     0.2841    89.9243  1814.7421     3.8833
 4063.0000    11.2633     3.9697     3.8608     3.9260     5.0392  2351.2747    95.0483     0.2799    89.2411  1829.4623     3.9914
 4063.5000    11.2931     4.1115     4.0240     4.0382     5.0734  2301.9897    96.4032     0.2723    88.8608  1829.1903     4.1047
 4064.0000    11.2777     4.1396     4.1365     4.1478     4.9695  2302.5513   103.1966     0.2698    88.5528  1828.9156     4.1588
 4064.5000    11.3527     3.9714     4.0230     4.0616     4.5738  2253.1431   109.9890     0.2689    88.4777  1828.6145     3.9332
 4065.0000    12.3614     3.9719     4.0223     4.0609     3.3503  2253.8284   109.9848     0.2695    88.5498  1828.3132     4.0427
 4065.5000    12.6774     4.0844     4.0499     4.1452     3.1482  2254.2854   109.5275     0.2716    88.5464  1828.0120     4.1842
 4066.0000    12.6771     4.1133     4.0213     4.0873     3.0836  2254.7422   111.3350     0.2743    89.5255  1827.7108     4.2122
 4066.5000    12.3078     4.0854     3.9380     3.8933     3.2594  2205.4480   113.1435     0.2789    90.8061  1827.4095     4.0674
 4067.0000    12.3151     3.6821     3.8299     3.6827     2.7419  2156.1538   114.9520     0.2867    91.3321  1827.0826     3.7158
 4067.5000    13.0979     3.4356     3.6474     3.5815     2.5235  2305.9785   116.3063     0.2937    91.3293  1826.8071     3.4661
 4068.0000    13.3160     3.4600     3.5728     3.5561     2.5589  2356.3010   117.6617     0.2979    93.0631  1841.5989     3.5626
 4068.5000    13.8955     3.4507     3.7238     3.7344     2.7235  2356.7581   111.7663  -999.2500    93.9667  1841.2590     3.5093
 4069.0000    15.2054     3.2514     3.8545     3.7571     2.7808  2307.4626   100.8849  -999.2500    93.8878  1840.9189     3.3685
 4069.5000    15.2955     3.2745     3.7486     3.7304     2.4216  2308.0352    99.9744  -999.2500    93.8850  1840.6470     3.2758
 4070.0000    15.5512     3.3671     3.7222     3.9146     2.4555  2308.4919   102.9154  -999.2500    94.4859  1825.2468     3.3934
 4070.5000  -999.2500     3.4624     3.9065     4.0517     2.4052  2308.9551   106.0829  -999.2500    95.2384  1824.9999     3.4605
 4071.0000  -999.2500     3.2759     3.9606     4.0507     2.2137  2309.4526   104.0395  -999.2500    96.3686  1824.6986     3.5079
 4071.5000  -999.2500     3.0779     3.9326     3.9122     1.8493  2309.9502   104.4879  -999.2500    96.2897  1824.3629     3.3640
 4072.0000  -999.2500     2.8520     3.7720     3.7263     1.7211  2310.4478   109.9213  -999.2500    96.8157  1824.0963     3.1161
 4072.5000  -999.2500     2.6983     3.6180     3.5741     1.5884  2310.9451   118.5274  -999.2500    98.3228  1823.7510     2.9067
 4073.0000  -999.2500     2.8331     3.5187     3.4999     1.8755  2311.4426   129.8515  -999.2500   100.4349  1823.4790     2.9670
 4073.5000  -999.2500     3.0161     3.4940     3.6526     2.1244  2311.9402   125.3157  -999.2500   100.1294  1823.1390     3.1789
 4074.0000  -999.2500     2.9956     3.6669     3.8279     2.3407  2312.4377   118.5139  -999.2500    97.4831  1822.8671     3.1563
 4074.5000  -999.2500     3.2790     3.8220     3.9344     2.4233  2263.1199   106.7262  -999.2500    95.4254  1822.5903     3.2668
 4075.0000  -999.2500     3.1676     3.9835     4.1004     2.3249  2213.9302   104.0030  -999.2500    94.6831  1822.2552     3.1764
 4075.5000  -999.2500     3.4673     4.1234     3.9600     1.6087  2264.2622    99.9203  -999.2500    95.0574  1821.9832     3.5233
 4076.0000    15.5777     3.2128     3.7881     3.4956     1.1166  2364.2217    95.3834  -999.2500    95.2057  1821.6866     3.3556
 4076.5000    16.0000     3.0186     3.4192     3.3296     0.9927  2414.4299    91.3007  -999.2500    95.1267  1821.3855     3.0424
 4077.0000    15.9932     3.2636     3.4188     3.5427     1.3185  2265.7476    91.5231  -999.2500    95.2744  1821.0844     3.2846
 4077.5000    15.9847     3.6167     3.7823     4.2402     1.8897  2166.7019    97.6357  -999.2500    97.3109  1820.7831     3.5685
 4078.0000    15.9763     3.7449     4.4466     4.5747     2.1554  2266.6667    98.5379  -999.2500    97.8369  1820.4819     3.6934
 4078.5000    15.9678     3.6428     4.7649     4.7677     1.8006  2366.7349    99.2130  -999.2500    97.3803  1820.1473     3.6416
 4079.0000    14.2958     3.8514     4.6661     4.6687     1.6572  2466.6946    93.0905  -999.2500    96.8489  1819.8754     3.9288
 4079.5000    14.0620     3.9879     4.5381     4.5090     2.1708  2516.9158    91.2736  -999.2500    95.0328  1834.6638     3.9278
 4080.0000    12.7891     3.8524     4.2633     4.0637     2.6351  2417.9712    90.1360  -999.2500    93.4440  1819.2634     3.8192
 4080.5000    12.5780     3.5698     3.8421     3.8174     2.4591  2368.5627    89.4515     0.2985    92.0810  1818.9236     3.6374
 4081.0000    12.8789     3.6964     4.0604     4.2635     1.5362  2369.2483    78.1181     0.2943    91.7007  1818.6747     3.8172
 4081.5000    12.9238     4.5526     4.6630     4.8616     1.6926  2319.8398    75.3938     0.2909    91.2380  1818.3734     4.8299
 4082.0000    12.7729     5.3045     5.2448     5.2813     2.8443  2270.6467    76.7492     0.2864    90.7882  1818.0397     5.2112
 4082.5000    12.1250     5.1959     5.3544     5.3172     4.3973  2221.3652    79.2375     0.2803    90.3323  1817.7677     5.3197
