~VERSION INFORMATION
 VERS.                2.0:   CWLS LOG ASCII STANDARD - VERSION 2.0
 WRAP.                 NO:   ONE LINE PER DEPTH STEP
~WELL INFORMATION
#MNEM.UNIT      DATA TYPE    INFORMATION
#----------   ------------   ------------------------------
 STRT.F            0.0000:   START DEPTH
 STOP.F         1165.5000:   STOP DEPTH
 STEP.F            0.5000:   STEP LENGTH
 NULL.          -999.2500:   NO VALUE
 COMP.   JOHN BROWN E & C:   COMPANY
 WELL. BROWN NPR 3 "X" 1 #63-14:   WELL
 FLD .                NPR:   FIELD
 LOC .      S14 T38N R78W:   LOCATION
 CNTY.            NATRONA:   COUNTY
 STAT.            WYOMING:   STATE
 CTRY. UNITED STATES OF AMERICA:   COUNTRY
 SRVC.     ATLAS WIRELINE:   SERVICE COMPANY
 DATE.        15-JAN-1992:   LOGDATE
 API .     49025224960000:   API NUMBER
~CURVE INFORMATION
#MNEM.UNIT       API CODE    CURVE DESCRIPTION
#----------   ------------   ------------------------------
 DEPT.F                  :   
 GRR .GAPI   07 310 01 00:   GAMMA RAY FROM RESISTIVITY
 RILD.OHMM   07 120 46 00:   INDUCTION LOG DEEP RESISTIVITY
 RILM.OHMM   07 120 44 00:   INDUCTION LOG MEDIUM RESISTIVITY
 TENR.LBS    07 635 01 00:   TENSION
~PARAMETER INFORMATION
#MNEM.UNIT          VALUE    DESCRIPTION
#----------   ------------   ------------------------------
 EKB .F         5270.0000:   Kelly bushing
 EGL .F         5260.0000:   Ground level
 EDF .F         5269.0000:   Drilling floor
 TD  .F         1160.0000:   Total depth
 DATE.        15-JAN-1992:   Date logged
 CLNT.            A2DTECH:   Client Code
 SL  . 1893' FNL & 1971' FEL:   Surface Location
 PD  .                 GL:   Permanent Datum
 EPD .F              5260:   Elevation Permanent Datum
 LMF .                 KB:   Log Measured From
 DMF .                 KB:   Drilling Measured From
 DAPD.F                10:   Feet Above Permanent Datum
 DD  .F              1160:   Depth driller
 DL  .F              1158:   Depth logger
 BLI .F              1150:   Bottom log interval
 CS1 .IN            9.625:   Casing size
 CBD1.       9.625" @ 50':   Casing driller 1
 CBL1.F                48:   Casing logger 1
 BS1 .IN             8.75:   Bit size
 BSD1.F              1160:   Depth drilled with bit1
 DFT .                AIR:   Type fluid in hole
 MRT .F                90:   Maximum recorded temp.
 LUN .            HL-6274:   Logging unit number
 LUL .             CASPER:   Logging unit location
 ENGI.             RAUTIO:   Recorded By
 WITN.        GARY STRONG:   Witnessed by
 ORIG.           5" PRINT:   Origin of data
 UWI .     49025224960000:   Unique Well ID
 DICO. A2D TECHNOLOGIES, INC.:   Digitizing Company
 TLI .F                 0:   Top log interval
~OTHER INFORMATION
~A    DEPT      GRR      RILD       RILM       TENR   
# ...
  584.0000   130.8670     8.8440     9.0560    10.1110
  584.5000   132.2820     8.9740     9.1180     9.9970
  585.0000   131.7890     9.0080     9.1540     9.8830
  585.5000   130.4600     9.0080     9.1760     9.7700
  586.0000   130.6070     9.0070     9.1760     9.6560
  586.5000   131.9280     9.0070     9.1760     9.5430
  587.0000   134.5860     9.0070     9.1760     9.4290
  587.5000   138.0730     9.0080     9.1750     9.3150
  588.0000   139.9920     8.8960     9.1780     9.2020
  588.5000   138.7400     8.7660     8.9990     9.0880
  589.0000   136.6640     8.6350     8.8770     8.9740
  589.5000   134.5060     8.5200     8.8420     8.8610
  590.0000   132.3690     8.5140     8.8420     8.7470
  590.5000   131.0080     8.5040     8.8420     8.6330
  591.0000   132.8430     8.4940     8.8420     8.5200
  591.5000   136.4940     8.4840     8.8420     8.4060
  592.0000   140.0960     8.4730     8.8420     8.2920
  592.5000   141.3190     8.4630     8.8430     8.1790
  593.0000   138.6020     8.4530     8.8230     8.0650
  593.5000   137.2730     8.4430     8.7450     7.9510
  594.0000   139.1480     8.4170     8.6670     7.8380
  594.5000   140.3410     8.3810     8.5890     7.7240
  595.0000   138.8150     8.3450     8.5180     7.6100
  595.5000   138.1670     8.3090     8.5010     7.4970
  596.0000   140.3460     8.2860     8.4830     7.3830
  596.5000   144.3300     8.2580     8.4660     7.2690
  597.0000   146.6580     8.2280     8.4490     7.1560
  597.5000   148.4650     8.1980     8.4310     7.0420
  598.0000   148.2330     8.1680     8.4140     6.9280
  598.5000   144.4200     8.1380     8.3970     6.8150
  599.0000   141.9760     8.1120     8.3790     6.7980
  599.5000   144.1940     8.0270     8.3630     6.7980
  600.0000   143.3360     7.9840     8.3630     6.7980
  600.5000   141.3140     7.9840     8.3460     6.7980
  601.0000   139.1840     7.9840     8.3280     6.7980
  601.5000   139.2130     7.9840     8.3090     6.7980
  602.0000   142.8750     7.9830     8.2920     6.7980
  602.5000   146.8380     7.9860     8.1490     6.7980
  603.0000   146.6720     7.7730     7.9730     6.7980
  603.5000   140.6340     7.6200     7.7970     6.7980
  604.0000   136.0590     7.4670     7.6210     6.7980
  604.5000   140.1110     7.2700     7.4450     6.7980
  605.0000   145.0880     7.1060     7.2690     6.7980
  605.5000   149.7210     6.9420     7.0930     6.7980
  606.0000   152.5290     6.7780     6.9160     6.7980
  606.5000   155.2010     6.6140     6.7400     6.7980
  607.0000   152.9090     6.5710     6.6940     6.7980
  607.5000   148.5690     6.5710     6.6940     6.7980
  608.0000   148.6050     6.6410     6.8200     6.7980
  608.5000   151.6530     6.7130     6.9070     6.7980
  609.0000   152.6740     6.7860     7.0250     6.7980
  609.5000   145.5240     6.8580     7.1420     6.7980
  610.0000   137.1950     6.9660     7.2600     6.7980
  610.5000   129.5030     7.0940     7.3770     6.7980
  611.0000   129.3220     7.2100     7.4950     6.7980
  611.5000   131.9040     7.2200     7.6230     6.7980
  612.0000   134.7360     7.2320     7.5950     6.7980
  612.5000   137.2520     7.2430     7.5570     6.7980
  613.0000   137.4150     7.2540     7.5190     6.7980
  613.5000   137.2350     7.2660     7.4810     6.7980
  614.0000   135.3950     7.2770     7.4430     6.7980
  614.5000   131.9150     7.2770     7.4130     6.7980
  615.0000   128.4800     7.2880     7.4480     6.7980
  615.5000   125.8800     7.3130     7.4760     6.7980
  616.0000   127.9710     7.3370     7.5040     6.7980
  616.5000   132.4230     7.3620     7.5330     6.7980
  617.0000   136.6420     7.3870     7.5610     6.7980
  617.5000   138.1480     7.4130     7.6370     6.7980
  618.0000   139.7520     7.4570     7.7130     6.7980
  618.5000   141.3530     7.5150     7.7900     6.7980
  619.0000   142.3830     7.5520     7.8380     6.7980
  619.5000   142.3680     7.5420     7.8280     6.7980
  620.0000   142.3710     7.5340     7.8200     6.7980
  620.5000   142.3770     7.5250     7.8130     6.7980
  621.0000   142.3860     7.5170     7.8060     6.7980
  621.5000   142.2450     7.5080     7.7990     6.7980
  622.0000   138.3120     7.5000     7.7920     6.7980
  622.5000   131.3600     7.4910     7.7840     6.7980
  623.0000   132.0180     7.4830     7.7770     6.7980
  623.5000   136.3670     7.4660     7.7700     6.7980
  624.0000   140.1340     7.4440     7.7490     6.7980
  624.5000   140.5860     7.4230     7.7040     6.7980
  625.0000   141.1300     7.4010     7.6600     6.7980
  625.5000   141.3830     7.3790     7.6150     6.7980
  626.0000   140.3370     7.3570     7.5700     6.7980
  626.5000   139.3750     7.3410     7.5250     6.7980
  627.0000   136.1710     7.3250     7.4810     6.7980
  627.5000   132.7160     7.3090     7.4360     6.7980
  628.0000   135.5190     7.2930     7.4060     6.7980
  628.5000   141.9530     7.2770     7.3920     6.7980
  629.0000   148.5870     7.2610     7.3770     6.7980
  629.5000   150.7830     7.2450     7.3630     6.7980
  630.0000   146.9120     7.2290     7.3480     6.7980
  630.5000   141.7920     7.2130     7.3340     6.7980
  631.0000   136.6470     7.1810     7.3190     6.7980
  631.5000   131.4690     7.1450     7.3050     6.7980
  632.0000   130.8580     7.1090     7.2900     6.7980
  632.5000   134.3740     7.0730     7.2770     6.7980
  633.0000   137.8920     7.0370     7.2560     6.7980
  633.5000   140.2090     7.0120     7.2370     6.7980
  634.0000   139.6510     7.0170     7.2170     6.7980
  634.5000   140.5610     7.0210     7.1980     6.7980
  635.0000   141.4740     7.0260     7.1780     6.7980
  635.5000   142.2910     7.0300     7.1590     6.7980
  636.0000   140.3840     7.0350     7.1430     6.7980
  636.5000   138.2870     7.0390     7.1570     6.7980
  637.0000   137.6880     7.0440     7.1710     6.7980
  637.5000   141.0910     7.0480     7.1850     6.7980
  638.0000   144.5710     7.0530     7.1990     6.7980
  638.5000   146.4610     7.0570     7.2130     6.7980
  639.0000   146.5830     7.0620     7.2270     6.7980
  639.5000   146.7270     7.0660     7.2410     6.7980
  640.0000   144.2810     7.0710     7.2540     6.7980
  640.5000   140.8640     7.0750     7.2680     6.7980
  641.0000   141.6930     7.0960     7.3250     6.7980
  641.5000   145.4090     7.2010     7.4530     6.7980
  642.0000   149.0910     7.3060     7.5820     6.7980
  642.5000   151.0750     7.4110     7.7100     6.7980
  643.0000   146.8980     7.5160     7.8390     7.0320
  643.5000   142.6720     7.6230     7.9670     7.2600
  644.0000   138.3660     7.7650     7.9840     7.4880
  644.5000   139.0720     7.7650     7.9570     7.7160
  645.0000   141.7550     7.7420     7.9360     7.9440
  645.5000   144.5800     7.6970     7.9140     8.1720
  646.0000   144.4260     7.6520     7.8930     8.4000
  646.5000   139.3100     7.6070     7.8720     8.6280
  647.0000   134.9970     7.5610     7.8500     8.8560
  647.5000   138.3980     7.4740     7.7650     9.0840
  648.0000   143.7970     7.3760     7.6840     9.3120
  648.5000   149.2700     7.2780     7.5520     9.5400
  649.0000   148.4510     7.1800     7.4200     9.7680
  649.5000   146.6290     7.0820     7.2880     9.9960
  650.0000   145.9670     6.9840     7.1560    10.2230
  650.5000   145.4970     6.8860     7.0120    10.4510
  651.0000   144.8290     6.7930     6.9350    10.6790
  651.5000   143.7320     6.7090     6.8500    10.9070
  652.0000   142.6730     6.6260     6.7660    11.1350
  652.5000   143.1660     6.5430     6.6810    11.3630
  653.0000   146.5210     6.4590     6.5960    11.5910
  653.5000   149.8620     6.3910     6.5110    11.8190
  654.0000   149.0330     6.4600     6.5940    12.0470
  654.5000   144.0950     6.5470     6.6530    12.2750
  655.0000   139.5620     6.6320     6.7110    12.5030
  655.5000   138.5360     6.6820     6.7690    12.7310
  656.0000   139.6770     6.7430     6.8280    12.9590
  656.5000   142.3660     6.8030     6.8830    13.1870
