~VERSION INFORMATION
 VERS.                2.0:   CWLS LOG ASCII STANDARD - VERSION 2.0
 WRAP.                 NO:   ONE LINE PER DEPTH STEP
~WELL INFORMATION
#MNEM.UNIT      DATA TYPE    INFORMATION
#----------   ------------   ------------------------------
 STRT.F          450.0000:   START DEPTH
 STOP.F         3070.0000:   STOP DEPTH
 STEP.F            0.5000:   STEP LENGTH
 NULL.          -999.2500:   NO VALUE
 COMP. LAWRENCE ALLISON & ASSOCIATES:   COMPANY
 WELL. LAWRENCE "X" #86-28:   WELL
 FLD .             NPR #3:   FIELD
 LOC .      S28 T39N R78W:   LOCATION
 CNTY.            NATRONA:   COUNTY
 STAT.            WYOMING:   STATE
 CTRY. UNITED STATES OF AMERICA:   COUNTRY
 SRVC.      WESTERN ATLAS:   SERVICE COMPANY
 DATE.        03-JAN-1988:   LOGDATE
 API .     49025111920000:   API NUMBER
~CURVE INFORMATION
#MNEM.UNIT       API CODE    CURVE DESCRIPTION
#----------   ------------   ------------------------------
 DEPT.F                  :   
 TEND.LBS    45 635 01 00:   TENSION FROM DENSITY LOG
 CALD.IN     45 280 60 00:   CALIPER FROM DENSITY LOG
 NPHI.DEC    42 890 03 00:   NEUTRON POROSITY SANDSTONE
 DEN .G/C3   45 350 01 00:   BULK DENSITY
 CORR.G/C3   45 356 01 00:   DENSITY CORRECTION
 TENR.LBS    07 635 01 00:   TENSION FROM RESISTIVITY
 RFOC.OHMM   07 220 04 00:   RESISTIVITY FOCUSED LOG RES.
 RILD.OHMM   07 120 46 00:   DEEP INDUCTION RESISTIVITY
 RILM.OHMM   07 120 44 00:   INDUCTION LOG MEDIUM RESISTIVITY
 SPR .MV     07 010 01 00:   SPONTANEOUS POTENTIAL
 GRR .GAPI   07 310 01 00:   GAMMA RAY FROM RESISTIVITY
~PARAMETER INFORMATION
#MNEM.UNIT          VALUE    DESCRIPTION
#----------   ------------   ------------------------------
 EKB .F         5072.0000:   Kelly bushing
 EGL .F         5061.0000:   Ground level
 EDF .F         5071.0000:   Drilling floor
 TD  .F         3062.0000:   Total depth
 DATE.        03-JAN-1988:   Date logged
 CLNT.            A2DTECH:   Client Code
 SL  . 1721' FSL & 556' FEL:   Surface Location
 PD  .                 GL:   Permanent Datum
 DD  .F              3060:   Depth driller
 DL  .F              3062:   Depth logger
 BLI .F              3060:   Bottom log interval
 CS1 .IN            8.625:   Casing size
 CBD1.      8.625" @ 480':   Casing driller 1
 CBL1.F               480:   Casing logger 1
 BS1 .IN            7.875:   Bit size
 DFT .        KCL-POLYMER:   Type fluid in hole
 DFD .                8.9:   Density
 DFV .                 36:   Viscosity
 DFPH.                9.5:   pH
 DFL .                8.4:   Fluid loss
 MSS .               TANK:   Source of sample
 RMS .OHMM           0.45:   Rm
 MST .F                80:   Rm Meas. temp.
 RMF .OHMM           0.41:   Rmf
 MFST.F                60:   Rmf Meas. temp.
 RMC .OHMM           0.65:   Rmc
 MCST.F                60:   Rmc Meas. temp.
 MFSS.               MEAS:   Source Rmf.
 RMB .OHMM           0.31:   Rm. at BHT
 BHT .F               110:   BHT.
 TCS .HRS               4:   Time Circ. stopped
 MRT .F               110:   Maximum recorded temp.
 LUN .            HL 6343:   Logging unit number
 LUL .               CODY:   Logging unit location
 ENGI.               RALL:   Recorded By
 WITN.              FIVRS:   Witnessed by
 ORIG.     2.5", 5" PRINT:   Origin of data
 UWI .     49025111920000:   Unique Well ID
 DICO. A2D TECHNOLOGIES, INC.:   Digitizing Company
 DAPD.                 11:   Feet Above Permanent Datum
 BSD1.               3060:   Depth drilled with bit1
 MCSS.               CALC:   Source Rmc.
 EPD .               5061:   Elevation Permanent Datum
 LMF .                 KB:   Log Measured From
 DMF .                 KB:   Drilling Measured From
 TLI .                480:   Top log interval
~OTHER INFORMATION
~A   DEPT     TEND       CALD       NPHI        DEN       CORR       TENR       RFOC       RILD       RILM        SPR         GRR  
# ...
  999.0000  -999.2500  -999.2500  -999.2500  -999.2500  -999.2500   -62.3730     9.6210     8.7090     8.9840   -13.6320   107.2740
  999.5000  -999.2500  -999.2500  -999.2500  -999.2500  -999.2500   -62.3730     9.3900     8.6820     8.9840   -13.7640   105.3580
 1000.0000  -999.2500  -999.2500  -999.2500  -999.2500  -999.2500   -62.3730     9.1590     8.6550     8.9840   -13.8960   102.6960
 1000.5000  -999.2500  -999.2500  -999.2500  -999.2500  -999.2500   -62.2090     8.9280     8.6290     8.9840   -14.0020   100.2410
 1001.0000  -999.2500  -999.2500  -999.2500  -999.2500  -999.2500   -61.6790     8.8170     8.6020     8.9840   -13.9180   103.1410
 1001.5000  -999.2500  -999.2500  -999.2500  -999.2500  -999.2500   -61.1490     8.8510     8.5730     8.9840   -13.8350   106.3930
 1002.0000  -999.2500  -999.2500  -999.2500  -999.2500  -999.2500   -60.6190     9.0940     8.6110     8.9840   -13.6570   108.2980
 1002.5000  -999.2500  -999.2500  -999.2500  -999.2500  -999.2500   -60.0890     9.3360     8.6520     8.9840   -13.4520   107.4910
 1003.0000  -999.2500  -999.2500  -999.2500  -999.2500  -999.2500   -59.5590     9.5790     8.6920     8.9840   -13.3650   105.4370
 1003.5000  -999.2500  -999.2500  -999.2500  -999.2500  -999.2500   -59.0280     9.7740     8.7330     8.9840   -13.3090   105.2110
 1004.0000  -999.2500  -999.2500  -999.2500  -999.2500  -999.2500   -58.4980     9.6090     8.7730     8.9840   -13.2540   105.3990
 1004.5000  -999.2500  -999.2500  -999.2500  -999.2500  -999.2500   -57.9680     9.4430     8.8140     8.9840   -13.1990   105.6120
 1005.0000  -999.2500  -999.2500  -999.2500  -999.2500  -999.2500   -57.4380     9.2780     8.8540     8.9870   -13.1430   105.8750
 1005.5000  -999.2500  -999.2500  -999.2500  -999.2500  -999.2500   -56.9080     9.1540     8.8940     8.9910   -13.0880   104.2270
 1006.0000  -999.2500  -999.2500  -999.2500  -999.2500  -999.2500   -56.3780     9.4080     8.9650     8.9950   -13.0340   102.3280
 1006.5000  -999.2500  -999.2500  -999.2500  -999.2500  -999.2500   -55.8480     9.6500     9.0630     8.9990   -13.0530   100.3370
 1007.0000  -999.2500  -999.2500  -999.2500  -999.2500  -999.2500   -55.3180     9.7740     9.1620     9.0030   -13.1560    99.7500
 1007.5000  -999.2500  -999.2500  -999.2500  -999.2500  -999.2500   -54.7880     9.6900     9.2600     9.0070   -13.3120   102.5440
 1008.0000  -999.2500  -999.2500  -999.2500  -999.2500  -999.2500   -54.2580     9.5920     9.3290     9.0110   -13.5240   106.4120
 1008.5000  -999.2500  -999.2500  -999.2500  -999.2500  -999.2500   -53.7270     9.6200     9.3340     9.0150   -13.7350   108.3600
 1009.0000  -999.2500  -999.2500  -999.2500  -999.2500  -999.2500   -53.1970     9.6570     9.3400     9.0200   -13.9460   107.1540
 1009.5000  -999.2500  -999.2500  -999.2500  -999.2500  -999.2500   -52.6670     9.6940     9.3460     9.0240   -14.1580   107.1990
 1010.0000  -999.2500  -999.2500  -999.2500  -999.2500  -999.2500   -52.2310     9.7320     9.3520     9.0280   -14.3730   108.1540
 1010.5000  -999.2500  -999.2500  -999.2500  -999.2500  -999.2500   -52.2310     9.7690     9.3570     9.0320   -14.4150   108.9650
 1011.0000  -999.2500  -999.2500  -999.2500  -999.2500  -999.2500   -52.2310     9.8070     9.3630     9.0360   -14.4160   106.0420
 1011.5000  -999.2500  -999.2500  -999.2500  -999.2500  -999.2500   -52.2310     9.8660     9.3690     9.0400   -14.4150   103.0760
 1012.0000  -999.2500  -999.2500  -999.2500  -999.2500  -999.2500   -52.2310     9.8510     9.3750     9.0440   -14.3820   102.5270
 1012.5000  -999.2500  -999.2500  -999.2500  -999.2500  -999.2500   -52.2310     9.8180     9.3810     9.0480   -14.2220   103.9790
 1013.0000  -999.2500  -999.2500  -999.2500  -999.2500  -999.2500   -52.2310     9.7850     9.3860     9.0520   -14.0640   105.0610
 1013.5000  -999.2500  -999.2500  -999.2500  -999.2500  -999.2500   -52.2310     9.7520     9.3920     9.0570   -13.9070   104.7430
 1014.0000  -999.2500  -999.2500  -999.2500  -999.2500  -999.2500   -52.2310     9.7190     9.3980     9.0600   -13.7490   103.7450
 1014.5000  -999.2500  -999.2500  -999.2500  -999.2500  -999.2500   -52.2310     9.5920     9.4040     9.0610   -13.6120   101.9070
 1015.0000  -999.2500  -999.2500  -999.2500  -999.2500  -999.2500   -52.2310     9.6110     9.4090     9.0730   -13.5350   103.0310
 1015.5000  -999.2500  -999.2500  -999.2500  -999.2500  -999.2500   -52.2310     9.6470     9.4140     8.9890   -13.4340   104.2530
 1016.0000  -999.2500  -999.2500  -999.2500  -999.2500  -999.2500   -52.2310     9.6840     9.3740     8.9830   -13.3320   104.4670
 1016.5000  -999.2500  -999.2500  -999.2500  -999.2500  -999.2500   -52.2310     9.7200     9.3380     8.9840   -13.2280   104.8260
 1017.0000  -999.2500  -999.2500  -999.2500  -999.2500  -999.2500   -52.2310     9.7570     9.3020     8.9840   -13.2210   106.0240
 1017.5000  -999.2500  -999.2500  -999.2500  -999.2500  -999.2500   -52.2310     9.7930     9.2670     8.9840   -13.3100   105.7690
 1018.0000  -999.2500  -999.2500  -999.2500  -999.2500  -999.2500   -52.2310     9.8300     9.2310     8.9840   -13.4000   105.1350
 1018.5000  -999.2500  -999.2500  -999.2500  -999.2500  -999.2500   -52.2310     9.8660     9.1950     8.9840   -13.4860   106.8230
 1019.0000  -999.2500  -999.2500  -999.2500  -999.2500  -999.2500   -52.2310     9.7870     9.1590     8.9840   -13.5570   107.5990
 1019.5000  -999.2500  -999.2500  -999.2500  -999.2500  -999.2500   -52.2310     9.7100     9.1230     8.9900   -13.8240   106.3350
 1020.0000  -999.2500  -999.2500  -999.2500  -999.2500  -999.2500   -52.6860     9.6330     9.0880     9.0000   -13.8860   105.0350
 1020.5000  -999.2500  -999.2500  -999.2500  -999.2500  -999.2500   -53.2210     9.5220     9.0580     9.0100   -13.9530   108.3410
 1021.0000  -999.2500  -999.2500  -999.2500  -999.2500  -999.2500   -53.7570     9.4140     9.0190     9.0190   -14.0130   112.2920
 1021.5000  -999.2500  -999.2500  -999.2500  -999.2500  -999.2500   -54.2920     9.5100     8.9800     9.0290   -14.1810   112.8920
 1022.0000  -999.2500  -999.2500  -999.2500  -999.2500  -999.2500   -54.8280     9.6170     8.9420     9.0390   -14.3710   111.9170
 1022.5000  -999.2500  -999.2500  -999.2500  -999.2500  -999.2500   -55.3640     9.7240     8.9000     9.0490   -14.5620   111.0220
 1023.0000  -999.2500  -999.2500  -999.2500  -999.2500  -999.2500   -55.8990     9.7740     8.9000     9.0580   -14.7520   109.3230
 1023.5000  -999.2500  -999.2500  -999.2500  -999.2500  -999.2500   -56.4350     9.3940     8.9000     9.0680   -14.9420   107.6830
 1024.0000  -999.2500  -999.2500  -999.2500  -999.2500  -999.2500   -56.9710     9.2990     8.9000     9.0230   -15.1330   106.0530
 1024.5000  -999.2500  -999.2500  -999.2500  -999.2500  -999.2500   -57.5060     9.2620     8.9000     8.9760   -15.3220   104.4310
 1025.0000  -999.2500  -999.2500  -999.2500  -999.2500  -999.2500   -58.0420     9.2340     8.9000     8.9290   -15.5090   104.0350
 1025.5000  -999.2500  -999.2500  -999.2500  -999.2500  -999.2500   -58.5770     9.2030     8.8860     8.8820   -15.5010   106.6380
 1026.0000  -999.2500  -999.2500  -999.2500  -999.2500  -999.2500   -59.1130     9.1710     8.8630     8.8350   -15.1920   109.6470
 1026.5000  -999.2500  -999.2500  -999.2500  -999.2500  -999.2500   -59.6490     9.1540     8.8390     8.7030   -14.8870   111.0890
 1027.0000  -999.2500  -999.2500  -999.2500  -999.2500  -999.2500   -60.1840     9.1540     8.8170     8.5670   -14.5820   112.8330
 1027.5000  -999.2500  -999.2500  -999.2500  -999.2500  -999.2500   -60.7200     9.1020     8.6230     8.4320   -14.3800   116.2080
 1028.0000  -999.2500  -999.2500  -999.2500  -999.2500  -999.2500   -61.2550     8.9090     8.4540     8.2970   -14.3010   120.4440
 1028.5000  -999.2500  -999.2500  -999.2500  -999.2500  -999.2500   -61.7910     8.7350     8.2850     8.1610   -14.2210   121.5270
 1029.0000  -999.2500  -999.2500  -999.2500  -999.2500  -999.2500   -62.3730     8.5790     8.1160     8.0260   -14.1430   119.5460
