~VERSION INFORMATION
 VERS.                2.0:   CWLS LOG ASCII STANDARD - VERSION 2.0
 WRAP.                 NO:   ONE LINE PER DEPTH STEP
~WELL INFORMATION
#MNEM.UNIT      DATA TYPE    INFORMATION
#----------   ------------   ------------------------------
 STRT.F            0.0000:   START DEPTH
 STOP.F         4000.0000:   STOP DEPTH
 STEP.F            0.5000:   STEP LENGTH
 NULL.          -999.2500:   NO VALUE
 COMP. LAWRENCE &  ALLISON ASSOC.:   COMPANY
 WELL. LAWRENCE NPR 3 "TX" #14-28:   WELL
 FLD .              N P R:   FIELD
 LOC .      S28 T39N R78W:   LOCATION
 CNTY.            NATRONA:   COUNTY
 STAT.            WYOMING:   STATE
 CTRY. UNITED STATES OF AMERICA:   COUNTRY
 SRVC.      DRESSER ATLAS:   SERVICE COMPANY
 DATE.        11-APR-1984:   LOGDATE
 API .     49025109710000:   API NUMBER
~CURVE INFORMATION
#MNEM.UNIT       API CODE    CURVE DESCRIPTION
#----------   ------------   ------------------------------
 DEPT.F                  :   
 RHOB.G/C3   45 350 01 00:   BULK DENSITY
 CORR.G/C3   45 356 01 00:   DENSITY CORRECTION
 TEND.LBS    45 635 01 00:   TENSION FROM DENSITY LOG
 CNC .DEC    42 890 03 00:   NEUTRON PORISITY SANDSTONE
 DT  .US/F   60 520 00 00:   DELTA TIME
 TENS.LBS    60 635 01 00:   TENSION FROM SONIC LOG
 GRR .GAPI   07 310 01 00:   GAMMA RAY FROM RESISTIVITY
 SPR .MV     07 010 01 00:   SPONTANEOUS POTENTIAL
 CALR.IN     07 280 01 00:   CALIPER FROM RESISTIVITY
 TENR.LBS    07 635 01 00:   TENSION
 RILD.OHMM   07 120 46 00:   INDUCTION LOG DEEP RESISTIVITY
 RILM.OHMM   07 120 44 00:   INDUCTION LOG MEDIUM RESISTIVITY
 RFOC.OHMM   07 220 01 00:   RESISTIVITY FOCUSED LOG RES.
~PARAMETER INFORMATION
#MNEM.UNIT          VALUE    DESCRIPTION
#----------   ------------   ------------------------------
 EKB .F         5024.0000:   Kelly bushing
 EGL .F         5014.0000:   Ground level
 TD  .F         3996.0000:   Total depth
 DATE.        11-APR-1984:   Date logged
 CLNT.            A2DTECH:   Client Code
 SL  . 250' FWL & 2100' FNL:   Surface Location
 PD  .                 GL:   Permanent Datum
 EPD .F              5014:   Elevation Permanent Datum
 LMF .                 KB:   Log Measured From
 DMF .                 KB:   Drilling Measured From
 DD  .F              3996:   Depth driller
 DL  .F              3994:   Depth logger
 BLI .F              3992:   Bottom log interval
 CS1 .IN            8.625:   Casing size
 CBD1.      8.625" @ 404':   Casing driller 1
 CBL1.F               404:   Casing logger 1
 BS1 .IN            7.875:   Bit size
 DFT .            GEL/KCL:   Type fluid in hole
 DFD .                9.1:   Density
 DFV .                 38:   Viscosity
 DFPH.                  8:   pH
 DFL .                 14:   Fluid loss
 MSS .           FLOWLINE:   Source of sample
 RMS .OHMM           .417:   Rm
 MST .F                90:   Rm Meas. temp.
 RMF .OHMM           .313:   Rmf
 MFST.F                90:   Rmf Meas. temp.
 RMC .OHMM           .521:   Rmc
 MCST.F                90:   Rmc Meas. temp.
 MFSS.               CALC:   Source Rmf.
 RMB .OHMM            .25:   Rm. at BHT
 BHT .F               150:   BHT.
 TCS .HRS               3:   Time Circ. stopped
 MRT .F               150:   Maximum recorded temp.
 LUN .               6307:   Logging unit number
 LUL .               GLTE:   Logging unit location
 ENGI.           FAHLSING:   Recorded By
 WITN.             STRONG:   Witnessed by
 ORIG.           5" PRINT:   Origin of data
 UWI .     49025109710000:   Unique Well ID
 DICO. A2D TECHNOLOGIES, INC.:   Digitizing Company
 DAPD.F                10:   Feet Above Permanent Datum
 BSD1.F              3996:   Depth drilled with bit1
 MCSS.               CALC:   Source Rmc.
~OTHER INFORMATION
~A    DEPT    RHOB       CORR       TEND        CNC         DT       TENS         GRR       SPR       CALR       TENR       RILD       RILM       RFOC   
# ...
 1846.0000  -999.2500  -999.2500  -999.2500  -999.2500  -999.2500  -999.2500   140.0510   -47.2260     8.3960   -51.1900    11.0680    10.4750     9.6750
 1846.5000  -999.2500  -999.2500  -999.2500  -999.2500  -999.2500  -999.2500   131.0010   -47.4670     8.3960   -51.3360    10.9700    10.3550     9.6230
 1847.0000  -999.2500  -999.2500  -999.2500  -999.2500  -999.2500  -999.2500   127.8350   -47.7070     8.3950   -51.4820    10.8550    10.2720     9.5700
 1847.5000  -999.2500  -999.2500  -999.2500  -999.2500  -999.2500  -999.2500   130.1190   -47.7370     8.3950   -51.6280    10.7410    10.1890     9.5180
 1848.0000  -999.2500  -999.2500  -999.2500  -999.2500  -999.2500  -999.2500   133.0150   -47.7390     8.3950   -51.7740    10.6260    10.1060     9.4700
 1848.5000  -999.2500  -999.2500  -999.2500  -999.2500  -999.2500  -999.2500   130.3690   -47.7240     8.3940   -51.9200    10.4750    10.0230     9.4100
 1849.0000  -999.2500  -999.2500  -999.2500  -999.2500  -999.2500  -999.2500   127.0490   -47.4690     8.3940   -52.0660    10.5120     9.9140     9.3550
 1849.5000  -999.2500  -999.2500  -999.2500  -999.2500  -999.2500  -999.2500   124.6870   -47.2190     8.3940   -52.2120    10.5660     9.9270     9.2990
 1850.0000  -999.2500  -999.2500  -999.2500  -999.2500  -999.2500  -999.2500   124.1220   -46.9710     8.3930   -52.3570    10.6450     9.9450     9.2440
 1850.5000  -999.2500  -999.2500  -999.2500  -999.2500  -999.2500  -999.2500   124.5710   -46.7250     8.3930   -52.5030    10.7510     9.9630     9.1890
 1851.0000  -999.2500  -999.2500  -999.2500  -999.2500  -999.2500  -999.2500   126.0570   -46.4750     8.3930   -52.6490    10.8670     9.9820     9.1280
 1851.5000  -999.2500  -999.2500  -999.2500  -999.2500  -999.2500  -999.2500   127.9320   -46.3050     8.3930   -52.7950    10.8070    10.0050     9.1130
 1852.0000  -999.2500  -999.2500  -999.2500  -999.2500  -999.2500  -999.2500   132.1320   -46.1250     8.3920   -52.9410    10.7410     9.9930     9.0960
 1852.5000  -999.2500  -999.2500  -999.2500  -999.2500  -999.2500  -999.2500   136.3790   -45.9480     8.3920   -53.0870    10.6750     9.9750     9.0790
 1853.0000  -999.2500  -999.2500  -999.2500  -999.2500  -999.2500  -999.2500   140.6240   -45.7710     8.3910   -53.2330    10.6100     9.9570     9.0630
 1853.5000  -999.2500  -999.2500  -999.2500  -999.2500  -999.2500  -999.2500   144.8620   -45.9000     8.3910   -53.3790    10.5440     9.9400     9.0460
 1854.0000  -999.2500  -999.2500  -999.2500  -999.2500  -999.2500  -999.2500   147.0350   -46.0760     8.3900   -53.5250    10.4750     9.9140     9.1040
 1854.5000  -999.2500  -999.2500  -999.2500  -999.2500  -999.2500  -999.2500   143.1120   -46.2520     8.3900   -53.6710    10.5110     9.9270     9.1670
 1855.0000  -999.2500  -999.2500  -999.2500  -999.2500  -999.2500  -999.2500   138.2360   -46.4280     8.3890   -53.8170    10.5480     9.9500     9.2300
 1855.5000  -999.2500  -999.2500  -999.2500  -999.2500  -999.2500  -999.2500   133.3590   -46.6040     8.3890   -53.9630    10.5860     9.9730     9.2930
 1856.0000  -999.2500  -999.2500  -999.2500  -999.2500  -999.2500  -999.2500   131.6860   -46.7800     8.3880   -54.1090    10.6230     9.9960     9.3550
 1856.5000  -999.2500  -999.2500  -999.2500  -999.2500  -999.2500  -999.2500   132.2210   -46.9410     8.3880   -54.2550    10.6610    10.0190     9.4180
 1857.0000  -999.2500  -999.2500  -999.2500  -999.2500  -999.2500  -999.2500   133.4590   -46.8280     8.3870   -54.4010    10.7150    10.0420     9.4810
 1857.5000  -999.2500  -999.2500  -999.2500  -999.2500  -999.2500  -999.2500   134.0730   -46.7070     8.3870   -54.5460    10.7730    10.0650     9.5570
 1858.0000  -999.2500  -999.2500  -999.2500  -999.2500  -999.2500  -999.2500   131.7480   -46.5870     8.3860   -54.6920    10.8310    10.0970     9.5390
 1858.5000  -999.2500  -999.2500  -999.2500  -999.2500  -999.2500  -999.2500   127.4760   -46.4650     8.3850   -54.8380    10.8670    10.0870     9.5170
 1859.0000  -999.2500  -999.2500  -999.2500  -999.2500  -999.2500  -999.2500   128.0640   -46.3740     8.3850   -54.9840    10.7520    10.0710     9.4950
 1859.5000  -999.2500  -999.2500  -999.2500  -999.2500  -999.2500  -999.2500   123.8640   -46.6730     8.3840   -55.1300    10.6700    10.0540     9.4730
 1860.0000  -999.2500  -999.2500  -999.2500  -999.2500  -999.2500  -999.2500   118.1390   -46.9700     8.3840   -55.2760    10.5880    10.0370     9.4510
 1860.5000  -999.2500  -999.2500  -999.2500  -999.2500  -999.2500  -999.2500   117.8770   -47.2650     8.3830   -55.4220    10.5050    10.0200     9.4290
 1861.0000  -999.2500  -999.2500  -999.2500  -999.2500  -999.2500  -999.2500   121.2130   -47.5600     8.3830   -55.5680    10.4630    10.0040     9.4070
 1861.5000  -999.2500  -999.2500  -999.2500  -999.2500  -999.2500  -999.2500   126.8950   -47.8680     8.3820   -55.7140    10.4430     9.9870     9.3840
 1862.0000  -999.2500  -999.2500  -999.2500  -999.2500  -999.2500  -999.2500   131.4220   -47.8070     8.3820   -55.8600    10.4230     9.9700     9.3620
 1862.5000  -999.2500  -999.2500  -999.2500  -999.2500  -999.2500  -999.2500   127.0080   -47.6390     8.3810   -56.0060    10.4030     9.9530     9.3400
 1863.0000  -999.2500  -999.2500  -999.2500  -999.2500  -999.2500  -999.2500   125.8330   -47.4680     8.3810   -56.1520    10.3830     9.9360     9.3180
 1863.5000  -999.2500  -999.2500  -999.2500  -999.2500  -999.2500  -999.2500   127.2700   -47.2970     8.3800   -56.2980    10.3630     9.9200     9.2970
 1864.0000  -999.2500  -999.2500  -999.2500  -999.2500  -999.2500  -999.2500   130.4100   -47.1270     8.3790   -56.4440    10.3430     9.9030     9.2970
 1864.5000  -999.2500  -999.2500  -999.2500  -999.2500  -999.2500  -999.2500   133.5070   -46.9560     8.3790   -56.5890    10.3230     9.8860     9.2970
 1865.0000  -999.2500  -999.2500  -999.2500  -999.2500  -999.2500  -999.2500   136.6400   -46.7820     8.3780   -56.7350    10.3040     9.8690     9.2970
 1865.5000  -999.2500  -999.2500  -999.2500  -999.2500  -999.2500  -999.2500   137.9950   -46.7520     8.3780   -56.8810    10.2840     9.8520     9.2980
 1866.0000  -999.2500  -999.2500  -999.2500  -999.2500  -999.2500  -999.2500   135.3230   -46.7510     8.3770   -57.0270    10.2640     9.8350     9.2990
 1866.5000  -999.2500  -999.2500  -999.2500  -999.2500  -999.2500  -999.2500   129.7740   -46.7480     8.3770   -57.1730    10.2440     9.8080     9.2390
 1867.0000  -999.2500  -999.2500  -999.2500  -999.2500  -999.2500  -999.2500   129.0080   -46.8860     8.3760   -57.3190    10.2240     9.7540     9.1850
 1867.5000  -999.2500  -999.2500  -999.2500  -999.2500  -999.2500  -999.2500   130.7720   -47.0480     8.3760   -57.4650    10.2040     9.7000     9.1310
 1868.0000  -999.2500  -999.2500  -999.2500  -999.2500  -999.2500  -999.2500   132.4690   -47.2100     8.3750   -57.6110    10.1910     9.6470     9.0770
 1868.5000  -999.2500  -999.2500  -999.2500  -999.2500  -999.2500  -999.2500   130.4800   -47.3720     8.3750   -57.7570    10.3110     9.5930     9.0240
 1869.0000  -999.2500  -999.2500  -999.2500  -999.2500  -999.2500  -999.2500   130.4460   -47.5340     8.3740   -57.9030    10.4020     9.5570     8.9700
 1869.5000  -999.2500  -999.2500  -999.2500  -999.2500  -999.2500  -999.2500   131.0930   -47.6960     8.3740   -58.0490    10.4930     9.6810     8.9160
 1870.0000  -999.2500  -999.2500  -999.2500  -999.2500  -999.2500  -999.2500   133.2830   -47.8580     8.3730   -58.1950    10.5720     9.7750     8.8810
 1870.5000  -999.2500  -999.2500  -999.2500  -999.2500  -999.2500  -999.2500   136.1000   -48.0170     8.3720   -58.3410    10.5380     9.8690     9.1060
 1871.0000  -999.2500  -999.2500  -999.2500  -999.2500  -999.2500  -999.2500   139.7120   -48.0690     8.3720   -58.4870    10.5090    10.0050     9.2750
 1871.5000  -999.2500  -999.2500  -999.2500  -999.2500  -999.2500  -999.2500   140.1100   -47.8560     8.3720   -58.6320    10.4800     9.9800     9.3830
