~VERSION INFORMATION
 VERS.                2.0:   CWLS LOG ASCII STANDARD - VERSION 2.0
 WRAP.                 NO:   ONE LINE PER DEPTH STEP
~WELL INFORMATION
#MNEM.UNIT      DATA TYPE    INFORMATION
#----------   ------------   ------------------------------
 STRT.F          204.0000:   START DEPTH
 STOP.F         3040.0000:   STOP DEPTH
 STEP.F            0.5000:   STEP LENGTH
 NULL.          -999.2500:   NO VALUE
 COMP.    FENIX & SCISSON:   COMPANY
 WELL.   FENIX "A" #47-21:   WELL
 FLD .            N P R 3:   FIELD
 LOC .      S21 T39N R78W:   LOCATION
 CNTY.            NATRONA:   COUNTY
 STAT.            WYOMING:   STATE
 CTRY. UNITED STATES OF AMERICA:   COUNTRY
 SRVC.              WELEX:   SERVICE COMPANY
 DATE.        20-JUN-1977:   LOGDATE
 API .     49025103820000:   API NUMBER
~CURVE INFORMATION
#MNEM.UNIT       API CODE    CURVE DESCRIPTION
#----------   ------------   ------------------------------
 DEPT.F                  :   
 SPR .MV     07 010 01 00:   SPONTANEOUS POTENTIAL
 ILM .OHMM   07 120 44 00:   INDUCTION LOG MEDIUM RESISTIVITY
 ILD .OHMM   07 120 46 00:   DEEP INDUCTION RESISTIVITY
 SGRD.OHMM   07 220 05 00:   SHALLOW GUARD LOG RESISTIVITY
 GRD .GAPI   45 310 01 00:   GAMMA RAY FROM DENSITY LOG
 CALD.IN     45 280 60 00:   CALIPER FROM DENSITY LOG
 RHOB.G/C3   45 350 01 00:   BULK DENSITY
 CORR.G/C3   45 356 01 00:   DENSITY CORRECTION
~PARAMETER INFORMATION
#MNEM.UNIT          VALUE    DESCRIPTION
#----------   ------------   ------------------------------
 EKB .F         5010.0000:   Kelly bushing
 EGL .F         5000.0000:   Ground level
 EDF .F            0.0000:   Drilling floor
 TD  .F         3050.0000:   Total depth
 DATE.        20-JUN-1977:   Date logged
 CLNT.            A2DTECH:   Client Code
 SL  . 990' FSL & 2310' FWL:   Surface Location
 PD  .                 GL:   Permanent Datum
 DD  .F              3050:   Depth driller
 DL  .F              3039:   Depth logger
 BLI .F              3037:   Bottom log interval
 CS1 .IN            8.625:   Casing size
 CBD1.      8.625" @ 210':   Casing driller 1
 CBL1.F               215:   Casing logger 1
 BS1 .IN            7.875:   Bit size
 DFT .                KCL:   Type fluid in hole
 DFD .                9.3:   Density
 DFV .                 35:   Viscosity
 DFPH.                7.5:   pH
 DFL .                7.2:   Fluid loss
 MSS .             MUDPIT:   Source of sample
 RMS .OHMM            .22:   Rm
 MST .F                80:   Rm Meas. temp.
 RMF .OHMM            .19:   Rmf
 MFST.F                80:   Rmf Meas. temp.
 RMC .OHMM            .35:   Rmc
 MCST.F                80:   Rmc Meas. temp.
 MFSS.               MEAS:   Source Rmf.
 RMB .OHMM            .15:   Rm. at BHT
 BHT .F               111:   BHT.
 TCS .HRS               4:   Time Circ. stopped
 MRT .F               111:   Maximum recorded temp.
 LUN .               8766:   Logging unit number
 LUL .             CAPSER:   Logging unit location
 ENGI.          T. JOYNER:   Recorded By
 WITN.         PETTINGILL:   Witnessed by
 ORIG.           5" PRINT:   Origin of data
 UWI .     49025103820000:   Unique Well ID
 DICO. A2D TECHNOLOGIES, INC.:   Digitizing Company
 DAPD.                 10:   Feet Above Permanent Datum
 BSD1.               3050:   Depth drilled with bit1
 MCSS.               MEAS:   Source Rmc.
 EPD .               5000:   Elevation Permanent Datum
 LMF .                 KB:   Log Measured From
 DMF .                 KB:   Drilling Measured From
 TLI .                215:   Top log interval
~OTHER INFORMATION
~A   DEPT      SPR        ILM        ILD       SGRD         GRD        CALD       RHOB      CORR  
# ...
 2269.5000   -50.3520     4.6920     4.2050     4.5570    93.2920    10.6130     2.4640     0.0140
 2270.0000   -50.0760     4.7060     4.2240     5.1220    93.3200    10.6080     2.4640     0.0150
 2270.5000   -50.0100     4.7200     4.2650     6.1290    93.3610    10.6030     2.4650     0.0160
 2271.0000   -49.9340     4.7340     4.3090     6.5610    94.2190    10.5980     2.4650     0.0170
 2271.5000   -49.8580     4.7480     4.3530     6.0970    95.0500    10.5930     2.4680     0.0180
 2272.0000   -49.7820     4.7620     4.3970     5.5110    95.5450    10.5870     2.4700     0.0190
 2272.5000   -49.7060     4.7760     4.4400     5.7780    95.0380    10.5820     2.4670     0.0210
 2273.0000   -49.6300     4.7900     4.4840     6.1460    94.5850    10.5770     2.4620     0.0220
 2273.5000   -49.5540     4.8130     4.5280     6.3830    94.1060    10.5720     2.4580     0.0230
 2274.0000   -49.4950     4.9030     4.5720     6.3240    94.2190    10.5670     2.4540     0.0240
 2274.5000   -49.4760     4.9940     4.6160     6.1490    94.4450    10.5620     2.4500     0.0250
 2275.0000   -49.4560     5.0610     4.6590     5.7640    94.6650    10.5570     2.4450     0.0260
 2275.5000   -49.4360     5.0700     4.6940     5.3780    94.8800    10.5510     2.4370     0.0280
 2276.0000   -49.4160     5.1150     4.7240     5.0280    95.0980    10.5470     2.4280     0.0290
 2276.5000   -49.3960     5.1610     4.7550     5.5720    95.3090    10.5480     2.4190     0.0300
 2277.0000   -49.3760     5.2070     4.7860     6.8010    95.5490    10.5460     2.4110     0.0300
 2277.5000   -49.3560     5.2530     4.8160     7.2580    95.6810    10.5490     2.4020     0.0300
 2278.0000   -49.3360     5.2990     4.8470     7.1460    95.6530    10.5500     2.3930     0.0300
 2278.5000   -49.3160     5.3450     4.8770     6.8920    95.7060    10.6780     2.3850     0.0260
 2279.0000   -49.2960     5.3910     4.9080     6.5010    95.5980    10.8660     2.3630     0.0210
 2279.5000   -49.2760     5.4360     4.9380     6.8320    96.2680    11.0700     2.3450     0.0170
 2280.0000   -49.2560     6.0300     4.9690     7.3290    96.9190    11.4970     2.3240     0.0130
 2280.5000   -49.2360     7.1910     4.9990     8.0370    97.9670    11.9910     2.3260     0.0080
 2281.0000   -49.2160     6.7380     5.0280    11.2730    98.9780    12.4710     2.3740     0.0080
 2281.5000   -49.1960     6.3100     5.0610    20.7690    99.6490    12.9120     2.4370     0.0110
 2282.0000   -49.1760     5.9860     5.0920    31.3050    99.0670    13.5310     2.5040     0.0150
 2282.5000   -49.1560     6.5510     5.1240    25.4540    98.4910    12.4980     2.5110     0.0160
 2283.0000   -49.1360     7.0060     5.1550     7.1260    97.9300    10.7360     2.5180     0.0160
 2283.5000   -49.1160     7.4600     5.1860     7.3810    97.2720    10.1840     2.5180     0.0160
 2284.0000   -49.0980     7.8100     5.2160     7.9550    97.4590    10.1210     2.5180     0.0170
 2284.5000   -49.0840     5.6650     5.1280     7.7020    97.9530    10.0750     2.5160     0.0180
 2285.0000   -49.0690     5.8120     5.0420     7.4600    98.4500    10.0800     2.5150     0.0170
 2285.5000   -49.0550     5.9550     4.9570     7.2170    98.9310    10.0720     2.5140     0.0170
 2286.0000   -49.0400     6.0970     4.8710     6.7820    99.4200    10.0760     2.5110     0.0160
 2286.5000   -49.0260     5.9080     4.7590     6.2220    99.9120    10.0740     2.5080     0.0150
 2287.0000   -49.0110     5.7450     4.7210     5.5620   100.3880    10.0750     2.5050     0.0140
 2287.5000   -48.9970     5.5810     4.6840     6.2100   100.7010    10.0750     2.5030     0.0130
 2288.0000   -48.9820     5.4180     4.6470     7.6680   101.1090    10.0750     2.5000     0.0120
 2288.5000   -48.9680     5.2540     4.6090     7.5050   100.6370    10.0750     2.4970     0.0110
 2289.0000   -48.9530     5.0970     4.5720     7.2300    99.5160    10.0750     2.4940     0.0100
 2289.5000   -48.9380     4.9370     4.5350     6.8230    98.4790    10.0750     2.4940     0.0100
 2290.0000   -48.9240     5.0910     4.5040     6.2070    97.4480    10.0750     2.4950     0.0100
 2290.5000   -48.9110     5.2880     4.7460     5.6650    96.4140    10.0750     2.4960     0.0110
 2291.0000   -48.7920     5.4580     4.9510     5.7460    95.3120    10.0750     2.4970     0.0120
 2291.5000   -48.6220     5.5830     5.1560     6.1230    95.0130    10.0750     2.4980     0.0120
 2292.0000   -48.4510     5.7080     5.3610     7.2950    95.4260    10.0750     2.5000     0.0130
 2292.5000   -48.2800     5.8330     5.5660     8.3020    95.7580    10.0750     2.5010     0.0130
 2293.0000   -48.1090     5.9590     5.7710     8.7990    96.0980    10.0750     2.5030     0.0140
 2293.5000   -47.9380     6.0840     5.9860     8.7630    96.4480    10.0750     2.5040     0.0140
 2294.0000   -47.7670     6.2090     5.9780     8.6450    96.7930    10.0750     2.5050     0.0150
 2294.5000   -47.5960     6.3340     5.9700     8.4330    97.1270    10.0750     2.5060     0.0160
 2295.0000   -47.4250     6.4280     5.9620     8.2200    97.2260    10.0750     2.5070     0.0160
 2295.5000   -47.2550     6.2780     5.9540     8.0080    96.4600    10.0750     2.5080     0.0160
 2296.0000   -47.1010     6.1660     5.9460     7.7390    95.5820    10.0750     2.5090     0.0160
 2296.5000   -47.0720     6.2620     5.9380     7.8650    94.6980    10.0750     2.5080     0.0160
 2297.0000   -47.0380     6.3590     5.9320     8.0380    93.7440    10.0750     2.5070     0.0150
 2297.5000   -47.0040     6.4560     5.9510     8.2100    93.4150    10.0750     2.5060     0.0140
 2298.0000   -46.9700     6.5530     5.9690     8.3280    93.8270    10.0740     2.5050     0.0140
 2298.5000   -46.9360     6.6500     5.9860     8.2010    94.1900    10.0750     2.5040     0.0130
 2299.0000   -46.9020     6.7460     6.0040     8.1050    94.5110    10.0770     2.5020     0.0130
 2299.5000   -46.8680     6.8430     6.0220     8.0080    94.8060    10.0660     2.5010     0.0120
 2300.0000   -46.8340     6.9400     6.0410     7.8820    93.7820    10.1540     2.5000     0.0110
 2300.5000   -46.7990     7.0370     6.0260     7.9240    92.7480    10.2970     2.4990     0.0110
 2301.0000   -46.7660     7.1260     6.0060     7.9840    91.6540    10.4560     2.4980     0.0110
 2301.5000   -46.7320     7.1160     5.9850     8.0280    90.5690    10.4670     2.4970     0.0130
 2302.0000   -46.7130     7.1080     5.9640     7.4970    90.1650    10.4850     2.4990     0.0120
 2302.5000   -46.7130     7.0990     5.9310     6.9750    90.6820    10.4970     2.5000     0.0120
 2303.0000   -46.7130     7.0900     5.9390     7.1380    91.0790    10.5040     2.5020     0.0120
 2303.5000   -46.7130     7.0810     5.9580     7.4570    91.5090    10.5390     2.5030     0.0120
 2304.0000   -46.7130     7.0730     5.9770     7.7760    91.9260    10.5760     2.5040     0.0120
 2304.5000   -46.7130     7.0640     5.9950     8.0940    92.3580    10.5700     2.5050     0.0120
 2305.0000   -46.7130     7.0290     6.0140     8.4130    92.5350    10.2800     2.5010     0.0120
 2305.5000   -46.7130     6.9760     6.0320     8.7990    92.5130     9.9770     2.4980     0.0110
 2306.0000   -46.7130     6.9240     6.0510     8.5940    92.5200     9.6710     2.4950     0.0100
 2306.5000   -46.7130     6.8710     6.0700     8.3330    92.5280     9.3850     2.4910     0.0090
 2307.0000   -46.7130     6.8060     6.0880     8.0720    92.4860     9.3540     2.4880     0.0090
 2307.5000   -46.7130     6.8730     6.1070     7.8120    92.9190     9.3070     2.4840     0.0080
 2308.0000   -46.7130     6.9610     6.1250     7.5510    93.9960     9.4810     2.4830     0.0070
 2308.5000   -46.7130     7.0480     6.1530     7.3550    95.0440     9.7780     2.4830     0.0060
 2309.0000   -46.7120     7.1260     6.1250     7.8530    96.0850    10.0600     2.4830     0.0070
 2309.5000   -46.7850     6.9830     6.0730     8.3200    97.1250    10.3350     2.4830     0.0080
