~VERSION INFORMATION
 VERS.                2.0:   CWLS LOG ASCII STANDARD - VERSION 2.0
 WRAP.                 NO:   ONE LINE PER DEPTH STEP
~WELL INFORMATION
#MNEM.UNIT      DATA TYPE    INFORMATION
#----------   ------------   ------------------------------
 STRT.F          502.0000:   START DEPTH
 STOP.F         4210.0000:   STOP DEPTH
 STEP.F            0.5000:   STEP LENGTH
 NULL.          -999.2500:   NO VALUE
 COMP.   FENIX & SCISSION:   COMPANY
 WELL. FENIX NPR 3 "JX" #43-34:   WELL
 FLD .              N P R:   FIELD
 LOC .      S34 T39N R78W:   LOCATION
 CNTY.            NATRONA:   COUNTY
 STAT.            WYOMING:   STATE
 CTRY. UNITED STATES OF AMERICA:   COUNTRY
 SRVC.              WELEX:   SERVICE COMPANY
 DATE.        05-FEB-1979:   LOGDATE
 API .     49025107690000:   API NUMBER
~CURVE INFORMATION
#MNEM.UNIT       API CODE    CURVE DESCRIPTION
#----------   ------------   ------------------------------
 DEPT.F                  :   
 TENR.LBS    07 635 01 00:   TENSION FROM RESISTIVITY
 SPR .MV     07 010 01 00:   SPONTANEOUS POTENTIAL
 SFL .OHMM   07 220 01 00:   SHALLOW FOCUSED LOG RESISTIVITY
 ILD .OHMM   07 120 46 00:   DEEP INDUCTION RESISTIVITY
 ILM .OHMM   07 120 44 00:   INDUCTION LOG MEDIUM RESISTIVITY
 TEND.LBS    45 635 01 00:   TENSION FROM DENSITY LOG
 CALD.IN     45 280 60 00:   CALIPER FROM DENSITY LOG
 GRD .GAPI   45 310 01 00:   GAMMA RAY FROM DENSITY LOG
 CORR.G/C3   45 356 01 00:   DENSITY CORRECTION
 NPHI.DEC    42 890 03 00:   NEUTRON POROSITY SANDSTONE
 RHOB.G/C3   45 350 01 00:   BULK DENSITY
~PARAMETER INFORMATION
#MNEM.UNIT          VALUE    DESCRIPTION
#----------   ------------   ------------------------------
 EKB .F         5108.0000:   Kelly bushing
 EGL .F         5098.0000:   Ground level
 TD  .F         4204.0000:   Total depth
 DATE.        05-FEB-1979:   Date logged
 CLNT.            A2DTECH:   Client Code
 SL  . 1627' FNL & 2110' FWL:   Surface Location
 PD  .                 GL:   Permanent Datum
 DD  .F              4200:   Depth driller
 DL  .F              4204:   Depth logger
 BLI .F              4202:   Bottom log interval
 CS1 .IN            8.625:   Casing size
 CBD1.      8.625" @ 506':   Casing driller 1
 CBL1.F               506:   Casing logger 1
 BS1 .IN            7.875:   Bit size
 DFT .           CHEM/GEL:   Type fluid in hole
 DFD .                9.2:   Density
 DFV .                 55:   Viscosity
 DFPH.                9.5:   pH
 DFL .                5.7:   Fluid loss
 MSS .            MUD/PIT:   Source of sample
 RMS .OHMM            1.1:   Rm
 MST .F                52:   Rm Meas. temp.
 RMF .OHMM            .45:   Rmf
 MFST.F                52:   Rmf Meas. temp.
 RMC .OHMM            1.8:   Rmc
 MCST.F                52:   Rmc Meas. temp.
 MFSS.               MEAS:   Source Rmf.
 RMB .OHMM           5.06:   Rm. at BHT
 BHT .F               128:   BHT.
 TCS .HRS               8:   Time Circ. stopped
 MRT .F               128:   Maximum recorded temp.
 LUN .               9685:   Logging unit number
 LUL .             CASPER:   Logging unit location
 ENGI.        KEIN/JOINER:   Recorded By
 WITN.        J. DINSMORE:   Witnessed by
 ORIG.           5" PRINT:   Origin of data
 UWI .     49025107690000:   Unique Well ID
 DICO. A2D TECHNOLOGIES, INC.:   Digitizing Company
 DAPD.F                10:   Feet Above Permanent Datum
 BSD1.F              4200:   Depth drilled with bit1
 MCSS.               MEAS:   Source Rmc.
 EPD .F              5098:   Elevation Permanent Datum
 LMF .                 KB:   Log Measured From
 DMF .                 KB:   Drilling Measured From
 TLI .F               500:   Top log interval
~OTHER INFORMATION
~A   DEPT     TENR        SPR        SFL        ILD        ILM        TEND        CALD       GRD        CORR       NPHI       RHOB 
# ...
 3918.0000  1669.6420   -40.0400     2.4830     2.1330     2.0560  1750.5031     9.0420   147.2080     0.1280     0.3340     1.9590
 3918.5000  1669.6960   -40.0400     2.5540     2.2240     2.1380  1750.5031     8.6490   145.7900     0.1330     0.3260     2.4000
 3919.0000  1669.7500   -40.0400     2.8350     2.3560     2.2870  1750.5031     8.4620   145.3110     0.1610     0.3180     2.3490
 3919.5000  1669.8040   -40.0400     3.3530     2.4870     2.4370  1750.5031     8.3350   145.3000     0.1880     0.3120     2.2940
 3920.0000  1669.8580   -40.0400     3.9690     2.6190     2.5860  1750.5031     8.3170   145.6980     0.1940     0.3160     2.2520
 3920.5000  1669.9120   -40.0400     6.2090     2.7510     2.7350  1750.5031     8.3660   152.3660     0.1740     0.3250     2.2810
 3921.0000  1669.9659   -40.0400     5.7840     2.8640     2.8640  1750.5031     8.4040   153.8110     0.1820     0.3360     2.3010
 3921.5000  1670.0200   -40.0400     4.9860     2.9150     2.8520  1750.5031     8.4410   155.5750     0.1930     0.3350     2.2920
 3922.0000  1670.0740   -40.0400     4.0090     2.9830     2.8360  1750.5031     8.4980   154.4320     0.2050     0.3350     2.2440
 3922.5000  1670.1281   -40.0400     4.0440     3.0270     2.8190  1750.5031     8.5770   154.6290     0.1930     0.3340     2.1530
 3923.0000  1670.1820   -40.0400     4.1160     2.9320     2.8120  1750.5031     8.6590   156.4080     0.1800     0.3340     2.1630
 3923.5000  1670.2360   -40.0390     4.1870     2.8340     2.7040  1750.5031     8.9040   158.1540     0.1740     0.3370     2.1910
 3924.0000  1670.2900   -40.0400     4.2170     2.7350     2.5500  1750.5031     9.2510   158.7760     0.1740     0.3400     2.2060
 3924.5000  1670.3440   -40.0430     3.4750     2.6360     2.3970  1750.5031     9.4620   158.5820     0.1750     0.3430     2.1630
 3925.0000  1670.3979   -40.0790     2.9450     2.5180     2.2130  1750.5031     9.4700   158.4450     0.1580     0.3390     2.1430
 3925.5000  1670.4520   -40.1090     2.8640     2.4430     2.2130  1750.5031     9.2510   158.3150     0.1470     0.3350     2.1550
 3926.0000  1670.5060   -40.1410     2.8640     2.2960     2.1730  1750.5031     9.0800   158.2110     0.1100     0.3270     2.2030
 3926.5000  1670.5610   -40.1730     2.8640     2.3040     2.1730  1750.5031     8.8780   157.9850     0.0920     0.3120     2.2400
 3927.0000  1670.6150   -40.2050     2.9770     2.3220     2.2540  1750.5031     8.6920   158.7520     0.0800     0.3020     2.3650
 3927.5000  1670.6689   -40.2370     3.0880     2.3390     2.3510  1750.5031     8.5070   160.5380     0.0980     0.2940     2.4550
 3928.0000  1670.7230   -40.2680     3.1980     2.4390     2.4670  1750.5031     8.3950   161.3730     0.1160     0.2870     2.4460
 3928.5000  1670.7770   -40.3000     3.5900     2.6670     2.5830  1750.5031     8.3230   165.3620     0.1230     0.2830     2.3970
 3929.0000  1670.8311   -40.3320     4.3210     2.8960     2.6990  1750.5031     8.3050   170.8140     0.1260     0.2880     2.3500
 3929.5000  1670.8850   -40.3630     5.4380     3.1250     2.8150  1750.5031     8.2590   176.2090     0.1230     0.2950     2.3050
 3930.0000  1670.9390   -40.3950     6.4070     3.2590     2.9310  1750.5031     8.4020   180.2530     0.1090     0.3020     2.2730
 3930.5000  1670.9930   -40.4270     5.8510     3.2150     3.0470  1750.5031     8.6900   179.6300     0.0950     0.3050     2.2690
 3931.0000  1671.0470   -40.4590     5.1790     3.1660     3.1410  1750.5031     8.5530   179.2360     0.0810     0.3080     2.2330
 3931.5000  1671.1010   -40.4900     3.5730     3.1170     3.0520  1750.5031     8.2740   177.7650     0.0660     0.3110     2.1740
 3932.0000  1671.1550   -40.5220     3.6980     3.0830     2.9900  1750.5031     8.2560   174.6600     0.0580     0.3120     2.0870
 3932.5000  1671.2090   -40.5540     4.1030     3.0410     2.9270  1750.5031     8.3340   172.9000     0.0510     0.3080     2.0120
 3933.0000  1671.2629   -40.5860     4.3760     2.9950     2.8650  1750.5031     8.5000   169.9420     0.0370     0.3060     2.1120
 3933.5000  1671.3170   -40.6170     4.0630     2.9480     2.7610  1750.5031     8.7010   166.7620     0.0110     0.2990     2.2800
 3934.0000  1671.3710   -40.6490     3.7070     2.9180     2.8170  1750.5031     8.5780   162.9990    -0.0040     0.2830     2.4750
 3934.5000  1671.4250   -40.6810     3.1410     2.9950     2.9810  1750.5031     8.4170   159.2320     0.0170     0.2680     2.5510
 3935.0000  1671.4790   -40.7120     3.2990     3.1410     3.1450  1750.5031     8.2300   154.0570     0.0490     0.2560     2.5410
 3935.5000  1671.5330   -40.7450     3.7440     3.6830     3.3100  1750.5031     8.1990   151.0320     0.0710     0.2490     2.5120
 3936.0000  1671.5870   -40.7740     7.4930     4.2480     3.4740  1750.5031     8.1560   151.0540     0.1130     0.2520     2.4710
 3936.5000  1671.6410   -40.8090    10.8430     4.7100     3.6380  1750.5031     8.1280   153.9290     0.1360     0.2550     2.4440
 3937.0000  1671.6949   -40.8450    12.2750     4.7980     3.8030  1750.5031     8.0950   153.9320     0.1500     0.2690     2.4070
 3937.5000  1671.7490   -40.9840    10.6250     4.7340     3.9670  1750.5031     8.0560   154.0400     0.1640     0.2840     2.3670
 3938.0000  1671.8030   -41.1120     8.9750     4.6260     4.0650  1750.5031     8.1210   153.9100     0.1700     0.2980     2.2990
 3938.5000  1671.8571   -41.2530     8.1440     4.5190     3.9180  1750.5031     8.2390   151.1130     0.1560     0.3120     2.2530
 3939.0000  1671.9110   -41.3740     6.5200     4.2750     3.7760  1750.5031     8.3560   147.4810     0.1470     0.3200     2.2020
 3939.5000  1671.9650   -41.5200     4.6240     3.8420     3.4960  1750.5031     8.5460   141.9320     0.1380     0.3200     2.1390
 3940.0000  1672.0200   -41.6690     4.3020     3.4100     3.2220  1750.5031     8.9570   134.6100     0.1170     0.3190     2.0980
 3940.5000  1672.0740   -42.2840     3.7580     3.0830     2.9480  1750.5031     9.1340   126.3440     0.0860     0.3080     2.0660
 3941.0000  1672.1281   -42.8370     3.2140     2.8530     2.6740  1750.5031     9.2970   118.9300     0.0490     0.3000     2.1160
 3941.5000  1672.1820   -43.6750     2.7620     2.7100     2.4720  1747.9340     9.1880    99.8030     0.0300     0.2990     2.2560
 3942.0000  1672.2360   -44.9570     2.6610     2.7100     2.6040  1740.1639     8.5680    83.1620     0.0630     0.2990     2.4030
 3942.5000  1672.2900   -46.1340     2.7510     2.7610     2.7570  1732.3940     8.3500    66.6530     0.0840     0.2980     2.3850
 3943.0000  1672.3440   -48.3170     3.3620     3.2980     2.9100  1724.6250     8.1830    47.1770     0.1000     0.2980     2.3490
 3943.5000  1672.3979   -51.5770     4.3760     4.4070     3.0640  1716.8550     8.1860    44.0960     0.1030     0.2970     2.3280
 3944.0000  1672.4520   -54.6290    10.5930     5.5170     3.2170  1710.2620     8.1570    41.0470     0.0830     0.1690     2.3340
 3944.5000  1672.5060   -57.8470    10.4000     6.6260     3.3700  1713.1021     8.1510    41.9100     0.0660     0.1690     2.3540
 3945.0000  1672.5601   -61.2700     9.6610     7.6040     3.6520  1715.5690     8.1390    43.7570     0.0800     0.1690     2.3510
 3945.5000  1672.6140   -63.8540     9.8150    17.1010     4.0560  1718.0350     8.0870    45.3850     0.0940     0.1750     2.3470
 3946.0000  1672.6680   -64.7670    10.2900    13.1440     4.4600  1720.5020     8.0160    47.0970     0.0960     0.1810     2.3300
 3946.5000  1672.7220   -65.6000    10.7900     7.4610     4.8870  1722.9690     7.9760    48.8570     0.0900     0.1870     2.3110
 3947.0000  1672.7760   -66.1720    10.7900     6.6300     4.9900  1725.4360     7.9810    50.6350     0.0830     0.1920     2.2910
 3947.5000  1672.8300   -66.5170    10.4260     6.0180     5.1780  1727.9030     7.9800    52.0550     0.0750     0.1960     2.2950
 3948.0000  1672.8840   -66.9300    10.0240     5.8000     5.2610  1730.3690     7.9800    53.1280     0.0720     0.2010     2.2900
