~VERSION INFORMATION
 VERS.                2.0:   CWLS LOG ASCII STANDARD - VERSION 2.0
 WRAP.                 NO:   ONE LINE PER DEPTH STEP
~WELL INFORMATION
#MNEM.UNIT      DATA TYPE    INFORMATION
#----------   ------------   ------------------------------
 STRT.F          500.0000:   START DEPTH
 STOP.F         4646.0000:   STOP DEPTH
 STEP.F            0.5000:   STEP LENGTH
 NULL.          -999.2500:   NO VALUE
 COMP.    FENIX & SCISSON:   COMPANY
 WELL. LAWRENCE NPR 3 "X" #34-10:   WELL
 FLD .                NPR:   FIELD
 LOC .      S10 T38N R78W:   LOCATION
 CNTY.            NATRONA:   COUNTY
 STAT.            WYOMING:   STATE
 CTRY. UNITED STATES OF AMERICA:   COUNTRY
 SRVC.              WELEX:   SERVICE COMPANY
 DATE.        12-OCT-1979:   LOGDATE
 API .     49025109290000:   API NUMBER
~CURVE INFORMATION
#MNEM.UNIT       API CODE    CURVE DESCRIPTION
#----------   ------------   ------------------------------
 DEPT.F                  :   
 SPR .MV     07 010 01 00:   SPONTANEOUS POTENTIAL
 SGRD.OHMM   07 220 05 00:   SHALLOW GUARD LOG RESISTIVITY
 ILD .OHMM   07 120 46 00:   DEEP INDUCTION RESISTIVITY
 ILM .OHMM   07 120 44 00:   INDUCTION LOG MEDIUM RESISTIVITY
 TEND.LBS    45 635 01 00:   TENSION FROM DENSITY LOG
 CORR.G/C3   45 356 01 00:   DENSITY CORRECTION
 RHOB.G/C3   45 350 01 00:   BULK DENSITY
 NPHI.DEC    42 890 03 00:   NEUTRON POROSITY SANDSTONE
 GRD .GAPI   45 310 01 00:   GAMMA RAY FROM DENSITY LOG
 CALD.IN     45 280 60 00:   CALIPER FROM DENSITY LOG
~PARAMETER INFORMATION
#MNEM.UNIT          VALUE    DESCRIPTION
#----------   ------------   ------------------------------
 EKB .F         5234.0000:   Kelly bushing
 EGL .F         5224.0000:   Ground level
 EDF .F            0.0000:   Drilling floor
 TD  .F         4650.0000:   Total depth
 DATE.        12-OCT-1979:   Date logged
 CLNT.            A2DTECH:   Client Code
 SL  . 2055' FNL & 1509' FWL:   Surface Location
 PD  .                 GL:   Permanent Datum
 DD  .F              4650:   Depth driller
 DL  .F              4646:   Depth logger
 BLI .F              4644:   Bottom log interval
 CS1 .IN              500:   Casing size
 CBD1.      8.625" @ 500':   Casing driller 1
 CBL1.F               502:   Casing logger 1
 BS1 .IN            7.875:   Bit size
 DFT .           CHEM/GEL:   Type fluid in hole
 DFD .                8.8:   Density
 DFV .                 62:   Viscosity
 DFPH.               11.2:   pH
 DFL .                4.5:   Fluid loss
 MSS .            MUD/PIT:   Source of sample
 RMS .OHMM           1.18:   Rm
 MST .F                60:   Rm Meas. temp.
 RMF .OHMM            .94:   Rmf
 MFST.F                60:   Rmf Meas. temp.
 RMC .OHMM           1.41:   Rmc
 MCST.F                60:   Rmc Meas. temp.
 MFSS.               MEAS:   Source Rmf.
 RMB .OHMM            .81:   Rm. at BHT
 BHT .F                87:   BHT.
 TCS .HRS               2:   Time Circ. stopped
 MRT .F                87:   Maximum recorded temp.
 LUN .               1892:   Logging unit number
 LUL .             CASPER:   Logging unit location
 ENGI.               REIN:   Recorded By
 WITN.           DINSMORE:   Witnessed by
 ORIG.           5" PRINT:   Origin of data
 UWI .     49025109290000:   Unique Well ID
 DICO. A2D TECHNOLOGIES, INC.:   Digitizing Company
 DAPD.                 10:   Feet Above Permanent Datum
 BSD1.F              4650:   Depth drilled with bit1
 MCSS.               MEAS:   Source Rmc.
 EPD .F              5224:   Elevation Permanent Datum
 LMF .                 KB:   Log Measured From
 DMF .                 KB:   Drilling Measured From
 TLI .F               500:   Top log interval
~OTHER INFORMATION
~A   DEPT      SPR         SGRD      ILD         ILM      TEND         CORR       RHOB       NPHI       GRD        CALD 
# ...
 2141.5000   -38.0310    11.9080     9.0830    10.0130  1911.9120     0.0640     2.4060     0.1440   107.0680     8.6050
 2142.0000   -38.0550    11.7020     9.1730    10.0640  1911.9120     0.0690     2.4120     0.1410   103.7730     8.6060
 2142.5000   -38.0800    11.4960     9.2190    10.1100  1911.9120     0.0740     2.4090     0.1410   103.1550     8.6070
 2143.0000   -38.1050    11.3970     9.1400     9.9370  1911.9120     0.0740     2.4090     0.1420   101.8590     8.6070
 2143.5000   -38.1310    11.5430     9.0780     9.7790  1911.9120     0.0740     2.4080     0.1430    96.3540     8.6080
 2144.0000   -38.1560    11.6090     9.0170     9.6540  1911.9120     0.0740     2.4050     0.1450   100.4290     8.6090
 2144.5000   -38.1820    11.4630     8.9550     9.6800  1911.9120     0.0730     2.4020     0.1470   106.5790     8.6100
 2145.0000   -38.2060    11.3590     8.8940     9.7060  1911.9120     0.0730     2.3980     0.1460   112.8610     8.6100
 2145.5000   -38.1520    11.2550     8.8320     9.7440  1911.9120     0.0730     2.4000     0.1440   119.1280     8.6110
 2146.0000   -37.9220    11.1520     8.7700     9.6420  1911.4120     0.0730     2.4030     0.1410   125.3310     8.6120
 2146.5000   -37.6950    10.9420     8.7090     9.4600  1910.2500     0.0770     2.4070     0.1410   128.0870     8.6120
 2147.0000   -37.4680    10.7200     8.6470     9.2790  1909.0880     0.0820     2.4090     0.1410   123.4780     8.6130
 2147.5000   -37.2400    10.4890     8.5860     9.2190  1907.9260     0.0860     2.4150     0.1350   119.9560     8.6140
 2148.0000   -37.0130    10.5870     8.5240     9.3050  1906.7650     0.0900     2.4250     0.1300   116.4930     8.6140
 2148.5000   -36.8450    10.3070     8.4850     9.1500  1905.6030     0.0940     2.4350     0.1240   116.5340     8.6150
 2149.0000   -37.0050    10.0170     8.4170     9.0140  1904.4410     0.0980     2.4440     0.1200   116.8190     8.6160
 2149.5000   -37.1580    10.0170     8.3310     8.8850  1903.2791     0.1020     2.4490     0.1190   113.5850     8.6170
 2150.0000   -37.3110    10.9530     8.2540     9.1750  1902.1169     0.0970     2.4400     0.1250   109.8170     8.6170
 2150.5000   -37.4640    12.1570     8.3120     9.4490  1900.9550     0.0890     2.4300     0.1290   107.6030     8.6180
 2151.0000   -37.6170    12.1100     8.3650     9.7230  1899.7930     0.0810     2.4260     0.1280   116.8980     8.6190
 2151.5000   -37.7700    12.0680     8.4850     9.8340  1898.6320     0.0880     2.4350     0.1260   125.2430     8.6190
 2152.0000   -37.8610    11.8480     8.5710     9.7950  1897.4700     0.1010     2.4450     0.1180   132.2260     8.6200
 2152.5000   -37.9190    11.4030     8.6740     9.7670  1896.3080     0.1140     2.4550     0.1100   127.8820     8.6210
 2153.0000   -37.9770    11.1670     8.7780     9.7300  1895.1460     0.1230     2.4650     0.1060   122.6180     8.6220
 2153.5000   -38.0250    11.1260     8.8040     9.6290  1893.9840     0.1170     2.4660     0.1110   117.3480     8.6220
 2154.0000   -38.0090    11.0860     8.8040     9.5280  1892.8220     0.1120     2.4610     0.1130   114.7220     8.6230
 2154.5000   -37.9850    10.8250     8.8040     9.4270  1891.8920     0.1050     2.4570     0.1080   112.7100     8.6240
 2155.0000   -37.9610    10.5100     8.8040     9.3260  1891.8920     0.1080     2.4650     0.1020   111.5750     8.6240
 2155.5000   -37.9370    10.2980     8.8040     9.1350  1891.8920     0.1130     2.4680     0.1010   110.4120     8.6250
 2156.0000   -37.9120    10.7320     8.7850     9.3160  1891.8920     0.1160     2.4680     0.1080   109.2010     8.6250
 2156.5000   -37.8880    11.1890     8.7500     9.5580  1891.8920     0.1140     2.4640     0.1110   111.8720     8.6250
 2157.0000   -37.8640    11.1700     8.7150     9.7990  1891.8920     0.1120     2.4590     0.1050   116.2930     8.6250
 2157.5000   -37.8390    11.0860     8.6800     9.9250  1891.8920     0.1160     2.4690     0.1000   120.7740     8.6250
 2158.0000   -37.7610    10.7990     8.6460     9.5560  1891.8920     0.1240     2.4730     0.0950   121.9970     8.6250
 2158.5000   -37.5790    10.4820     8.6110     9.3080  1891.8920     0.1300     2.4780     0.0900   115.0450     8.6250
 2159.0000   -37.3980    10.1650     8.5760     9.0590  1891.8920     0.1270     2.4820     0.0850   114.1030     8.6250
 2159.5000   -37.2150    10.0170     8.4850     8.9320  1891.8920     0.1250     2.4880     0.0880   109.9940     8.6250
 2160.0000   -37.0350     9.9870     8.3800     8.8750  1891.8920     0.1280     2.4960     0.0930   103.2770     8.6250
 2160.5000   -37.1260     9.8820     8.2580     8.8180  1891.8920     0.1240     2.4950     0.0960    99.2390     8.6250
 2161.0000   -37.2360     9.7770     8.1370     8.7110  1891.8920     0.1190     2.4880     0.0920   101.6050     8.6250
 2161.5000   -37.3450     9.6720     8.0150     8.5860  1891.8920     0.1190     2.4830     0.0890   103.9890     8.6250
 2162.0000   -37.4530     9.6400     7.8930     8.4620  1891.8920     0.1200     2.4860     0.0890   104.0390     8.6250
 2162.5000   -37.5610     9.6230     7.7720     8.3370  1891.8920     0.1200     2.4920     0.0910   101.6200     8.6250
 2163.0000   -37.6700     9.6060     7.6500     8.2540  1891.8920     0.1200     2.4950     0.0890   104.0770     8.6250
 2163.5000   -37.7780     9.5890     7.5960     8.3070  1891.8920     0.1190     2.4930     0.0870   107.7980     8.6240
 2164.0000   -37.8860     9.5660     7.6410     8.3470  1891.8920     0.1190     2.4940     0.0860   108.8370     8.6230
 2164.5000   -37.9980     9.6920     7.6860     8.3870  1891.8920     0.1180     2.4970     0.0870   106.1190     8.6230
 2165.0000   -38.0600     9.8340     7.7320     8.4070  1891.8920     0.1170     2.4960     0.0870   106.2740     8.6220
 2165.5000   -38.1100     9.8340     7.7770     8.3700  1891.8920     0.1170     2.4960     0.0850   109.1270     8.6210
 2166.0000   -38.1600    10.1090     7.8230     8.3450  1891.8920     0.1160     2.5020     0.0890   112.0370     8.6200
 2166.5000   -38.2090    10.7840     7.8680     8.3300  1891.8920     0.1150     2.5020     0.0920   112.8250     8.6200
 2167.0000   -38.1610    10.7720     7.9140     8.5220  1891.8920     0.1120     2.4960     0.0950   112.4760     8.6190
 2167.5000   -37.9500    10.7550     7.9550     8.6590  1891.8920     0.1110     2.4890     0.0980   114.5360     8.6180
 2168.0000   -37.7420    10.7370     7.9750     8.8040  1891.8920     0.1070     2.4830     0.1010   116.6070     8.6180
 2168.5000   -37.5340    10.7190     8.0040     8.6100  1891.8920     0.1010     2.4760     0.1030   116.5640     8.6170
 2169.0000   -37.3260    10.7010     8.0330     8.4070  1891.8920     0.0950     2.4690     0.1050   113.6170     8.6160
 2169.5000   -37.1180    10.6850     8.0620     8.8040  1891.8920     0.0890     2.4670     0.0980   110.6920     8.6150
 2170.0000   -37.0530    10.8420     8.0900     8.4850  1891.8920     0.0960     2.4730     0.0920   107.6990     8.6150
 2170.5000   -37.1260    10.9910     8.1190     8.7230  1891.8920     0.1020     2.4940     0.0940   107.3750     8.6140
 2171.0000   -37.1990    11.0860     8.1480     8.5640  1891.8920     0.0970     2.4950     0.1000   107.0660     8.6130
 2171.5000   -37.2720    10.9840     8.1770     8.8100  1891.8920     0.0930     2.4760     0.1070   105.3580     8.6120
 2172.0000   -37.3460    10.8790     8.2050     8.9680  1891.8920     0.0890     2.4600     0.1130   103.6980     8.6120
 2172.5000   -37.4190    10.7750     8.2340     8.6430  1891.8920     0.0900     2.4480     0.1180   103.1850     8.6110
 2173.0000   -37.4920    10.6850     8.2540     8.6690  1891.8920     0.0920     2.4480     0.1170   107.4110     8.6100
 2173.5000   -37.5650    10.8810     8.3210     8.6860  1891.8920     0.0940     2.4570     0.1140   110.0830     8.6090
 2174.0000   -37.6390    11.0130     8.3920     8.7030  1891.8920     0.0970     2.4670     0.1120   109.1710     8.6090
 2174.5000   -37.7120    11.0840     8.4640     8.7210  1891.8920     0.0970     2.4570     0.1160   112.5750     8.6080
