~VERSION INFORMATION
 VERS.                2.0:   CWLS LOG ASCII STANDARD - VERSION 2.0
 WRAP.                 NO:   ONE LINE PER DEPTH STEP
~WELL INFORMATION
#MNEM.UNIT      DATA TYPE    INFORMATION
#----------   ------------   ------------------------------
 STRT.F            0.0000:   START DEPTH
 STOP.F          619.0000:   STOP DEPTH
 STEP.F            0.5000:   STEP LENGTH
 NULL.          -999.2500:   NO VALUE
 COMP.       FLUOR DANIEL:   COMPANY
 WELL.      FLUOR X #52-3:   WELL
 FLD .                NPR:   FIELD
 LOC .       S3 T38N R78W:   LOCATION
 CNTY.            NATRONA:   COUNTY
 STAT.            WYOMING:   STATE
 CTRY. UNITED STATES OF AMERICA:   COUNTRY
 SRVC.     ATLAS WIRELINE:   SERVICE COMPANY
 DATE.        18-AUG-1994:   LOGDATE
 API .     49025226460000:   API NUMBER
~CURVE INFORMATION
#MNEM.UNIT       API CODE    CURVE DESCRIPTION
#----------   ------------   ------------------------------
 DEPT.F                  :   
 GRR .GAPI   07 310 01 00:   GAMMA RAY FROM RESISTIVITY
 TENR.LBS    07 635 01 00:   TENSION
 RILD.OHMM   07 120 46 00:   INDUCTION LOG DEEP RESISTIVITY
 RILM.OHMM   07 120 44 00:   INDUCTION LOG MEDIUM RESISTIVITY
~PARAMETER INFORMATION
#MNEM.UNIT          VALUE    DESCRIPTION
#----------   ------------   ------------------------------
 EKB .F         5131.0000:   Kelly bushing
 EGL .F         5121.0000:   Ground level
 EDF .F         5130.0000:   Drilling floor
 EPD .F         5121.0000:   Permanent datum
 TD  .F          611.0000:   Total depth
 DATE.        18-AUG-1994:   Date logged
 CLNT.            A2DTECH:   Client Code
 SL  . 699' FNL & 2048' FEL:   Surface Location
 PD  .                 GL:   Permanent Datum
 LMF .                 KB:   Log Measured From
 DMF .                 KB:   Drilling Measured From
 DAPD.F                10:   Feet Above Permanent Datum
 DD  .F               580:   Depth driller
 DL  .F               611:   Depth logger
 BLI .F               609:   Bottom log interval
 CS1 .IN            9.625:   Casing size
 CBD1.       9.625" @ 54':   Casing driller 1
 CBL1.F                56:   Casing logger 1
 BS1 .IN             8.75:   Bit size
 BSD1.F               580:   Depth drilled with bit1
 DFT .                AIR:   Type fluid in hole
 LUN .            HL 6530:   Logging unit number
 LUL .             CASPER:   Logging unit location
 WITN.        GARY STRONG:   Witnessed by
 ORIG.           5" PRINT:   Origin of data
 UWI .     49025226460000:   Unique Well ID
 DICO. A2D TECHNOLOGIES, INC.:   Digitizing Company
~OTHER INFORMATION
~A    DEPT      GRR      TENR       RILD       RILM   
# ...
  365.0000    98.2580   -62.8820    21.4030    20.4120
  365.5000   100.8860   -58.1910    20.6920    20.1410
  366.0000   100.2250   -51.7390    20.3200    19.8710
  366.5000    97.3210   -45.2870    19.9480    19.6000
  367.0000    94.1800   -38.8360    19.5760    19.3610
  367.5000    93.3140   -33.4160    19.1820    19.3610
  368.0000    94.0830   -34.5140    19.2480    19.3610
  368.5000    95.7820   -35.6130    19.3180    19.3610
  369.0000    97.6600   -36.7110    19.3940    19.5360
  369.5000   100.5080   -37.8090    19.5570    19.7580
  370.0000   102.4570   -38.9070    19.7200    19.9800
  370.5000   102.1540   -40.0050    19.8830    20.2020
  371.0000   100.2220   -41.1030    20.0470    20.4240
  371.5000    98.1510   -42.2010    20.5510    20.6610
  372.0000    96.0780   -43.3470    21.1910    21.1270
  372.5000    94.5880   -43.3470    21.8310    21.7600
  373.0000    93.0590   -43.3470    22.4710    22.3920
  373.5000    90.2330   -43.3470    23.1120    23.0240
  374.0000    89.0060   -43.3470    23.7520    23.6570
  374.5000    88.6810   -43.3470    24.0380    23.8010
  375.0000    88.9590   -43.3470    24.1930    23.8820
  375.5000    89.1890   -43.3470    23.9260    23.9700
  376.0000    91.1180   -43.3470    23.4030    23.2980
  376.5000    96.6690   -43.3470    22.8810    22.5730
  377.0000   101.3310   -43.3470    22.3590    21.8480
  377.5000   101.0590   -43.3470    21.8360    21.1220
  378.0000    99.0920   -43.3470    21.0880    20.6670
  378.5000    95.5870   -43.3470    20.2070    20.3710
  379.0000    91.8140   -43.3470    19.8750    20.0760
  379.5000    91.8260   -42.0460    19.6250    19.7800
  380.0000    95.0170   -39.4660    19.3610    19.4840
  380.5000    98.2350   -36.8850    19.2600    19.1880
  381.0000    97.7870   -34.3040    19.1520    18.9800
  381.5000    97.7460   -33.2660    19.0450    18.8460
  382.0000   100.2080   -33.2660    18.8910    18.7120
  382.5000   102.5370   -33.2660    18.6230    18.5790
  383.0000    99.8560   -33.2660    18.4270    18.4450
  383.5000    95.9130   -33.2660    18.3110    18.3110
  384.0000    93.8080   -33.2660    18.1420    18.1420
  384.5000    94.5170   -33.2660    18.1800    18.2070
  385.0000    96.0500   -33.2660    18.2500    18.2940
  385.5000    97.5430   -33.2660    18.3190    18.3810
  386.0000    97.2820   -33.2660    18.3890    18.4820
  386.5000    95.7070   -33.2660    18.4820    18.4670
  387.0000    94.0560   -33.2660    18.4180    18.4440
  387.5000    95.2430   -33.2660    18.3220    18.4200
  388.0000    96.5500   -33.2660    18.2250    18.3960
  388.5000    96.3430   -33.2660    18.1420    18.3720
  389.0000    96.2010   -33.2660    18.2130    18.3470
  389.5000    98.0930   -33.2660    18.2750    18.3270
  390.0000   100.1730   -33.2660    18.5690    18.3110
  390.5000   101.2880   -33.2660    19.1980    20.0050
  391.0000    99.3330   -33.2660    19.8260    21.2060
  391.5000    97.2690   -33.2660    20.6970    22.4070
  392.0000    95.8360   -33.2660    21.6040    23.6080
  392.5000    96.2850   -33.2660    22.5110    24.8090
  393.0000    96.4320   -33.2660    23.3580    25.8180
  393.5000    95.2420   -33.2660    23.7480    24.6920
  394.0000    91.9710   -33.2660    23.0370    23.5250
  394.5000    88.5960   -30.7170    21.7120    22.1970
  395.0000    88.4600   -19.6570    20.3880    20.8320
  395.5000    89.2490    -8.5970    19.0630    19.4670
  396.0000    90.2430    -7.2920    17.7390    18.1030
  396.5000    94.3440   -15.8940    16.6740    16.7380
  397.0000    99.6760   -24.4960    16.1510    16.0370
  397.5000   104.8510   -33.2660    15.6270    15.5720
  398.0000   104.8570   -32.2300    15.1200    15.1060
  398.5000   104.7660   -31.1740    14.6790    14.6540
  399.0000   105.3900   -30.1180    14.4670    14.5430
  399.5000   105.4190   -29.0620    14.3870    14.4350
  400.0000   103.4280   -28.0050    14.3070    14.3270
  400.5000   101.4890   -26.9490    14.2270    14.2190
  401.0000   100.9180   -25.8930    14.1470    14.1120
  401.5000   100.6000   -24.8370    14.0670    14.0040
  402.0000   100.6140   -23.7800    13.9890    13.8960
  402.5000   100.6030   -23.9960    13.8610    13.7880
  403.0000   100.0070   -25.8500    13.7350    13.6800
  403.5000    97.4340   -27.7040    13.6090    13.6050
  404.0000    95.7610   -29.5580    13.4830    13.5200
  404.5000    99.2930   -31.4120    13.3580    13.4020
  405.0000   102.8700   -33.2660    13.2320    13.2850
  405.5000   101.4580   -30.3820    13.1060    13.1670
  406.0000    98.9970   -27.4980    12.9880    13.0490
  406.5000    98.9480   -24.6140    13.0590    12.9630
  407.0000   100.5240   -23.1850    13.0020    12.9100
  407.5000   100.3730   -23.1850    12.9450    12.8580
  408.0000   100.5950   -23.1850    12.8880    12.8050
  408.5000   102.6440   -23.1850    12.8300    12.7530
  409.0000   107.0580   -23.1850    12.7730    12.7000
  409.5000   110.6640   -23.1850    12.7160    12.6310
  410.0000   112.0380   -23.1850    12.6310    12.6930
  410.5000   111.2900   -23.1850    12.6870    12.7840
  411.0000   108.5730   -23.1850    12.7960    12.8750
  411.5000   105.9300   -23.1850    12.9050    12.9660
  412.0000   105.8300   -23.1850    13.0140    13.0570
  412.5000   105.8300   -23.1850    13.1230    13.1480
  413.0000   106.9500   -23.1850    13.2320    13.2390
  413.5000   108.5820   -23.1850    13.3410    13.3300
  414.0000   107.0890   -23.1850    13.4500    13.4210
  414.5000   104.7470   -23.1850    13.6050    13.5180
  415.0000   105.4340   -23.1850    13.4870    13.6050
  415.5000   106.1850   -23.1850    13.2850    13.3670
  416.0000   104.6810   -23.1850    13.0820    13.1690
  416.5000   103.2550   -23.1850    12.8800    12.9700
  417.0000   103.3510   -23.1380    12.6780    12.7710
  417.5000   103.8050   -22.7330    12.4750    12.5720
  418.0000   103.8330   -22.3270    12.2730    12.3730
  418.5000   104.1140   -21.9210    12.0710    12.1750
  419.0000   105.7300   -21.5160    11.8680    11.9760
  419.5000   105.7820   -21.1100    11.6660    11.7770
  420.0000   104.4730   -20.7050    11.4630    11.5780
  420.5000   104.2470   -20.2990    11.3790    11.4050
  421.0000   108.4830   -19.8940    11.3430    11.4410
  421.5000   111.8550   -19.4880    11.3070    11.4730
  422.0000   112.5870   -19.0820    11.2990    11.5050
  422.5000   110.1940   -18.6770    11.2990    11.5810
  423.0000   109.0550   -18.2710    11.4910    11.6670
  423.5000   109.9490   -17.8660    11.9010    11.7270
  424.0000   111.2250   -17.4600    12.8400    12.8480
  424.5000   110.9950   -17.0540    13.7790    14.0770
  425.0000   108.5860   -16.6490    15.2950    15.6530
  425.5000   103.9930   -16.2430    16.9770    18.6650
  426.0000    96.9450   -15.8380    18.6590    21.6760
  426.5000    88.8140   -15.4320    21.0220    24.2620
  427.0000    80.3600   -15.0260    24.1350    26.6380
  427.5000    76.7950   -14.6210    27.2510    29.0140
  428.0000    77.8690   -14.2150    30.3820    31.4080
  428.5000    82.0940   -13.8100    33.4830    32.8670
  429.0000    83.8010   -13.4040    34.2430    32.3500
  429.5000    82.4400   -13.1050    34.7500    31.9220
  430.0000    81.2460   -13.1050    34.2970    31.4930
  430.5000    82.6400   -13.1050    33.9860    31.0640
  431.0000    85.7310   -13.1050    33.6760    30.6350
  431.5000    87.2100   -13.1050    33.1420    30.2060
  432.0000    85.7880   -13.1050    32.2410    29.6590
  432.5000    84.3990   -13.1050    31.3400    28.9390
  433.0000    82.9610   -13.1050    30.4390    28.2190
  433.5000    84.8880   -13.1050    29.5380    27.4990
  434.0000    87.2070   -13.1050    28.6370    27.0660
  434.5000    89.5080   -13.1050    27.7360    26.7440
  435.0000    90.4980   -13.1050    26.8350    26.2240
  435.5000    87.7650   -13.1050    25.9340    25.3920
  436.0000    84.9450   -13.1050    25.0330    24.5600
  436.5000    84.9180   -13.1050    24.1320    23.7290
  437.0000    86.9150   -12.5520    23.2310    22.8970
  437.5000    89.0880   -12.0440    22.4410    22.5690
