~VERSION INFORMATION
 VERS.                2.0:   CWLS LOG ASCII STANDARD - VERSION 2.0
 WRAP.                 NO:   ONE LINE PER DEPTH STEP
~WELL INFORMATION
#MNEM.UNIT      DATA TYPE    INFORMATION
#----------   ------------   ------------------------------
 STRT.F          210.5000:   START DEPTH
 STOP.F         3234.0000:   STOP DEPTH
 STEP.F            0.5000:   STEP LENGTH
 NULL.          -999.2500:   NO VALUE
 COMP.    FENIX & SCISSON:   COMPANY
 WELL.   FENIX "A" #21-10:   WELL
 FLD .              NPR-3:   FIELD
 LOC .      S10 T38N R78W:   LOCATION
 CNTY.            NATRONA:   COUNTY
 STAT.            WYOMING:   STATE
 CTRY. UNITED STATES OF AMERICA:   COUNTRY
 SRVC.      DRESSER ATLAS:   SERVICE COMPANY
 DATE.        31-AUG-1977:   LOGDATE
 API .     49025104260000:   API NUMBER
~CURVE INFORMATION
#MNEM.UNIT       API CODE    CURVE DESCRIPTION
#----------   ------------   ------------------------------
 DEPT.F                  :   
 GRD .GAPI   45 310 01 00:   GAMMA RAY FROM DENSITY LOG
 CALD.IN     45 280 60 00:   CALIPER FROM DENSITY LOG
 RHOB.G/C3   45 350 01 00:   BULK DENSITY
 CORR.G/C3   45 356 01 00:   DENSITY CORRECTION
 SPR .MV     11 010 01 00:   SPONTANEOUS POTENTIAL
 LLS .OHMM   11 220 09 00:   LATEROLOG SHALLOW
 LLD .OHMM   11 220 10 00:   LATEROLOG DEEP
 TEND.LBS    45 635 01 00:   TENSION FROM DENSITY LOG
 TENR.LBS    07 635 01 00:   TENSION
~PARAMETER INFORMATION
#MNEM.UNIT          VALUE    DESCRIPTION
#----------   ------------   ------------------------------
 EKB .F         5258.0000:   Kelly bushing
 EGL .F         5248.0000:   Ground level
 EDF .F            0.0000:   Drilling floor
 TD  .F         3222.0000:   Total depth
 DATE.        31-AUG-1977:   Date logged
 CLNT.            A2DTECH:   Client Code
 SL  . 330' FNL & 990' FWL:   Surface Location
 PD  .                 GL:   Permanent Datum
 EPD .F              5248:   Elevation Permanent Datum
 LMF .                 KB:   Log Measured From
 DMF .                 KB:   Drilling Measured From
 DAPD.F                10:   Feet Above Permanent Datum
 DD  .F              3222:   Depth driller
 DL  .F              3219:   Depth logger
 BLI .F              3218:   Bottom log interval
 TLI .F               221:   Top log interval
 CS1 .IN             8.75:   Casing size
 CBD1.       8.75" @ 219':   Casing driller 1
 CBL1.F               221:   Casing logger 1
 BS1 .IN            7.875:   Bit size
 BSD1.F              3222:   Depth drilled with bit1
 DFT .                KCL:   Type fluid in hole
 DFD .                9.1:   Density
 DFV .                 36:   Viscosity
 DFPH.                 11:   pH
 DFL .                  8:   Fluid loss
 MSS .           FLOWLINE:   Source of sample
 RMS .OHMM           0.14:   Rm
 MST .F                72:   Rm Meas. temp.
 RMF .OHMM           0.08:   Rmf
 MFST.F                72:   Rmf Meas. temp.
 RMC .OHMM           0.20:   Rmc
 MCST.F                72:   Rmc Meas. temp.
 MFSS.               CALC:   Source Rmf.
 MCSS.               CALC:   Source Rmc.
 RMB .OHMM           0.08:   Rm. at BHT
 BHT .F               125:   BHT.
 TCS .HRS               3:   Time Circ. stopped
 MRT .F               125:   Maximum recorded temp.
 LUN .               6080:   Logging unit number
 LUL .              WLSTN:   Logging unit location
 ENGI.               RALL:   Recorded By
 WITN.         PETTINGILL:   Witnessed by
 ORIG.           5" PRINT:   Origin of data
 UWI .     49025104260000:   Unique Well ID
 DICO. A2D TECHNOLOGIES, INC.:   Digitizing Company
~OTHER INFORMATION
~A   DEPT      GRD       CALD       RHOB       CORR        SPR        LLS        LLD       TEND        TENR  
  210.5000  -999.2500  -999.2500  -999.2500  -999.2500  -999.2500  -999.2500  -999.2500  -999.2500   765.6330
  211.0000  -999.2500  -999.2500  -999.2500  -999.2500  -999.2500  -999.2500  -999.2500  -999.2500   768.8290
  211.5000  -999.2500  -999.2500  -999.2500  -999.2500  -999.2500  -999.2500  -999.2500  -999.2500   772.0260
  212.0000  -999.2500  -999.2500  -999.2500  -999.2500  -999.2500  -999.2500  -999.2500  -999.2500   775.2230
  212.5000  -999.2500  -999.2500  -999.2500  -999.2500  -999.2500  -999.2500  -999.2500  -999.2500   777.6210
  213.0000  -999.2500  -999.2500  -999.2500  -999.2500  -999.2500  -999.2500  -999.2500  -999.2500   780.8180
  213.5000  -999.2500  -999.2500  -999.2500  -999.2500  -999.2500  -999.2500  -999.2500  -999.2500   784.0150
  214.0000  -999.2500  -999.2500  -999.2500  -999.2500  -999.2500  -999.2500  -999.2500  -999.2500   787.2120
  214.5000  -999.2500  -999.2500  -999.2500  -999.2500  -999.2500  -999.2500  -999.2500  -999.2500   790.4090
  215.0000  -999.2500  -999.2500  -999.2500  -999.2500  -999.2500  -999.2500  -999.2500  -999.2500   793.6060
  215.5000  -999.2500  -999.2500  -999.2500  -999.2500  -999.2500  -999.2500  -999.2500  -999.2500   796.8030
  216.0000  -999.2500  -999.2500  -999.2500  -999.2500  -999.2500  -999.2500  -999.2500  -999.2500   800.0000
  216.5000  -999.2500  -999.2500  -999.2500  -999.2500  -999.2500  -999.2500  -999.2500  -999.2500   803.1970
  217.0000  -999.2500  -999.2500  -999.2500  -999.2500  -999.2500  -999.2500  -999.2500  -999.2500   747.3680
  217.5000     1.1920  -999.2500  -999.2500  -999.2500  -999.2500  -999.2500  -999.2500  -999.2500   673.0390
  218.0000     2.6970  -999.2500  -999.2500  -999.2500  -999.2500  -999.2500  -999.2500  -999.2500   598.7090
  218.5000     4.2020  -999.2500  -999.2500  -999.2500  -999.2500  -999.2500  -999.2500  -999.2500   585.7220
  219.0000    13.5190  -999.2500  -999.2500  -999.2500  -999.2500  -999.2500  -999.2500  -999.2500   585.3090
  219.5000    39.3360  -999.2500  -999.2500  -999.2500  -999.2500  -999.2500  -999.2500  -999.2500   584.8960
  220.0000    41.7160  -999.2500  -999.2500  -999.2500  -999.2500  -999.2500  -999.2500  -999.2500   584.4830
  220.5000    67.7030  -999.2500     2.3350  -999.2500  -999.2500  -999.2500  -999.2500   439.8510   584.0690
  221.0000    73.2120     8.4270     2.3740     0.0580  -999.2500  -999.2500  -999.2500   479.6530   583.6560
  221.5000    79.0930     9.8550     2.4110     0.1020  -999.2500  -999.2500  -999.2500   519.4550   583.2430
  222.0000    84.9450    11.2830     2.3950     0.1190  -999.2500     2.5220     2.3960   483.1680   582.8300
  222.5000    88.4320    12.0000     2.3980     0.1280  -999.2500     3.8920     4.8160   383.6630   582.4160
  223.0000    88.9500    12.0750     2.3720     0.1260  -999.2500     5.2620     6.1420   368.7020   582.0030
  223.5000    89.6350    12.1510     2.3530     0.1210  -999.2500     5.6780     5.9800   374.2300   581.5900
  224.0000    90.1920    12.1640     2.3340     0.1140  -999.2500     5.8180     6.1460   379.7580   581.1770
  224.5000    89.6230    12.0640     2.3150     0.1070  -999.2500     5.7440     6.3200   385.2860   580.7630
  225.0000    87.7910    11.7230     2.3030     0.0810  -999.2500     5.6820     6.4930   390.8140   580.3500
  225.5000    85.9310    11.5280     2.3050     0.0550  -999.2500     5.6200     6.6650   396.3420   579.9370
  226.0000    86.0210    11.7120     2.3430     0.0280  -999.2500     5.5580     6.7350   401.8700   579.5240
  226.5000    86.2830    11.4200     2.4230     0.0360  -999.2500     5.7720     6.9990   405.9410   579.1100
  227.0000    88.2970    11.2550     2.4950     0.0480  -999.2500     5.9860     7.2640   425.7430   578.6970
  227.5000    90.4280    11.2060     2.4900     0.0400  -999.2500     6.2030     7.5850   424.3050   578.2840
  228.0000    92.0890    11.1920     2.4840     0.0330  -999.2500     6.1130     7.4680   422.6540   577.8710
  228.5000    90.7700    11.2300     2.4790     0.0320  -999.2500     6.0220     7.3200   421.0020   577.4580
  229.0000    89.5050    11.2580     2.4750     0.0290  -999.2500     5.9310     7.1710   419.3510   577.0440
  229.5000    88.2620    11.2860     2.4720     0.0260  -999.2500     5.8400     7.0500   417.7000   576.6310
  230.0000    87.0260    11.3130     2.4700     0.0240  -999.2500     5.7650     7.1110   416.0480   576.2180
  230.5000    86.7760    11.3280     2.4670     0.0210  -999.2500     5.8480     7.1630   414.3970   575.8050
  231.0000    88.0740    11.3460     2.4650     0.0190  -999.2500     5.9530     7.2140   412.7460   575.3910
  231.5000    89.3630    11.3640     2.4620     0.0160  -999.2500     6.0590     7.2460   411.0940   574.9780
  232.0000    90.1500    11.3810     2.4600     0.0130  -999.2500     6.1460     7.0630   409.4430   574.5650
  232.5000    90.6570    11.3990     2.4610     0.0110  -999.2500     5.8860     6.8750   407.7920   574.1520
  233.0000    91.1600    11.4370     2.4620     0.0090  -999.2500     5.6180     6.6870   406.1400   573.7380
  233.5000    92.0300    11.5020     2.4640     0.0090  -999.2500     5.3500     6.4930   404.4890   573.3250
  234.0000    93.3580    11.5670     2.4650     0.0100  -999.2500     5.0720     6.6050   402.8380   572.9120
  234.5000    94.7160    11.6260     2.4650     0.0100  -999.2500     5.2000     6.8030   401.1860   572.4990
  235.0000    97.7880    11.6090     2.4650     0.0110  -999.2500     5.3670     7.0010   399.5350   572.0850
  235.5000    99.2160    11.5910     2.4640     0.0110  -999.2500     5.5580     7.1980   397.8840   571.6720
  236.0000    98.5380    11.5740     2.4660     0.0120  -999.2500     5.9060     7.2460   396.2320   571.2590
  236.5000    97.8890    11.5570     2.4680     0.0120  -999.2500     6.2700     7.2460   394.5810   570.8460
  237.0000    98.3660    11.5470     2.4710     0.0130  -999.2500     6.6340     7.2460   392.9300   570.4320
  237.5000    99.4490    11.5440     2.4750     0.0150  -999.2500     6.8640     7.3140   391.2780   570.0190
  238.0000    99.9110    11.5410     2.4800     0.0160  -999.2500     6.9850     7.4380   389.6270   569.6060
  238.5000    98.2000    11.5370     2.4820     0.0180  -999.2500     7.1060     7.5620   387.9760   569.1930
  239.0000    99.0260    11.5340     2.4830     0.0190  -999.2500     7.2270     7.6860   386.3250   568.7790
  239.5000    96.9030    11.5320     2.4840     0.0210     5.8480     7.3800     7.8090   384.6730   568.3660
  240.0000    94.8110    11.5240     2.4860     0.0220     4.6620     7.3420     7.9400   383.0220   567.9530
  240.5000    92.9010    11.5060     2.4860     0.0230     3.4770     7.2700     7.9650   381.3710   567.5400
  241.0000    90.9940    11.5000     2.4860     0.0240     2.2920     7.1990     8.0120   379.7190   567.1260
  241.5000    88.9960    11.4960     2.4890     0.0240     1.3960     7.1800     8.0580   378.0680   566.7130
  242.0000    89.9050    11.4910     2.4930     0.0250     0.1440     7.3700     8.1040   376.4170   566.3000
  242.5000    91.3230    11.4880     2.4930     0.0260    -1.1130     7.4480     8.1510   374.7650   565.8870
  243.0000    91.7820    11.5010     2.4920     0.0270    -2.4430     7.4050     8.1970   373.1140   565.4740
  243.5000    90.5900    11.5150     2.4920     0.0280    -3.7810     7.3730     8.2430   371.4630   565.0600
  244.0000    90.1570    11.5280     2.4920     0.0280    -5.1190     7.3410     8.3120   369.8110   564.6470
  244.5000    88.0200    11.5410     2.4910     0.0270    -6.4570     7.3130     8.3050   368.1600   564.2340
  245.0000    87.0000    11.5550     2.4860     0.0260    -7.7960     7.3130     8.2910   366.5090   563.8210
  245.5000    87.7930    11.5670     2.4820     0.0260    -9.1340     7.2690     8.2780   364.8570   563.4070
  246.0000    88.2550    11.5500     2.4780     0.0250   -10.4720     7.1840     8.2640   363.2060   562.9940
  246.5000    88.6210    11.5350     2.4760     0.0240   -11.8090     7.0990     8.2510   361.5550   562.5810
