~VERSION INFORMATION
 VERS.                2.0:   CWLS LOG ASCII STANDARD - VERSION 2.0
 WRAP.                 NO:   ONE LINE PER DEPTH STEP
~WELL INFORMATION
#MNEM.UNIT      DATA TYPE    INFORMATION
#----------   ------------   ------------------------------
 STRT.F          492.0000:   START DEPTH
 STOP.F         3008.0000:   STOP DEPTH
 STEP.F            0.5000:   STEP LENGTH
 NULL.          -999.2500:   NO VALUE
 COMP.    FENIX & SCISSON:   COMPANY
 WELL. FENIX & SCISSON AX #24-28:   WELL
 FLD .             TEAPOT:   FIELD
 LOC .      S28 T39N R78W:   LOCATION
 CNTY.            NATRONA:   COUNTY
 STAT.            WYOMING:   STATE
 CTRY. UNITED STATES OF AMERICA:   COUNTRY
 SRVC.              WELEX:   SERVICE COMPANY
 DATE.        03-AUG-1980:   LOGDATE
 API .     49025108490000:   API NUMBER
~CURVE INFORMATION
#MNEM.UNIT       API CODE    CURVE DESCRIPTION
#----------   ------------   ------------------------------
 DEPT.F                  :   
 SPR .MV     07 010 01 00:   SPONTANEOUS POTENTIAL
 ILD .OHMM   07 120 46 00:   DEEP INDUCTION RESISTIVITY
 ILM .OHMM   07 120 44 00:   INDUCTION LOG MEDIUM RESISTIVITY
 SGRD.OHMM   07 220 05 00:   SHALLOW SHORT GUARD RESISTIVITY
 GRD .GAPI   45 310 01 00:   GAMMA RAY FROM DENSITY LOG
 CALD.IN     45 280 60 00:   CALIPER FROM DENSITY LOG
 CORR.G/C3   45 356 01 00:   DENSITY CORRECTION
 RHOB.G/C3   45 350 01 00:   BULK DENSITY
~PARAMETER INFORMATION
#MNEM.UNIT          VALUE    DESCRIPTION
#----------   ------------   ------------------------------
 EKB .F         5061.0000:   Kelly bushing
 EGL .F         5051.0000:   Ground level
 TD  .F         3000.0000:   Total depth
 CLNT.            A2DTECH:   Client Code
 SL  . 2350' FNL & 1000' FWL:   Surface Location
 DATE.         3-AUG-1980:   Date Logged [DD-MMM-YYYY]
 DD  .F              3000:   Depth driller
 DL  .F              3010:   Depth logger
 BLI .F              3008:   Bottom log interval
 TLI .F               308:   Top log interval
 CS1 .              8.625:   Casing size
 CBD1.      8.625" @ 393':   Casing driller 1
 BS1 .IN            7.875:   Bit size
 BSD1.F              3000:   Depth drilled with bit1
 DFT .     WATER BASE MUD:   Type fluid in hole
 DFD .                8.9:   Density
 TCS .HRS               8:   Time Circ. stopped
 MRT .F               115:   Maximum recorded temp.
 ENGI.           WACHTELL:   Recorded By
 WITN.           DINSMORE:   Witnessed by
 ORIG.      2.5" 5" PRINT:   Origin of data
 UWI .     49025108490000:   Unique Well ID
 DICO. A2D TECHNOLOGIES, INC.:   Digitizing Company
 PD  .                 GL:   Permanent Datum
 EPD .F              3051:   Elevation Permanent Datum
 LMF .                 KB:   Log Measured From
 DMF .                 KB:   Drilling Measured From
 DAPD.F                10:   Feet Above Permanent Datum
 DFV .                 43:   Viscosity
 DFPH.                9.5:   pH
 DFL .                7.2:   Fluid loss
 MSS .           FLOWLINE:   Source of sample
 RMS .OHMM             .9:   Rm
 MST .F                80:   Rm Meas. temp.
 RMF .OHMM            .72:   Rmf
 MFST.F                80:   Rmf Meas. temp.
 MFSS.               MEAS:   Source Rmf.
 RMC .OHMM           1.08:   Rmc
 MCST.F                80:   Rmc Meas. temp.
 MCSS.               MEAS:   Source Rmc.
 RMB .OHMM            .06:   Rm. at BHT
 BHT .F               115:   BHT.
 LUN .               1892:   Logging unit number
 LUL .             CASPER:   Logging unit location
~OTHER INFORMATION
~A   DEPT      SPR        ILD        ILM       SGRD        GRD       CALD       CORR       RHOB   
# ...
 2314.5000   -10.2098     5.2741     7.1253     7.6097   104.2924     8.9633     0.1200     2.5502
 2315.0000   -10.2232     5.1839     7.0630     7.6046   107.2927     8.9627     0.0981     2.5472
 2315.5000   -10.2366     5.0335     7.0049     7.5995   108.4106     8.9772     0.0793     2.5544
 2316.0000   -10.2524     4.9560     6.7270     7.3791   107.5046     8.9913     0.1181     2.6286
 2316.5000   -10.2653     4.9082     6.5933     7.1782   104.7994     8.9908     0.1973     2.6383
 2317.0000   -10.2783     4.8046     6.4596     7.1732   103.4436     8.9901     0.1863     2.6293
 2317.5000   -10.2912     4.7307     6.3258     7.1393   102.3085     9.0194     0.1470     2.6009
 2318.0000   -10.3041     4.6990     6.1921     7.0285   101.8201     9.0634     0.0896     2.5911
 2318.5000   -10.3171     4.6964     6.0570     6.9618   101.1735     9.1225     0.0724     2.6098
 2319.0000   -10.3304     4.6290     5.9203     6.8119   100.7172     9.1815     0.0660     2.6020
 2319.5000   -10.3438     4.5625     5.7836     6.6670   100.4858     9.2107     0.0566     2.5522
 2320.0000   -10.3571     4.4347     5.6469     6.4797   102.0535     9.1803     0.0409     2.5611
 2320.5000   -10.3705     4.3710     5.5102     6.3859   103.1715     9.1200     0.0206     2.6127
 2321.0000   -10.3839     4.3033     5.3734     6.2065   101.8019     9.0449     0.0724     2.5544
 2321.5000   -10.3973     4.1784     5.3065     5.9488    98.7747     8.9847     0.1058     2.5715
 2322.0000   -10.4107     4.0572     5.2740     5.7018    97.0800     8.9692     0.1026     2.6208
 2322.5000   -10.4241     3.9395     5.2178     5.5352    98.6460     8.9687     0.0729     2.5528
 2323.0000   -10.4399     3.8252     5.1516     5.3770   100.4386     8.9830     0.0479     2.5563
 2323.5000   -10.4528     3.7142     5.0073     5.2067   102.0063     8.9824     0.0369     2.5744
 2324.0000   -10.4657     3.6570     4.7333     5.0499   103.7989     8.9817     0.0352     2.5400
 2324.5000   -10.4787     3.5304     4.5371     4.7413   103.3275     8.9662     0.0351     2.5086
 2325.0000   -10.4916     3.4797     4.4719     4.4423    99.8132     8.9507     0.0350     2.4936
 2325.5000   -10.5045     3.3822     4.2865     4.2360    95.0071     8.9502     0.0364     2.4809
 2326.0000   -10.5179     3.3336     4.2214     4.4846    93.2015     8.9646     0.0409     2.4757
 2326.5000   -10.5312     3.2402     4.1064     4.6634    94.5443     8.9788     0.0533     2.4818
 2327.0000   -10.5446     3.1937     4.1042     4.7255    97.4613     8.9783     0.1060     2.5055
 2327.5000   -10.5580     3.1478     4.1597     4.7883   102.8521     8.9926     0.1479     2.5473
 2328.0000   -10.5714     3.1025     4.2158     4.9198   105.5561     9.0069     0.1835     2.5757
 2328.5000   -10.5848     3.1008     4.2973     4.9855   106.2124     9.0211     0.2021     2.5794
 2329.0000   -10.5982     3.0990     4.4207     4.9820   105.7545     9.0356     0.2035     2.5577
 2329.5000   -10.6116     3.1115     4.5476     5.0485   105.5231     9.0796     0.1940     2.5523
 2330.0000   -10.3274     3.1746     4.6365     5.0448   104.8419     9.1088     0.1877     2.5921
 2330.5000   -10.3427     3.2929     4.6340     5.1123   104.6105     9.1540     0.1892     2.6040
 2331.0000   -10.3556     3.3876     4.6968     5.2029   104.8291     9.2118     0.1937     2.5928
 2331.5000   -10.3685     3.5030     4.6940     5.3516   104.8224     9.2410     0.1967     2.6025
 2332.0000   -10.3815     3.5502     4.7573     5.5816   104.5894     9.2555     0.2013     2.6249
 2332.5000   -10.3944     3.6486     4.8214     5.7411   104.3580     9.2548     0.2073     2.6308
 2333.0000   -10.4077     3.6979     4.8908     5.9358   103.6768     9.2393     0.2118     2.6278
 2333.5000   -10.4211     3.8002     4.9711     6.0992   102.7707     9.2238     0.1946     2.6128
 2334.0000   -10.4345     3.8515     5.1757     6.2671   102.0895     9.2221     0.1152     2.5798
 2334.5000   -10.4479     3.9034     5.2507     6.3507   102.3079     9.2076     0.0948     2.5448
 2335.0000   -10.4613     4.0189     5.4772     6.5255   102.7584     9.2369     0.0823     2.5425
 2335.5000   -10.4747     4.1227     5.5565     6.6125   103.4193     9.2662     0.0727     2.5276
 2336.0000   -10.4881     4.1944     5.7161     6.8007   103.6377     9.3251     0.0509     2.5103
 2336.5000   -10.5015     4.3150     5.7988     6.8984   103.8544     9.3842     0.0383     2.4931
 2337.0000   -10.5172     4.4390     5.8307     6.9769   104.9724     9.4283     0.0367     2.5200
 2337.5000   -10.5302     4.5665     5.9917     6.9715   106.0903     9.4265     0.0552     2.5424
 2338.0000   -10.5431     4.6327     5.9884     7.0024   104.7345     9.3078     0.0629     2.5469
 2338.5000   -10.8536     4.7230     6.0694     7.0593   103.6035     9.2029     0.0690     2.5237
 2339.0000   -10.8666     4.8534     6.0659     7.0544   104.7198     9.1278     0.0859     2.5207
 2339.5000   -10.8795     4.8508     6.0627     7.0486   106.0626     9.0974     0.1068     2.5401
 2340.0000   -10.8929     4.9163     6.1444     7.0438   109.2045     9.0968     0.1432     2.5782
 2340.5000   -10.9062     4.9826     6.1409     7.0391   111.4469     9.1261     0.1447     2.5991
 2341.0000   -10.9196     4.9799     6.2239     7.0344   111.6669     9.1417     0.1228     2.5602
 2341.5000   -11.0170     5.0530     6.3079     7.0297   110.3094     9.1844     0.1009     2.5648
 2342.0000   -11.2440     5.1264     6.3929     7.1234   108.7195     9.1989     0.0930     2.5773
 2342.5000   -11.2574     5.2737     6.4268     7.2184   108.0459     9.2281     0.0928     2.5893
 2343.0000   -11.2708     5.3502     6.4748     7.3146   108.7140     9.2870     0.0959     2.6042
 2343.5000   -11.2842     5.3996     6.4712     7.4315   110.7315     9.3758     0.1190     2.6266
 2344.0000   -11.2999     5.5065     6.5577     7.5382   112.5241     9.4200     0.1702     2.6542
 2344.5000   -11.3129     5.6232     6.6467     7.6466   112.7441     9.4167     0.0224     2.6681
 2345.0000   -11.3258     5.6990     6.7362     7.7114   111.6115     9.2696     0.0844     2.6497
 2345.5000   -11.3387     5.8562     6.8269     7.8678   110.4710     9.2244     0.1434     2.6612
 2346.0000   -11.3517     5.8531     6.9187     7.9808   109.1231     9.2536     0.1324     2.6549
 2346.5000   -11.3646     5.9323     7.0120     7.9115   108.4419     9.2828     0.1042     2.6407
 2347.0000   -11.3780     5.9288     7.1065     7.6892   108.6619     9.3120     0.1026     2.6130
 2347.5000   -11.3914     6.0088     7.1166     7.5779   110.2280     9.3264     0.0994     2.5816
 2348.0000   -11.4048     6.0022     7.1985     7.2633   112.2455     9.3556     0.0697     2.5360
 2348.5000   -11.4182     5.9191     7.1941     6.9617   113.8132     9.3848     0.0011     2.5075
 2349.0000   -11.4315     5.9006     7.2260     6.8592   114.7062     9.4288    -0.0239     2.4829
 2349.5000   -11.4449     5.8097     7.2437     6.7616   114.4732     9.4433    -0.0242     2.5165
 2350.0000   -11.4583     5.6673     7.0827     7.0777   113.7920     9.3830     0.0039     2.5149
 2350.5000   -11.4717     5.5544     7.1355     7.3646   113.3357     9.3228     0.0304     2.4686
 2351.0000   -11.4874     5.3932     7.1741     7.5751   112.8794     9.2626     0.0176     2.4858
 2351.5000   -11.5004     5.3511     7.1695     7.6430   112.6480     9.2456    -0.0276     2.5104
 2352.0000   -11.8109     5.2736     7.1657     7.7436   112.4166     9.2166    -0.0464     2.4491
 2352.5000   -11.8238     5.2707     7.0627     7.5179   111.7240     9.2160    -0.0481     2.4416
 2353.0000   -11.8368     5.2679     6.9612     6.9175   110.8278     9.2435    -0.0497     2.4475
 2353.5000   -12.1473     5.2651     6.7663     6.7231   110.3715     9.2426    -0.0483     2.4580
 2354.0000   -12.1607     5.2623     6.4791     6.4440   109.9152     9.2565    -0.0032     2.4662
 2354.5000   -12.1741     5.2594     6.1919     6.2629   109.0091     9.2556     0.0216     2.4774
