~VERSION INFORMATION
 VERS.                2.0:   CWLS LOG ASCII STANDARD - VERSION 2.0
 WRAP.                 NO:   ONE LINE PER DEPTH STEP
~WELL INFORMATION
#MNEM.UNIT      DATA TYPE    INFORMATION
#----------   ------------   ------------------------------
 STRT.F          206.0000:   START DEPTH
 STOP.F         3218.0000:   STOP DEPTH
 STEP.F            0.5000:   STEP LENGTH
 NULL.          -999.2500:   NO VALUE
 COMP.    FENIX & SCISSON:   COMPANY
 WELL.     FENIX AX #16-2:   WELL
 FLD .              NPR 3:   FIELD
 LOC .       S2 T38N R78W:   LOCATION
 CNTY.            NATRONA:   COUNTY
 STAT.            WYOMING:   STATE
 CTRY. UNITED STATES OF AMERICA:   COUNTRY
 SRVC.       SCHLUMBERGER:   SERVICE COMPANY
 DATE.        10-OCT-1977:   LOGDATE
 API .     49025105780000:   API NUMBER
~CURVE INFORMATION
#MNEM.UNIT       API CODE    CURVE DESCRIPTION
#----------   ------------   ------------------------------
 DEPT.F                  :   
 GRD .GAPI   45 310 01 00:   GAMMA RAY FROM DENSITY LOG
 CALD.IN     45 280 60 00:   CALIPER FROM DENSITY LOG
 RHOB.G/C3   45 350 01 00:   BULK DENSITY
 CORR.G/C3   45 356 01 00:   DENSITY CORRECTION
 SPR .MV     07 010 01 00:   SPONTANEOUS POTENTIAL FROM RES.
 RILD.OHMM   07 120 46 00:   DEEP INDUCTION RESISTIVITY
 RILM.OHMM   07 120 44 00:   INDUCTION LOG MEDIUM RESISTIVITY
 RLL8.OHMM   07 220 08 00:   LATEROLOG-8 RES.
~PARAMETER INFORMATION
#MNEM.UNIT          VALUE    DESCRIPTION
#----------   ------------   ------------------------------
 EKB .F         5123.0000:   Kelly bushing
 EGL .F         5113.0000:   Ground level
 EDF .F            0.0000:   Drilling floor
 TD  .F         3220.0000:   Total depth
 CLNT.            A2DTECH:   Client Code
 SL  . 1772' FSL & 576' FWL:   Surface Location
 PD  .                 GL:   Permanent Datum
 EPD .F              5113:   Elevation Permanent Datum
 LMF .                 KB:   Log Measured From
 DMF .                 KB:   Drilling Measured From
 DAPD.F                10:   Feet Above Permanent Datum
 DATE.        10-OCT-1977:   Date Logged [DD-MMM-YYYY]
 DD  .F              3220:   Depth driller
 DL  .F              3218:   Depth logger
 BLI .F              3212:   Bottom log interval
 TLI .F               223:   Top log interval
 CS1 .IN            8.625:   Casing size
 CBD1.      8.625" @ 222':   Casing driller 1
 CBL1.F               223:   Casing logger 1
 BS1 .IN            7.875:   Bit size
 BSD1.F              3220:   Depth drilled with bit1
 DFT .                KCL:   Type fluid in hole
 DFD .                8.6:   Density
 DFV .                 32:   Viscosity
 DFPH.                 11:   pH
 MSS .            MUD PIT:   Source of sample
 RMS .OHMM           0.29:   Rm
 MST .F                82:   Rm Meas. temp.
 RMF .OHMM          0.228:   Rmf
 MFST.F                81:   Rmf Meas. temp.
 MFSS.               MEAS:   Source Rmf.
 RMB .OHMM           0.21:   Rm. at BHT
 BHT .F               122:   BHT.
 TCS .HRS            0600:   Time Circ. stopped
 MRT .F               122:   Maximum recorded temp.
 LUN .               5642:   Logging unit number
 ENGI. CHALUPSKY PETERSON:   Recorded By
 WITN.     WES PETTINGILL:   Witnessed by
 ORIG.           5" PRINT:   Origin of data
 UWI .     49025105780000:   Unique Well ID
 DICO. A2D TECHNOLOGIES, INC.:   Digitizing Company
 TLAB.HRS            1000:   Time logger at bottom
 LUL .               CSPR:   Logging unit location
~OTHER INFORMATION
~A   DEPT       GRD      CALD       RHOB       CORR        SPR       RILD       RILM       RLL8   
  206.0000    83.9339  -999.2500  -999.2500  -999.2500  -999.2500  -999.2500  -999.2500  -999.2500
  206.5000    82.8829  -999.2500  -999.2500  -999.2500  -999.2500  -999.2500  -999.2500  -999.2500
  207.0000    82.4324  -999.2500  -999.2500  -999.2500  -999.2500  -999.2500  -999.2500  -999.2500
  207.5000    83.1832  -999.2500  -999.2500  -999.2500  -999.2500  -999.2500  -999.2500  -999.2500
  208.0000    84.3844  -999.2500  -999.2500  -999.2500  -999.2500  -999.2500  -999.2500  -999.2500
  208.5000    83.4735  -999.2500  -999.2500  -999.2500  -999.2500  -999.2500  -999.2500  -999.2500
  209.0000    83.3333  -999.2500  -999.2500  -999.2500  -999.2500  -999.2500  -999.2500  -999.2500
  209.5000    85.2853  -999.2500  -999.2500  -999.2500  -999.2500  -999.2500  -999.2500  -999.2500
  210.0000    86.3363  -999.2500  -999.2500  -999.2500  -999.2500  -999.2500  -999.2500  -999.2500
  210.5000    84.6847  -999.2500  -999.2500  -999.2500  -999.2500  -999.2500  -999.2500  -999.2500
  211.0000    83.3333  -999.2500  -999.2500  -999.2500  -999.2500  -999.2500  -999.2500  -999.2500
  211.5000    82.7327  -999.2500  -999.2500  -999.2500  -999.2500  -999.2500  -999.2500  -999.2500
  212.0000    83.7838  -999.2500  -999.2500  -999.2500  -999.2500  -999.2500  -999.2500  -999.2500
  212.5000    85.1351  -999.2500  -999.2500  -999.2500  -999.2500  -999.2500  -999.2500  -999.2500
  213.0000    85.8859  -999.2500  -999.2500  -999.2500  -999.2500  -999.2500  -999.2500  -999.2500
  213.5000    86.0360  -999.2500  -999.2500  -999.2500  -999.2500  -999.2500  -999.2500  -999.2500
  214.0000    85.8859  -999.2500  -999.2500  -999.2500  -999.2500  -999.2500  -999.2500  -999.2500
  214.5000    85.7357  -999.2500  -999.2500  -999.2500  -999.2500  -999.2500  -999.2500  -999.2500
  215.0000    96.2462  -999.2500  -999.2500  -999.2500  -999.2500  -999.2500  -999.2500  -999.2500
  215.5000   106.3063  -999.2500  -999.2500  -999.2500  -999.2500  -999.2500  -999.2500  -999.2500
  216.0000   119.2192  -999.2500  -999.2500  -999.2500  -999.2500  -999.2500  -999.2500  -999.2500
  216.5000   122.3724  -999.2500  -999.2500  -999.2500  -999.2500  -999.2500  -999.2500  -999.2500
  217.0000   124.0240  -999.2500  -999.2500  -999.2500  -999.2500  -999.2500  -999.2500  -999.2500
  217.5000   125.2252  -999.2500  -999.2500  -999.2500  -999.2500  -999.2500  -999.2500  -999.2500
  218.0000   126.2763  -999.2500  -999.2500  -999.2500  -999.2500  -999.2500  -999.2500  -999.2500
  218.5000   127.3374  -999.2500  -999.2500  -999.2500  -999.2500  -999.2500  -999.2500  -999.2500
  219.0000   128.9489  -999.2500  -999.2500  -999.2500  -999.2500  -999.2500  -999.2500  -999.2500
  219.5000   134.2342  -999.2500  -999.2500  -999.2500  -999.2500  -999.2500  -999.2500  -999.2500
  220.0000   140.2402  -999.2500  -999.2500  -999.2500  -999.2500  -999.2500  -999.2500  -999.2500
  220.5000   142.3423  -999.2500  -999.2500  -999.2500  -999.2500  -999.2500  -999.2500  -999.2500
  221.0000   143.9940  -999.2500  -999.2500  -999.2500  -999.2500  -999.2500  -999.2500  -999.2500
  221.5000   143.6937  -999.2500  -999.2500  -999.2500  -999.2500  -999.2500  -999.2500  -999.2500
  222.0000   142.3423  -999.2500  -999.2500  -999.2500  -999.2500  -999.2500  -999.2500  -999.2500
  222.5000   142.6426  -999.2500  -999.2500  -999.2500  -999.2500  -999.2500  -999.2500  -999.2500
  223.0000   145.4955    10.1989     2.4063     0.0168  -999.2500     7.5621     6.2284    15.2545
  223.5000   150.1180    10.2305     2.4130     0.0161  -999.2500     7.3638     6.3216    10.2214
  224.0000   153.2133    10.2781     2.4078     0.0123  -999.2500     7.1231     6.3719    10.0910
  224.5000   159.3093    10.3240     2.4010     0.0063  -999.2500     6.7005     6.3784     9.9597
  225.0000   159.3093    10.3406     2.3980     0.0010  -999.2500     6.6153     6.4294     9.6998
  225.5000   159.4595    10.3872     2.4018    -0.0013  -999.2500     6.8557     6.3912     9.4443
  226.0000   160.3604    10.4038     2.4048    -0.0020  -999.2500     7.0070     6.3993     9.3836
  226.5000   161.4114    10.4503     2.4011    -0.0013  -999.2500     7.0650     6.4057     9.3332
  227.0000   162.3123    10.4669     2.4026     0.0002  -999.2500     7.0726     6.3664     9.2781
  227.5000   163.2132    10.5135     2.4106     0.0024  -999.2500     7.0295     6.3744     9.2234
  228.0000   159.7598    10.5321     2.4237     0.0039  -999.2500     6.9886     6.2931     9.1057
  228.5000   157.2022    10.5771     2.4282     0.0039  -999.2500     6.9479     6.2560     8.8659
  229.0000   157.9079    10.5936     2.4297     0.0039  -999.2500     6.9075     6.2192     8.8158
  229.5000   161.8619    10.6102     2.4289     0.0054  -999.2500     6.9168     6.2270     8.7636
  230.0000   163.2132    10.6418     2.4252     0.0076  -999.2500     6.9242     6.2333     8.8337
  230.5000   162.7628    10.6584     2.4200     0.0076  -999.2500     6.9375     6.2829     8.7814
  231.0000   160.3604    10.6900     2.4185     0.0030  -999.2500     7.0376     6.4212     8.7296
  231.5000   157.2072    10.7066     2.4202     0.0016  -999.2500     7.0941     6.5172     8.7406
  232.0000   156.9069    10.7385     2.4283     0.0031  -999.2500     7.2006     6.7069     8.6869
  232.5000   159.4845    10.7701     2.4373     0.0053  -999.2500     7.3087     6.8545     8.5190
  233.0000   157.3574    10.7717     2.4433     0.0068  -999.2500     7.4185     6.9571     8.2374
  233.5000   150.1501    10.7733     2.4516     0.0030  -999.2500     7.5299     6.9643     9.2118
  234.0000   142.4925    10.7749     2.4591    -0.0015  -999.2500     7.5903     6.9728     9.6123
  234.5000   144.1441    10.8215     2.4659    -0.0075  -999.2500     7.5985     6.9300     8.5534
  235.0000   148.5986    10.8381     2.4464     0.0030  -999.2500     7.6069     6.8909     8.9275
  235.5000   154.3544    10.8717     2.4034     0.0015  -999.2500     7.5623     6.8978     9.1241
  236.0000   158.5586    10.9016     2.4179     0.0007  -999.2500     7.4685     6.8555     9.2607
  236.5000   156.1562    10.9332     2.4299     0.0046  -999.2500     7.3718     6.8165     9.1425
  237.0000   153.0030    10.9648     2.4284     0.0082  -999.2500     7.3289     6.8236     8.9017
  237.5000   153.4535    11.0264     2.4254     0.0022  -999.2500     7.2752     6.7834     8.2001
  238.0000   153.6036    11.0430     2.4209    -0.0016  -999.2500     7.1958     6.7434     7.6022
  238.5000   154.5195    11.0895     2.4172    -0.0023  -999.2500     7.1046     6.6592     7.2880
  239.0000   156.5165    11.1061     2.4165    -0.0001  -999.2500     7.0586     6.6182     7.0157
  239.5000   158.7087    11.1531     2.4233     0.0029  -999.2500     6.9276     6.5355     6.9262
  240.0000   159.4595    11.1847     2.4197     0.0021  -999.2500     6.8379     6.3635     6.7889
  240.5000   156.1562    11.2163     2.4075     0.0021  -999.2500     6.7513     6.1533     6.7023
  241.0000   156.7568    11.2328     2.4015     0.0066  -999.2500     6.6216     6.0747     6.6167
  241.5000   156.3063    11.2434     2.4053     0.0112  -999.2500     6.5812     6.0384     6.5338
  242.0000   155.7057    11.2589     2.4090     0.0141  -999.2500     6.4978     5.9620     6.4954
  242.5000   154.0540    11.2676     2.3948     0.0088  -999.2500     6.4171     5.9269     6.5022
  243.0000   150.4505    11.2693     2.3865    -0.0010  -999.2500     6.3798     5.9756     6.5101
  243.5000   151.3613    11.2862     2.3896    -0.0032  -999.2500     6.3870     5.9816     6.5167
  244.0000   147.8979    11.2878     2.4025     0.0043  -999.2500     6.4397     5.9877     6.5686
  244.5000   146.0961    11.2894     2.4016     0.0110  -999.2500     6.4466     6.0353     6.5752
  245.0000   145.7958    11.3060     2.3949     0.0095  -999.2500     6.4983     6.0414     6.6272
  245.5000   145.0300    11.3076     2.3911     0.0073  -999.2500     6.5959     6.0895     6.6804
  246.0000   145.3454    11.3242     2.3919     0.0020  -999.2500     6.6885     6.0986     6.6875
