~VERSION INFORMATION
 VERS.                2.0:   CWLS LOG ASCII STANDARD - VERSION 2.0
 WRAP.                 NO:   ONE LINE PER DEPTH STEP
~WELL INFORMATION
#MNEM.UNIT      DATA TYPE    INFORMATION
#----------   ------------   ------------------------------
 STRT.F          186.0000:   START DEPTH
 STOP.F         3060.0000:   STOP DEPTH
 STEP.F            0.5000:   STEP LENGTH
 NULL.          -999.2500:   NO VALUE
 COMP.    FENIX & SCISSON:   COMPANY
 WELL. FENIX NPR 3 "AX" #63-29:   WELL
 FLD .              N P R:   FIELD
 LOC .      S29 T39N R78W:   LOCATION
 CNTY.            NATRONA:   COUNTY
 STAT.            WYOMING:   STATE
 CTRY. UNITED STATES OF AMERICA:   COUNTRY
 SRVC.           BIRDWELL:   SERVICE COMPANY
 DATE.        28-FEB-1978:   LOGDATE
 API .     49025105960000:   API NUMBER
~CURVE INFORMATION
#MNEM.UNIT       API CODE    CURVE DESCRIPTION
#----------   ------------   ------------------------------
 DEPT.F                  :   
 CALD.IN     45 280 60 00:   CALIPER FROM DENSITY LOG
 GRD .GAPI   45 310 01 00:   GAMMA RAY FROM DENSITY LOG
 DEN .LBS    07 635 01 00:   
 CORR.G/C3   45 356 01 00:   DENSITY CORRECTION
 SPR .MV     05 010 01 00:   SPONTANEOUS POTENTIAL
 SN  .OHMM   05 040 00 00:   SHORT NORMAL
 ILD .OHMM   05 120 46 00:   DEEP INDUCTION RESISTIVITY
~PARAMETER INFORMATION
#MNEM.UNIT          VALUE    DESCRIPTION
#----------   ------------   ------------------------------
 EKB .F         4993.0000:   Kelly bushing
 EGL .F         4983.0000:   Ground level
 EDF .F            0.0000:   Drilling floor
 TD  .F         3060.0000:   Total depth
 DATE.        28-FEB-1978:   Date logged
 CLNT.            A2DTECH:   Client Code
 SL  . 1300' FNL & 1050' FEL:   Surface Location
 PD  .                 GL:   Permanent Datum
 DD  .F              3060:   Depth driller
 DL  .F              3056:   Depth logger
 BLI .F              5050:   Bottom log interval
 CS1 .IN            8.625:   Casing size
 CBD1.      8.625" @ 214':   Casing driller 1
 CBL1.F               218:   Casing logger 1
 BS1 .IN            7.875:   Bit size
 DFT .     LIGNOSULFONATE:   Type fluid in hole
 DFD .                  9:   Density
 DFV .                 34:   Viscosity
 DFPH.               10.5:   pH
 DFL .                  9:   Fluid loss
 MSS .           FLOWLINE:   Source of sample
 RMS .OHMM            1.8:   Rm
 MST .F                58:   Rm Meas. temp.
 RMF .OHMM             .9:   Rmf
 MFST.F                65:   Rmf Meas. temp.
 RMC .OHMM            2.5:   Rmc
 MCST.F                70:   Rmc Meas. temp.
 MFSS.               MEAS:   Source Rmf.
 RMB .OHMM             88:   Rm. at BHT
 BHT .F               118:   BHT.
 TCS .HRS               8:   Time Circ. stopped
 MRT .F               118:   Maximum recorded temp.
 LUN .               2959:   Logging unit number
 LUL .               CASP:   Logging unit location
 ENGI.             MILLER:   Recorded By
 WITN.         HARRINGTON:   Witnessed by
 ORIG.           5" PRINT:   Origin of data
 UWI .     49025105960000:   Unique Well ID
 DICO. A2D TECHNOLOGIES, INC.:   Digitizing Company
 BSD1.F              3060:   Depth drilled with bit1
 EPD .F              4983:   Elevation Permanent Datum
 LMF .                 KB:   Log Measured From
 DMF .                 KB:   Drilling Measured From
 TLI .F               800:   Top log interval
~OTHER INFORMATION
~A   DEPT     CALD         GRD       DEN       CORR        SPR         SN        ILD   
# ...
 2097.0000     8.8050    99.0630     2.4120     0.1110   -35.2540    12.2750     8.7120
 2097.5000     8.8050    98.7490     2.3890     0.1380   -35.2800    12.2750     8.6120
 2098.0000     8.8050    98.5200     2.3670     0.1340   -35.3080    12.0140     8.5120
 2098.5000     8.8050    98.3220     2.3440     0.0840   -35.3340    11.7040     8.4120
 2099.0000     8.8050    96.2890     2.3380     0.0410   -35.3610    11.3940     8.3110
 2099.5000     8.8050    94.1000     2.3260     0.0360   -35.3880    11.1620     8.2110
 2100.0000     8.8050    91.6660     2.4550     0.0600   -35.4150    11.0700     8.1110
 2100.5000     8.8050    92.9080     2.4390     0.1200   -35.4420    10.9780     8.0110
 2101.0000     8.8050    94.3300     2.4370     0.1970   -35.4680    10.8860     7.9550
 2101.5000     8.8050    93.9760     2.4150     0.3130   -35.4960    10.7940     7.8780
 2102.0000     8.8050    93.5240     2.3880     0.2600   -35.5210    10.7010     7.8000
 2102.5000     8.8050    93.1340     2.3600     0.0730   -35.5400    10.5930     7.7220
 2103.0000     8.8050    91.2560     2.4120     0.0450   -35.4130    10.5030     7.6450
 2103.5000     8.8050    87.2050     2.5340     0.0490   -35.2560    10.3000     7.5670
 2104.0000     8.8050    83.1200     2.4630     0.1900   -35.0970    10.0980     7.4890
 2104.5000     8.8050    81.9120     2.3780     0.3190   -34.9400     9.8950     7.4110
 2105.0000     8.8050    83.8900     2.3220     0.2450   -34.7840     9.6610     7.4110
 2105.5000     8.8050    85.8580     2.2680     0.2560   -34.6240     9.8410     7.4890
 2106.0000     8.8050    87.7530     2.3520     0.2810   -34.4670     9.8880     7.5800
 2106.5000     8.8050    89.9390     2.3220     0.2900   -34.3410     9.9310     7.6710
 2107.0000     8.8020    91.3060     2.2220     0.2850   -34.3610     9.9750     7.7630
 2107.5000     8.7930    91.0380     2.1680     0.2690   -34.3770    10.0240     7.8310
 2108.0000     8.7830    84.6030     2.2170     0.2480   -34.3980    10.0240     7.6890
 2108.5000     8.7730    77.7710     2.3080     0.2250   -34.4180     9.8620     7.5110
 2109.0000     8.7670    77.0410     2.3680     0.0810   -34.4370     9.3760     6.9780
 2109.5000     8.7650    77.2120     2.3660     0.0290   -34.4570     8.8900     6.4450
 2110.0000     8.7570    79.3020     2.4140     0.0370   -34.4760     8.4040     6.0540
 2110.5000     8.7020    81.4420     2.4850     0.0440   -34.4960     7.9180     6.0380
 2111.0000     8.6820    82.7700     2.4410     0.0740   -34.5150     7.6040     6.0200
 2111.5000     8.6530    82.2650     2.4430     0.1270   -34.5350     7.6290     6.0020
 2112.0000     8.6550    81.4240     2.4450     0.1820   -34.5540     7.7450     5.9840
 2112.5000     8.6760    79.0740     2.4400     0.2330   -34.5730     8.0190     5.9660
 2113.0000     8.6950    76.6800     2.3640     0.2790   -34.5930     8.4280     5.9480
 2113.5000     8.7130    75.1330     2.3240     0.3270   -34.6120     8.8370     6.1320
 2114.0000     8.7330    75.5350     2.3250     0.0920   -34.6320     9.3120     6.3800
 2114.5000     8.7510    77.5750     2.3290     0.1490   -34.6510     9.3120     6.6280
 2115.0000     8.7700    79.6140     2.4060     0.2050   -34.6710     9.3120     6.8770
 2115.5000     8.7890    81.1750     2.4850     0.1320   -34.6900     9.3120     7.1250
 2116.0000     8.8040    81.8560     2.4450     0.0610   -34.7090     9.4970     7.4110
 2116.5000     8.8110    82.5760     2.5540     0.0490   -34.7300     9.9700     7.4110
 2117.0000     8.8210    83.1760     2.5320     0.0690   -34.7350    10.4000     7.4110
 2117.5000     8.8300    80.3700     2.4640     0.1170   -34.7240    10.4000     7.4110
 2118.0000     8.8390    78.8600     2.3930     0.3130   -34.7140    10.4000     7.4110
 2118.5000     8.8480    79.0820     2.3440     0.0270   -34.7030    10.4000     7.6340
 2119.0000     8.8580    79.1730     2.3510     0.0280   -34.6930    10.4000     7.7410
 2119.5000     8.8670    79.6080     2.4200     0.0300   -34.6830    10.4000     7.8490
 2120.0000     8.8760    80.1090     2.5100     0.0550   -34.6720    10.2100     7.9560
 2120.5000     8.8850    87.3450     2.4250     0.1590   -34.6620    10.3140     8.0630
 2121.0000     8.8940    94.6520     2.3940     0.1420   -34.6520    10.4220     8.1250
 2121.5000     8.9030    97.5770     2.4300     0.0720   -34.6420    10.5300     8.1250
 2122.0000     8.9130    93.9410     2.4260     0.0520   -34.6310    10.6390     8.1250
 2122.5000     8.9220    87.4090     2.4690     0.0680   -34.6210    10.7900     7.9770
 2123.0000     8.9310    86.6000     2.5120     0.0920   -34.6110    10.6810     7.7300
 2123.5000     8.9400    90.1110     2.4750     0.0650   -34.6000    10.1740     7.4790
 2124.0000     8.9490    97.7360     2.4470     0.0540   -34.5900     9.6660     7.2270
 2124.5000     8.9590   105.2090     2.4670     0.0690   -34.5800     9.1580     7.0140
 2125.0000     8.9650   112.6430     2.4440     0.0900   -34.5700     8.6500     6.7030
 2125.5000     8.9670   115.7390     2.4300     0.1110   -34.5590     8.6500     6.5540
 2126.0000     8.9690   113.4350     2.4590     0.0590   -34.5490     8.8680     6.4040
 2126.5000     8.9710   107.7790     2.4850     0.0150   -34.5390     9.1420     6.2550
 2127.0000     8.9740   102.1640     2.4680     0.0380   -34.5290     9.1420     6.1050
 2127.5000     8.9760   100.6070     2.4440     0.0610   -34.5180     8.6770     5.9560
 2128.0000     8.9780   101.7400     2.4240     0.0510   -34.5080     8.2790     5.8060
 2128.5000     8.9800   103.2900     2.3980     0.0280   -34.4980     7.8810     5.6250
 2129.0000     8.9820   104.1140     2.4030     0.0250   -34.4870     7.4650     5.5230
 2129.5000     8.9840   105.2940     2.4100     0.0210   -34.4770     7.4650     5.5230
 2130.0000     8.9860   114.6260     2.4190     0.0240   -34.4670     8.2080     5.6250
 2130.5000     8.9890   123.4550     2.4230     0.0460   -34.4570     8.8330     6.1270
 2131.0000     8.9910   129.3170     2.4240     0.0620   -34.4460     9.3120     6.6090
 2131.5000     8.9930   129.9200     2.4250     0.0750   -34.4360    10.6480     7.0920
 2132.0000     8.9950   131.8970     2.4250     0.0830   -34.4260    11.8380     7.5750
 2132.5000     8.9970   133.6130     2.4260     0.1100   -34.4160    12.7360     8.0580
 2133.0000     8.9990   134.7210     2.4110     0.1500   -34.4050    12.7360     8.5850
 2133.5000     9.0020   136.9080     2.4000     0.1800   -34.3950    12.7360     8.9070
 2134.0000     9.0050   142.1400     2.4000     0.0870   -34.3850    12.5400     8.5850
 2134.5000     9.0480   141.3120     2.4000     0.0570   -34.3750    12.3680     8.3340
 2135.0000     9.0990   134.9240     2.4400     0.0620   -34.3640    12.0510     7.9110
 2135.5000     9.1510   121.2380     2.5480     0.1100   -34.3540    11.4000     7.4880
 2136.0000     9.2030   106.1970     2.5190     0.1470   -34.3480    10.4600     7.0650
 2136.5000     9.2550   107.0050     2.4940     0.0840   -34.2790     9.5200     6.6430
 2137.0000     9.3050   107.5700     2.4940     0.0370   -34.1170     8.8110     6.2200
 2137.5000     9.3600   107.4920     2.5740     0.0340   -33.9610     7.7930     5.7970
 2138.0000     9.3710   106.3920     2.5300     0.0360   -33.8040     6.6120     5.3750
 2138.5000     9.3820   105.8770     2.4780     0.0450   -33.6460     5.9070     4.9520
 2139.0000     9.3910   105.2210     2.4970     0.0530   -33.4880     5.5730     4.5290
 2139.5000     9.4010   104.5060     2.5000     0.0470   -33.3330     5.2380     4.1070
 2140.0000     9.4110   103.5170     2.5070     0.0400   -33.1740     5.0700     3.8680
 2140.5000     9.4210   100.6920     2.5210     0.0340   -33.1640     5.0700     3.8160
 2141.0000     9.4300    97.5500     2.5200     0.0300   -33.2160     5.0700     3.7540
 2141.5000     9.4400    94.2730     2.5220     0.0240   -33.2660     5.0700     3.7540
 2142.0000     9.4450    93.4640     2.5330     0.0180   -33.3130     5.0870     3.7540
