~VERSION INFORMATION
 VERS.                2.0:   CWLS LOG ASCII STANDARD - VERSION 2.0
 WRAP.                 NO:   ONE LINE PER DEPTH STEP
~WELL INFORMATION
#MNEM.UNIT      DATA TYPE    INFORMATION
#----------   ------------   ------------------------------
 STRT.F          670.0000:   START DEPTH
 STOP.F         3440.0000:   STOP DEPTH
 STEP.F            0.5000:   STEP LENGTH
 NULL.          -999.2500:   NO VALUE
 COMP.    FENIX & SCISSON:   COMPANY
 WELL.   FENIX "A" #57-33:   WELL
 FLD .             NPR #3:   FIELD
 LOC .      S33 T39N R78W:   LOCATION
 CNTY.            NATRONA:   COUNTY
 STAT.            WYOMING:   STATE
 CTRY. UNITED STATES OF AMERICA:   COUNTRY
 SRVC.       SCHLUMBERGER:   SERVICE COMPANY
 DATE.        27-APR-1977:   LOGDATE
 API .     49025103600000:   API NUMBER
~CURVE INFORMATION
#MNEM.UNIT       API CODE    CURVE DESCRIPTION
#----------   ------------   ------------------------------
 DEPT.F                  :   
 SPR .MV     11 010 01 00:   SPONTANEOUS POTENTIAL FROM RES.
 MSFL.OHMM   11 270 04 00:   MICRO SPHERICALLY FOCUSED
 LLD .OHMM   11 220 10 00:   LATEROLOG LOG DEEP
 LLS .OHMM   11 220 09 00:   LATEROLOG LOG SHALLOW
 CALD.IN     45 280 60 00:   CALIPER FROM DENSITY LOG
 DRHO.G/C3   45 356 01 00:   DENSITY CORRECTION
 NPHI.DEC    42 890 03 00:   NEUTRON POROSITY SANDSTONE
 RHOB.G/C3   45 350 01 00:   BULK DENSITY
 GRD .GAPI   45 310 01 00:   GAMMA RAY FROM RESISTIVITY
~PARAMETER INFORMATION
#MNEM.UNIT          VALUE    DESCRIPTION
#----------   ------------   ------------------------------
 EKB .F         5183.0000:   Kelly bushing
 EGL .F         5172.0000:   Ground level
 EDF .F            0.0000:   Drilling floor
 TD  .F         3424.0000:   Total depth
 DATE.        27-APR-1977:   Date logged
 CLNT.            A2DTECH:   Client Code
 SL  . 990' FSL & 2310' FEL:   Surface Location
 PD  .                 GL:   Permanent Datum
 EPD .F              5172:   Elevation Permanent Datum
 LMF .                 KB:   Log Measured From
 DMF .                 KB:   Drilling Measured From
 DAPD.F                11:   Feet Above Permanent Datum
 DD  .F              3421:   Depth driller
 DL  .F              3424:   Depth logger
 BLI .F              3423:   Bottom log interval
 TLI .F               764:   Top log interval
 CS1 .IN            8.625:   Casing size
 CBD1.      8.625" @ 711':   Casing driller 1
 BS1 .IN            7.875:   Bit size
 BSD1.F              3421:   Depth drilled with bit1
 DFT .            KCL MUD:   Type fluid in hole
 DFD .                9.5:   Density
 DFV .                 41:   Viscosity
 DFPH.                  8:   pH
 DFL .               10.8:   Fluid loss
 MSS .            MUD PIT:   Source of sample
 RMS .OHMM           0.26:   Rm
 MST .F                74:   Rm Meas. temp.
 RMF .OHMM           0.21:   Rmf
 MFST.F                74:   Rmf Meas. temp.
 RMC .OHMM            .09:   Rmc
 MCST.F                74:   Rmc Meas. temp.
 MFSS.               MEAS:   Source Rmf.
 MCSS.               CALC:   Source Rmc.
 RMB .OHMM           0.15:   Rm. at BHT
 BHT .F               126:   BHT.
 TCS .HRS            0900:   Time Circ. stopped
 TLAB.HRS            1430:   Time logger at bottom
 MRT .F               126:   Maximum recorded temp.
 LUN .               7711:   Logging unit number
 LUL .               CSPR:   Logging unit location
 ENGI.             SAYLER:   Recorded By
 WITN.         PETTINGILL:   Witnessed by
 ORIG.           5" PRINT:   Origin of data
 UWI .     49025103600000:   Unique Well ID
 DICO. A2D TECHNOLOGIES, INC.:   Digitizing Company
~OTHER INFORMATION
~A   DEPT      SPR       MSFL        LLD        LLS         CALD      DRHO        NPHI       RHOB      GRD   
# ...
 3042.5000   -77.6370    10.7350     8.0010     8.8160     8.7590     0.0110     0.2630     2.5750   142.2990
 3043.0000   -77.7770    10.5400     7.9680     8.6110     8.7400     0.0120     0.2460     2.5790   143.8210
 3043.5000   -77.9190    10.7800     7.9120     8.8860     8.7410     0.0180     0.2480     2.5700   145.5590
 3044.0000   -78.0560    11.0880     7.8550     9.0810     8.7430     0.0230     0.2520     2.5900   144.8530
 3044.5000   -77.5990    11.3440     8.0130     9.2760     8.7450     0.0250     0.2540     2.5990   145.1330
 3045.0000   -77.0500    10.8760     8.3000     9.4390     8.7470     0.0240     0.2440     2.5910   146.4740
 3045.5000   -76.4950    10.2300     8.1790     9.0700     8.7480     0.0240     0.2500     2.5920   147.2440
 3046.0000   -76.3110     9.5840     7.9620     8.7520     8.7500     0.0180     0.2590     2.5840   149.3890
 3046.5000   -76.4030     8.9380     7.7450     8.4340     8.7520     0.0100     0.2690     2.5750   154.3230
 3047.0000   -76.4630     8.6050     7.5280     8.1160     8.7540     0.0090     0.2780     2.5590   160.2080
 3047.5000   -75.7770     8.5610     7.3120     7.7980     8.7560     0.0110     0.2860     2.5630   163.2240
 3048.0000   -75.1090     8.5320     7.1650     7.7120     8.7570     0.0140     0.2890     2.5720   163.4630
 3048.5000   -74.4440     8.6610     7.3000     7.9370     8.7580     0.0230     0.2850     2.5810   161.8840
 3049.0000   -73.7810     9.0800     7.4470     8.1070     8.7520     0.0390     0.2810     2.5920   160.6470
 3049.5000   -73.1110     9.5000     7.5930     8.2240     8.7450     0.0340     0.2760     2.5770   161.8150
 3050.0000   -72.3330     9.7930     7.7830     8.0840     8.7380     0.0260     0.2740     2.5880   162.7640
 3050.5000   -71.8160     9.7930     7.5700     7.8060     8.7320     0.0180     0.2730     2.5840   160.5360
 3051.0000   -71.3740     9.1790     7.1450     7.5280     8.7250     0.0110     0.2720     2.5700   162.4270
 3051.5000   -70.9350     8.6200     6.7190     7.2510     8.7190     0.0080     0.2790     2.5660   168.7540
 3052.0000   -70.5340     8.0610     6.1400     6.7530     8.7120     0.0110     0.2870     2.5620   176.8340
 3052.5000   -70.5680     6.7430     5.1910     6.0510     8.7050     0.0140     0.3010     2.5610   184.9520
 3053.0000   -71.3810     5.3330     4.2410     5.3480     8.6990     0.0140     0.3150     2.5570   193.0340
 3053.5000   -72.1790     4.5680     3.5640     4.2830     8.6920     0.0250     0.3320     2.5600   201.0710
 3054.0000   -72.9430     5.7130     3.6640     4.7170     8.6850     0.0370     0.3510     2.5650   205.6700
 3054.5000   -72.6290     6.9580     4.6120     5.6110     8.6790     0.0300     0.3610     2.5470   196.9750
 3055.0000   -72.0800     8.2030     5.7990     6.5050     8.6720     0.0200     0.3510     2.5530   183.9960
 3055.5000   -71.4980     8.9290     6.6210     7.2980     8.6660     0.0120     0.2920     2.5760   170.3700
 3056.0000   -71.3460     9.2100     7.2980     7.8090     8.6560     0.0070     0.2720     2.5940   164.4720
 3056.5000   -71.6250     9.4900     7.5040     8.2820     8.6390     0.0080     0.2620     2.5950   160.3500
 3057.0000   -71.9030     9.7700     7.6530     8.6660     8.6380     0.0140     0.2570     2.5970   156.5660
 3057.5000   -71.9740     9.9740     7.8020     9.0990     8.6370     0.0130     0.2530     2.5970   154.3380
 3058.0000   -71.2580     9.9480     8.0010     9.0250     8.6360     0.0110     0.2500     2.5950   150.9390
 3058.5000   -70.5580     9.9270     7.6570     8.8680     8.6350     0.0180     0.2480     2.6040   147.2360
 3059.0000   -69.8520     9.9070     7.1410     8.7070     8.6340     0.0260     0.2460     2.6130   142.6610
 3059.5000   -70.1940     9.8860     6.6580     8.8180     8.6330     0.0220     0.2460     2.6060   139.5100
 3060.0000   -70.9030    10.0680     6.9640     9.0990     8.6320     0.0160     0.2490     2.5970   139.6030
 3060.5000   -71.6200    10.2830     7.2530     8.8760     8.6310     0.0140     0.2500     2.5850   141.5330
 3061.0000   -72.3080    10.4430     7.6410     8.3910     8.6300     0.0180     0.2460     2.5760   143.9950
 3061.5000   -72.3050    10.4430     7.3150     8.2240     8.6290     0.0230     0.2390     2.5840   145.1120
 3062.0000   -71.6130    10.5350     6.8160     8.2240     8.6280     0.0280     0.2350     2.6000   141.3570
 3062.5000   -70.9090    10.6370     6.3180     8.2240     8.6270     0.0290     0.2320     2.6010   139.4840
 3063.0000   -70.3180    10.4820     6.0730     8.2240     8.6260     0.0320     0.2250     2.6020   142.2850
 3063.5000   -70.3360    10.3350     6.0150     7.8740     8.6250     0.0340     0.2280     2.6100   143.3180
 3064.0000   -70.3570    10.2530     5.9460     7.2590     8.6240     0.0230     0.2330     2.5970   144.2490
 3064.5000   -69.8090    10.6900     5.9080     6.6440     8.6230     0.0120     0.2390     2.5840   145.9660
 3065.0000   -69.1980    11.0410     6.0940     6.3000     8.6220     0.0060     0.2330     2.5720   146.5240
 3065.5000   -68.5670    11.3920     6.2660     6.7150     8.6210     0.0100     0.2280     2.5730   144.4790
 3066.0000   -67.9380    11.6610     6.4390     6.9710     8.6200     0.0160     0.2210     2.5830   143.2720
 3066.5000   -67.3170    11.5540     6.5360     6.8080     8.6200     0.0210     0.2170     2.5810   143.0320
 3067.0000   -66.7320    11.2000     6.3430     6.5790     8.6200     0.0210     0.2160     2.5880   143.3620
 3067.5000   -66.3280    10.6280     6.1120     6.3510     8.6210     0.0210     0.2150     2.5950   145.5370
 3068.0000   -65.9160    10.0550     5.8800     6.1290     8.6230     0.0200     0.2220     2.5990   148.2990
 3068.5000   -65.3880     9.4820     5.6430     5.8680     8.6240     0.0120     0.2280     2.5780   150.7480
 3069.0000   -66.2280     9.1470     5.2470     5.5520     8.6260     0.0120     0.2380     2.5670   152.8090
 3069.5000   -67.3930     8.9550     4.8620     5.2430     8.6280     0.0120     0.2470     2.5570   155.6710
 3070.0000   -68.5600     8.7630     4.4850     5.1950     8.6290     0.0140     0.2520     2.5540   157.1230
 3070.5000   -69.4230     8.3770     4.5420     5.1510     8.6310     0.0140     0.2550     2.5520   158.6180
 3071.0000   -69.9140     7.6620     4.6350     5.0810     8.6320     0.0130     0.2600     2.5490   162.2780
 3071.5000   -70.4980     6.9710     4.7830     4.7510     8.6340     0.0110     0.2680     2.5350   166.5730
 3072.0000   -71.7840     5.2480     4.2920     4.0210     8.6360     0.0100     0.2870     2.4920   175.1540
 3072.5000   -73.0200     3.5500     3.1040     3.2910     8.6370     0.0090     0.3190     2.4450   189.2680
 3073.0000   -74.1000     1.8510     1.9150     2.8330     8.6400     0.0240     0.3500     2.3980   204.4140
 3073.5000   -73.9810     0.5040     1.4490     2.8610     8.6260     0.0650     0.3970     2.3500   216.8570
 3074.0000   -73.8350     1.0120     1.5780     2.9980     8.6940     0.1040     0.4470     2.3030   185.7230
 3074.5000   -73.7190     9.0490     2.0120     3.1340     9.1090     0.1290     0.4700     2.1490   121.5740
 3075.0000   -74.0020    14.1420     2.4460     4.2180     9.8590     0.0450     0.2990     2.2430   206.3800
 3075.5000   -75.1200    13.5110     5.8200     8.5320    10.0700     0.0170     0.2610     2.3940   136.4420
 3076.0000   -76.2040    12.2530     7.7830     8.0880     8.5130     0.0170     0.2130     2.5440   127.6870
 3076.5000   -77.2860    11.2400     7.1940     7.6040     8.5350     0.0210     0.1890     2.5890   124.6020
 3077.0000   -78.2600    10.9110     6.7010     7.1200     8.5460     0.0260     0.1910     2.5970   127.2330
 3077.5000   -78.2740    10.6260     6.2090     6.6360     8.5570     0.0260     0.1950     2.5980   126.6820
 3078.0000   -77.8380    10.3400     5.9080     6.1860     8.5690     0.0220     0.2000     2.5930   127.5750
 3078.5000   -76.9300    10.0550     5.8540     6.0730     8.5810     0.0240     0.2050     2.6000   131.1560
