~VERSION INFORMATION
 VERS.                2.0:   CWLS LOG ASCII STANDARD - VERSION 2.0
 WRAP.                 NO:   ONE LINE PER DEPTH STEP
~WELL INFORMATION
#MNEM.UNIT      DATA TYPE    INFORMATION
#----------   ------------   ------------------------------
 STRT.F            0.0000:   START DEPTH
 STOP.F         4152.0000:   STOP DEPTH
 STEP.F            0.5000:   STEP LENGTH
 NULL.          -999.2500:   NO VALUE
 COMP. LAWRENCE ALLISON & ASSOCIATES:   COMPANY
 WELL. LAWRENCE "X" #28-27:   WELL
 FLD .             NPR #3:   FIELD
 LOC .      S27 T39N R78W:   LOCATION
 CNTY.            NATRONA:   COUNTY
 STAT.            WYOMING:   STATE
 CTRY. UNITED STATES OF AMERICA:   COUNTRY
 SRVC.      DRESSER ATLAS:   SERVICE COMPANY
 DATE.        26-FEB-1984:   LOGDATE
 API .     49025109630000:   API NUMBER
~CURVE INFORMATION
#MNEM.UNIT       API CODE    CURVE DESCRIPTION
#----------   ------------   ------------------------------
 DEPT.F                  :   
 GRR .GAPI   07 310 01 00:   GAMMA RAY FROM RES.
 TENR.LBS    07 635 01 00:   TENSION FROM RES.
 SPR .MV     07 010 01 00:   SPONTANEOUS POTENTIAL
 RILD.OHMM   07 120 46 00:   RESISTIVITY INDUCTION LOG DEEP
 RILM.OHMM   07 120 44 00:   RESISTIIVTY INDUCTION LOG MEDIUM
 RFOC.OHMM   07 220 04 00:   RESISTIVITY FOCUSED LOG
 DT  .US/F   60 520 00 00:   DELTA TIME
 TENS.LBS    60 635 01 00:   TENSION FROM SONIC
 CALD.IN     45 280 60 00:   CALIPER FROM DENSITY LOG
 TEND.LBS    45 635 01 00:   TENSION FORM DENSITY LOG
 CNC .DEC    42 890 03 00:   NEUTRON POROSITY SANDSTONE
 CORR.G/C3   45 356 01 00:   DENSITY CORRECTION
 DENS.G/C3   45 350 01 00:   DENSITY
~PARAMETER INFORMATION
#MNEM.UNIT          VALUE    DESCRIPTION
#----------   ------------   ------------------------------
 EKB .F         5088.0000:   Kelly bushing
 EGL .F         5078.0000:   Ground level
 EDF .F            0.0000:   Drilling floor
 TD  .F         4154.0000:   Total depth
 CLNT.            A2DTECH:   Client Code
 SL  . 250' FSL & 810' FWL:   Surface Location
 PD  .                 GL:   Permanent Datum
 EPD .F              5078:   Elevation Permanent Datum
 LMF .                 KB:   Log Measured From
 DMF .                 KB:   Drilling Measured From
 DAPD.F                10:   Feet Above Permanent Datum
 DATE.        26-FEB-1984:   Date Logged [DD-MMM-YYYY]
 DD  .F              4154:   Depth driller
 DL  .F              4148:   Depth logger
 BLI .F              4146:   Bottom log interval
 TLI .F                 0:   Top log interval
 CS1 .IN            8.625:   Casing size
 CBD1.      8.625" @ 537':   Casing driller 1
 CBL1.F               540:   Casing logger 1
 BS1 .IN            7.875:   Bit size
 BSD1.F              4154:   Depth drilled with bit1
 DFT .            GEL KCL:   Type fluid in hole
 DFD .                  9:   Density
 DFV .                 45:   Viscosity
 DFPH.                  8:   pH
 DFL .                 14:   Fluid loss
 MSS .           FLOWLINE:   Source of sample
 RMS .OHMM          0.595:   Rm
 MST .F                60:   Rm Meas. temp.
 RMF .OHMM          0.446:   Rmf
 MFST.F                60:   Rmf Meas. temp.
 MFSS.               CALC:   Source Rmf.
 RMC .OHMM          0.744:   Rmc
 MCST.F                60:   Rmc Meas. temp.
 MCSS.               CALC:   Source Rmc.
 RMB .OHMM           0.26:   Rm. at BHT
 BHT .F               138:   BHT.
 TCS .HRS               4:   Time Circ. stopped
 MRT .F               138:   Maximum recorded temp.
 LUN .               6307:   Logging unit number
 LUL .               GLTE:   Logging unit location
 ENGI.           FAHLSING:   Recorded By
 WITN.           JENNINGS:   Witnessed by
 ORIG.      1" 2.5" PRINT:   Origin of data
 UWI .     49025109630000:   Unique Well ID
 DICO. A2D TECHNOLOGIES, INC.:   Digitizing Company
~OTHER INFORMATION
~A    DEPT       GRR     TENR        SPR       RILD       RILM       RFOC         DT       TENS       CALD       TEND        CNC       CORR       DENS   
# ...
 1248.0000    98.4223   -25.3906   -23.8204     6.7613     6.5425     5.6819  -999.2500  -999.2500     8.8508   -20.0000     0.2528    -0.0198     2.4772
 1248.5000    99.0404   -25.3906   -23.5254     6.7635     6.5454     5.7622  -999.2500  -999.2500     8.8519   -20.0000     0.2570    -0.0016     2.4796
 1249.0000    97.2552   -25.3906   -23.8186     6.7828     6.5483     5.7649  -999.2500  -999.2500     8.8529   -20.0000     0.2534     0.0255     2.4856
 1249.5000    94.7874   -25.3906   -23.8099     6.8931     6.5514     5.7677  -999.2500  -999.2500     8.8539   -20.0000     0.2432     0.0316     2.4821
 1250.0000    92.7142   -25.3906   -24.1018     6.9575     6.5545     5.8894  -999.2500  -999.2500     8.8550   -20.0000     0.2398     0.0286     2.4796
 1250.5000    90.4422   -34.7222   -24.0937     6.9602     6.5576     6.0960  -999.2500  -999.2500     8.8560   -20.0000     0.2353     0.0326     2.4819
 1251.0000    90.1617   -46.2240   -24.0868     6.9624     6.5612     6.0164  -999.2500  -999.2500     8.8571   -20.0000     0.2335     0.0361     2.4842
 1251.5000    91.3820   -58.5818   -24.0793     6.9646     6.5641     5.7787  -999.2500  -999.2500     8.8584   -20.0000     0.2347     0.0438     2.4842
 1252.0000    92.5989   -58.4743   -24.0718     6.9797     6.5670     5.7814  -999.2500  -999.2500     8.8593   -20.0000     0.2431     0.0378     2.4827
 1252.5000    91.3323   -41.4648   -24.0644     7.0649     6.5701     5.8306  -999.2500  -999.2500     8.8603   -20.0000     0.2558     0.0228     2.4827
 1253.0000    90.8413   -26.9019   -24.0555     7.0673     6.5997     5.9829  -999.2500  -999.2500     8.8613   -20.0000     0.2551     0.0107     2.4830
 1253.5000    92.0347   -65.8717   -24.0486     7.0702     6.7578     6.1135  -999.2500  -999.2500     8.8624   -20.0000     0.2544     0.0048     2.4897
 1254.0000    92.6861   -65.6080   -24.0416     7.0724     6.8542     6.1162  -999.2500  -999.2500     8.8634   -20.0000     0.2540     0.0019     2.4984
 1254.5000    92.7055   -65.2600   -24.0344     7.1717     6.9511     6.1189  -999.2500  -999.2500     8.8645   -40.0000     0.2522     0.0079     2.5039
 1255.0000    92.1261   -64.9229   -24.0269     7.1740     6.9542     5.9509  -999.2500  -999.2500     8.8657   -40.0000     0.2491     0.0200     2.5069
 1255.5000    90.9478   -64.4531   -24.0195     7.1765     6.9574     5.8004  -999.2500  -999.2500     8.8667   -39.5441     0.2425     0.0321     2.5130
 1256.0000    91.7445   -64.4531   -24.0120     7.1789     6.9607     5.8034  -999.2500  -999.2500     8.8677   -39.7674     0.2419     0.0502     2.5222
 1256.5000    93.0609   -64.4531   -24.0035     7.1814     6.9640     5.8062  -999.2500  -999.2500     8.8370   -40.0572     0.2473     0.0955     2.5356
 1257.0000    95.8061   -64.4531   -23.9970     7.2191     6.9680     5.8888  -999.2500  -999.2500     8.8093   -40.4053     0.2491     0.0960     2.5246
 1257.5000    97.6219   -64.4531   -23.9895     7.2850     6.9711     5.9719  -999.2500  -999.2500     8.8001   -40.7788     0.2467     0.0912     2.5051
 1258.0000    98.2400   -64.4531   -23.9820     7.3873     6.9742     5.9773  -999.2500  -999.2500     8.7813   -41.1179     0.2425     0.0094     2.5085
 1258.5000    98.1947   -64.4531   -23.9745     7.4093     7.0729     6.1421  -999.2500  -999.2500     8.7825   -41.3384     0.2413    -0.0339     2.5221
 1259.0000    96.7563   -64.4531   -23.9671     7.5297     7.0763     6.1450  -999.2500  -999.2500     8.7533    -1.3734     0.2459    -0.0347     2.5191
 1259.5000    93.5879   -64.4531   -23.9583     7.5991     7.0796     6.1479  -999.2500  -999.2500     8.7543     0.0000     0.2507     0.0144     2.5086
 1260.0000    91.7404   -64.4531   -23.9514     7.6021     7.0830     6.2354  -999.2500  -999.2500     8.7553     0.0000     0.2518     0.0386     2.5007
 1260.5000    92.3586   -64.4531   -23.9445     7.6045     7.1839     6.2382  -999.2500  -999.2500     8.7563     0.0000     0.2485     0.0416     2.4965
 1261.0000    94.7732   -64.4531   -23.9371     7.7113     7.1871     6.1567  -999.2500  -999.2500     8.7574     0.0000     0.2473     0.0386     2.4966
 1261.5000    97.7874   -64.4531   -23.9296     7.6093     7.1903     6.1596  -999.2500  -999.2500     8.7585     0.0000     0.2467     0.0430     2.5021
 1262.0000    96.9061   -64.4531   -23.4950     7.6434     7.1937     6.2725  -999.2500  -999.2500     8.7597     0.0000     0.2461     0.0495     2.5117
 1262.5000    92.0413   -64.4531   -23.0150     7.7191     7.1971     6.4622  -999.2500  -999.2500     8.7607     0.0000     0.2469     0.0569     2.5162
 1263.0000    88.2735   -64.4531   -22.7087     7.8282     7.2006     6.6928  -999.2500  -999.2500     8.7617     0.0000     0.2484     0.0539     2.5192
 1263.5000    87.0953   -64.4531   -22.1029     7.8306     7.3032     6.8802  -999.2500  -999.2500     8.7627     0.0000     0.2503     0.0539     2.5208
 1264.0000    87.1147   -64.4531   -22.4113     7.8331     7.3065     6.6986  -999.2500  -999.2500     8.7637     0.0000     0.2491     0.0510     2.5159
 1264.5000    90.2540   -64.4531   -22.8129     7.8357     7.4098     6.5141  -999.2500  -999.2500     8.7648     0.0000     0.2383     0.0548     2.5121
 1265.0000    94.8996   -64.4531   -23.8785     7.7061     7.4133     6.3500  -999.2500  -999.2500     8.7659     0.0000     0.2344     0.0644     2.5079
 1265.5000    99.5041   -64.4531   -23.8698     7.6298     7.4168     6.3534  -999.2500  -999.2500     8.7671     0.0000     0.2322     0.0598     2.5042
 1266.0000   100.2995   -64.4531   -23.8612     7.7376     7.4203     6.3564  -999.2500  -999.2500     8.7681     0.0000     0.2387     0.0210     2.5027
 1266.5000    95.6045   -64.4531   -23.8542     7.7405     7.4245     6.4468  -999.2500  -999.2500     8.7691     0.0000     0.2403     0.0030     2.4967
 1267.0000    91.4322   -64.4531   -23.8473     7.7430     7.4278     6.5379  -999.2500  -999.2500     8.7701     0.0000     0.2382     0.0061     2.4907
 1267.5000    89.6552   -64.4531   -23.8398     7.6406     7.4311     6.5408  -999.2500  -999.2500     8.7711     0.0000     0.2394     0.0065     2.4929
 1268.0000    89.6767   -64.4531   -23.8323     7.6433     7.4345     6.5439  -999.2500  -999.2500     8.7605     0.0000     0.2461     0.0276     2.4973
 1268.5000    90.2964   -64.4531   -23.8248     7.6834     7.3124     6.4275  -999.2500  -999.2500     8.7733     0.0000     0.2544     0.0453     2.5006
 1269.0000    91.5630   -64.4531   -23.8160     7.6485     7.2412     6.2037  -999.2500  -999.2500     8.8047     0.0000     0.2585     0.0160     2.5013
 1269.5000    93.3352   -64.4531   -23.8091     7.6515     7.1474     6.2071  -999.2500  -999.2500     8.8359     0.0000     0.2473    -0.0028     2.5029
 1270.0000    93.3546   -64.4531   -23.8022     7.6539     7.0542     6.1261  -999.2500  -999.2500     8.8369     0.0000     0.2478     0.0033     2.5029
 1270.5000    90.9430   -64.4531   -23.1961     7.6563     7.0577     6.2126  -999.2500  -999.2500     8.8413     0.0000     0.2653     0.0184     2.5044
 1271.0000    89.8005   -64.4531   -22.8892     7.6589     7.0609     6.3135  -999.2500  -999.2500     8.8692     0.0000     0.2683     0.0279     2.5044
 1271.5000    90.0371   -64.4531   -22.5823     7.6615     7.0642     6.4771  -999.2500  -999.2500     8.9005     0.0000     0.2672     0.0343     2.5029
 1272.0000    91.9521   -64.4531   -22.5749     7.6641     7.0676     6.4394  -999.2500  -999.2500     8.9015     0.0000     0.2569     0.0396     2.5029
 1272.5000    91.6647   -64.4531   -22.5664     7.6672     7.0710     6.2249  -999.2500  -999.2500     8.9027     0.0000     0.2514     0.0258     2.5014
 1273.0000    90.4865   -64.4531   -23.1582     7.6696     7.0748     6.1436  -999.2500  -999.2500     8.9037     0.0000     0.2502     0.0066     2.4834
 1273.5000    89.9071   -64.4531   -23.1513     7.6720     7.0779     6.2304  -999.2500  -999.2500     8.9047     0.0000     0.2448     0.0036     2.4819
