~VERSION INFORMATION
 VERS.                2.0:   CWLS LOG ASCII STANDARD - VERSION 2.0
 WRAP.                 NO:   ONE LINE PER DEPTH STEP
~WELL INFORMATION
#MNEM.UNIT      DATA TYPE    INFORMATION
#----------   ------------   ------------------------------
 STRT.F          200.0000:   START DEPTH
 STOP.F         3080.0000:   STOP DEPTH
 STEP.F            0.5000:   STEP LENGTH
 NULL.          -999.2500:   NO VALUE
 COMP.    FENIX & SCISSON:   COMPANY
 WELL. FENIX NPR 3 "AX" #55-33:   WELL
 FLD .        TEAPOT DOME:   FIELD
 LOC .      S33 T38N R78W:   LOCATION
 CNTY.            NATRONA:   COUNTY
 STAT.            WYOMING:   STATE
 CTRY. UNITED STATES OF AMERICA:   COUNTRY
 SRVC.           BIRDWELL:   SERVICE COMPANY
 DATE.        08-FEB-1978:   LOGDATE
 API .     49025105740000:   API NUMBER
~CURVE INFORMATION
#MNEM.UNIT       API CODE    CURVE DESCRIPTION
#----------   ------------   ------------------------------
 DEPT.F                  :   
 CALD.IN     45 280 60 00:   CALIPER FROM DENSITY LOG
 GRD .GAPI   45 310 01 00:   GAMMA RAY FROM DENSITY LOG
 RHOB.G/C3   45 350 01 00:   BULK DENSITY
 CORR.G/C3   45 356 01 00:   DENSITY CORRECTION
 NPOR.DEC    42 890 03 00:   ALPHA PROCESSED NEUTRON POROSITY
 SPR .MV     05 010 01 00:   SPONTANEOUS POTENTIAL
 SN  .OHMM   05 040 16 00:   SHORT NORMAL 16"
 ILD .OHMM   05 120 46 00:   DEEP INDUCTION RESISTIVITY
~PARAMETER INFORMATION
#MNEM.UNIT          VALUE    DESCRIPTION
#----------   ------------   ------------------------------
 EKB .F         5197.0000:   Kelly bushing
 EGL .F         5187.0000:   Ground level
 EDF .F            0.0000:   Drilling floor
 TD  .F         3084.0000:   Total depth
 DATE.        08-FEB-1978:   Date logged
 CLNT.            A2DTECH:   Client Code
 SL  . 2000' FSL & 2310' FEL:   Surface Location
 PD  .                 GL:   Permanent Datum
 EPD .F              5187:   Elevation Permanent Datum
 LMF .                 KB:   Log Measured From
 DMF .                 KB:   Drilling Measured From
 DAPD.F                10:   Feet Above Permanent Datum
 DD  .F              3084:   Depth driller
 DL  .F              3080:   Depth logger
 BLI .F              3074:   Bottom log interval
 TLI .F               200:   Top log interval
 CS1 .IN            8.625:   Casing size
 CBD1.      8.625" @ 229':   Casing driller 1
 CBL1.F               230:   Casing logger 1
 BS1 .IN            7.875:   Bit size
 BSD1.F              3084:   Depth drilled with bit1
 DFT .     LIGNOSULFONATE:   Type fluid in hole
 DFD .                9.2:   Density
 DFV .                 30:   Viscosity
 DFPH.                  9:   pH
 DFL .                  5:   Fluid loss
 MSS .           FLOWLINE:   Source of sample
 RMS .OHMM            1.5:   Rm
 MST .F                62:   Rm Meas. temp.
 RMF .OHMM            1.2:   Rmf
 MFST.F                66:   Rmf Meas. temp.
 RMC .OHMM            2.8:   Rmc
 MCST.F                65:   Rmc Meas. temp.
 MFSS.               MEAS:   Source Rmf.
 RMB .OHMM            .82:   Rm. at BHT
 BHT .F               114:   BHT.
 TCS .HRS               3:   Time Circ. stopped
 MRT .F               114:   Maximum recorded temp.
 LUN .               2958:   Logging unit number
 LUL .               CASP:   Logging unit location
 ENGI.            POINTER:   Recorded By
 WITN.         HARRINGTON:   Witnessed by
 ORIG.           5" PRINT:   Origin of data
 UWI .     49025105740000:   Unique Well ID
 DICO. A2D TECHNOLOGIES, INC.:   Digitizing Company
~OTHER INFORMATION
~A   DEPT       CALD      GRD       RHOB        CORR      NPOR        SPR         SN        ILD   
# ...
  605.0000     9.2859    60.4675     2.3666     0.1012  -999.2500   -48.6426    13.0841    14.2161
  605.5000     9.2859    58.8802     2.3696     0.1012  -999.2500   -48.6466    12.9612    14.2148
  606.0000     9.3057    58.0865     2.3686     0.0992  -999.2500   -48.8498    12.9583    14.2104
  606.5000     9.2660    63.2452     2.3686     0.0992  -999.2500   -48.6547    12.9554    14.2072
  607.0000     9.2660    63.4437     2.3676     0.0992  -999.2500   -48.6588    12.8337    14.2040
  607.5000     9.3057    62.2532     2.3626     0.0992  -999.2500   -48.6628    12.8314    14.2009
  608.0000     9.2859    60.6659     2.3606     0.1031  -999.2500   -48.6669    12.8286    14.2076
  608.5000     9.3057    60.6659     2.3606     0.1091  -999.2500   -48.6701    12.8257    14.2619
  609.0000     9.3255    60.6659     2.3656     0.1231  -999.2500   -48.6741    12.8229    14.3222
  609.5000     9.3454    60.0706     2.3825     0.1291  -999.2500   -48.4791    12.8200    14.0580
  610.0000     9.3653    59.0786     2.3785     0.1271  -999.2500   -47.6867    12.8172    14.0549
  610.5000     9.3851    59.0786     2.3775     0.1290  -999.2500   -47.2926    12.6968    14.0518
  611.0000     9.4247    58.8802     2.3785     0.1330  -999.2500   -47.4957    12.5775    13.9197
  611.5000     9.4645    58.2849     2.3885     0.1410  -999.2500   -47.4998    12.5747    13.7889
  612.0000     9.5041    60.6659     2.3925     0.1450  -999.2500   -47.5038    12.5719    13.7859
  612.5000     9.5240    62.0548     2.3985     0.1469  -999.2500   -47.5079    12.4538    13.7828
  613.0000     9.5240    62.8484     2.4055     0.1469  -999.2500   -47.1137    12.4510    13.7803
  613.5000     9.5041    63.4437     2.4075     0.1409  -999.2500   -46.9187    12.4483    13.7773
  614.0000     9.5240    60.4675     2.4075     0.1249  -999.2500   -47.1210    12.4455    13.7742
  614.5000     9.5240    58.6817     2.3885     0.1189  -999.2500   -47.5232    12.3292    13.7711
  615.0000     9.5637    57.4913     2.3825     0.1089  -999.2500   -47.5273    12.3264    13.6417
  615.5000     9.5835    57.8881     2.3825     0.1069  -999.2500   -47.5313    12.3237    13.6387
  616.0000     9.6033    61.4595     2.3865     0.1069  -999.2500   -47.5354    12.2080    13.6357
  616.5000     9.6232    63.6421     2.3885     0.1069  -999.2500   -47.5394    12.2053    13.6326
  617.0000     9.6033    63.6421     2.3875     0.1029  -999.2500   -47.5435    12.2026    13.6296
  617.5000     9.6033    60.6659     2.3735     0.0968  -999.2500   -47.1493    12.1999    13.6266
  618.0000     9.6033    59.0786     2.3595     0.0968  -999.2500   -46.5561    12.1972    13.6235
  618.5000     9.5835    59.6738     2.3605     0.0988  -999.2500   -46.5601    12.1945    13.6205
  619.0000     9.6033    60.8643     2.3645     0.1028  -999.2500   -46.5642    12.0799    13.6175
  619.5000     9.6033    60.4675     2.3725     0.1088  -999.2500   -46.5682    11.9665    13.4896
  620.0000     9.6232    58.8802     2.3865     0.1088  -999.2500   -46.5714    11.9638    13.4872
  620.5000     9.6430    57.8881     2.3885     0.1087  -999.2500   -46.5755    12.0719    13.4842
  621.0000     9.6232    57.6897     2.3835     0.1007  -999.2500   -46.3804    12.0693    13.4812
  621.5000     9.6232    58.4833     2.3805     0.0947  -999.2500   -46.1854    11.9564    13.4782
  622.0000     9.6430    60.0706     2.3755     0.0947  -999.2500   -46.3885    11.9538    13.4752
  622.5000     9.6629    60.2690     2.3755     0.0967  -999.2500   -46.5917    11.9496    13.4722
  623.0000     9.6629    60.0706     2.3814     0.1007  -999.2500   -46.3966    11.9485    13.4692
  623.5000     9.6629    59.0786     2.3844     0.1066  -999.2500   -46.5998    11.9459    13.4662
  624.0000     9.6827    60.6659     2.3874     0.1186  -999.2500   -46.0065    11.9433    13.4632
  624.5000     9.7025    62.2532     2.3884     0.1206  -999.2500   -45.6124    11.9406    13.4602
  625.0000     9.7224    63.4437     2.3884     0.1246  -999.2500   -44.8200    11.8285    13.4572
  625.5000     9.7025    63.4437     2.3894     0.1246  -999.2500   -44.8232    11.6099    13.4548
  626.0000     9.6629    60.0706     2.3834     0.1225  -999.2500   -44.6282    11.5009    12.7277
  626.5000     9.6430    60.0706     2.3894     0.1205  -999.2500   -44.6322    11.4984    12.9616
  627.0000     9.6629    60.0706     2.3934     0.1225  -999.2500   -44.6363    11.2859    12.9593
  627.5000     9.7224    59.8722     2.4144     0.1225  -999.2500   -44.6403    11.1800    12.7199
  628.0000     9.7621    58.8802     2.4144     0.1205  -999.2500   -45.4408    10.8728    12.7170
  628.5000     9.8017    57.4913     2.4144     0.1165  -999.2500   -45.6439    10.8704    12.1418
  629.0000     9.8017    53.7214     2.4104     0.1065  -999.2500   -45.8471    10.7683    12.0278
  629.5000     9.8017    53.1262     2.4064     0.1025  -999.2500   -46.0502    10.6672    11.9148
  630.0000     9.8216    54.7135     2.3874     0.1024  -999.2500   -46.0543    10.6654    11.9122
  630.5000     9.8216    55.9040     2.3874     0.1044  -999.2500   -46.0583    10.6630    11.9096
  631.0000     9.8017    59.2770     2.3904     0.1104  -999.2500   -46.0624    10.6607    11.7978
  631.5000     9.7819    61.6579     2.3914     0.1204  -999.2500   -45.6682    10.4638    11.7952
  632.0000     9.8017    62.2532     2.3924     0.1243  -999.2500   -45.4723    10.2705    11.2617
  632.5000     9.8017    63.4437     2.3953     0.1263  -999.2500   -45.0782    10.1741    11.3634
  633.0000     9.7819    64.4357     2.3983     0.1323  -999.2500   -45.0822    10.1719    11.1535
  633.5000     9.8017    65.0310     2.4011     0.1383  -999.2500   -44.8872    10.0764    11.0488
  634.0000     9.8613    62.8484     2.4013     0.1363  -999.2500   -44.8912    10.0742    10.7452
  634.5000     9.9605    60.6659     2.4063     0.1442  -999.2500   -44.8953     9.8881    10.8423
  635.0000     9.9009    60.6659     2.4063     0.1442  -999.2500   -45.0984     9.7055    10.7405
  635.5000     9.9009    61.2611     2.4073     0.1442  -999.2500   -45.1025     9.7034    10.6397
  636.0000     9.9208    59.2770     2.4083     0.1422  -999.2500   -45.3056     9.7012    10.4432
  636.5000     9.9208    55.3087     2.4123     0.1402  -999.2500   -45.3097     9.6991    10.2503
  637.0000     9.9208    54.3167     2.4093     0.1342  -999.2500   -45.3137     9.6970    10.0614
  637.5000     9.9605    54.9119     2.3993     0.1322  -999.2500   -45.1187     9.3442     9.9670
  638.0000     9.9605    56.6976     2.3933     0.1301  -999.2500   -44.9228     9.2565     9.8735
  638.5000     9.9803    60.4675     2.4053     0.1301  -999.2500   -45.1259     9.1700     9.8713
  639.0000    10.0200    62.4516     2.4093     0.1301  -999.2500   -45.1300     9.0007     9.8692
  639.5000    10.0399    62.8484     2.4083     0.1281  -999.2500   -45.1340     8.9162     9.7765
  640.0000    10.0399    62.6500     2.4083     0.1261  -999.2500   -45.1381     8.8326     9.7744
  640.5000    10.0399    62.6500     2.4013     0.1281  -999.2500   -45.1421     8.8307     9.7723
  641.0000    10.0597    62.4516     2.4013     0.1260  -999.2500   -45.1462     8.7478     9.6806
  641.5000    10.0597    62.0548     2.4013     0.1260  -999.2500   -45.3493     8.7459     9.6785
  642.0000    10.0597    61.8563     2.4003     0.1240  -999.2500   -45.5525     8.7440     9.4997
  642.5000    10.0597    62.0548     2.3983     0.1220  -999.2500   -45.9547     8.9047     9.4977
  643.0000    10.1192    62.6500     2.3943     0.1180  -999.2500   -45.9588     9.0682     9.4956
  643.5000    10.1391    63.0468     2.3903     0.1160  -999.2500   -45.9628     8.9832     9.4935
  644.0000    10.1391    63.2452     2.3863     0.1100  -999.2500   -45.7678     9.0647     9.5793
  644.5000    10.1589    63.6421     2.3703     0.1080  -999.2500   -45.3728     8.9793     9.5776
  645.0000    10.1787    60.8643     2.3533     0.1080  -999.2500   -45.3768     8.8954     9.3996
