~VERSION INFORMATION
 VERS.                2.0:   CWLS LOG ASCII STANDARD - VERSION 2.0
 WRAP.                 NO:   ONE LINE PER DEPTH STEP
~WELL INFORMATION
#MNEM.UNIT      DATA TYPE    INFORMATION
#----------   ------------   ------------------------------
 STRT.F         2144.5000:   START DEPTH
 STOP.F         2870.0000:   STOP DEPTH
 STEP.F            0.5000:   STEP LENGTH
 NULL.          -999.2500:   NO VALUE
 COMP. LAWRENCE ALLISON & ASSOCIATES:   COMPANY
 WELL. LAWRENCE "X" #13-21:   WELL
 FLD .        TEAPOT DOME:   FIELD
 LOC .      S21 T39N R78W:   LOCATION
 CNTY.            NATRONA:   COUNTY
 STAT.            WYOMING:   STATE
 CTRY. UNITED STATES OF AMERICA:   COUNTRY
 SRVC.      DRESSER ATLAS:   SERVICE COMPANY
 DATE.        09-FEB-1987:   LOGDATE
 API .     49025111200000:   API NUMBER
~CURVE INFORMATION
#MNEM.UNIT       API CODE    CURVE DESCRIPTION
#----------   ------------   ------------------------------
 DEPT.F                  :   
 MCAL.IN     15 280 01 00:   CALIPER FROM MICRO LOG
 MTEN.LBS    15 635 01 00:   TENSION FROM MICRO LOG
 GRR .GAPI   05 310 01 00:   GAMMA RAY FROM RES.
 R2SL.OHMM   05 120 00 00:   RESISTIVITY
~PARAMETER INFORMATION
#MNEM.UNIT          VALUE    DESCRIPTION
#----------   ------------   ------------------------------
 EKB .F         4986.0000:   Kelly bushing
 EGL .F         4974.0000:   Ground level
 EDF .F            0.0000:   Drilling floor
 EPD .F         4974.0000:   Permanent datum
 TD  .F         2852.0000:   Total depth
 DATE.        09-FEB-1987:   Date logged
 CLNT.            A2DTECH:   Client Code
 SL  . 1962' FNL & 352' FWL:   Surface Location
 DAPD.F                12:   Feet Above Permanent Datum
 DD  .F              2850:   Depth driller
 DL  .F              2852:   Depth logger
 BLI .F              2846:   Bottom log interval
 TLI .F              2150:   Top log interval
 CS1 .IN            8.625:   Casing size
 CBD1.      8.625" @ 282':   Casing driller 1
 BS1 .IN            7.875:   Bit size
 BSD1.F              2850:   Depth drilled with bit1
 DFT .        KCL POLYMER:   Type fluid in hole
 DFD .                8.9:   Density
 DFV .                 40:   Viscosity
 DFPH.                9.7:   pH
 DFL .                8.6:   Fluid loss
 MSS .           FLOWLINE:   Source of sample
 RMS .OHMM          0.287:   Rm
 MST .F                60:   Rm Meas. temp.
 RMF .OHMM          0.203:   Rmf
 MFST.F                60:   Rmf Meas. temp.
 RMC .OHMM          0.358:   Rmc
 MCST.F                60:   Rmc Meas. temp.
 MFSS.               MEAS:   Source Rmf.
 MCSS.               CALC:   Source Rmc.
 RMB .OHMM          0.154:   Rm. at BHT
 BHT .F               112:   BHT.
 TCS .HRS               7:   Time Circ. stopped
 MRT .F               112:   Maximum recorded temp.
 LUN .            HL-6274:   Logging unit number
 LUL .           GILLETTE:   Logging unit location
 ENGI.             RAUTIO:   Recorded By
 WITN.             STRONG:   Witnessed by
 ORIG.           5" PRINT:   Origin of data
 UWI .     49025111200000:   Unique Well ID
 DICO. A2D TECHNOLOGIES, INC.:   Digitizing Company
~OTHER INFORMATION
~A  DEPT      MCAL       MTEN        GRR       R2SL   
# ...
 2290.5000     8.3860   -56.5990   115.8530     2.5340
 2291.0000     8.3760   -56.0980   112.6440     2.6300
 2291.5000     8.3660   -55.5980   106.5880     2.9680
 2292.0000     8.3570   -55.0970    88.5540     6.5640
 2292.5000     8.3470   -54.5960    70.8790    10.1820
 2293.0000     8.3380   -54.0950    60.0640    13.3290
 2293.5000     8.3280   -53.5940    57.8560    15.6380
 2294.0000     8.3180   -53.0930    55.8260    15.5830
 2294.5000     8.3090   -52.5930    54.7050    15.4930
 2295.0000     8.2990   -52.0920    54.4440    14.9280
 2295.5000     8.2950   -51.5910    54.1860    14.9700
 2296.0000     8.2930   -51.0900    54.1400    15.0490
 2296.5000     8.2910   -50.5890    54.6680    15.1280
 2297.0000     8.2890   -50.0880    56.0320    15.2080
 2297.5000     8.2880   -49.5880    57.4250    14.6880
 2298.0000     8.2860   -49.0870    56.7850    14.3840
 2298.5000     8.2840   -48.5860    55.7880    14.9800
 2299.0000     8.2820   -48.0850    55.8660    15.5600
 2299.5000     8.2810   -47.5840    57.5810    15.6380
 2300.0000     8.2790   -47.0840    60.5360    15.1660
 2300.5000     8.2770   -46.5830    60.8090    14.5180
 2301.0000     8.2760   -46.0820    60.8480    14.5570
 2301.5000     8.2740   -45.5810    60.8500    14.6310
 2302.0000     8.2720   -45.0800    61.0410    14.7050
 2302.5000     8.2700   -44.5790    61.7590    14.7790
 2303.0000     8.2690   -44.0790    61.1160    14.8530
 2303.5000     8.2670   -43.5780    59.5500    14.9280
 2304.0000     8.2650   -43.0770    58.0750    14.4850
 2304.5000     8.2630   -43.1440    63.4500    14.0340
 2305.0000     8.2620   -44.7130    70.8070    12.7080
 2305.5000     8.2600   -46.2820    78.1900    10.8870
 2306.0000     8.2580   -47.8520    85.5360     9.9640
 2306.5000     8.2560   -49.4210    87.2510     9.2120
 2307.0000     8.2540   -50.9900    83.3860     9.2980
 2307.5000     8.2480   -52.5590    77.7230    10.4940
 2308.0000     8.2410   -54.1280    71.9600    11.6140
 2308.5000     8.2340   -55.6970    68.0490    12.7010
 2309.0000     8.2270   -57.2660    65.1520    13.7100
 2309.5000     8.2210   -58.8350    64.0840    14.7900
 2310.0000     8.2140   -60.4040    65.3570    14.9280
 2310.5000     8.2070   -61.9730    67.5450    14.5840
 2311.0000     8.2000   -63.5420    69.5640    14.2190
 2311.5000     8.1930   -65.1110    71.2500    13.7490
 2312.0000     8.1860   -66.6800    71.9150    12.9860
 2312.5000     8.1790   -68.2490    72.3960    12.1380
 2313.0000     8.1730   -69.8180    70.5770    11.2990
 2313.5000     8.1660   -71.3880    68.7370    11.4050
 2314.0000     8.1590   -72.8640    66.9110    11.9000
 2314.5000     8.1520   -71.6720    65.2480    12.1920
 2315.0000     8.1450   -70.5450    64.5110    12.2390
 2315.5000     8.1380   -69.4190    64.7390    12.2840
 2316.0000     8.1310   -68.2920    67.2240    11.5470
 2316.5000     8.1250   -67.1650    70.5390    10.8590
 2317.0000     8.1180   -66.0390    77.3430    10.1080
 2317.5000     8.1110   -64.9120    84.4710     8.6760
 2318.0000     8.1040   -63.7860    91.5990     6.8620
 2318.5000     8.0970   -62.6590    98.3460     5.1780
 2319.0000     8.0950   -61.5330    99.0270     4.8090
 2319.5000     8.0960   -60.4060    98.8980     4.7250
 2320.0000     8.0970   -59.2800    96.6750     4.6370
 2320.5000     8.0980   -58.1530    94.4630     4.5490
 2321.0000     8.0990   -57.0270    94.4000     4.6020
 2321.5000     8.1000   -55.9000    94.2700     4.8320
 2322.0000     8.1010   -54.7740    93.0970     5.3160
 2322.5000     8.1020   -53.6470    91.9570     5.7370
 2323.0000     8.1030   -53.5010    90.8260     5.4990
 2323.5000     8.1040   -56.9180    89.6820     5.2170
 2324.0000     8.1050   -60.3350    88.7250     4.9340
 2324.5000     8.1060   -63.7520    90.0410     4.8330
 2325.0000     8.1070   -67.1690    91.8740     4.7580
 2325.5000     8.1080   -70.5860    93.3880     4.6770
 2326.0000     8.1080   -72.8640    93.2110     4.8610
 2326.5000     8.1090   -72.8640    93.0780     5.0380
 2327.0000     8.1100   -72.8640    93.1590     4.9430
 2327.5000     8.1110   -72.8640    94.0000     4.8090
 2328.0000     8.1120   -72.8640    94.9590     4.6760
 2328.5000     8.1130   -72.8640    96.4210     4.4650
 2329.0000     8.1140   -72.8640    97.8760     4.5120
 2329.5000     8.1150   -72.8640    97.3480     4.5910
 2330.0000     8.1160   -72.8640    95.0060     4.7350
 2330.5000     8.1170   -72.8640    92.6740     4.8990
 2331.0000     8.1180   -72.8640    90.3360     5.2110
 2331.5000     8.1190   -72.8640    88.0070     5.7100
 2332.0000     8.1200   -72.8640    86.7770     6.2100
 2332.5000     8.1210   -72.8640    88.0920     6.4730
 2333.0000     8.1220   -72.8640    89.4490     5.9590
 2333.5000     8.1230   -72.8640    92.7310     5.3940
 2334.0000     8.1240   -72.8640    96.0580     5.0850
 2334.5000     8.1250   -72.8640    99.3330     5.1160
 2335.0000     8.1260   -72.8640    97.8750     5.4200
 2335.5000     8.1270   -72.8640    95.6890     5.8140
 2336.0000     8.1280   -72.8640    94.5600     6.0660
 2336.5000     8.1290   -72.8640    94.3050     5.8020
 2337.0000     8.1300   -72.8640    94.0820     5.5750
 2337.5000     8.1310   -72.8640    93.7290     5.5280
 2338.0000     8.1320   -72.8640    93.3940     5.8880
 2338.5000     8.1330   -72.8640    93.0490     6.2470
 2339.0000     8.1340   -72.8640    93.7860     6.6560
 2339.5000     8.1330   -72.8640    95.1180     6.5150
 2340.0000     8.1320   -72.8640    96.2160     6.1960
 2340.5000     8.1300   -72.8640    96.1840     5.8990
 2341.0000     8.1290   -72.8640    96.1780     5.8990
 2341.5000     8.1270   -72.8640    96.1800     5.8990
 2342.0000     8.1260   -72.8640    96.2070     5.8990
 2342.5000     8.1240   -72.8640    94.8990     5.9550
 2343.0000     8.1230   -72.8640    93.0330     6.1320
 2343.5000     8.1210   -72.8640    91.1320     6.1790
 2344.0000     8.1200   -72.8640    88.9240     5.9270
 2344.5000     8.1180   -72.8640    86.7750     6.0360
 2345.0000     8.1160   -72.8640    85.6430     6.4130
 2345.5000     8.1150   -72.8640    86.9430     6.7180
 2346.0000     8.1130   -72.8640    89.1590     6.6390
 2346.5000     8.1120   -72.8640    90.1030     6.5330
 2347.0000     8.1100   -72.8640    88.9160     6.5860
 2347.5000     8.1090   -72.8640    87.7400     6.7810
 2348.0000     8.1070   -72.8640    87.5480     6.4120
 2348.5000     8.1060   -72.8640    91.9160     5.4770
 2349.0000     8.1040   -72.8640    92.3720     5.6240
 2349.5000     8.1030   -72.8640    92.2050     5.8430
 2350.0000     8.1010   -72.8640    93.4870     5.9730
 2350.5000     8.1000   -72.8640    94.9950     6.0100
 2351.0000     8.0980   -72.8640    95.4480     6.0480
 2351.5000     8.0970   -72.8640    93.0020     6.0980
 2352.0000     8.0950   -72.8640    90.7030     6.1790
 2352.5000     8.0940   -72.8640    90.7480     6.0830
 2353.0000     8.0920   -72.8640    94.0120     5.9990
 2353.5000     8.0910   -72.8640    97.1830     5.9160
 2354.0000     8.0890   -71.5230    98.0640     5.8990
 2354.5000     8.0880   -70.1960    95.9430     6.3320
 2355.0000     8.0860   -68.8700    92.8770     6.7040
 2355.5000     8.0850   -67.5440    89.7970     7.0770
 2356.0000     8.0830   -66.2180    86.7220     7.4500
 2356.5000     8.0810   -64.8920    83.6470     7.8230
 2357.0000     8.0800   -63.5660    80.5740     8.5980
 2357.5000     8.0780   -62.2400    77.5230     9.5570
 2358.0000     8.0770   -60.9140    75.2950    10.5880
 2358.5000     8.0750   -59.5880    76.1510    10.5880
 2359.0000     8.0740   -58.2610    79.3590    10.0850
 2359.5000     8.0720   -56.9350    82.4800     9.7080
 2360.0000     8.0710   -55.6090    85.1710     9.3840
 2360.5000     8.0690   -54.2830    87.2200     8.6990
 2361.0000     8.0680   -52.9570    89.2720     7.9990
 2361.5000     8.0660   -54.2550    88.2920     7.7220
 2362.0000     8.0650   -56.0010    85.1200     8.0690
 2362.5000     8.0630   -57.7460    81.9330     8.8750
 2363.0000     8.0620   -59.4910    81.0950     9.6490
