~VERSION INFORMATION
 VERS.                2.0:   CWLS LOG ASCII STANDARD - VERSION 2.0
 WRAP.                 NO:   ONE LINE PER DEPTH STEP
~WELL INFORMATION
#MNEM.UNIT      DATA TYPE    INFORMATION
#----------   ------------   ------------------------------
 STRT.F            2.0000:   START DEPTH
 STOP.F         3008.0000:   STOP DEPTH
 STEP.F            0.5000:   STEP LENGTH
 NULL.          -999.2500:   NO VALUE
 COMP.       FLUOR DANIEL:   COMPANY
 WELL.   FLUOR "X" #25-23:   WELL
 FLD .          N.P.R. #3:   FIELD
 LOC .      S23 T38N R78W:   LOCATION
 CNTY.            NATRONA:   COUNTY
 STAT.            WYOMING:   STATE
 CTRY. UNITED STATES OF AMERICA:   COUNTRY
 SRVC.      WESTERN ATLAS:   SERVICE COMPANY
 DATE.        21-APR-1995:   LOGDATE
 API .     49025227090000:   API NUMBER
~CURVE INFORMATION
#MNEM.UNIT       API CODE    CURVE DESCRIPTION
#----------   ------------   ------------------------------
 DEPT.F                  :   
 GRR .GAPI   07 310 01 00:   GAMMA RAY FROM RESISTIVITY
 TENR.LBS    07 635 01 00:   TENSION FROM RESISTIVITY
 RILD.OHMM   07 120 46 00:   RESISTIVITY INDUCTION LOG DEEP
 RILM.OHMM   07 120 44 00:   RESISTIVITY INDUCTION LOG MEDIUM
~PARAMETER INFORMATION
#MNEM.UNIT          VALUE    DESCRIPTION
#----------   ------------   ------------------------------
 EKB .F         5285.0000:   Kelly bushing
 EGL .F         5275.0000:   Ground level
 EDF .F         5284.0000:   Drilling floor
 TD  .F         3000.0000:   Total depth
 CLNT.            A2DTECH:   Client Code
 SL  . 2343' FSL & 1264' FWL:   Surface Location
 PD  .                 GL:   Permanent Datum
 EPD .F              5275:   Elevation Permanent Datum
 DMF .                 KB:   Drilling Measured From
 DAPD.                 10:   Feet Above Permanent Datum
 DATE.        21-APR-1995:   Date Logged [DD-MMM-YYYY]
 DD  .F              3000:   Depth driller
 DL  .F              3000:   Depth logger
 BLI .F              2999:   Bottom log interval
 TLI .F                 0:   Top log interval
 CS1 .IN            9.625:   Casing size
 CBD1.       9.625" @ 53':   Casing driller 1
 CBL1.F                53:   Casing logger 1
 BS1 .IN             6.25:   Bit size
 BSD1.F              3000:   Depth drilled with bit1
 DFT .                OIL:   Type fluid in hole
 MRT .F               114:   Maximum recorded temp.
 LUN .            HL 6530:   Logging unit number
 LUL .             CASPER:   Logging unit location
 ENGI.        VERN RAUTIO:   Recorded By
 WITN.        GARY STRONG:   Witnessed by
 ORIG.         2.5" PRINT:   Origin of data
 UWI .     49025227090000:   Unique Well ID
 DICO. A2D TECHNOLOGIES,INC.:   Digitizing Company
 LMF .                 KB:   Log Measured From
~OTHER INFORMATION
~A    DEPT      GRR      TENR       RILD       RILM   
# ...
 2557.0000   135.5446     4.6783     5.6535     5.9570
 2557.5000   139.5114     5.1170     5.6521     5.6306
 2558.0000   141.9763    -1.6576     5.5745     5.4876
 2558.5000   143.1355   -23.3161     5.5909     5.4854
 2559.0000   144.2992   -22.8070     5.6477     5.5842
 2559.5000   141.3209   -22.3684     5.7229     5.6652
 2560.0000   139.5260   -21.9298     5.7211     5.7837
 2560.5000   139.5059   -21.4912     5.7196     5.7809
 2561.0000   139.5603   -21.0526     5.7182     5.7787
 2561.5000   144.0026   -20.6140     5.6398     5.6987
 2562.0000   145.3641   -20.1754     5.5624     5.6199
 2562.5000   144.6000   -19.7368     5.5609     5.6177
 2563.0000   139.0829   -19.2555     5.4603     5.4654
 2563.5000   131.0938   -18.8355     5.3765     5.4631
 2564.0000   130.3118    -3.7955     5.3352     5.4609
 2564.5000   131.6460    -4.2577     5.4065     5.4587
 2565.0000   136.9517   -19.7368     5.4049     5.4565
 2565.5000   142.8491   -17.1053     5.4035     5.6040
 2566.0000   148.3743    12.5731     5.3294     5.5260
 2566.5000   152.4995     0.8807     5.2563     5.3762
 2567.0000   154.0324   -15.7895     5.2765     5.3019
 2567.5000   154.6044   -15.3509     5.3977     5.4453
 2568.0000   154.8639   -14.9123     5.5444     5.7504
 2568.5000   155.1509   -14.4736     5.6951     5.9919
 2569.0000   155.1269   -14.0350     5.8499     6.2279
 2569.5000   153.3320   -13.5848     6.0089     6.4499
 2570.0000   149.1703    16.0818     6.1778     6.6950
 2570.5000   143.8251    16.5205     6.3401     6.7019
 2571.0000   142.5498    -0.7309     6.3383     6.5632
 2571.5000   140.4544   -11.9048     6.3026     6.3853
 2572.0000   135.6218   -11.4036     6.1655     6.2122
 2572.5000   134.8703   -10.9649     6.1636     6.0438
 2573.0000   139.8442   -10.5263     5.9973     6.0415
 2573.5000   139.1861   -10.0147     5.8356     5.8777
 2574.0000   134.8012    -9.5946     5.8341     5.8753
 2574.5000   134.1897    -9.1745     5.8224     5.7752
 2575.0000   133.5782     5.8654     5.7331     5.7136
 2575.5000   138.8839    -8.3344     5.6735     5.7113
 2576.0000   142.4299    -9.2644     5.6720     5.7090
 2576.5000   142.2471   -36.7341     5.8262     5.8629
 2577.0000   138.3016   -36.2572     5.9843     6.0219
 2577.5000   135.8432   -35.8188     6.2309     6.3544
 2578.0000   135.3331    -6.1403     6.4877     6.5263
 2578.5000   133.1330     8.9181     6.6641     6.7029
 2579.0000   129.8600    -5.1841     6.6622     6.8843
 2579.5000   123.3314    -4.7640     6.6604     6.8814
 2580.0000   120.3531    -4.3440     6.6586     6.8539
 2580.5000   121.5167   -18.5673     6.6564     6.6921
 2581.0000   132.7396   -32.7436     6.4769     6.6893
 2581.5000   145.9477   -32.3099     6.4752     6.5482
 2582.0000   149.3770   -31.8714     6.3006     6.4173
 2582.5000   148.7423   -31.4327     6.1244     6.3285
 2583.0000   145.2252   -16.3743     5.9493     6.1570
 2583.5000   143.2870    -9.8191     5.8041     5.9901
 2584.0000   143.2663    -0.8772     5.6475     5.8277
 2584.5000   143.2423    -0.3535     5.6459     5.8254
 2585.0000   143.8143     0.0666     5.5682     5.8230
 2585.5000   143.2028     0.4866     5.6427     5.7423
 2586.0000   142.5913     0.9067     5.5654     5.7400
 2586.5000   142.5715     1.3267     5.5639     5.7006
 2587.0000   143.9154    16.8963     5.5624     5.6145
 2587.5000   147.5592    31.4328     5.5609     5.5044
 2588.0000   150.6110    28.7449     5.5594     5.5022
 2588.5000   151.9556    13.2787     5.5579     5.5001
 2589.0000   151.6155     3.4268     5.5562     5.6489
 2589.5000   148.9520     3.9473     5.5548     5.6467
 2590.0000   145.9737     4.3860     5.5533     5.7318
 2590.5000   142.9954   -24.3429     5.5519     5.7973
 2591.0000   142.3839   -23.9228     5.6262     5.7947
 2591.5000   141.7443   -52.7778     5.6246     5.8250
 2592.0000   139.2429   -52.3224     5.6230     5.8689
 2592.5000   137.5888   -37.1616     5.6215     5.9461
 2593.0000   140.2708   -22.2222     5.6966     5.9438
 2593.5000   143.4686   -21.7837     5.6949     5.9415
 2594.0000   139.2860   -21.3450     5.7711     5.7804
 2594.5000   137.5020   -20.9064     5.7696     5.7782
 2595.0000   137.4823     0.7310     5.7590     5.7706
 2595.5000   137.4625     1.3417     5.6124     5.6192
 2596.0000   138.0345   -19.5907     5.5086     5.4298
 2596.5000   145.7070   -19.0922     5.2451     5.2693
 2597.0000   149.9314   -18.6722     4.9640     5.0745
 2597.5000   150.9929   -18.2521     4.7651     4.8995
 2598.0000   147.6089   -17.8320     4.6366     4.7662
 2598.5000   140.2219   -17.3976     4.4508     4.6370
 2599.0000   139.0947   -16.9591     4.3898     4.5114
 2599.5000   139.6657   -12.9401     4.3172     4.4489
 2600.0000   141.2223    13.1578     4.2703     4.3874
 2600.5000   143.7607    -7.1846     4.2702     4.5066
 2601.0000   146.1065   -15.2047     4.3874     4.4447
 2601.5000   146.6746   -14.6863     4.5079     4.4436
 2602.0000   147.8659   -14.2675     4.5693     4.5030
 2602.5000   148.4909   -28.4687     4.6317     4.5018
 2603.0000   148.9732   -28.0500     4.6317     4.5005
 2603.5000   146.9509   -13.0114     4.6948     4.4993
 2604.0000   142.2256    16.6666     4.6948     4.5876
 2604.5000   140.9330    17.1052     4.7588     4.6903
 2605.0000   143.5462    13.3988     4.7588     4.8105
 2605.5000   151.2159    -2.1741     4.7588     4.8748
 2606.0000   159.4773   -10.8187     4.7588     4.8735
 2606.5000   163.0051   -10.3802     4.7702     4.8723
 2607.0000   164.7576    -9.9416     4.8237     4.8710
 2607.5000   165.3268    -9.5030     4.8237     4.9456
 2608.0000   163.3596    -9.0644     4.7588     4.8684
 2608.5000   160.3607    -8.6258     4.7588     4.7797
 2609.0000   157.7828    -8.1872     4.6948     4.7079
 2609.5000   152.8011    -7.7486     4.6285     4.6079
 2610.0000   149.8217    -7.3100     4.4372     4.4833
 2610.5000   150.4081    -6.8714     4.3104     4.3624
 2611.0000   151.5517    -6.4328     4.1872     4.2447
 2611.5000   150.9374    -5.9942     4.1560     4.2436
 2612.0000   153.8462    -5.4746     4.2127     4.1291
 2612.5000   155.2761    -5.0559     4.2701     4.0724
 2613.0000   155.5976    24.6026     4.3874     4.0837
 2613.5000   154.3861    25.0214     4.3874     4.2392
 2614.0000   151.4050    25.4401     4.3874     4.3542
 2614.5000   152.5658    25.8772     4.4472     4.4726
 2615.0000   154.9101    26.3159     4.5079     4.4712
 2615.5000   155.4793    26.7543     4.5079     4.4700
 2616.0000   151.2984    27.1929     4.4472     4.4689
 2616.5000   142.4451    27.6316     4.4472     4.4677
 2617.0000   134.7812    28.0702     4.3874     4.4665
 2617.5000   133.4911    28.5804     4.3874     4.4524
 2618.0000   140.3791    28.9989     4.3032     4.3448
 2618.5000   147.9862    14.7977     4.2701     4.2676
 2619.0000   148.8047     0.5848     4.2127     4.2035
 2619.5000   147.0033   -28.2245     4.1560     4.1123
 2620.0000   135.1464   -25.8214     4.1001     4.0557
 2620.5000   136.3073     1.9005     4.0449     4.0001
 2621.0000   141.2319     2.3392     4.0449     3.8922
 2621.5000   147.8740     2.7778     4.0057     3.8912
 2622.0000   151.0324    10.7284     4.0036     3.8902
 2622.5000   149.2011    32.9767     4.0561     4.0061
 2623.0000   142.9504    33.3954     4.0537     4.1713
 2623.5000   138.2112    33.8141     4.1632     4.3320
 2624.0000   142.6468    34.2328     4.2441     4.3307
 2624.5000   147.9497    34.6516     4.3898     4.3295
 2625.0000   149.1124    35.0876     4.3870     4.3281
 2625.5000   146.7211    20.8691     4.3848     4.3860
 2626.0000   141.9645     6.6680     4.5028     4.4448
 2626.5000   142.7522     1.7767     4.6241     4.5656
 2627.0000   145.1362   -21.6373     4.6301     4.7537
 2627.5000   147.5932   -21.1989     4.7568     4.9495
 2628.0000   149.5668   -35.3075     4.8740     5.0960
 2628.5000   149.2365   -20.2689     4.9200     5.2415
 2629.0000   149.5148   -19.8502     5.0661     5.3644
 2629.5000   151.2629   -19.4315     5.1763     5.3627
