~VERSION INFORMATION
 VERS.                2.0:   CWLS LOG ASCII STANDARD - VERSION 2.0
 WRAP.                 NO:   ONE LINE PER DEPTH STEP
~WELL INFORMATION
#MNEM.UNIT      DATA TYPE    INFORMATION
#----------   ------------   ------------------------------
 STRT.F           34.0000:   START DEPTH
 STOP.F         2909.0000:   STOP DEPTH
 STEP.F            0.5000:   STEP LENGTH
 NULL.          -999.2500:   NO VALUE
 COMP.   TESORO PETROLEUM:   COMPANY
 WELL. TESORO NPR "A" #3-28:   WELL
 FLD .             TEAPOT:   FIELD
 LOC .      S28 T39N R78W:   LOCATION
 CNTY.            NATRONA:   COUNTY
 STAT.            WYOMING:   STATE
 CTRY. UNITED STATES OF AMERICA:   COUNTRY
 SRVC.              WELEX:   SERVICE COMPANY
 DATE.        22-JUL-1968:   LOGDATE
 API .     49025102620000:   API NUMBER
~CURVE INFORMATION
#MNEM.UNIT       API CODE    CURVE DESCRIPTION
#----------   ------------   ------------------------------
 DEPT.F                  :   
 GRD .GAPI   45 310 01 00:   GAMMA RAY FROM DENSITY LOG
 SPR .MV     05 010 01 00:   SPONTANEOUS POTENTIAL FROM RES.
 ASN .OHMM   05 041 16 00:   AMPLIFIED SHORT NORMAL 16"
 ILD .OHMM   05 120 46 00:   INDUCTION LOG DEEP
~PARAMETER INFORMATION
#MNEM.UNIT          VALUE    DESCRIPTION
#----------   ------------   ------------------------------
 EKB .F         5050.0000:   Kelly bushing
 EGL .F         5039.0000:   Ground level
 EDF .F            0.0000:   Drilling floor
 EPD .F         5039.0000:   Permanent datum
 TD  .F         2906.0000:   Total depth
 CLNT.            A2DTECH:   Client Code
 DATE.       22-JULY-1968:   Date Logged [DD-MMM-YYYY]
 DD  .F              2906:   Depth driller
 DL  .F              2906:   Depth logger
 BLI .F              2901:   Bottom log interval
 TLI .F               356:   Top log interval
 CS1 .              10.75:   Casing size
 CBD1.      10.75" @ 356':   Casing driller 1
 CBL1.IN              356:   Casing logger 1
 BS1 .IN                9:   Bit size
 DFT .     WATER BASE MUD:   Type fluid in hole
 DFD .                9.6:   Density
 DFV .                 60:   Viscosity
 DFPH.                9.0:   pH
 DFL .                  6:   Fluid loss
 MSS .               CTRC:   Source of sample
 RMS .OHMM            2.1:   Rm
 MST .F                74:   Rm Meas. temp.
 RMF .OHMM            1.6:   Rmf
 MFST.F                71:   Rmf Meas. temp.
 MFSS.               MEAS:   Source Rmf.
 RMC .OHMM            3.0:   Rmc
 MCST.F                66:   Rmc Meas. temp.
 RMB .OHMM            1.3:   Rm. at BHT
 BHT .F               120:   BHT.
 MRT .F               120:   Maximum recorded temp.
 LUN .               6869:   Logging unit number
 ORIG.         2.5" PRINT:   Origin of data
 UWI .     49025102620000:   Unique Well ID
 DICO. A2D TECHNOLOGIES, INC.:   Digitizing Company
 LUL .          NEWCASTLE:   Logging unit location
~OTHER INFORMATION
~A   DEPT      GRD        SPR         ASN         ILD 
# ...
  399.0000  -999.2500   -30.0293    15.6395    17.4444
  399.5000  -999.2500   -29.8793    15.2737    16.6692
  400.0000  -999.2500   -29.8732    14.8380    16.1945
  400.5000  -999.2500   -30.1824    14.4201    15.7197
  401.0000  -999.2500   -30.4906    13.9665    15.2450
  401.5000  -999.2500   -30.7988    13.4786    15.0847
  402.0000  -999.2500   -31.1066    13.1661    14.7672
  402.5000  -999.2500   -31.1005    12.8527    14.4496
  403.0000  -999.2500   -30.7715    12.5392    14.2893
  403.5000  -999.2500   -30.4594    12.5392    14.1154
  404.0000  -999.2500   -31.1279    12.2257    13.8113
  404.5000  -999.2500   -32.0195    12.5392    13.6185
  405.0000  -999.2500   -32.0126    12.2936    13.1761
  405.5000  -999.2500   -31.6918    11.9122    12.9643
  406.0000  -999.2500   -31.3710    11.9122    12.6373
  406.5000  -999.2500   -31.0503    11.7555    12.5377
  407.0000  -999.2500   -30.7296    11.7555    12.5346
  407.5000  -999.2500   -30.7232    11.9122    12.5315
  408.0000  -999.2500   -30.7158    11.9122    12.6850
  408.5000  -999.2500   -30.7097    12.0690    12.6819
  409.0000  -999.2500   -30.7036    12.0690    12.8365
  409.5000  -999.2500   -30.6975    12.0690    12.8330
  410.0000  -999.2500   -30.6914    12.0690    12.8300
  410.5000  -999.2500   -30.6853    11.9122    12.6697
  411.0000  -999.2500   -30.6792    11.8735    12.5094
  411.5000  -999.2500   -30.6730    11.7080    12.1845
  412.0000  -999.2500   -30.6667    11.5423    11.8742
  412.5000  -999.2500   -30.6604    11.2853    11.6876
  413.0000  -999.2500   -30.6541    11.2111    11.3962
  413.5000  -999.2500   -30.6478    10.9718    11.2359
  414.0000  -999.2500   -30.6415    10.7231    11.0755
  414.5000  -999.2500   -30.6352    10.6583    10.9151
  415.0000  -999.2500   -30.6290    10.5016    10.7547
  415.5000  -999.2500   -30.6226    10.3448    10.5943
  416.0000  -999.2500   -30.9308    10.1881    10.4989
  416.5000  -999.2500   -30.9235    10.0313    10.2730
  417.0000  -999.2500   -30.9173     9.9687     9.9555
  417.5000  -999.2500   -30.9112     9.8746     9.9525
  418.0000  -999.2500   -30.9051     9.7454     9.7922
  418.5000  -999.2500   -31.2135     9.5207     9.6319
  419.0000  -999.2500   -31.2074     9.3321     9.4716
  419.5000  -999.2500   -31.2013     9.2790     9.3113
  420.0000  -999.2500   -31.1950     9.2790     9.3187
  420.5000  -999.2500   -31.1887     9.2790     9.4822
  421.0000  -999.2500   -31.1824     9.2909     9.6457
  421.5000  -999.2500   -30.8616     9.5373     9.9664
  422.0000  -999.2500   -30.8554    10.1881    10.4444
  422.5000  -999.2500   -30.8491    10.8150    10.8228
  423.0000  -999.2500   -30.8428    11.4420    11.3103
  423.5000  -999.2500   -31.1509    11.9122    11.8784
  424.0000  -999.2500   -31.1447    12.5476    12.3564
  424.5000  -999.2500   -31.1372    13.0266    12.8956
  425.0000  -999.2500   -31.4455    13.3490    13.0503
  425.5000  -999.2500   -31.4394    13.4796    13.2044
  426.0000  -999.2500   -31.4333    13.2790    13.3585
  426.5000  -999.2500   -31.1127    13.1134    13.3551
  427.0000  -999.2500   -31.1066    12.7294    13.3521
  427.5000  -999.2500   -31.1005    12.4686    13.1918
  428.0000  -999.2500   -31.0943    12.2257    13.0272
  428.5000  -999.2500   -31.0880    12.0690    12.8575
  429.0000  -999.2500   -31.0818    12.0690    12.5535
  429.5000  -999.2500   -31.0755    12.2257    12.5178
  430.0000  -999.2500   -31.0692    12.2257    12.3899
  430.5000  -999.2500   -31.0629    12.3824    12.4382
  431.0000  -999.2500   -31.0566    12.3824    12.5415
  431.5000  -999.2500   -31.0503    12.3824    12.3805
  432.0000  -999.2500   -31.0440    12.5392    12.3773
  432.5000  -999.2500   -31.0377    12.5392    12.3743
  433.0000  -999.2500   -31.0303    12.5392    12.2133
  433.5000  -999.2500   -31.0242    12.5392    12.0530
  434.0000  -999.2500   -31.0181    12.3531    11.8927
  434.5000  -999.2500   -31.0120    12.0309    11.7324
  435.0000  -999.2500   -31.0059    11.7085    11.5721
  435.5000  -999.2500   -30.9998    11.3861    11.4118
  436.0000  -999.2500   -30.9937    11.2853    11.2516
  436.5000  -999.2500   -30.9875     9.9429    11.0912
  437.0000  -999.2500   -30.9812     9.4125    10.7568
  437.5000  -999.2500   -31.0274     8.8453    10.2463
  438.0000  -999.2500   -31.2837     8.0251     9.5598
  438.5000  -999.2500   -31.2767     7.4560     8.7872
  439.0000  -999.2500   -31.2704     6.5464     7.9791
  439.5000  -999.2500   -30.9497     5.8793     7.1709
  440.0000  -999.2500   -30.9434     5.1515     5.8281
  440.5000  -999.2500   -30.6227     4.6238     4.4455
  441.0000  -999.2500   -30.4318     4.2738     3.4885
  441.5000  -999.2500   -30.2945     3.9682     2.7259
  442.0000  -999.2500   -30.2884     4.0444     2.5656
  442.5000  -999.2500   -30.2823     4.1995     2.4053
  443.0000  -999.2500   -30.2762     4.3121     2.4023
  443.5000  -999.2500   -30.2701     4.4348     2.5564
  444.0000  -999.2500   -30.5785     4.5434     3.0251
  444.5000  -999.2500   -30.8888     5.4196     4.1299
  445.0000  -999.2500   -31.1952     6.2676     7.0547
  445.5000  -999.2500   -30.8742     7.0853     9.5421
  446.0000  -999.2500   -30.8092     7.6000    10.4612
  446.5000  -999.2500   -30.5472     8.0843    10.8714
  447.0000  -999.2500   -30.5409     8.4475    10.6625
  447.5000  -999.2500   -30.5346     8.7197    10.3931
  448.0000  -999.2500   -30.6624     9.0262    10.1657
  448.5000  -999.2500   -30.8365     9.1854     9.9958
  449.0000  -999.2500   -30.8302     9.3424     9.7484
  449.5000  -999.2500   -30.8227     9.5136     9.9523
  450.0000  -999.2500   -30.8166     9.5858     9.9530
  450.5000  -999.2500   -30.4960     9.6924     9.9538
  451.0000  -999.2500   -30.4899     9.7768     9.9546
  451.5000  -999.2500   -30.4838     9.8228     9.9283
  452.0000  -999.2500   -30.1632     9.8667     9.9003
  452.5000  -999.2500   -30.1571     9.8965     9.8722
  453.0000  -999.2500   -30.4655     9.8959     9.8442
  453.5000  -999.2500   -30.7738     9.9257     9.8162
  454.0000  -999.2500   -31.0822     9.9252     9.7881
  454.5000  -999.2500   -30.7610     9.9550     9.7601
  455.0000  -999.2500   -30.6709     9.9545     9.7321
  455.5000  -999.2500   -30.3313     9.9521     9.7041
  456.0000  -999.2500   -29.9916     9.9192     9.6760
  456.5000  -999.2500   -29.7925     9.8864     9.6316
  457.0000  -999.2500   -29.4717     9.8152     9.4937
  457.5000  -999.2500   -29.2872     9.5278     9.4945
  458.0000  -999.2500   -29.1435     9.3759     9.5235
  458.5000  -999.2500   -28.8229     9.7046     9.6528
  459.0000  -999.2500   -29.1321     9.6899     9.8104
  459.5000  -999.2500   -29.7541     9.5560     9.9679
  460.0000  -999.2500   -30.0625     9.7676    10.1254
  460.5000  -999.2500   -30.3708     9.8883    10.1714
  461.0000  -999.2500   -30.9937     9.9182    10.2837
  461.5000  -999.2500   -31.3020     9.9217    10.4412
  462.0000  -999.2500   -30.9812     9.8565    10.4420
  462.5000  -999.2500   -30.9749     9.7652    10.3840
  463.0000  -999.2500   -30.9685     9.7021    10.2867
  463.5000  -999.2500   -30.9622     9.6389    10.2221
  464.0000  -999.2500   -30.9560     9.5758    10.0627
  464.5000  -999.2500   -30.9497     9.5126     9.9033
  465.0000  -999.2500   -30.7966     9.4192     9.6630
  465.5000  -999.2500   -30.4570     9.2692     9.4279
  466.0000  -999.2500   -30.1174     8.9879     9.2685
  466.5000  -999.2500   -29.9801     8.7672     8.9524
  467.0000  -999.2500   -29.6595     8.5465     8.6363
  467.5000  -999.2500   -29.9678     8.3257     8.1635
  468.0000  -999.2500   -30.5907     8.1171     7.9437
  468.5000  -999.2500   -31.2135     7.9732     7.9445
  469.0000  -999.2500   -31.2074     7.9263     8.1020
  469.5000  -999.2500   -30.8847     8.0913     8.2595
  470.0000  -999.2500   -30.5660     8.3029     8.5738
  470.5000  -999.2500   -30.5597     8.5752     8.7313
  471.0000  -999.2500   -30.5534     9.0274     9.2023
  471.5000  -999.2500   -30.6248     9.3009     9.6733
