~VERSION INFORMATION
 VERS.                2.0:   CWLS LOG ASCII STANDARD - VERSION 2.0
 WRAP.                 NO:   ONE LINE PER DEPTH STEP
~WELL INFORMATION
#MNEM.UNIT      DATA TYPE    INFORMATION
#----------   ------------   ------------------------------
 STRT.F          243.5000:   START DEPTH
 STOP.F         2836.0000:   STOP DEPTH
 STEP.F            0.5000:   STEP LENGTH
 NULL.          -999.2500:   NO VALUE
 COMP. FENIX & SCISSON U. S. NAVY:   COMPANY
 WELL.   FENIX "A" #86-20:   WELL
 FLD .             NPR #3:   FIELD
 LOC .      S20 T39N R78W:   LOCATION
 CNTY.            NATRONA:   COUNTY
 STAT.            WYOMING:   STATE
 CTRY. UNITED STATES OF AMERICA:   COUNTRY
 SRVC.       SCHLUMBERGER:   SERVICE COMPANY
 DATE.        22-MAR-1977:   LOGDATE
 API .     49025103130000:   API NUMBER
~CURVE INFORMATION
#MNEM.UNIT       API CODE    CURVE DESCRIPTION
#----------   ------------   ------------------------------
 DEPT.F                  :   
 SPR .MV     07 010 01 00:   SPONTANEOUS POTENTIAL
 ILD .OHMM   07 120 46 00:   DEEP INDUCTION RESISTIVITY
 ILM .OHMM   07 120 44 00:   INDUCTION LOG MEDIUM RESISTIVITY
 LL8 .OHMM   07 220 08 00:   LATEROLOG-8 RES.
 CALD.IN     45 280 60 00:   CALIPER FROM DENSITY LOG
 GRD .GAPI   45 310 01 00:   GAMMA RAY FROM DENSITY LOG
 RHOB.G/C3   45 350 01 00:   BULK DENSITY
 CORR.G/C3   45 356 01 00:   DENSITY CORRECTION
~PARAMETER INFORMATION
#MNEM.UNIT          VALUE    DESCRIPTION
#----------   ------------   ------------------------------
 EKB .F         5005.0000:   Kelly bushing
 EGL .F         4994.0000:   Ground level
 EDF .F            0.0000:   Drilling floor
 TD  .F         2836.0000:   Total depth
 DATE.        22-MAR-1977:   Date logged
 CLNT.            A2DTECH:   Client Code
 SL  . 330' FEL & 1650' FSL:   Surface Location
 PD  .                 GL:   Permanent Datum
 EPD .F              5005:   Elevation Permanent Datum
 LMF .                 KB:   Log Measured From
 DMF .                 KB:   Drilling Measured From
 DD  .F              2835:   Depth driller
 DL  .F              2836:   Depth logger
 BLI .F              2826:   Bottom log interval
 TLI .F               259:   Top log interval
 CBD1.      8.625" @ 258':   Casing driller 1
 CBL1.F               259:   Casing logger 1
 BS1 .IN            7.875:   Bit size
 DFT .                KCL:   Type fluid in hole
 DFD .                9.1:   Density
 DFV .                 35:   Viscosity
 DFPH.                  9:   pH
 DFL .                8.6:   Fluid loss
 MSS .              CIRC.:   Source of sample
 RMS .OHMM           0.22:   Rm
 MST .F                60:   Rm Meas. temp.
 RMF .OHMM           0.18:   Rmf
 MFST.F                60:   Rmf Meas. temp.
 RMC .OHMM           0.33:   Rmc
 MCST.F                60:   Rmc Meas. temp.
 MFSS.               MEAS:   Source Rmf.
 RMB .OHMM           0.12:   Rm. at BHT
 BHT .F               110:   BHT.
 TCS .HRS            0900:   Time Circ. stopped
 MRT .F               110:   Maximum recorded temp.
 LUN .               7980:   Logging unit number
 LUL .               CSPR:   Logging unit location
 ENGI.                FIX:   Recorded By
 WITN.               JAPP:   Witnessed by
 ORIG.           5" PRINT:   Origin of data
 UWI .     49025103130000:   Unique Well ID
 DICO. A2D TECHNOLOGIES, INC.:   Digitizing Company
 DAPD.                 11:   Feet Above Permanent Datum
 CS1 .              8.625:   Casing size
 BSD1.               2835:   Depth drilled with bit1
 MCSS.               CACL:   Source Rmc.
 TLAB.               1630:   Time logger at bottom
~OTHER INFORMATION
~A   DEPT      SPR        ILD        ILM        LL8       CALD         GRD      RHOB       CORR   
# ...
  405.5000   -65.7530    12.2390    11.5540    13.1420     8.5720    99.7100     2.5100     0.0300
  406.0000   -65.6250    12.2010    11.4940    12.8700     8.5730   100.3700     2.5040     0.0220
  406.5000   -65.4950    12.1620    11.4330    13.1070     8.5750    98.5540     2.5050     0.0250
  407.0000   -65.3660    12.1240    11.3730    12.8210     8.5760    97.9110     2.5130     0.0310
  407.5000   -65.2370    12.0850    11.3130    12.6280     8.5770    98.1140     2.5160     0.0290
  408.0000   -65.1080    12.0470    11.2520    12.4090     8.5790    98.3430     2.5020     0.0130
  408.5000   -64.9780    12.0080    11.1920    12.4090     8.5800    98.5060     2.4960     0.0110
  409.0000   -64.8500    11.9650    11.1240    12.4090     8.5810    99.0490     2.5090     0.0300
  409.5000   -64.7200    12.0400    11.1240    12.4090     8.5830    99.4630     2.5210     0.0520
  410.0000   -64.5900    12.1970    11.1240    12.6040     8.5840    99.1720     2.5150     0.0460
  410.5000   -64.4860    12.3540    11.3580    13.3030     8.5860    98.6600     2.5080     0.0350
  411.0000   -64.4850    12.5110    11.6240    14.3570     8.5870    98.1150     2.5120     0.0350
  411.5000   -64.4830    12.6680    11.8900    14.2310     8.5880    96.4910     2.5110     0.0280
  412.0000   -64.4840    12.8250    12.1550    13.9730     8.5900    95.1740     2.4940     0.0180
  412.5000   -64.4840    12.9820    12.4210    13.5930     8.5910    94.5450     2.4830     0.0140
  413.0000   -64.4840    13.1400    12.6870    13.5930     8.5920    93.5040     2.4890     0.0170
  413.5000   -64.4840    13.2970    12.9530    13.8200     8.5940    92.4350     2.5030     0.0200
  414.0000   -64.4840    13.4540    13.2190    14.0700     8.5950    91.3630     2.5000     0.0240
  414.5000   -64.4840    13.6110    13.3480    14.3200     8.5970    90.9290     2.5010     0.0280
  415.0000   -64.4840    13.7680    13.3480    14.5710     8.5980    92.3910     2.5080     0.0310
  415.5000   -64.4850    13.8430    13.2490    14.8210     8.5990    93.0320     2.5150     0.0330
  416.0000   -64.4840    13.8160    13.0590    14.8900     8.6010    93.1380     2.5130     0.0260
  416.5000   -64.4820    13.7330    12.8700    14.6210     8.6020    93.4240     2.5140     0.0230
  417.0000   -64.4910    13.6500    12.6810    14.4110     8.6030    93.8530     2.5110     0.0350
  417.5000   -64.4180    13.5670    12.4910    14.1240     8.6050    94.2810     2.5170     0.0470
  418.0000   -64.2960    13.4840    12.3020    13.8380     8.6060    94.7090     2.5200     0.0350
  418.5000   -64.1860    13.4020    12.1130    13.5930     8.6080    94.9240     2.5010     0.0230
  419.0000   -64.0930    13.3030    11.9230    13.8430     8.6090    94.8460     2.4980     0.0280
  419.5000   -64.1170    13.1760    11.7340    13.6930     8.6100    94.7370     2.5100     0.0330
  420.0000   -64.1400    13.0480    11.5370    13.4210     8.6120    93.9270     2.5200     0.0250
  420.5000   -64.1670    12.9210    11.3290    13.1500     8.6130    92.8370     2.5180     0.0190
  421.0000   -64.1920    12.7940    11.3290    12.8700     8.6140    93.1620     2.5140     0.0220
  421.5000   -64.2180    12.6660    11.3290    12.9990     8.6160    94.5430     2.5100     0.0270
  422.0000   -64.2440    12.6380    11.5570    13.1320     8.6170    96.3550     2.5210     0.0320
  422.5000   -64.2690    12.6380    11.7530    13.2650     8.6190    98.2840     2.5110     0.0280
  423.0000   -64.2950    12.6380    11.9480    13.3480     8.6320    97.7750     2.5030     0.0160
  423.5000   -64.3210    12.6380    12.1440    13.1430     8.6450    98.1580     2.4860     0.0080
  424.0000   -64.3470    12.6380    12.1850    12.9340     8.6580   100.1960     2.5130     0.0180
  424.5000   -64.3720    12.4090    12.0550    12.7260     8.6710   102.7580     2.5290     0.0340
  425.0000   -64.3980    12.2820    11.8360    12.5170     8.6840   104.2440     2.5200     0.0370
  425.5000   -64.4240    12.1230    11.7490    12.3090     8.6970   104.0490     2.5060     0.0330
  426.0000   -64.4480    11.9630    11.3590    12.1850     8.7100   103.0230     2.4980     0.0300
  426.5000   -64.4770    11.8030    10.9200    12.4090     8.7230   102.4640     2.5030     0.0350
  427.0000   -64.4630    11.6440    10.4810    12.2420     8.7360   102.4080     2.5030     0.0410
  427.5000   -64.4190    11.4840    10.0430    11.8390     8.7490   101.3490     2.5130     0.0430
  428.0000   -64.3790    11.3290     9.6150    11.4360     8.7530   100.0710     2.5180     0.0390
  428.5000   -64.3390    11.1010     9.3100    11.2200     8.7430    98.7390     2.5210     0.0520
  429.0000   -64.2980    11.0010     8.7320    11.6420     8.7340    98.1310     2.5380     0.0670
  429.5000   -64.2590    10.9010     8.1540    11.9650     8.7240    97.6640     2.5320     0.0600
  430.0000   -64.2180    10.8010     7.5760    11.8500     8.7150    97.1830     2.5180     0.0470
  430.5000   -64.1770    10.5320     6.9980    11.5860     8.7050    96.5540     2.5210     0.0430
  431.0000   -64.1400    10.4510     6.6780    11.3230     8.6950    95.3660     2.5250     0.0430
  431.5000   -64.0980    10.3550     7.4690    11.0600     8.6860    93.9770     2.5210     0.0380
  432.0000   -64.2110    10.2590     8.6860    10.7960     8.6780    92.8520     2.5320     0.0500
  432.5000   -64.3970    10.1630     9.2710    10.5330     8.6800    95.0190     2.5220     0.0370
  433.0000   -64.5790    10.0670     9.1420    10.2700     8.6830    99.9280     2.5020     0.0190
  433.5000   -64.7610     9.9710     8.8630     9.9720     8.6850   104.0680     2.4810     0.0120
  434.0000   -64.9430     9.8750     8.5840     9.9720     8.6870   106.9810     2.4890     0.0200
  434.5000   -65.1240     9.7800     8.3060     9.9720     8.6890   109.8570     2.4860     0.0170
  435.0000   -65.3090     9.6840     8.1600     9.9720     8.6920   109.2400     2.4960     0.0260
  435.5000   -65.4870     9.6150     8.0130     9.9720     8.6940   105.7780     2.5020     0.0190
  436.0000   -65.6650     9.6150     8.0130     9.9720     8.6960   103.6730     2.5080     0.0280
  436.5000   -65.6730     9.6340     8.0130     9.8360     8.7260   101.5660     2.5170     0.0300
  437.0000   -65.6780     9.6620     8.0130     9.9880     8.8110   100.0450     2.5170     0.0300
  437.5000   -65.6750     9.6890     8.0130    10.1550     8.8950    98.4930     2.5300     0.0380
  438.0000   -65.6760     9.7170     8.0130    10.1550     8.9800    96.8310     2.5290     0.0460
  438.5000   -65.6750     9.7450     8.0130    10.1550     9.0040    96.9700     2.5320     0.0530
  439.0000   -65.6770     9.7730     8.1040    10.1550     9.0160   100.1970     2.5340     0.0530
  439.5000   -65.6740     9.7920     8.2830     9.9720     9.0280   105.6470     2.5020     0.0280
  440.0000   -65.6660     9.7110     8.4620    10.0320     9.0400   105.6460     2.4990     0.0230
  440.5000   -65.5080     9.6230     8.6400    10.1480     9.0520   105.0490     2.4970     0.0310
  441.0000   -65.3550     9.5350     8.8190    10.2640     9.0640   103.2690     2.5190     0.0470
  441.5000   -65.1940     9.4410     8.9390    10.5320     9.0750    99.2790     2.5310     0.0620
  442.0000   -65.0360     9.6160     8.9390    10.5320     9.0870    95.0330     2.5420     0.0740
  442.5000   -64.8790     9.9440     9.1430    10.5320     8.9860    90.8630     2.5500     0.0840
  443.0000   -64.7220    10.2720     9.2710    10.5320     8.8130    88.6130     2.5510     0.0830
  443.5000   -64.5530    10.6000     9.6310    10.5320     8.6400    86.3910     2.5020     0.0450
  444.0000   -64.5130    10.9280    10.1140    12.4460     8.5940    86.4980     2.5210     0.0140
  444.5000   -64.6050    11.2560    10.5970    15.2160     8.5820    90.4250     2.5560     0.0400
  445.0000   -64.6840    11.5840    11.0800    17.5440     8.5820    94.8290     2.5930     0.0570
  445.5000   -64.7630    11.9120    11.5630    14.9450     8.5840    99.3320     2.5700     0.0460
