~VERSION INFORMATION
 VERS.                2.0:   CWLS LOG ASCII STANDARD - VERSION 2.0
 WRAP.                 NO:   ONE LINE PER DEPTH STEP
~WELL INFORMATION
#MNEM.UNIT      DATA TYPE    INFORMATION
#----------   ------------   ------------------------------
 STRT.F          210.0000:   START DEPTH
 STOP.F         2998.0000:   STOP DEPTH
 STEP.F            0.5000:   STEP LENGTH
 NULL.          -999.2500:   NO VALUE
 COMP.    FENIX & SCISSON:   COMPANY
 WELL. FENIX & SCISSON "A" #41-28:   WELL
 FLD .          N.P.R. #3:   FIELD
 LOC .      S28 T39N R78W:   LOCATION
 CNTY.            NATRONA:   COUNTY
 STAT.            WYOMING:   STATE
 CTRY. UNITED STATES OF AMERICA:   COUNTRY
 SRVC.       SCHLUMBERGER:   SERVICE COMPANY
 DATE.        08-MAY-1977:   LOGDATE
 API .     49025103670000:   API NUMBER
~CURVE INFORMATION
#MNEM.UNIT       API CODE    CURVE DESCRIPTION
#----------   ------------   ------------------------------
 DEPT.F                  :   
 CALD.IN     45 280 60 00:   CALIPER FROM DENSITY LOG
 GRD .GAPI   45 310 01 00:   GAMMA RAY FROM DENSITY LOG
 CORR.G/C3   45 356 01 00:   DENSITY CORRECTION
 RHOB.G/C3   45 350 01 00:   BULK DENSITY
 SPR .MV     07 010 01 00:   SPONTANEOUS POTENTIAL
 LL8 .OHMM   07 220 08 00:   LATEROLOG-8 RES.
 ILM .OHMM   07 120 44 00:   INDUCTION LOG MEDIUM RESISTIVITY
 ILD .OHMM   07 120 46 00:   DEEP INDUCTION RESISTIVITY
~PARAMETER INFORMATION
#MNEM.UNIT          VALUE    DESCRIPTION
#----------   ------------   ------------------------------
 EKB .F         5012.0000:   Kelly bushing
 EGL .F         5002.0000:   Ground level
 TD  .F         3000.0000:   Total depth
 CLNT.            A2DTECH:   Client Code
 SL  . 330' FNL & 2310' FWL:   Surface Location
 DATE.        08-MAY-1977:   Date Logged [DD-MMM-YYYY]
 DD  .F              3000:   Depth driller
 DL  .F              2999:   Depth logger
 BLI .F              2993:   Bottom log interval
 TLI .F               222:   Top log interval
 CS1 .              8.625:   Casing size
 CBD1.      8.625" @ 112':   Casing driller 1
 CBL1.IN              222:   Casing logger 1
 BS1 .IN            7.875:   Bit size
 BSD1.F              3000:   Depth drilled with bit1
 DFT .                KCL:   Type fluid in hole
 DFD .                8.8:   Density
 DFV .                 32:   Viscosity
 DFPH.                8.0:   pH
 DFL .                8.8:   Fluid loss
 MSS .           FLOWLINE:   Source of sample
 RMS .OHMM          0.124:   Rm
 MST .F                80:   Rm Meas. temp.
 RMF .OHMM          0.117:   Rmf
 MFST.F                80:   Rmf Meas. temp.
 MFSS.               MEAS:   Source Rmf.
 RMB .OHMM         0.0886:   Rm. at BHT
 BHT .F               112:   BHT.
 TCS .HRS            0200:   Time Circ. stopped
 TLAB.HRS            0515:   Time logger at bottom
 MRT .F               112:   Maximum recorded temp.
 LUN .               5642:   Logging unit number
 LUL .               CSPR:   Logging unit location
 ENGI.            MARATIN:   Recorded By
 WITN.         PETTINGILL:   Witnessed by
 ORIG.      2.5" 5" PRINT:   Origin of data
 UWI .     49025103670000:   Unique Well ID
 DICO. A2D TECHNOLOGIES, INC.:   Digitizing Company
 PD  .                 GL:   Permanent Datum
 EPD .               5002:   Elevation Permanent Datum
 LMF .                 KB:   Log Measured From
 DMF .                 KB:   Drilling Measured From
 DAPD.                 10:   Feet Above Permanent Datum
~OTHER INFORMATION
~A   DEPT     CALD         GRD      CORR       RHOB        SPR        LL8        ILM        ILD   
# ...
  412.5000     9.2166   112.2068     0.1164     2.4926   -51.0796    10.3019     9.9688     9.6549
  413.0000     9.2187   113.2723     0.1161     2.4966   -50.1476    10.0102     9.8348     9.5671
  413.5000     9.2053   113.8912     0.1261     2.5099   -49.5242     9.7268     9.8377     9.3511
  414.0000     9.1925   113.1709     0.1315     2.4964   -48.5921     9.5873     9.7055     9.1384
  414.5000     9.1797   109.7721     0.1225     2.4868   -47.6601     9.3356     9.5754     8.6471
  415.0000     9.1823   109.1946     0.1163     2.4877   -47.0367     9.1822     9.4468     8.3738
  415.5000     9.1844   108.1827     0.1169     2.4823   -46.1046     9.0505     9.3200     8.1833
  416.0000     9.1864   108.6528     0.1016     2.4675   -45.1726     8.9208     9.0690     8.0719
  416.5000     9.1885   111.0576     0.1016     2.4760   -44.8578     8.6682     9.0715     7.7444
  417.0000     9.2050   113.4622     0.1070     2.4736   -44.5431     8.5438     8.9481     7.4997
  417.5000     9.1778   115.2717     0.1137     2.4830   -44.8456     8.4213     8.7086     7.3291
  418.0000     9.1644   117.9740     0.1190     2.4642   -45.7654     8.1828     8.7111     7.1298
  418.5000     9.1516   118.5871     0.1198     2.4665   -46.9975     7.9511     8.7135     6.9678
  419.0000     9.1542   112.5156     0.1094     2.4683   -47.9228     7.6489     8.7159     6.8729
  419.5000     9.1563   112.9858     0.1049     2.4755   -48.5248     7.3679     8.7048     6.8740
  420.0000     9.1136   115.6881     0.1079     2.4509   -48.5185     7.2253     8.6011     6.9069
  420.5000     9.1002   117.4976     0.1125     2.4615   -48.4861     7.2992     8.7231     7.0371
  421.0000     9.1029   117.9677     0.1192     2.4713   -48.1656     7.6228     8.7255     7.4390
  421.5000     9.1049   115.6105     0.1245     2.4856   -47.8827     8.0306     8.7279     7.8638
  422.0000     9.1070   114.1402     0.1290     2.4938   -47.8766     8.5054     8.7304     8.2741
  422.5000     9.1091   117.8902     0.1269     2.4902   -47.8704     8.8074     8.8827     8.5476
  423.0000     9.1112   117.3187     0.1194     2.4910   -47.5555     9.1405     9.1361     8.8699
  423.5000     9.1133   114.6639     0.1023     2.4926   -47.2407     9.5435     9.3967     9.2474
  424.0000     9.1154   110.3721     0.1022     2.4956   -47.1688     9.8231     9.6648     9.5085
  424.5000     9.1175   106.6756     0.1082     2.5047   -46.6111    10.0409     9.9405     9.7770
  425.0000     9.1041   106.2470     0.1143     2.5130   -46.2963    10.1861    10.2241    10.0529
  425.5000     9.1067   107.3184     0.1211     2.5138   -46.2072    10.4101    10.4644    10.1945
  426.0000     9.0939   109.5743     0.1188     2.5093   -45.8868    10.5631    10.6126    10.2903
  426.5000     9.0805   111.6814     0.1084     2.4997   -45.5663    10.6342    10.7629    10.2917
  427.0000     9.0677   109.6218     0.1138     2.5155   -45.3457    10.7879    10.7658    10.2931
  427.5000     9.0703   108.1515     0.1205     2.5185   -45.8612    10.7886    10.8336    10.2946
  428.0000     9.0724   109.9669     0.1243     2.5089   -46.4494    10.9448    10.9213    10.2960
  428.5000     9.0745   111.9252     0.1188     2.5089   -46.7382    10.9455    11.0763    10.2974
  429.0000     9.1064   112.3894     0.1071     2.5082   -47.0274    10.9463    10.9276    10.2988
  429.5000     9.0787   108.6989     0.1117     2.5076   -47.6153    10.9471    10.9306    10.3003
  430.0000     9.0653   106.3417     0.1169     2.5054   -48.2036    10.9479    10.9336    10.3017
  430.5000     9.0226   105.9130     0.1192     2.5010   -49.1147    10.9486    10.9366    10.3031
  431.0000     9.0098   108.0261     0.1138     2.4951   -50.9395    10.9494    10.9396    10.3045
  431.5000     9.0124   109.3891     0.1041     2.4854   -53.4733    10.9502    10.9425    10.2588
  432.0000     8.9996   110.6033     0.1014     2.4832   -65.8704    10.9510    10.9455    10.1654
  432.5000     9.0017   111.2223     0.1077     2.4923   -70.0456    10.9517    10.9485    10.1670
  433.0000     9.0038   111.3949     0.1211     2.4938   -70.2960    10.9525    10.9515    10.1684
  433.5000     8.9904   109.6329     0.1300     2.4969   -70.6684    10.9533    10.8045    10.1232
  434.0000     8.9781   107.5733     0.1361     2.5007   -91.6648    10.9541    10.8074     9.9401
  434.5000     8.9802   105.3649     0.1423     2.5090  -100.3444    10.7994    10.6556     9.7140
  435.0000     8.9823   104.3411     0.1465     2.5120  -100.7927    10.4962    10.3658     9.3199
  435.5000     8.9844   104.6684     0.1287     2.5024  -100.7806    10.0568    10.2118     9.1930
  436.0000     8.9864   104.9898     0.0895     2.4733  -100.7699     9.6357     9.6476     8.9024
  436.5000     8.9885   105.3111     0.0815     2.4726  -100.7592     9.2323     9.0001     8.6999
  437.0000     8.9906   105.6325     0.0886     2.4794  -100.7485     8.5967     8.2810     8.3470
  437.5000     8.9927   106.2515     0.0966     2.4892  -100.4384     7.7795     7.5150     8.0832
  438.0000     8.9948   107.4657     0.1026     2.4802  -100.4277     7.2440     6.8030     7.6142
  438.5000     8.9969   109.8704     0.1025     2.4578  -100.7164     6.6496     5.9061     6.8808
  439.0000     8.9990   113.3168     0.0978     2.4429  -100.7057     6.0175     5.1511     6.0219
  439.5000     9.0011   115.7215     0.0929     2.4308  -100.6951     5.3683     3.9013     4.6935
  440.0000     9.0032   110.6857     0.0945     2.4047  -100.6843     4.5883     3.1766     3.4501
  440.5000     9.0202   110.8583     0.0997     2.3922  -100.6737     4.0896     2.8362     2.7618
  441.0000     9.0372   112.3701     0.1058     2.3630  -100.8354     3.5900     2.7706     2.0174
  441.5000     9.0542   112.9891     0.1140     2.2883  -100.9517     3.0130     2.7967     1.7238
  442.0000     9.1458   111.2271     0.1245     2.1996  -100.6396     2.0926     3.0135     1.8739
  442.5000     9.2524   110.0604     0.1351     2.1593  -100.6291     2.2733     3.3400     2.1332
  443.0000     9.3739   109.7858     0.1464     2.1001  -100.6185     2.8956     3.8945     2.7582
  443.5000     9.7193   109.3639     0.1546     2.0966  -100.6079     4.1666     5.2268     3.6801
  444.0000    10.1542   107.7507     0.1584     2.1453  -100.8968     9.1111     6.8167     4.3853
  444.5000    10.2304   108.5185     0.1188     2.2482  -100.8862     8.8178     7.6327     5.0829
  445.0000     9.1435   110.1792     0.1001     2.4880  -100.8757     8.0906     8.1925     5.9490
  445.5000     8.9510   111.3934     0.1084     2.4948  -100.8651     8.9018     8.3696     6.7358
  446.0000     8.9387   108.2921     0.1151     2.4978  -100.8546    11.8532     8.3720     7.2860
  446.5000     8.9253   106.2326     0.1234     2.5039  -100.8440    12.4785     8.2596     7.7731
  447.0000     8.9125   104.0242     0.1324     2.5077  -100.8335    12.0094     8.5046     8.0300
  447.5000     8.9151   105.6848     0.1370     2.5010  -100.8229    10.9784     8.8014     8.1801
  448.0000     8.9017   110.9169     0.1010     2.4981  -101.1118     9.8573     9.0525     8.2954
  448.5000     8.9044   112.7264     0.1161     2.4982  -101.1012     9.6141     9.2335     8.2965
  449.0000     8.9214   113.4942     0.1080     2.4975  -101.0907     9.5166     9.4942     8.3363
  449.5000     8.9235   113.0715     0.1111     2.4953  -101.0800     9.6543     9.6287     8.5319
  450.0000     8.9244   113.2440     0.1119     2.4856  -101.0551     9.7013     9.6313     8.6519
  450.5000     8.9240   113.8620     0.1045     2.4745  -100.7592     9.7945     9.6339     8.6088
  451.0000     8.9237   116.1151     0.0986     2.4626  -100.7485     9.7952     9.6366     8.5718
  451.5000     8.9234   118.0706     0.0971     2.4911  -100.4384     9.6569     9.6392     8.5366
  452.0000     8.9231   117.0499     0.1003     2.5076  -100.1283     9.6577     9.6418     8.6569
  452.5000     8.9227   114.6899     0.1064     2.4927   -99.8183     9.6584     9.6441     8.6581
