~VERSION INFORMATION
 VERS.                2.0:   CWLS LOG ASCII STANDARD - VERSION 2.0
 WRAP.                 NO:   ONE LINE PER DEPTH STEP
~WELL INFORMATION
#MNEM.UNIT      DATA TYPE    INFORMATION
#----------   ------------   ------------------------------
 STRT.F           15.0000:   START DEPTH
 STOP.F         2952.5000:   STOP DEPTH
 STEP.F            0.5000:   STEP LENGTH
 NULL.          -999.2500:   NO VALUE
 COMP.    FENIX & SCISSON:   COMPANY
 WELL.  FENIX "AX" #64-29:   WELL
 FLD .  TEAPOT DOME NPR-3:   FIELD
 LOC .      S29 T39N R78W:   LOCATION
 CNTY.            NATRONA:   COUNTY
 STAT.            WYOMING:   STATE
 CTRY. UNITED STATES OF AMERICA:   COUNTRY
 SRVC.           BIRDWELL:   SERVICE COMPANY
 DATE.        02-MAY-1978:   LOGDATE
 API .     49025106460000:   API NUMBER
~CURVE INFORMATION
#MNEM.UNIT       API CODE    CURVE DESCRIPTION
#----------   ------------   ------------------------------
 DEPT.F                  :   
 SPR .MV     05 010 01 00:   SPONTANEOUS POTENTIAL
 IL  .OHMM   05 120 00 00:   INDUCTION RESISTIVITY
 SN  .OHMM   05 040 16 00:   SHORT NORMAL 16"
 CALD.IN     45 280 60 00:   CALIPER FROM DENSITY LOG
 GRD .GAPI   45 310 01 00:   GAMMA RAY FROM DENSITY LOG
 CORR.G/C3   45 356 01 00:   DENSITY CORRECTION
 RHOB.G/C3   45 350 01 00:   BULK DENSITY
~PARAMETER INFORMATION
#MNEM.UNIT          VALUE    DESCRIPTION
#----------   ------------   ------------------------------
 EKB .F         4993.0000:   Kelly bushing
 EGL .F         4983.0000:   Ground level
 EDF .F            0.0000:   Drilling floor
 TD  .F         2952.0000:   Total depth
 DATE.        02-MAY-1978:   Date logged
 CLNT.            A2DTECH:   Client Code
 SL  . 2150' FNL & 1560' FEL:   Surface Location
 PD  .                 GL:   Permanent Datum
 DD  .F              2950:   Depth driller
 DL  .F              2952:   Depth logger
 BLI .F              2947:   Bottom log interval
 CBL1.F               150:   Casing logger 1
 BS1 .IN            7.875:   Bit size
 DFT .                GEL:   Type fluid in hole
 DFD .                8.7:   Density
 DFV .                 30:   Viscosity
 DFPH.                 10:   pH
 DFL .                7.6:   Fluid loss
 MSS .            MUD PIT:   Source of sample
 RMS .OHMM            1.3:   Rm
 MST .F                62:   Rm Meas. temp.
 RMF .OHMM            .95:   Rmf
 MFST.F                64:   Rmf Meas. temp.
 RMC .OHMM              1:   Rmc
 MCST.F                64:   Rmc Meas. temp.
 MFSS.               MEAS:   Source Rmf.
 RMB .OHMM            .73:   Rm. at BHT
 BHT .F               110:   BHT.
 TCS .HRS               3:   Time Circ. stopped
 MRT .F               110:   Maximum recorded temp.
 LUN .               2958:   Logging unit number
 LUL .               CASP:   Logging unit location
 ENGI.             MILLER:   Recorded By
 WITN.           MCGINLEY:   Witnessed by
 ORIG.         2.5" PRINT:   Origin of data
 UWI .     49025106460000:   Unique Well ID
 DICO. A2D TECHNOLOGIES, INC.:   Digitizing Company
 DAPD.                 10:   Feet Above Permanent Datum
 BSD1.F              2950:   Depth drilled with bit1
 EPD .F              4983:   Elevation Permanent Datum
 LMF .                 KB:   Log Measured From
 DMF .                 KB:   Drilling Measured From
 TLI .F               150:   Top log interval
~OTHER INFORMATION
~A   DEPT      SPR         IL         SN       CALD        GRD       CORR       RHOB   
# ...
 2381.0000   -50.3980     7.7610    10.1130     8.7850    86.3340     0.0720     2.6500
 2381.5000   -50.3980     7.8690    10.0910     8.7840    86.8640     0.0720     2.6450
 2382.0000   -50.3980     7.9280    10.0690     8.7830    87.9650     0.0710     2.6430
 2382.5000   -50.3980     7.9860    10.0480     8.7820    88.8980     0.0710     2.6480
 2383.0000   -50.3980     8.0440    10.0260     8.7800    91.3120     0.0710     2.6480
 2383.5000   -50.3980     8.1250    10.0040     8.7790    95.6310     0.0720     2.6480
 2384.0000   -50.3980     8.1110     9.9820     8.7780    99.7980     0.0740     2.6440
 2384.5000   -50.3980     8.0900     9.9610     8.7770   103.9810     0.0750     2.6370
 2385.0000   -50.3980     8.0690     9.9190     8.7750   108.3600     0.0760     2.6330
 2385.5000   -50.3980     8.0480     9.8320     8.7740   112.2720     0.0780     2.6320
 2386.0000   -50.3980     8.0260     9.7450     8.7730   116.6470     0.0790     2.6310
 2386.5000   -50.3980     8.0050     9.6580     8.7720   112.4450     0.0800     2.6300
 2387.0000   -50.3980     7.9840     9.5710     8.7700   107.0560     0.0820     2.6350
 2387.5000   -50.3980     7.7340     9.4840     8.7690   102.1570     0.0830     2.6330
 2388.0000   -50.3980     7.3740     9.3970     8.7680    93.5520     0.0880     2.6310
 2388.5000   -50.3980     7.1460     9.3100     8.7670    88.4770     0.0910     2.6280
 2389.0000   -50.3980     7.1510     9.2160     8.7650    88.1600     0.0950     2.6300
 2389.5000   -50.3980     7.1570     9.0920     8.7580    87.4720     0.0990     2.6320
 2390.0000   -50.3980     7.1620     8.9690     8.7490    86.4750     0.1030     2.6340
 2390.5000   -50.3980     7.1680     8.9070     8.7390    87.2600     0.1070     2.6360
 2391.0000   -50.3980     7.1730     8.9210     8.7300    87.9440     0.1070     2.6340
 2391.5000   -50.3980     7.1790     8.9330     8.7200    89.1860     0.1070     2.6330
 2392.0000   -50.3980     7.1840     8.9450     8.7110    90.8900     0.1070     2.6320
 2392.5000   -50.3980     7.1900     8.9570     8.7020    92.7090     0.1070     2.6310
 2393.0000   -50.3980     7.1960     8.9700     8.6920    91.6320     0.1070     2.6300
 2393.5000   -50.3980     7.2010     8.9820     8.6830    90.8030     0.1040     2.6310
 2394.0000   -50.3980     7.2070     8.9940     8.6730    84.9110     0.1010     2.6320
 2394.5000   -50.3980     7.2120     9.0060     8.6650    85.7470     0.0990     2.6330
 2395.0000   -50.3980     7.2180     9.0180     8.6540    87.7610     0.0880     2.6340
 2395.5000   -50.3980     7.2230     9.0310     8.6420    89.7330     0.0830     2.6370
 2396.0000   -50.3980     7.2290     9.0430     8.5680    90.8330     0.0790     2.6270
 2396.5000   -50.3980     7.2340     9.0550     8.4950    91.6180     0.0750     2.6180
 2397.0000   -50.3980     7.2400     9.0680     8.4200    91.7510     0.0790     2.6190
 2397.5000   -50.3980     7.2450     9.0730     8.3470    90.8430     0.0880     2.6210
 2398.0000   -50.3980     7.2510     9.0720     8.2710    90.0220     0.0960     2.6230
 2398.5000   -50.3980     7.2570     9.0720     8.2470    89.1330     0.1060     2.6400
 2399.0000   -50.3980     7.2620     9.0720     8.2550    88.4410     0.1040     2.6570
 2399.5000   -50.3980     7.2680     9.0730     8.2610    86.9740     0.1010     2.6570
 2400.0000   -50.3980     7.2750     9.0730     8.2670    84.3200     0.0980     2.6510
 2400.5000   -50.3980     7.2650     9.0720     8.2740    82.6940     0.0950     2.6440
 2401.0000   -50.3980     7.2340     9.0740     8.2800    83.6250     0.0920     2.6380
 2401.5000   -50.3980     7.2040     9.0750     8.2860    84.3820     0.0880     2.6320
 2402.0000   -50.3980     7.1740     9.0710     8.2930    84.3450     0.0850     2.6290
 2402.5000   -50.3980     7.1440     9.0110     8.2990    82.9660     0.0820     2.6260
 2403.0000   -50.3980     7.1140     8.9500     8.3050    81.6460     0.0790     2.6240
 2403.5000   -50.3980     7.0850     8.8660     8.3110    83.8910     0.0760     2.6240
 2404.0000   -50.3980     7.0560     8.7260     8.3180    87.5790     0.0730     2.6250
 2404.5000   -50.3980     7.0280     8.5850     8.3240    96.0400     0.0690     2.6250
 2405.0000   -50.3980     6.9380     8.1250     8.3270    94.2810     0.0670     2.6260
 2405.5000   -50.3980     6.8070     8.1000     8.3270    94.1790     0.0640     2.6220
 2406.0000   -50.3980     6.6790     8.0700     8.3270    92.0630     0.0620     2.6220
 2406.5000   -50.3980     6.5510     8.0400     8.3270    89.8450     0.0590     2.6230
 2407.0000   -50.3980     6.4230     8.0100     8.3270    93.1200     0.0570     2.6240
 2407.5000   -50.3980     6.2950     7.9770     8.3270    96.5100     0.0540     2.6210
 2408.0000   -50.3980     6.1670     7.8320     8.3270    98.0110     0.0520     2.6160
 2408.5000   -50.3980     6.0380     7.6650     8.3270    95.9320     0.0510     2.6110
 2409.0000   -50.3980     5.8360     7.4970     8.3270    95.8560     0.0510     2.6060
 2409.5000   -50.3980     5.8770     7.3300     8.3270    97.8980     0.0510     2.6000
 2410.0000   -50.3980     5.9760     7.1440     8.3270    99.8330     0.0510     2.6010
 2410.5000   -50.3980     6.0740     7.3820     8.3270   101.5680     0.0510     2.6100
 2411.0000   -50.3980     6.1730     7.6510     8.3270   102.7820     0.0510     2.6180
 2411.5000   -50.3980     6.2720     7.9200     8.3260    97.5980     0.0510     2.6270
 2412.0000   -50.3980     6.3700     8.1890     8.3270    93.3980     0.0510     2.6310
 2412.5000   -50.3980     6.4690     8.4580     8.3260    89.3630     0.0510     2.6310
 2413.0000   -50.3980     6.6460     8.7270     8.3460    89.5810     0.0510     2.6270
 2413.5000   -50.3980     6.8930     8.9970     8.3760    89.8210     0.0510     2.6290
 2414.0000   -50.3980     7.1410     9.4120     8.4040    90.2020     0.0510     2.6370
 2414.5000   -50.3980     7.2760     9.3960     8.4330    89.7160     0.0510     2.6400
 2415.0000   -50.3980     7.2760     9.3600     8.4620    86.9240     0.0510     2.6400
 2415.5000   -50.3980     7.2760     9.3250     8.4900    84.3020     0.0520     2.6410
 2416.0000   -50.3980     7.2760     9.2890     8.5190    81.4620     0.0570     2.6410
 2416.5000   -50.3980     7.2760     9.2540     8.5220    82.5590     0.0610     2.6410
 2417.0000   -50.3980     7.2770     9.2190     8.5160    84.9400     0.0620     2.6420
 2417.5000   -50.3980     7.2760     9.1830     8.5100    87.3010     0.0600     2.6410
 2418.0000   -50.3980     7.2760     9.1480     8.5050    89.7690     0.0590     2.6380
 2418.5000   -50.3980     7.2760     9.1130     8.4990    90.5020     0.0570     2.6350
 2419.0000   -50.3980     7.2770     9.0740     8.4930    89.5350     0.0550     2.6230
 2419.5000   -50.3980     7.2770     9.0970     8.4870    88.7250     0.0550     2.6130
 2420.0000   -50.3980     7.2770     9.1230     8.4810    87.9110     0.0550     2.6010
 2420.5000   -50.3980     7.3410     9.1490     8.4760    87.6620     0.0620     2.5970
 2421.0000   -50.3980     7.4080     9.1760     8.4700    87.8060     0.0670     2.6070
 2421.5000   -50.3980     7.4760     9.2030     8.4640    88.0520     0.0750     2.6170
 2422.0000   -50.3980     7.5430     9.2310     8.4580    87.0400     0.0840     2.6280
 2422.5000   -50.3980     7.6100     9.2570     8.4530    84.9200     0.0920     2.6350
 2423.0000   -50.3980     7.6890     9.2840     8.4470    83.0450     0.1020     2.6400
 2423.5000   -50.3980     7.6640     9.3110     8.4410    82.1130     0.1030     2.6400
 2424.0000   -50.3980     7.6080     9.3380     8.4360    86.5060     0.1030     2.6400
 2424.5000   -50.3980     7.5520     9.3650     8.4300    85.6560     0.1030     2.6410
 2425.0000   -50.3980     7.4970     9.4050     8.4240    84.5370     0.1010     2.6420
 2425.5000   -50.3980     7.4410     9.3250     8.4180    83.2940     0.0950     2.6430
 2426.0000   -50.3980     7.3390     8.9550     8.4130    81.9200     0.0830     2.6360
