~VERSION INFORMATION
 VERS.                2.0:   CWLS LOG ASCII STANDARD - VERSION 2.0
 WRAP.                 NO:   ONE LINE PER DEPTH STEP
~WELL INFORMATION
#MNEM.UNIT      DATA TYPE    INFORMATION
#----------   ------------   ------------------------------
 STRT.F           16.0000:   START DEPTH
 STOP.F         2860.0000:   STOP DEPTH
 STEP.F            0.5000:   STEP LENGTH
 NULL.          -999.2500:   NO VALUE
 COMP.    FENIX & SCISSON:   COMPANY
 WELL. FENIX NPR 3 "AX" #22-21:   WELL
 FLD .  TEAPOT DOME - NPR:   FIELD
 LOC .      S21 T39N R78W:   LOCATION
 CNTY.            NATRONA:   COUNTY
 STAT.            WYOMING:   STATE
 CTRY. UNITED STATES OF AMERICA:   COUNTRY
 SRVC.      DRESSER ATLAS:   SERVICE COMPANY
 DATE.        07-AUG-1978:   LOGDATE
 API .     49025106790000:   API NUMBER
~CURVE INFORMATION
#MNEM.UNIT       API CODE    CURVE DESCRIPTION
#----------   ------------   ------------------------------
 DEPT.F                  :   
 CALD.IN     45 280 60 00:   CALIPER FROM DENSITY LOG
 GRD .GAPI   45 310 01 00:   GAMMA RAY FROM DENSITY LOG
 CORR.G/C3   45 356 01 00:   DENSITY CORRECTION
 RHOB.G/C3   45 350 01 00:   BULK DENSITY
 SPR .MV     05 010 01 00:   SPONTANEOUS POTENTIAL
 ILD .OHMM   05 120 46 00:   DEEP INDUCTION RESISTIVITY
 SN  .OHMM   05 040 00 00:   SHORT NORMAL
~PARAMETER INFORMATION
#MNEM.UNIT          VALUE    DESCRIPTION
#----------   ------------   ------------------------------
 EKB .F         4989.0000:   Kelly bushing
 EGL .F         4979.0000:   Ground level
 EDF .F            0.0000:   Drilling floor
 TD  .F         2847.0000:   Total depth
 DATE.        07-AUG-1978:   Date logged
 CLNT.            A2DTECH:   Client Code
 SL  . 880' FNL & 660' FWL:   Surface Location
 PD  .                 GL:   Permanent Datum
 DD  .F              2845:   Depth driller
 DL  .F              2847:   Depth logger
 BLI .F              2841:   Bottom log interval
 CS1 .IN            8.625:   Casing size
 CBD1.      8.625" @ 240':   Casing driller 1
 CBL1.F               240:   Casing logger 1
 BS1 .IN            7.875:   Bit size
 DFT .                KCL:   Type fluid in hole
 DFD .                9.2:   Density
 DFV .                 31:   Viscosity
 DFPH.               10.5:   pH
 MSS .           FLOWLINE:   Source of sample
 RMS .OHMM           1.25:   Rm
 MST .F                74:   Rm Meas. temp.
 RMF .OHMM            1.8:   Rmf
 MFST.F                76:   Rmf Meas. temp.
 RMC .OHMM              3:   Rmc
 MCST.F                78:   Rmc Meas. temp.
 MFSS.               MEAS:   Source Rmf.
 TCS .HRS               4:   Time Circ. stopped
 LUN .               3006:   Logging unit number
 LUL .               CASP:   Logging unit location
 ENGI.             MILLER:   Recorded By
 WITN.           MCGINLEY:   Witnessed by
 ORIG.           5" PRINT:   Origin of data
 UWI .     49025106790000:   Unique Well ID
 DICO. A2D TECHNOLOGIES, INC.:   Digitizing Company
 DAPD.                 10:   Feet Above Permanent Datum
 BSD1.F              2845:   Depth drilled with bit1
 EPD .F              4970:   Elevation Permanent Datum
 LMF .                 KB:   Log Measured From
 DMF .                 KB:   Drilling Measured From
 TLI .                240:   Top log interval
~OTHER INFORMATION
~A   DEPT     CALD         GRD      CORR       RHOB        SPR        ILD         SN   
# ...
 2473.0000    10.0800   100.3570     0.1050     2.4210   -10.2030     6.3170     9.5250
 2473.5000    10.0980   101.6000     0.1080     2.4120   -10.2300     6.2240     9.4080
 2474.0000    10.1010   102.0530     0.1180     2.4020   -10.2570     6.1320     9.2930
 2474.5000    10.1230   102.4430     0.1270     2.3950   -10.2830     6.0420     9.1800
 2475.0000    10.1450   102.8170     0.1380     2.3910   -10.3080     6.0420     9.0670
 2475.5000    10.1690   104.2100     0.1410     2.3940   -10.3350     6.0420     8.9540
 2476.0000    10.1920    98.3980     0.1450     2.4010   -10.3600     6.0420     8.8410
 2476.5000    10.2150    92.5260     0.1480     2.4070   -10.3870     6.0420     8.7280
 2477.0000    10.2380    94.6240     0.1510     2.4130   -10.4140     5.9330     8.6150
 2477.5000    10.2610    99.6050     0.1500     2.4190   -10.4330     5.7360     8.5020
 2478.0000    10.2840   106.9630     0.1490     2.4260   -10.4810     5.5570     8.3950
 2478.5000    10.3070   107.7740     0.1480     2.4280   -10.3140     5.3790     7.9690
 2479.0000    10.3300   103.7560     0.1470     2.4260   -10.0190     5.2010     7.5660
 2479.5000    10.3530   102.3440     0.1480     2.4230    -9.7480     5.0230     7.1620
 2480.0000    10.3750   101.7160     0.1500     2.4210    -9.6600     4.8450     6.7420
 2480.5000    10.3790   103.5500     0.1510     2.4250    -9.6340     4.7600     6.6200
 2481.0000    10.3850   105.0930     0.1530     2.4280    -9.6090     4.7510     6.6340
 2481.5000    10.3890   106.4420     0.1550     2.4310    -9.5790     4.7430     6.6470
 2482.0000    10.3950   106.0420     0.1580     2.4350    -9.5530     4.7350     6.6590
 2482.5000    10.3990   104.7950     0.1610     2.4350    -9.5250     4.7260     6.6720
 2483.0000    10.4040   103.2510     0.1640     2.4350    -9.4970     4.7180     6.6840
 2483.5000    10.4090   101.5490     0.1670     2.4350    -9.4690     4.7090     6.6960
 2484.0000    10.4140    99.9040     0.1700     2.4350    -9.4420     4.7010     6.7090
 2484.5000    10.4220    98.2080     0.1710     2.4370    -9.4130     4.6920     6.7210
 2485.0000    10.4340    97.7010     0.1700     2.4370    -9.3870     4.6840     6.7350
 2485.5000    10.4440    97.7730     0.1660     2.4370    -9.3590     4.6780     6.7430
 2486.0000    10.4550    97.3730     0.1620     2.4350    -9.3280     4.6100     6.7420
 2486.5000    10.4660    96.2340     0.1570     2.4250    -9.3120     4.5340     6.7430
 2487.0000    10.4770    95.0840     0.1530     2.4140    -9.1660     4.4290     6.7420
 2487.5000    10.4890    97.5640     0.1490     2.4150    -8.8590     4.5110     6.7420
 2488.0000    10.4970    96.7420     0.1440     2.4230    -8.5680     4.5930     6.7470
 2488.5000    10.5050    93.2810     0.1400     2.4280    -8.2690     4.8960     6.7420
 2489.0000    10.5160    89.6470     0.1380     2.4130    -7.9720     5.2060     6.8750
 2489.5000    10.5260    88.9610     0.1370     2.4050    -7.7170     5.5150     7.0530
 2490.0000    10.5360    88.3670     0.1360     2.4090    -7.6690     5.8250     7.2540
 2490.5000    10.5470    92.2190     0.1340     2.4180    -7.6280     6.1350     8.4640
 2491.0000    10.5570    95.7330     0.1330     2.4240    -7.5940     6.4450     9.8440
 2491.5000    10.5680    97.6110     0.1320     2.4260    -7.5550     6.7550    10.8530
 2492.0000    10.5750    97.6510     0.1310     2.4280    -7.5180     7.0650    11.4160
 2492.5000    10.5750    96.3570     0.1310     2.4300    -7.4810     7.3870    11.3490
 2493.0000    10.5750    97.2630     0.1310     2.4260    -7.4440     7.3430    11.2130
 2493.5000    10.5750    99.5620     0.1330     2.4180    -7.4070     7.2970    11.0780
 2494.0000    10.5750    99.6590     0.1380     2.4110    -7.3690     7.2510    10.9420
 2494.5000    10.5750    94.6240     0.1420     2.4070    -7.3340     7.2040    10.8430
 2495.0000    10.5750    92.6420     0.1470     2.4110    -7.2770     7.1580    10.7970
 2495.5000    10.5750    92.3040     0.1470     2.4140    -7.1950     7.1170    10.7440
 2496.0000    10.5750    91.8540     0.1480     2.4170    -7.1150     7.0930    10.6910
 2496.5000    10.5750    92.1520     0.1480     2.4240    -7.0360     7.0680    10.6470
 2497.0000    10.5750    92.5820     0.1490     2.4320    -6.9520     7.0440    10.4550
 2497.5000    10.5750    93.1000     0.1490     2.4400    -6.9140     7.0200    10.2030
 2498.0000    10.5750    93.2490     0.1500     2.4410    -6.9180     6.9930     9.9510
 2498.5000    10.5750    94.2670     0.1500     2.4370    -6.9170     6.9150     9.7170
 2499.0000    10.5750    97.6800     0.1510     2.4340    -6.9170     6.8280     9.4500
 2499.5000    10.5750   104.2710     0.1500     2.4360    -6.9170     6.7420     9.2000
 2500.0000    10.5750   110.6560     0.1480     2.4380    -6.9170     6.6200     8.9510
 2500.5000    10.5760   109.7290     0.1460     2.4410    -6.9180     6.3440     8.7020
 2501.0000    10.5690   105.3730     0.1450     2.4400    -6.9170     6.1150     8.4530
 2501.5000    10.5560   102.7630     0.1430     2.4390    -6.9170     5.8860     8.2040
 2502.0000    10.5430   100.2480     0.1410     2.4380    -6.9190     5.6570     7.9540
 2502.5000    10.5350   102.8010     0.1390     2.4370    -6.9120     5.4150     7.7050
 2503.0000    10.5360   107.4100     0.1350     2.4420    -6.9730     5.4280     7.4560
 2503.5000    10.5360   110.8670     0.1300     2.4470    -7.0950     5.4530     7.2540
 2504.0000    10.5360   109.5380     0.1250     2.4520    -7.2070     5.4780     7.3840
 2504.5000    10.5360    93.3540     0.1200     2.4580    -7.3230     5.5030     7.5270
 2505.0000    10.5360    94.4680     0.1260     2.4610    -7.4390     5.5280     7.6700
 2505.5000    10.5360    94.4490     0.1310     2.4610    -7.5440     5.5520     7.8130
 2506.0000    10.5360   101.0950     0.1310     2.4600    -7.6880     5.5770     7.9480
 2506.5000    10.5360   106.6180     0.1310     2.4650    -7.5420     5.6020     7.9990
 2507.0000    10.5360   107.9150     0.1270     2.4740    -7.2510     5.6160     8.0480
 2507.5000    10.5320   104.1180     0.1250     2.4810    -6.9480     5.8010     8.0970
 2508.0000    10.5240   101.4160     0.1230     2.4900    -7.0690     5.9790     8.1450
 2508.5000    10.5170   101.9390     0.1210     2.4890    -7.2460     6.1580     8.1940
 2509.0000    10.5090   101.5040     0.1190     2.4860    -7.4380     6.3850     8.2430
 2509.5000    10.5020    98.3640     0.1150     2.4840    -7.6130     6.6900     8.7390
 2510.0000    10.4980    90.5470     0.1110     2.4880    -7.8040     6.9950     9.2430
 2510.5000    10.5160    83.2920     0.1060     2.4910    -7.9800     7.2540     9.7460
 2511.0000    10.5310    75.8040     0.1020     2.4940    -8.2980     7.3390    10.1570
 2511.5000    10.5480    74.4610     0.0970     2.4890    -8.9350     7.4130    10.4540
 2512.0000    10.5650    81.7210     0.0920     2.4810    -9.3310     7.5240    10.3290
 2512.5000    10.5750    91.5080     0.0910     2.4820    -9.3170     7.4630    10.1560
 2513.0000    10.5500    90.4360     0.0900     2.4870    -9.3630     7.3440     9.9820
 2513.5000    10.5230    89.7070     0.0890     2.4910    -9.3930     7.2250     9.8090
 2514.0000    10.4970    88.3750     0.0880     2.4960    -9.4220     7.1060     9.6350
 2514.5000    10.4960    89.2080     0.0870     2.5000    -9.4560     6.9930     9.5410
 2515.0000    10.4960    90.5140     0.0860     2.5040    -9.4870     7.0280     9.5480
 2515.5000    10.4960    91.0400     0.0850     2.5040    -9.5190     7.0820     9.5750
 2516.0000    10.4960    91.4090     0.0840     2.5050    -9.5500     7.1350     9.6020
 2516.5000    10.4960    91.4150     0.0830     2.5060    -9.5810     7.1890     9.6290
 2517.0000    10.4960    91.2610     0.0820     2.5050    -9.6140     7.2460     9.6560
 2517.5000    10.4970    90.8070     0.0800     2.5030    -9.6440     7.2320     9.6840
 2518.0000    10.5070    91.5550     0.0830     2.5020    -9.6750     7.2050     9.7110
