~VERSION INFORMATION
 VERS.                2.0:   CWLS LOG ASCII STANDARD - VERSION 2.0
 WRAP.                 NO:   ONE LINE PER DEPTH STEP
~WELL INFORMATION
#MNEM.UNIT      DATA TYPE    INFORMATION
#----------   ------------   ------------------------------
 STRT.F          634.0000:   START DEPTH
 STOP.F         3464.0000:   STOP DEPTH
 STEP.F            0.5000:   STEP LENGTH
 NULL.          -999.2500:   NO VALUE
 COMP. LAWRENCE-ALLISON & ASSOCIATES W:   COMPANY
 WELL. LAWRENCE "TX" #44-27:   WELL
 FLD .   NAVAL RESERVE #3:   FIELD
 LOC .      S27 T39N R78W:   LOCATION
 CNTY.            NATRONA:   COUNTY
 STAT.            WYOMING:   STATE
 CTRY. UNITED STATES OF AMERICA:   COUNTRY
 SRVC.       SCHLUMBERGER:   SERVICE COMPANY
 DATE.        13-MAR-1982:   LOGDATE
 API .     49025108870000:   API NUMBER
~CURVE INFORMATION
#MNEM.UNIT       API CODE    CURVE DESCRIPTION
#----------   ------------   ------------------------------
 DEPT.F                  :   
 TENR.LBS    07 635 01 00:   TENSION FROM RESISTIVITY
 ILD .OHMM   07 120 46 00:   DEEP INDUCTION RESISTIVITY
 ILM .OHMM   07 120 44 00:   INDUCTION LOG MEDIUM RESISTIVITY
 SFLU.OHMM   07 220 01 00:   SPHERICALLY FOCUSED LOG UNAVERAGED RESISTIVITY
 SPR .MV     07 010 01 00:   SPONTANEOUS POTENTIAL
 TENN.LBS    42 635 01 00:   TENSION FROM COMPENSATE NEUTRON
 CALD.IN     45 280 60 00:   CALIPER FROM DENSITY LOG
 GRD .GAPI   45 310 01 00:   GAMMA RAY FROM DENSITY LOG
 RHOB.G/C3   45 350 01 00:   BULK DENSITY
 DRHO.G/C3   45 356 01 00:   DENSITY CORRECTION
 NPHI.DEC    42 890 03 00:   NEUTRON POROSITY SANDSTONE
~PARAMETER INFORMATION
#MNEM.UNIT          VALUE    DESCRIPTION
#----------   ------------   ------------------------------
 EKB .F         5049.0000:   Kelly bushing
 EGL .F         5039.0000:   Ground level
 EDF .F            0.0000:   Drilling floor
 EPD .F            0.0000:   Permanent datum
 TD  .F         3440.0000:   Total depth
 DATE.        13-MAR-1982:   Date logged
 CLNT.            A2DTECH:   Client Code
 PD  .                 GL:   Permanent Datum
 DD  .F              3440:   Depth driller
 DL  .F              3439:   Depth logger
 BLI .F              3433:   Bottom log interval
 CS1 .IN            9.625:   Casing size
 CBD1.      9.625" @ 650':   Casing driller 1
 CBL1.F               647:   Casing logger 1
 BS1 .IN            7.875:   Bit size
 DFT .                GEL:   Type fluid in hole
 DFD .                9.3:   Density
 DFV .                 48:   Viscosity
 DFPH.                 10:   pH
 DFL .                  8:   Fluid loss
 MSS .                PIT:   Source of sample
 RMS .OHMM           1.82:   Rm
 MST .F                67:   Rm Meas. temp.
 RMF .OHMM           1.32:   Rmf
 MFST.F                67:   Rmf Meas. temp.
 MFSS.               MEAS:   Source Rmf.
 RMB .OHMM           1.09:   Rm. at BHT
 BHT .F               112:   BHT.
 TCS .HRS            1300:   Time Circ. stopped
 MRT .F               112:   Maximum recorded temp.
 LUN .               8039:   Logging unit number
 LUL .               CSPR:   Logging unit location
 ENGI.   WAGNER/CONOSENTI:   Recorded By
 WITN.           JENNINGS:   Witnessed by
 ORIG.           5" PRINT:   Origin of data
 UWI .     49025108870000:   Unique Well ID
 DICO. A2D TECHNOLOGIES, INC.:   Digitizing Company
 DAPD.                 10:   Feet Above Permanent Datum
 BSD1.F              3440:   Depth drilled with bit1
 TLI .F               647:   Top log interval
 TLAB.HRS            1800:   Time logger at bottom
~OTHER INFORMATION
~A   DEPT     TENR        ILD        ILM       SFLU        SPR       TENN       CALD         GRD      RHOB       DRHO       NPHI   
# ...
 2128.5000  1167.6650     7.2860     6.1870     8.2080   -29.5160  1542.3440     9.3090   125.5760     2.4550     0.0280     0.3590
 2129.0000  1167.6650     7.2750     6.1750     8.2980   -29.4190  1541.7300     9.2840   125.9380     2.4550     0.0230     0.3590
 2129.5000  1167.6650     7.2650     6.1640     8.3900   -29.8180  1541.1169     9.2590   126.9180     2.4520     0.0190     0.3570
 2130.0000  1167.6650     7.2550     6.1520     8.0000   -30.3390  1540.5031     9.2330   126.9720     2.4550     0.0190     0.3480
 2130.5000  1167.6650     7.2440     6.1380     7.5990   -30.8630  1539.8900     9.2080   126.9710     2.4610     0.0200     0.3390
 2131.0000  1167.6650     7.2340     6.1580     7.5140   -31.3920  1539.2760     9.1830   128.2830     2.4680     0.0210     0.3390
 2131.5000  1167.6650     7.2240     6.1910     7.8280   -31.9240  1538.6620     9.1620   130.4270     2.4640     0.0140     0.3470
 2132.0000  1167.6650     7.2130     6.2240     8.3520   -32.2830  1538.0490     9.1610   132.5630     2.4560     0.0050     0.3540
 2132.5000  1167.6650     7.2030     6.2570     8.8660   -32.3290  1537.9380     9.1600   133.3370     2.4520     0.0020     0.3550
 2133.0000  1167.6650     7.1930     6.2900     8.8660   -32.3860  1538.4969     9.1590   128.4830     2.4560     0.0030     0.3470
 2133.5000  1167.6650     7.1820     6.3230     8.5160   -32.4490  1539.0551     9.1570   124.9340     2.4600     0.0040     0.3370
 2134.0000  1167.6650     7.1720     6.3560     7.9600   -32.5100  1539.6130     9.1560   126.6650     2.4640     0.0040     0.3320
 2134.5000  1167.6650     7.1620     6.3890     7.6540   -32.5670  1540.1720     9.1550   130.8720     2.4600     0.0030     0.3420
 2135.0000  1167.6650     7.1510     6.4230     7.8000   -32.6290  1540.7300     9.1530   134.6600     2.4550     0.0020     0.3520
 2135.5000  1167.6650     7.1410     6.4630     8.1220   -32.1650  1541.2889     9.1520   133.2620     2.4550     0.0040     0.3580
 2136.0000  1167.6650     7.1310     6.5040     8.4440   -31.3680  1541.8470     9.1510   130.5280     2.4540     0.0090     0.3610
 2136.5000  1167.6650     7.1200     6.5450     8.7650   -30.5580  1542.4060     9.1490   129.2320     2.4530     0.0110     0.3630
 2137.0000  1167.6650     7.1110     6.5860     8.8820   -30.1890  1542.9640     9.1480   129.9510     2.4530     0.0130     0.3630
 2137.5000  1167.6650     7.2210     6.6070     8.9050   -30.0590  1543.5229     9.1460   131.1140     2.4620     0.0160     0.3630
 2138.0000  1167.6650     7.2720     6.5290     8.9280   -29.9320  1544.0811     9.1450   132.2880     2.4730     0.0230     0.3610
 2138.5000  1167.6650     7.3220     6.4690     8.9450   -29.8060  1544.6400     9.1440   133.4610     2.4830     0.0280     0.3590
 2139.0000  1167.6650     7.3720     6.4100     8.6210   -29.6810  1545.1980     9.1430   134.4240     2.4770     0.0280     0.3570
 2139.5000  1167.6650     7.4220     6.3500     8.3270   -29.5530  1545.7560     9.1420   133.8740     2.4710     0.0210     0.3510
 2140.0000  1167.6650     7.4720     6.3100     8.0330   -29.4280  1546.3149     9.1260   131.7010     2.4690     0.0150     0.3450
 2140.5000  1167.6650     7.5510     6.4080     7.7240   -29.6080  1546.8730     9.1240   129.8950     2.4680     0.0090     0.3410
 2141.0000  1167.6650     7.6300     6.4940     7.9600   -29.8230  1547.4320     9.1260   130.5460     2.4740     0.0120     0.3440
 2141.5000  1167.6650     7.7080     6.5800     8.2750   -30.0400  1547.9900     9.1280   131.3140     2.4750     0.0140     0.3550
 2142.0000  1167.6650     7.7870     6.6680     8.5890   -30.2570  1548.5490     9.1300   132.0140     2.4720     0.0120     0.3650
 2142.5000  1167.6650     7.8680     6.6680     8.7850   -30.4720  1549.1071     9.1320   130.3740     2.4620     0.0080     0.3650
 2143.0000  1167.6650     7.8100     6.6680     8.7540   -30.6430  1549.6660     9.1340   128.5830     2.4540     0.0070     0.3620
 2143.5000  1167.6650     7.7510     6.6680     8.7280   -30.8190  1550.2240     9.1360   128.1830     2.4550     0.0080     0.3610
 2144.0000  1167.6650     7.6920     6.6680     8.7020   -31.2310  1550.7830     9.1380   129.2590     2.4560     0.0110     0.3630
 2144.5000  1167.6650     7.6330     6.6220     8.6760   -31.6410  1551.3409     9.1400   130.9930     2.4570     0.0150     0.3630
 2145.0000  1167.6650     7.5750     6.5470     8.6500   -32.0530  1551.8990     9.1420   131.0850     2.4560     0.0170     0.3620
 2145.5000  1167.6650     7.5160     6.4720     8.6250   -32.4680  1552.4580     9.1440   128.1220     2.4500     0.0140     0.3620
 2146.0000  1167.6650     7.4570     6.3970     8.2920   -32.8240  1553.0160     9.1460   125.7910     2.4450     0.0060     0.3560
 2146.5000  1167.6650     7.3980     6.3220     7.9670   -32.4060  1553.5750     9.1480   124.6620     2.4390    -0.0020     0.3470
 2147.0000  1167.6650     7.3570     6.2520     7.7240   -31.9840  1554.1331     9.1500   126.9360     2.4340     0.0010     0.3380
 2147.5000  1167.6650     7.3250     6.2410     7.7490   -31.5650  1554.6920     9.1520   129.2720     2.4300     0.0050     0.3560
 2148.0000  1167.6650     7.2930     6.2270     7.7690   -31.1480  1555.2500     9.1540   131.6000     2.4330     0.0050     0.3760
 2148.5000  1167.6650     7.2610     6.2130     7.7890   -30.7350  1555.8090     9.1560   133.8880     2.4370     0.0050     0.3860
 2149.0000  1167.6650     7.2290     6.2000     7.8090   -30.4160  1556.3669     9.1580   133.2920     2.4410     0.0060     0.3860
 2149.5000  1167.6650     7.1970     6.1860     7.8290   -30.1480  1556.9250     9.1600   132.4550     2.4460     0.0090     0.3840
 2150.0000  1167.6650     7.1650     6.1730     7.8490   -29.8810  1557.5400     9.1620   133.5490     2.4570     0.0140     0.3690
 2150.5000  1167.6650     7.1330     6.1590     7.8680   -29.6190  1558.6440     9.1640   132.4640     2.4680     0.0170     0.3530
 2151.0000  1167.6650     7.1110     6.1450     7.8840   -29.4790  1559.8710     9.1660   131.2040     2.4670     0.0130     0.3490
 2151.5000  1167.6650     7.1370     6.1390     7.8980   -29.6840  1561.0980     9.1680   130.8810     2.4650     0.0090     0.3590
 2152.0000  1167.6650     7.1570     6.1890     7.9120   -29.8780  1562.3250     9.1700   133.3370     2.4720     0.0130     0.3570
 2152.5000  1167.6650     7.1780     6.2280     7.9270   -30.0720  1563.5520     9.1720   136.1840     2.4790     0.0180     0.3500
 2153.0000  1167.6650     7.1980     6.2670     7.9400   -30.2670  1564.7780     9.1740   138.0950     2.4840     0.0200     0.3440
 2153.5000  1167.6650     7.2180     6.3060     7.9650   -30.4610  1566.0050     9.1760   140.1090     2.4820     0.0210     0.3450
 2154.0000  1167.6650     7.2380     6.3450     8.0020   -30.6350  1567.2321     9.1780   140.0320     2.4800     0.0220     0.3450
 2154.5000  1167.6650     7.2590     6.3830     8.0380   -30.6800  1568.4590     9.1800   137.7430     2.4770     0.0230     0.3460
 2155.0000  1167.6650     7.2790     6.4220     8.0750   -30.7270  1569.6860     9.1830   134.6910     2.4730     0.0250     0.3460
 2155.5000  1167.6650     7.2990     6.4360     8.1110   -30.7740  1570.9130     9.1620   131.6210     2.4680     0.0230     0.3460
 2156.0000  1167.6650     7.3130     6.4470     8.1480   -30.8220  1572.1400     9.1630   128.5590     2.4620     0.0150     0.3410
 2156.5000  1167.6650     7.3240     6.4580     8.1850   -30.6500  1573.3660     9.1630   125.4940     2.4540     0.0080     0.3370
 2157.0000  1167.6650     7.3350     6.4680     8.2210   -30.2820  1574.5930     9.1640   124.2220     2.4490     0.0010     0.3400
 2157.5000  1167.6650     7.3470     6.4790     8.2580   -29.9120  1575.8199     9.1650   124.9990     2.4490     0.0010     0.3420
 2158.0000  1167.6650     7.3580     6.4900     8.2940   -29.5300  1577.0470     9.1660   126.6540     2.4500     0.0010     0.3330
 2158.5000  1167.6650     7.3690     6.5000     8.3320   -29.4500  1576.3040     9.1670   128.3360     2.4520     0.0060     0.3280
