~VERSION INFORMATION
 VERS.                2.0:   CWLS LOG ASCII STANDARD - VERSION 2.0
 WRAP.                 NO:   ONE LINE PER DEPTH STEP
~WELL INFORMATION
#MNEM.UNIT      DATA TYPE    INFORMATION
#----------   ------------   ------------------------------
 STRT.F            0.0000:   START DEPTH
 STOP.F         4030.0000:   STOP DEPTH
 STEP.F            0.5000:   STEP LENGTH
 NULL.          -999.2500:   NO VALUE
 COMP.  FENIX AND SCISSON:   COMPANY
 WELL.  FENIX "LX" #33-10:   WELL
 FLD . TEAPOT DOME (NPR #3):   FIELD
 LOC .      S10 T38N R78W:   LOCATION
 CNTY.            NATRONA:   COUNTY
 STAT.            WYOMING:   STATE
 CTRY. UNITED STATES OF AMERICA:   COUNTRY
 SRVC.       SCHLUMBERGER:   SERVICE COMPANY
 DATE.        03-APR-1978:   LOGDATE
 API .     49025105980000:   API NUMBER
~CURVE INFORMATION
#MNEM.UNIT       API CODE    CURVE DESCRIPTION
#----------   ------------   ------------------------------
 DEPT.F                  :   
 SPR .MV     07 010 01 00:   SPONTANEOUS POTENTIAL
 ILD .OHMM   07 120 46 00:   DEEP INDUCTION RESISTIVITY
 SFL .OHMM   07 220 01 00:   SHALLOW FOCUSED LOG RESISTIVITY
 ILM .OHMM   07 120 44 00:   INDUCTION LOG MEDIUM RESISTIVITY
 NPHI.DEC    42 890 03 00:   NEUTRON POROSITY SANDSTONE
 GRD .GAPI   45 310 01 00:   GAMMA RAY FROM DENSITY LOG
 CALD.IN     45 280 60 00:   CALIPER FROM DENSITY LOG
 RHOB.G/C3   45 350 01 00:   BULK DENSITY
 CORR.G/C3   45 356 01 00:   DENSITY CORRECTION
~PARAMETER INFORMATION
#MNEM.UNIT          VALUE    DESCRIPTION
#----------   ------------   ------------------------------
 EKB .F         5232.0000:   Kelly bushing
 EGL .F         5222.0000:   Ground level
 EDF .F            0.0000:   Drilling floor
 EPD .F         5222.0000:   Permanent datum
 TD  .F         4040.0000:   Total depth
 DATE.        03-APR-1978:   Date logged
 CLNT.            A2DTECH:   Client Code
 SL  . 1700' FNL & 1700' FWL:   Surface Location
 PD  .                 GL:   Permanent Datum
 DD  .F              4040:   Depth driller
 DL  .F              4031:   Depth logger
 BLI .F              4025:   Bottom log interval
 CS1 .IN            8.625:   Casing size
 CBD1.      8.625" @ 503':   Casing driller 1
 CBL1.F               504:   Casing logger 1
 BS1 .IN            7.875:   Bit size
 DFT .           CHEM GEL:   Type fluid in hole
 DFD .                9.5:   Density
 DFV .                 43:   Viscosity
 DFPH.               11.5:   pH
 DFL .                4.4:   Fluid loss
 MSS .            MUD PIT:   Source of sample
 RMS .OHMM           1.16:   Rm
 MST .F                80:   Rm Meas. temp.
 RMF .OHMM           0.93:   Rmf
 MFST.F                80:   Rmf Meas. temp.
 RMC .OHMM           1.74:   Rmc
 MCST.F                80:   Rmc Meas. temp.
 MFSS.               MEAS:   Source Rmf.
 RMB .OHMM          0.742:   Rm. at BHT
 BHT .F               125:   BHT.
 TCS .HRS            0800:   Time Circ. stopped
 MRT .F               125:   Maximum recorded temp.
 LUN .               7660:   Logging unit number
 LUL .                GLT:   Logging unit location
 ENGI.            TOEPPER:   Recorded By
 WITN.           MCGINLEY:   Witnessed by
 ORIG.         2.5" PRINT:   Origin of data
 UWI .     49025105980000:   Unique Well ID
 DICO. A2D TECHNOLOGIES, INC.:   Digitizing Company
 DAPD.                 10:   Feet Above Permanent Datum
 BSD1.               4040:   Depth drilled with bit1
 MCSS.               CALC:   Source Rmc.
 LMF .                 KB:   Log Measured From
 DMF .                 KB:   Drilling Measured From
 TLI .                504:   Top log interval
 TLAB.               1000:   Time logger at bottom
~OTHER INFORMATION
~A    DEPT     SPR        ILD        SFL        ILM       NPHI         GRD      CALD       RHOB       CORR   
# ...
 3504.0000   -27.9410     2.6450     4.4190     2.9200     0.3290   140.0850     8.8230     2.4640     0.1630
 3504.5000   -27.7010     2.8340     5.5230     3.1800     0.3450   141.9660     8.8240     2.3300     0.1560
 3505.0000   -27.6850     3.0230     5.3000     3.4400     0.3610   141.6100     8.8250     2.3480     0.0710
 3505.5000   -27.7500     3.2120     5.0380     3.6860     0.3770   139.8470     8.8270     2.3900     0.1020
 3506.0000   -27.9280     3.4010     4.4540     3.7540     0.3580   138.7360     8.8280     2.4330     0.1290
 3506.5000   -28.0920     3.5900     3.8130     3.7540     0.3390   141.3770     8.8290     2.4570     0.0390
 3507.0000   -28.1690     3.6860     3.4880     3.7540     0.3190   144.3400     8.8310     2.4650     0.0470
 3507.5000   -28.4360     3.4950     4.0500     3.7540     0.3060   148.7220     8.8320     2.4720     0.0390
 3508.0000   -28.1230     3.3160     4.5670     3.6860     0.3200   152.5990     8.8330     2.4410     0.0340
 3508.5000   -28.5300     3.1360     4.9220     3.6180     0.3450   162.1300     8.8350     2.4150     0.0350
 3509.0000   -28.9290     2.9560     4.8340     3.3800     0.3690   170.6360     8.8360     2.3920     0.0690
 3509.5000   -28.8650     2.7770     4.6800     3.1040     0.3940   179.7060     8.8370     2.3760     0.0980
 3510.0000   -28.8090     2.5970     4.2850     2.8280     0.4360   184.9930     8.8300     2.3620     0.1420
 3510.5000   -28.5690     2.4150     3.6070     2.5050     0.4240   177.1410     8.8220     2.3450     0.1350
 3511.0000   -28.6210     2.3990     2.8080     2.4600     0.3850   165.4760     8.8140     2.3720     0.0740
 3511.5000   -28.9450     2.3710     2.5050     2.4150     0.3430   153.4160     8.8060     2.4400     0.0330
 3512.0000   -28.3540     2.4050     2.5520     2.5380     0.2960   145.8170     8.7980     2.5060     0.0320
 3512.5000   -28.2070     2.4460     3.4340     2.8390     0.2920   143.9930     8.7900     2.5210     0.0300
 3513.0000   -28.0510     2.4880     4.3100     3.1390     0.2960   146.1440     8.7820     2.5060     0.0320
 3513.5000   -28.0960     2.7290     5.1860     3.4400     0.2990   148.5200     8.7730     2.5200     0.0510
 3514.0000   -28.0920     3.1100     5.7290     3.7400     0.3190   149.2410     8.7660     2.5780     0.0760
 3514.5000   -28.0790     3.4910     5.7290     4.0400     0.3170   148.0770     8.7590     2.6350    -0.0210
 3515.0000   -28.0920     3.8720     5.6250     4.3410     0.3140   147.2060     8.7620     2.6590     0.0010
 3515.5000   -28.0910     4.2530     5.4460     4.5950     0.3100   146.1480     8.7660     2.6550     0.0530
 3516.0000   -28.0670     4.3490     5.3230     4.5120     0.3080   149.6650     8.7700     2.5970     0.0480
 3516.5000   -28.1360     4.3010     5.5630     4.5120     0.3060   157.8540     8.7740     2.5390     0.0240
 3517.0000   -27.7550     4.2500     5.8360     4.5950     0.3060   162.4780     8.7780     2.4970     0.0270
 3517.5000   -27.6910     4.1990     5.7550     4.5480     0.3090   163.3020     8.7810     2.5150     0.0330
 3518.0000   -27.7530     4.1480     5.6680     4.4570     0.3150   164.3930     8.7850     2.5320     0.0390
 3518.5000   -28.1710     4.0970     5.6250     4.3660     0.3200   160.6160     8.7890     2.5280     0.0270
 3519.0000   -28.2200     4.0400     5.4100     4.2750     0.3250   156.8840     8.7930     2.5100     0.0240
 3519.5000   -28.3530     3.9520     5.1030     4.1920     0.3280   153.0250     8.7970     2.5150     0.0280
 3520.0000   -28.4380     3.7710     4.7960     4.1250     0.3290   149.2690     8.7930     2.5290     0.0340
 3520.5000   -28.5280     3.5910     4.5120     4.0290     0.3300   145.2190     8.7870     2.5240     0.0340
 3521.0000   -28.1660     3.4110     4.6800     3.9320     0.3310   143.0550     8.7810     2.5080     0.0300
 3521.5000   -28.0780     3.2400     4.5910     3.8360     0.3350   143.2820     8.7750     2.5070     0.0260
 3522.0000   -28.1100     3.2470     4.4870     3.7390     0.3290   142.3860     8.7690     2.5310     0.0370
 3522.5000   -27.7730     3.2750     4.4290     3.6860     0.3150   141.3150     8.7630     2.5180     0.0490
 3523.0000   -27.7570     3.3030     4.4290     3.6860     0.3000   140.2840     8.7570     2.4930     0.0310
 3523.5000   -28.1890     3.3310     4.3490     3.6780     0.2930   139.2060     8.7510     2.4810     0.0190
 3524.0000   -28.2760     3.3590     4.3900     3.6690     0.2960   138.1670     8.7450     2.4850     0.0470
 3524.5000   -28.4340     3.3870     4.4290     3.6590     0.2960   136.9780     8.7380     2.4950     0.0710
 3525.0000   -28.4730     3.4150     4.8560     3.6500     0.3180   135.3090     8.7320     2.5290     0.1060
 3525.5000   -28.4830     3.4430     4.4870     3.6410     0.3450   133.3320     8.7260     2.5170     0.0930
 3526.0000   -28.1980     3.4700     4.0250     3.6320     0.3280   131.4040     8.7200     2.4890     0.0600
 3526.5000   -28.5350     3.4880     3.5520     3.6220     0.3100   129.6470     8.7140     2.4780     0.0400
 3527.0000   -28.4580     3.3750     3.6180     3.6180     0.2970   131.4270     8.7080     2.4750     0.0560
 3527.5000   -28.4980     3.1790     4.1360     3.6610     0.2990   139.3900     8.7020     2.4700     0.0720
 3528.0000   -28.4850     2.9830     4.5120     3.6860     0.2970   143.8100     8.6960     2.4470     0.0860
 3528.5000   -28.4710     2.7870     4.5430     3.5520     0.3200   157.0880     8.6900     2.4190     0.0540
 3529.0000   -28.6570     2.5350     4.5950     3.2320     0.3390   170.9970     8.6840     2.3900     0.0130
 3529.5000   -28.8930     2.2360     4.4940     2.8920     0.3640   184.9800     8.6780     2.3660     0.0200
 3530.0000   -29.0430     1.9370     3.6640     2.5520     0.3900   190.5950     8.6720     2.3980     0.0400
 3530.5000   -29.3100     1.6110     2.2440     2.2120     0.3860   183.8770     8.6660     2.4160     0.0570
 3531.0000   -29.2670     1.4890     2.0640     1.8730     0.3810   179.6630     8.6600     2.4030     0.0760
 3531.5000   -29.3110     1.3410     1.8670     1.4970     0.3770   176.6290     8.6540     2.4090     0.1060
 3532.0000   -29.2370     1.3160     1.7600     1.4430     0.3720   166.7070     8.6480     2.4360     0.1020
 3532.5000   -29.5390     1.3160     1.7470     1.4700     0.2840   144.0490     8.6420     2.4620     0.0270
 3533.0000   -29.2410     1.4110     1.7340     1.8190     0.2500   121.9850     8.6320     2.4890     0.0350
 3533.5000   -29.2340     1.6110     3.3160     2.2150     0.2360   103.3160     8.6160     2.5150     0.0350
 3534.0000   -28.8360     1.7990     4.7910     2.6120     0.2420   100.8560     8.6010     2.5290     0.0330
 3534.5000   -28.8940     2.3560     6.2660     3.0080     0.2540   102.5070     8.5850     2.5200     0.0300
 3535.0000   -28.8950     2.8830     8.2760     3.4050     0.2660   104.6520     8.5690     2.5030     0.0270
 3535.5000   -28.8800     3.4100     7.9220     3.8020     0.2790   106.9860     8.5540     2.4940     0.0250
 3536.0000   -28.8050     3.9370     6.4090     4.1980     0.2820   107.7440     8.5380     2.5040     0.0410
 3536.5000   -28.4700     4.3490     5.1760     4.3490     0.2770   107.8790     8.5230     2.5130     0.0560
 3537.0000   -28.2690     4.3020     4.9470     4.3490     0.2710   108.0440     8.5070     2.5230     0.0720
 3537.5000   -28.0690     4.2440     4.8560     4.3490     0.2650   108.2260     8.4910     2.5210     0.0750
 3538.0000   -28.0860     4.1860     5.0860     4.3490     0.2580   108.4120     8.4760     2.5220     0.0780
 3538.5000   -28.0950     4.1150     5.4400     4.3490     0.2520   108.6010     8.4600     2.5300     0.0810
 3539.0000   -28.1470     4.1590     5.7940     4.5120     0.2490   108.7850     8.4440     2.5090     0.0750
 3539.5000   -28.2250     4.2730     6.1480     4.6340     0.2540   108.9710     8.4290     2.5160     0.0550
 3540.0000   -28.2970     4.3870     6.5160     4.7590     0.2570   109.1560     8.4130     2.5170     0.0360
