~VERSION INFORMATION
 VERS.                2.0:   CWLS LOG ASCII STANDARD - VERSION 2.0
 WRAP.                 NO:   ONE LINE PER DEPTH STEP
~WELL INFORMATION
#MNEM.UNIT      DATA TYPE    INFORMATION
#----------   ------------   ------------------------------
 STRT.F          200.0000:   START DEPTH
 STOP.F         3060.0000:   STOP DEPTH
 STEP.F            0.5000:   STEP LENGTH
 NULL.          -999.2500:   NO VALUE
 COMP.    FENIX & SCISSON:   COMPANY
 WELL. FENIX NPR 3 "AX" #58-21:   WELL
 FLD .      NPR - WILDCAT:   FIELD
 LOC .      S21 T39N R78W:   LOCATION
 CNTY.            NATRONA:   COUNTY
 STAT.            WYOMING:   STATE
 CTRY. UNITED STATES OF AMERICA:   COUNTRY
 SRVC.              WELEX:   SERVICE COMPANY
 DATE.        12-JUN-1977:   LOGDATE
 API .     49025103790000:   API NUMBER
~CURVE INFORMATION
#MNEM.UNIT       API CODE    CURVE DESCRIPTION
#----------   ------------   ------------------------------
 DEPT.F                  :   
 CALD.IN     45 280 60 00:   CALIPER FROM DENSITY LOG
 GRD .GAPI   45 310 01 00:   GAMMA RAY FROM DENSITY LOG
 CORR.G/C3   45 356 01 00:   DENSITY CORRECTION
 RHOB.G/C3   45 350 01 00:   BULK DENSITY
 SPR .MV     07 010 01 00:   SPONTANEOUS POTENTIAL
 ILD .OHMM   07 120 46 00:   DEEP INDUCTION RESISTIVITY
 GURD.OHMM   07 220 05 00:   GUARD LOG RESISTIVITY
 ILM .OHMM   07 120 44 00:   INDUCTION LOG MEDIUM RESISTIVITY
 DT  .US/F   60 520 00 00:   DELTA TIME
 SPHI.DEC    60 890 00 00:   SONIC POROSITY
~PARAMETER INFORMATION
#MNEM.UNIT          VALUE    DESCRIPTION
#----------   ------------   ------------------------------
 EKB .F         5016.0000:   Kelly bushing
 EGL .F         5006.0000:   Ground level
 EDF .F            0.0000:   Drilling floor
 EPD .F            0.0000:   Permanent datum
 TD  .F         3062.0000:   Total depth
 DATE.        12-JUN-1977:   Date logged
 CLNT.            A2DTECH:   Client Code
 SL  . 280' FSL & 2160' FEL:   Surface Location
 PD  .                 GL:   Permanent Datum
 DD  .F              3060:   Depth driller
 DL  .F              3062:   Depth logger
 BLI .F              3060:   Bottom log interval
 TLI .F              2450:   Top log interval
 CS1 .IN            8.625:   Casing size
 CBD1.      8.625" @ 200':   Casing driller 1
 CBL1.F               218:   Casing logger 1
 BS1 .IN            7.875:   Bit size
 BSD1.F              3060:   Depth drilled with bit1
 DFT .            KCL/MUD:   Type fluid in hole
 DFD .                8.7:   Density
 DFV .                 33:   Viscosity
 DFPH.                7.5:   pH
 DFL .                 36:   Fluid loss
 MSS .           FLOWLINE:   Source of sample
 TCS .HRS             4.5:   Time Circ. stopped
 MRT .F               110:   Maximum recorded temp.
 LUN .               8611:   Logging unit number
 LUL .           GILLETTE:   Logging unit location
 ENGI.            C. DOAK:   Recorded By
 WITN.            RHOADES:   Witnessed by
 ORIG.           5" PRINT:   Origin of data
 UWI .     49025103790000:   Unique Well ID
 DICO. A2D TECHNOLOGIES, INC.:   Digitizing Company
 DAPD.                 10:   Feet Above Permanent Datum
 RMS .OHMM            1.3:   Rm
 MST .F                84:   Rm Meas. temp.
 RMF .OHMM            .52:   Rmf
 MFST.F                84:   Rmf Meas. temp.
 MFSS.               FANN:   Source Rmf.
 RMC .OHMM           1.43:   Rmc
 MCST.F                84:   Rmc Meas. temp.
 MCSS.                KIT:   Source Rmc.
 RMB .OHMM            .99:   Rm. at BHT
 BHT .F               110:   BHT.
~OTHER INFORMATION
~A   DEPT     CALD         GRD      CORR       RHOB        SPR        ILD       GURD        ILM         DT       SPHI   
# ...
 2444.5000     9.5640   121.9180     0.0070     2.5110   -66.2240     6.6840     7.8890     7.5570  -999.2500  -999.2500
 2445.0000     9.5620   122.2370     0.0090     2.5080   -66.1960     6.6840     7.8890     7.5110  -999.2500  -999.2500
 2445.5000     9.5590   121.1290     0.0100     2.5050   -66.1680     6.7360     8.0790     7.4650  -999.2500  -999.2500
 2446.0000     9.5570   118.8960     0.0110     2.5130   -66.1400     6.7790     8.2380     7.4930  -999.2500  -999.2500
 2446.5000     9.5550   116.7610     0.0120     2.5240   -66.1120     6.8230     8.3970     7.5420  -999.2500  -999.2500
 2447.0000     9.5520   114.6550     0.0140     2.5340   -66.0850     6.8660     8.6500     7.5900  -999.2500  -999.2500
 2447.5000     9.5500   112.7440     0.0110     2.5350   -66.0570     6.9090     8.5620     7.6390  -999.2500  -999.2500
 2448.0000     9.5470   112.6970     0.0090     2.5330   -66.0290     6.9520     8.3430     7.6870    85.9160     0.2380
 2448.5000     9.5450   113.6790     0.0080     2.5240   -66.0010     6.9960     8.1240     7.7360    85.5180     0.2360
 2449.0000     9.5430   114.9280     0.0070     2.5160   -65.9730     7.0390     8.0360     7.7840    85.1500     0.2360
 2449.5000     9.5400   116.1990     0.0070     2.5080   -65.9450     7.0820     8.3170     7.8330    84.7600     0.2360
 2450.0000     9.5380   117.4860     0.0060     2.5100   -65.9170     7.1260     8.5510     7.8810    84.3700     0.2310
 2450.5000     9.5350   118.1490     0.0060     2.5120   -65.8900     7.1690     8.7860     7.9290    83.9810     0.2280
 2451.0000     9.5330   116.6220     0.0050     2.5140   -65.8610     7.2120     8.9750     7.9780    83.5910     0.2240
 2451.5000     9.5310   115.0290     0.0050     2.5170   -65.8330     7.2560     8.8160     8.0260    83.2640     0.2220
 2452.0000     9.5280   115.9100     0.0040     2.5190   -65.8130     7.2990     8.6820     8.0740    82.9280     0.2190
 2452.5000     9.5260   117.4470     0.0040     2.5220   -65.8390     7.3420     8.5490     8.1230    83.0880     0.2210
 2453.0000     9.5240   118.7880     0.0040     2.5240   -65.8600     7.3860     8.4920     8.1710    83.3270     0.2220
 2453.5000     9.5210   117.2380     0.0030     2.5270   -65.8850     7.4290     8.6390     8.2190    83.3270     0.2230
 2454.0000     9.5190   115.8920     0.0030     2.5270   -65.9080     7.4650     8.7630     8.2680    82.9000     0.2200
 2454.5000     9.5160   115.0300     0.0020     2.5250   -65.9310     7.4650     8.8880     8.3370    82.1880     0.2140
 2455.0000     9.5140   116.8920     0.0020     2.5220   -65.9540     7.4650     9.0120     8.2630    81.3350     0.2080
 2455.5000     9.5120   119.0670     0.0020     2.5190   -65.9780     7.3070     9.1420     8.1300    81.4670     0.2050
 2456.0000     9.5090   119.0600     0.0030     2.5170   -66.0010     7.1710     8.9060     7.9980    81.5340     0.2070
 2456.5000     9.5070   117.1470     0.0050     2.5210   -66.0240     7.0350     8.4800     7.8650    81.4940     0.2090
 2457.0000     9.5040   117.5590     0.0060     2.5200   -66.0480     6.8990     8.0550     7.7330    81.3940     0.2060
 2457.5000     9.5020   119.5470     0.0060     2.5140   -66.0710     6.7630     7.6040     7.6000    81.3350     0.2040
 2458.0000     9.4990   120.1900     0.0040     2.5070   -66.0940     6.6270     7.7450     7.4680    82.3310     0.2090
 2458.5000     9.4980   117.5350     0.0010     2.5030   -66.1180     6.4910     8.1200     7.3360    83.3270     0.2170
 2459.0000     9.4990   117.6180    -0.0020     2.5030   -66.1410     6.3550     8.9750     7.2030    84.5220     0.2250
 2459.5000     9.5010   119.3580     0.0000     2.5060   -66.1640     6.2090     8.6240     7.0710    84.3230     0.2300
 2460.0000     9.5030   121.1740     0.0050     2.5130   -66.1880     6.0960     6.8080     6.9380    82.4300     0.2150
 2460.5000     9.5050   122.9320     0.0000     2.5100   -66.2030     5.9360     6.9350     6.8060    80.5380     0.2000
 2461.0000     9.5070   124.4520    -0.0020     2.5010   -66.1930     5.8690     7.2430     6.6730    82.0940     0.2080
 2461.5000     9.5080   123.0840    -0.0010     2.4970   -66.1830     5.8010     7.7450     6.5410    83.6500     0.2220
 2462.0000     9.5100   122.0670     0.0020     2.5010   -66.1720     5.7680     7.3300     6.4080    85.5180     0.2380
 2462.5000     9.5120   123.7340     0.0050     2.5050   -66.1620     5.7680     6.0960     6.2090    84.9200     0.2380
 2463.0000     9.5140   126.2290     0.0080     2.5090   -66.1520     5.8750     6.2090     6.3110    85.1200     0.2340
 2463.5000     9.5160   126.1440     0.0100     2.5120   -66.1420     6.0220     6.6410     6.5150    85.6180     0.2370
 2464.0000     9.5180   123.3970     0.0080     2.5080   -66.1320     6.1560     7.7210     6.7190    86.7130     0.2450
 2464.5000     9.5200   120.6750     0.0040     2.5040   -66.1210     6.2900     8.4280     6.9240    86.0490     0.2460
 2465.0000     9.5220   118.1180     0.0010     2.4990   -66.1110     6.4240     8.0860     7.1280    84.7210     0.2320
 2465.5000     9.5240   115.2600    -0.0020     2.4930   -66.1010     6.5580     8.1460     7.3320    82.3310     0.2180
 2466.0000     9.5260   116.1270    -0.0050     2.4870   -66.0910     6.6920     8.5430     7.5370    81.9920     0.2070
 2466.5000     9.5280   117.2750    -0.0080     2.4810   -66.0810     6.8270     8.9400     7.6040    82.0920     0.2130
 2467.0000     9.5290   118.5820    -0.0130     2.4760   -66.0700     6.9610     9.3120     7.6040    81.4840     0.2060
 2467.5000     9.5310   118.9650    -0.0110     2.4760   -66.0600     7.0950     9.3120     7.6610    80.4050     0.1990
 2468.0000     9.5330   118.0420    -0.0080     2.4850   -66.0500     7.2290     8.9640     7.7150    79.5420     0.1870
 2468.5000     9.5330   116.9800    -0.0050     2.4940   -66.0400     7.3290     8.5600     7.7690    79.3920     0.1890
 2469.0000     9.5410   115.9110    -0.0020     2.5030   -66.0300     7.3290     8.3370     7.8220    79.7410     0.1930
 2469.5000     9.5060   114.7710     0.0010     2.5110   -66.0190     7.3110     8.6200     7.8760    80.2190     0.1980
 2470.0000     9.4990   114.1670     0.0050     2.5070   -66.0090     7.2950     8.8900     7.9300    80.5380     0.2020
 2470.5000     9.5000   114.4340     0.0040     2.5000   -65.9990     7.2780     9.1590     7.9840    80.3880     0.1980
 2471.0000     9.5030   115.2110     0.0000     2.4930   -65.9890     7.2610     9.3120     8.0360    80.3390     0.2000
 2471.5000     9.5040   115.9830    -0.0040     2.4870   -65.9790     7.2450     8.9990     8.0240    80.8700     0.2040
 2472.0000     9.5060   116.7770    -0.0080     2.4890   -65.9680     7.2280     8.6950     7.9720    81.1350     0.2050
 2472.5000     9.5080   117.5750    -0.0070     2.4980   -65.9580     7.2110     8.3370     7.9210    81.0160     0.2040
 2473.0000     9.5090   118.3510     0.0020     2.5060   -65.9480     7.1950     8.4630     7.8690    80.9360     0.2020
 2473.5000     9.5110   118.9430     0.0090     2.5150   -65.9380     7.2110     8.7620     7.8170    81.3350     0.2060
 2474.0000     9.5130   118.0420     0.0180     2.5240   -65.9270     7.2380     9.0620     7.7650    81.3350     0.2090
 2474.5000     9.5140   116.9090     0.0220     2.5310   -65.9170     7.2650     9.3620     7.7450    80.7370     0.2050
 2475.0000     9.5160   115.7260     0.0210     2.5330   -65.9070     7.2920     9.6610     7.7870    80.1390     0.1970
 2475.5000     9.5180   114.6020     0.0190     2.5400   -65.8970     7.3190     9.5370     7.8380    79.1150     0.1880
 2476.0000     9.5190   113.5110     0.0170     2.5450   -65.8870     7.3460     9.3290     7.8900    78.2610     0.1800
 2476.5000     9.5210   113.4630     0.0160     2.5470   -65.8760     7.3730     9.1210     7.9420    77.5500     0.1790
 2477.0000     9.5230   114.3200     0.0140     2.5450   -65.8660     7.3990     8.9130     7.9930    77.5500     0.1780
 2477.5000     9.5240   115.5100     0.0120     2.5420   -65.8560     7.4260     8.7050     8.0360    77.5500     0.1770
