~VERSION INFORMATION
 VERS.                2.0:   CWLS LOG ASCII STANDARD - VERSION 2.0
 WRAP.                 NO:   ONE LINE PER DEPTH STEP
~WELL INFORMATION
#MNEM.UNIT      DATA TYPE    INFORMATION
#----------   ------------   ------------------------------
 STRT.F          218.0000:   START DEPTH
 STOP.F         3062.0000:   STOP DEPTH
 STEP.F            0.5000:   STEP LENGTH
 NULL.          -999.2500:   NO VALUE
 COMP.    FEXIN & SCISSON:   COMPANY
 WELL. FEXIN 32 "A" #3-34:   WELL
 FLD .              N P R:   FIELD
 LOC .      S34 T39N R78W:   LOCATION
 CNTY.            NATRONA:   COUNTY
 STAT.            WYOMING:   STATE
 CTRY. UNITED STATES OF AMERICA:   COUNTRY
 SRVC.              WELEX:   SERVICE COMPANY
 DATE.        18-JUL-1977:   LOGDATE
 API .     49025103960000:   API NUMBER
~CURVE INFORMATION
#MNEM.UNIT       API CODE    CURVE DESCRIPTION
#----------   ------------   ------------------------------
 DEPT.F                  :   
 CALD.IN     45 280 60 00:   CALIPER FROM DENSITY LOG
 RHOB.G/C3   45 350 01 00:   BULK DENSITY
 GRD .GAPI   45 310 01 00:   GAMMA RAY FROM DENSITY LOG
 CORR.G/C3   45 356 01 00:   DENSITY CORRECTION
 SPR .MV     07 010 01 00:   SPONTANEOUS POTENTIAL
 SGRD.OHMM   07 220 05 00:   SHALLOW SHORT GUARD RESISTIVITY
 ILM .OHMM   07 120 44 00:   INDUCTION LOG MEDIUM RESISTIVITY
 ILD .OHMM   07 120 46 00:   DEEP INDUCTION RESISTIVITY
~PARAMETER INFORMATION
#MNEM.UNIT          VALUE    DESCRIPTION
#----------   ------------   ------------------------------
 EKB .F         5080.0000:   Kelly bushing
 EGL .F         5070.0000:   Ground level
 TD  .F         3070.0000:   Total depth
 DATE.        18-JUL-1977:   Date logged
 CLNT.            A2DTECH:   Client Code
 SL  . 900' FNL & 1650'FWL:   Surface Location
 PD  .                 GL:   Permanent Datum
 DD  .F              3070:   Depth driller
 DL  .F              3063:   Depth logger
 BLI .F              3061:   Bottom log interval
 CS1 .IN            8.625:   Casing size
 CBD1.      8.625" @ 212':   Casing driller 1
 CBL1.F               222:   Casing logger 1
 BS1 .IN            7.875:   Bit size
 DFT .           CEHM-GEL:   Type fluid in hole
 DFD .                8.8:   Density
 DFV .                 42:   Viscosity
 DFPH.                7.5:   pH
 DFL .                  8:   Fluid loss
 MSS .           FLOWLINE:   Source of sample
 RMS .OHMM            .89:   Rm
 MST .F                94:   Rm Meas. temp.
 RMF .OHMM            .54:   Rmf
 MFST.F                94:   Rmf Meas. temp.
 RMC .OHMM           1.24:   Rmc
 MCST.F                94:   Rmc Meas. temp.
 MFSS.               FANN:   Source Rmf.
 RMB .OHMM            .67:   Rm. at BHT
 BHT .F               122:   BHT.
 TCS .HRS               4:   Time Circ. stopped
 MRT .F               122:   Maximum recorded temp.
 LUN .               8611:   Logging unit number
 LUL .             CASPER:   Logging unit location
 ENGI.          C.A. DOAK:   Recorded By
 WITN.         PETTINGILL:   Witnessed by
 ORIG.           5" PRINT:   Origin of data
 UWI .     49025103960000:   Unique Well ID
 DICO. A2D TECHNOLOGIES, INC.:   Digitizing Company
 DAPD.                 12:   Feet Above Permanent Datum
 BSD1.F              3950:   Depth drilled with bit1
 MCSS.                KIT:   Source Rmc.
 EPD .F              5070:   Elevation Permanent Datum
 LMF .                 KB:   Log Measured From
 DMF .                 KB:   Drilling Measured From
 TLI .F               200:   Top log interval
~OTHER INFORMATION
~A   DEPT     CALD       RHOB        GRD       CORR        SPR       SGRD        ILM        ILD   
# ...
 2648.0000     8.5700     2.4280    71.7210     0.0210   -49.3350    60.0650    46.0160    41.0640
 2648.5000     8.5700     2.4290    74.3220     0.0210   -49.8030    59.7830    47.3180    41.8440
 2649.0000     8.5610     2.4370    76.8440     0.0210   -50.2640    59.6530    48.6190    42.6230
 2649.5000     8.5520     2.4460    78.5340     0.0210   -50.7240    64.2530    50.5730    43.4690
 2650.0000     8.5430     2.4540    74.6160     0.0210   -51.1850    80.7760    50.2780    43.4690
 2650.5000     8.5340     2.4620    71.4470     0.0210   -51.6530   100.6290    49.6880    43.0500
 2651.0000     8.5250     2.4700    68.8280     0.0220   -52.0860    76.3970    49.0970    42.6680
 2651.5000     8.5160     2.4760    69.9150     0.0220   -52.5200    62.5960    48.5070    42.2860
 2652.0000     8.5130     2.4760    71.2970     0.0220   -52.9510    61.4490    47.9160    41.9050
 2652.5000     8.5120     2.4740    72.6860     0.0220   -53.3830    58.7410    47.3260    41.5230
 2653.0000     8.5100     2.4720    74.0720     0.0240   -53.8340    56.0340    46.7350    41.1420
 2653.5000     8.5090     2.4690    75.4570     0.0260   -54.4090    54.1750    46.5650    40.7600
 2654.0000     8.5070     2.4680    76.8420     0.0270   -54.9840    57.0280    46.7760    40.3780
 2654.5000     8.5050     2.4720    78.2280     0.0290   -55.5600    62.5690    47.0070    39.9970
 2655.0000     8.5040     2.4770    79.6130     0.0300   -56.1350    67.5180    47.2100    39.6150
 2655.5000     8.5020     2.4830    80.9950     0.0300   -56.7110    68.9260    47.2100    39.2340
 2656.0000     8.5000     2.4880    82.3810     0.0310   -57.2870    65.5260    46.8590    38.8520
 2656.5000     8.4990     2.4920    83.8230     0.0320   -57.8620    60.4790    46.4780    38.4060
 2657.0000     8.4970     2.4990    83.9170     0.0310   -58.4380    60.0650    46.0970    38.2230
 2657.5000     8.4960     2.5030    83.5030     0.0300   -59.0130    60.8970    45.7170    37.9720
 2658.0000     8.4940     2.4970    83.0710     0.0280   -59.5890    61.7410    44.9610    37.7210
 2658.5000     8.4930     2.4900    82.6390     0.0270   -60.1620    59.2440    44.0670    37.4700
 2659.0000     8.4920     2.4830    82.2080     0.0260   -60.7050    61.7410    43.1730    37.2190
 2659.5000     8.4910     2.4780    81.7740     0.0240   -61.2350    58.5880    42.4100    36.9680
 2660.0000     8.4900     2.4810    81.4520     0.0190   -61.7630    54.3080    41.9030    36.6020
 2660.5000     8.4890     2.4850    83.3640     0.0150   -62.2080    51.9840    41.3960    36.1380
 2661.0000     8.4880     2.4890    85.5760     0.0140   -62.6270    54.2230    40.8890    35.6740
 2661.5000     8.4860     2.4850    87.7950     0.0140   -63.0450    55.3050    40.3820    35.2100
 2662.0000     8.4850     2.4800    90.0110     0.0140   -63.4640    52.3430    39.8750    34.7460
 2662.5000     8.4840     2.4820    92.0610     0.0160   -63.8820    54.5490    39.3680    34.2810
 2663.0000     8.4830     2.4870    91.2000     0.0190   -64.3010    52.6810    38.8790    33.8170
 2663.5000     8.4820     2.4920    89.1310     0.0210   -64.7190    51.6280    38.4910    33.3530
 2664.0000     8.4810     2.4960    87.0820     0.0250   -65.1730    55.1150    38.1030    32.5530
 2664.5000     8.4800     2.4990    85.0260     0.0280   -65.7360    59.6530    37.7150    31.6430
 2665.0000     8.4780     2.4920    83.0320     0.0250   -66.3000    55.2900    36.3970    30.7340
 2665.5000     8.4770     2.4840    84.5480     0.0210   -66.7780    47.9750    34.7840    29.8240
 2666.0000     8.4760     2.4760    87.4810     0.0170   -67.1310    38.6710    33.1700    28.9140
 2666.5000     8.4740     2.4670    90.4340     0.0140   -67.4840    38.8900    31.5570    28.0050
 2667.0000     8.4670     2.4620    93.3900     0.0100   -67.8350    39.7500    29.9440    27.0950
 2667.5000     8.4600     2.4630    96.3520     0.0090   -68.1840    39.0830    29.1850    26.1860
 2668.0000     8.4530     2.4670    99.2970     0.0080   -68.5350    37.3630    28.6840    25.2760
 2668.5000     8.4460     2.4700   101.5500     0.0070   -68.9050    35.8520    28.3580    25.0520
 2669.0000     8.4390     2.4690    98.5700     0.0050   -68.7900    37.1750    28.2660    24.9530
 2669.5000     8.4320     2.4640    95.5970     0.0040   -68.4640    39.0450    28.1730    24.8550
 2670.0000     8.4240     2.4600    92.6480     0.0030   -68.1340    41.7110    28.0810    24.7560
 2670.5000     8.4170     2.4590    92.2990     0.0020   -67.8140    38.6710    27.9880    24.6570
 2671.0000     8.4160     2.4620    94.4540     0.0010   -67.4710    40.8590    27.8960    24.5570
 2671.5000     8.4170     2.4640    96.1420    -0.0020   -67.1320    38.7210    27.8030    24.1110
 2672.0000     8.4180     2.4650    96.4430    -0.0010   -66.7220    36.3530    27.7110    23.5430
 2672.5000     8.4190     2.4630    95.8620     0.0010   -66.2670    35.6060    27.6190    23.0820
 2673.0000     8.4200     2.4650    95.0970     0.0020   -65.8090    37.1070    27.5260    23.5860
 2673.5000     8.4210     2.4710    94.3170     0.0030   -64.9180    35.8520    27.4150    24.0940
 2674.0000     8.4220     2.4770    93.6610     0.0050   -64.0540    37.5690    28.1260    24.6030
 2674.5000     8.4230     2.4820    93.7650     0.0060   -63.1940    33.7000    29.4480    25.1110
 2675.0000     8.4240     2.4790    94.1880     0.0080   -62.3230    37.1070    30.7690    25.7690
 2675.5000     8.4250     2.4740    94.3970     0.0080   -61.5240    46.0340    32.0910    26.7040
 2676.0000     8.4260     2.4690    94.4720     0.0060   -60.7150    54.9260    33.4120    27.8720
 2676.5000     8.4270     2.4640    93.6480     0.0050   -60.0290    51.9840    34.7330    29.0410
 2677.0000     8.4280     2.4590    91.5250     0.0030   -59.7120    52.2300    36.0550    30.2100
 2677.5000     8.4290     2.4540    89.3900     0.0020   -59.7380    52.8330    37.3630    31.3780
 2678.0000     8.4300     2.4390    87.2490     0.0020   -59.7620    53.0680    38.1420    32.5470
 2678.5000     8.4310     2.4210    85.0840     0.0030   -59.7870    51.5140    38.3070    33.7150
 2679.0000     8.4320     2.4030    84.3350     0.0030   -59.8130    50.9220    38.5750    33.9320
 2679.5000     8.4330     2.3880    87.8210     0.0030   -59.8380    50.5730    38.8440    33.9110
 2680.0000     8.4340     2.3860    90.7030     0.0040   -59.8650    53.7420    39.1120    33.8140
 2680.5000     8.4350     2.3950    89.8970     0.0040   -59.8900    56.8480    39.3810    33.7170
 2681.0000     8.4360     2.4080    88.8300     0.0060   -60.0110    52.9210    39.6490    33.4220
 2681.5000     8.4280     2.4200    87.8220     0.0070   -60.2090    49.7060    40.0240    33.0850
 2682.0000     8.4190     2.4320    87.6610     0.0090   -60.4070    47.2100    40.4320    32.7480
 2682.5000     8.4110     2.4440    88.3290     0.0130   -60.6070    47.7180    40.9250    32.4110
 2683.0000     8.4020     2.4430    88.9080     0.0160   -60.8080    48.8630    41.4190    32.0740
 2683.5000     8.3940     2.4400    89.4780     0.0170   -61.1780    48.5120    41.9120    31.7370
 2684.0000     8.3850     2.4400    90.0660     0.0180   -61.6690    47.9590    42.2890    31.4000
 2684.5000     8.3770     2.4510    90.8730     0.0200   -62.1430    47.5360    42.2890    31.0630
 2685.0000     8.3910     2.4650    90.6810     0.0260   -62.4250    48.1950    41.0600    30.7260
 2685.5000     8.4090     2.4790    90.6140     0.0310   -62.7190    47.0260    38.6710    30.3890
 2686.0000     8.4270     2.4880    91.5270     0.0380   -63.0150    45.7170    38.1420    30.0520
 2686.5000     8.4450     2.4920    92.6930     0.0350   -63.3090    44.3760    38.1420    29.7150
 2687.0000     8.4640     2.4920    93.8570     0.0320   -63.5960    44.7250    38.1420    29.3780
 2687.5000     8.4820     2.4890    94.9950     0.0310   -64.0130    45.5060    38.1420    29.0410
 2688.0000     8.5000     2.4870    95.6750     0.0300   -64.4490    46.2460    37.6200    28.7040
