~VERSION INFORMATION
 VERS.                2.0:   CWLS LOG ASCII STANDARD - VERSION 2.0
 WRAP.                 NO:   ONE LINE PER DEPTH STEP
~WELL INFORMATION
#MNEM.UNIT      DATA TYPE    INFORMATION
#----------   ------------   ------------------------------
 STRT.F            5.0000:   START DEPTH
 STOP.F         4012.0000:   STOP DEPTH
 STEP.F            0.5000:   STEP LENGTH
 NULL.          -999.2500:   NO VALUE
 COMP.   LAWRENCE ALLISON:   COMPANY
 WELL. LAWRENCE "X" 51 #1-15:   WELL
 FLD .                NPR:   FIELD
 LOC .      S15 T38N R78W:   LOCATION
 CNTY.            NATRONA:   COUNTY
 STAT.            WYOMING:   STATE
 CTRY. UNITED STATES OF AMERICA:   COUNTRY
 SRVC.      DRESSER ATLAS:   SERVICE COMPANY
 DATE.        03-JUN-1985:   LOGDATE
 API .     49025110270000:   API NUMBER
~CURVE INFORMATION
#MNEM.UNIT       API CODE    CURVE DESCRIPTION
#----------   ------------   ------------------------------
 DEPT.F                  :   
 NPHI.DEC    42 890 03 00:   NEUTRON POROSITY SANDSTONE
 RHOB.G/C3   45 350 01 00:   BULK DENSITY
 CORR.G/C3   45 356 01 00:   DENSITY CORRECTION
 TEND.LBS    45 635 01 00:   TENSION FROM DENSITY LOG
 CALD.IN     45 280 60 00:   CALIPER FROM DENSITY LOG
 GRR .GAPI   07 310 01 00:   GAMMA RAY FROM RESISTIVITY
 SPR .MV     07 010 01 00:   SPONTANEOUS POTENTIAL
 RSFL.OHMM   07 220 01 00:   SPHERICALLY FOCUSED LOG RES.
 RILD.OHMM   07 120 46 00:   DEEP INDUCTION RESISTIVITY
 RILM.OHMM   07 120 44 00:   INDUCTION LOG MEDIUM RESISTIVITY
 TENR.LBS    07 635 01 00:   TENSION
~PARAMETER INFORMATION
#MNEM.UNIT          VALUE    DESCRIPTION
#----------   ------------   ------------------------------
 EKB .F         5235.0000:   Kelly bushing
 EGL .F         5222.0000:   Ground level
 EDF .F            0.0000:   Drilling floor
 TD  .F         4010.0000:   Total depth
 DATE.        03-JUN-1985:   Date logged
 CLNT.            A2DTECH:   Client Code
 SL  . 202' FNL & 2478' FEL:   Surface Location
 PD  .                 GL:   Permanent Datum
 EPD .F              5222:   Elevation Permanent Datum
 LMF .                 KB:   Log Measured From
 DMF .                 KB:   Drilling Measured From
 DAPD.F                13:   Feet Above Permanent Datum
 DD  .F              4010:   Depth driller
 DL  .F              4005:   Depth logger
 BLI .F              4003:   Bottom log interval
 CS1 .IN            8.625:   Casing size
 CBD1.      8.625" @ 605':   Casing driller 1
 CBL1.F               608:   Casing logger 1
 BS1 .IN            7.875:   Bit size
 BSD1.F              4010:   Depth drilled with bit1
 DFT .            KCL/GEL:   Type fluid in hole
 DFD .                  9:   Density
 DFV .                 45:   Viscosity
 DFPH.                  8:   pH
 DFL .                9.8:   Fluid loss
 MSS .           FLOWLINE:   Source of sample
 RMS .OHMM            .40:   Rm
 MST .F                65:   Rm Meas. temp.
 RMF .OHMM            .32:   Rmf
 MFST.F                65:   Rmf Meas. temp.
 RMC .OHMM            .50:   Rmc
 MCST.F                65:   Rmc Meas. temp.
 MFSS.               MEAS:   Source Rmf.
 MCSS.               CALC:   Source Rmc.
 RMB .OHMM            .20:   Rm. at BHT
 BHT .F               130:   BHT.
 TCS .HRS               3:   Time Circ. stopped
 MRT .F               130:   Maximum recorded temp.
 LUN .               6274:   Logging unit number
 LUL .               GLTE:   Logging unit location
 ENGI.             RAUTIO:   Recorded By
 WITN.             STRONG:   Witnessed by
 ORIG.     2.5", 5" PRINT:   Origin of data
 UWI .     49025110270000:   Unique Well ID
 DICO. A2D TECHNOLOGIES, INC.:   Digitizing Company
~OTHER INFORMATION
~A    DEPT    NPHI       RHOB       CORR       TEND       CALD        GRR        SPR       RSFL       RILD       RILM       TENR   
# ...
 3970.0000     0.3420  -999.2500  -999.2500   325.1470     7.6160  -999.2500   -78.4020    18.0420     7.3270     7.8400   258.7100
 3970.5000     0.3400  -999.2500  -999.2500   332.1470     7.6130  -999.2500   -78.4150    21.6290     7.0310     7.3700   266.8230
 3971.0000     0.3370  -999.2500  -999.2500   339.1460     7.6100  -999.2500   -78.4280    16.9790     6.6750     6.9000   274.9350
 3971.5000     0.3420  -999.2500  -999.2500   346.1460     7.6080  -999.2500   -78.4410    12.9180     6.2980     6.4300   283.0480
 3972.0000     0.3510  -999.2500  -999.2500   353.1460     7.6050  -999.2500   -78.4540     8.8580     5.9210     5.9610   291.1610
 3972.5000     0.3520  -999.2500  -999.2500   360.1460     7.6020  -999.2500   -78.4660     5.4830     5.5440     5.3830   299.2740
 3973.0000     0.3420  -999.2500  -999.2500   367.1460     7.5990  -999.2500   -78.4450     5.4830     5.3380     5.3980   307.3870
 3973.5000     0.3400  -999.2500  -999.2500   374.1460     7.5960  -999.2500   -78.3680     5.7040     5.2180     5.4170   315.5000
 3974.0000     0.3380  -999.2500  -999.2500   381.1460     7.5930  -999.2500   -78.2930     5.9300     5.0980     5.4330   323.6130
 3974.5000     0.3360  -999.2500  -999.2500   388.1450     7.5900  -999.2500   -78.2170     6.0680     5.0010     5.2850   331.7260
 3975.0000     0.3290  -999.2500  -999.2500   395.1450     7.5870  -999.2500   -78.1420     5.8710     5.0010     5.2120   339.8390
 3975.5000     0.3330  -999.2500  -999.2500   402.1450     7.5850  -999.2500   -78.0660     5.6540     5.0010     5.1410   347.9520
 3976.0000     0.3410  -999.2500  -999.2500   409.1450     7.5820  -999.2500   -77.9900     5.4830     5.0910     5.2420   356.0650
 3976.5000     0.3360  -999.2500  -999.2500   416.1450     7.5800  -999.2500   -77.9150     5.4830     5.2360     5.3680   364.1770
 3977.0000     0.3130  -999.2500  -999.2500   423.1450     7.5800  -999.2500   -77.8390     5.5160     5.3660     5.4940   372.2900
 3977.5000     0.3030  -999.2500  -999.2500   430.1450     7.5800  -999.2500   -77.7630     5.5930     5.4930     5.6200   380.4030
 3978.0000     0.2940  -999.2500  -999.2500   437.1450     7.5800  -999.2500   -77.6880     5.6370     5.6200     5.7420   388.5160
 3978.5000     0.2790  -999.2500  -999.2500   444.1440     7.5800  -999.2500   -77.6130     5.4330     5.7420     6.0580   396.6290
 3979.0000     0.2850  -999.2500  -999.2500   451.1440     7.5800  -999.2500   -77.5390     5.3830     5.8250     6.3640   404.7420
 3979.5000     0.3000  -999.2500  -999.2500   458.1440     7.5800  -999.2500   -77.4670     5.5870     5.8480     6.5320   412.8550
 3980.0000     0.3000  -999.2500  -999.2500   465.1440     7.5800  -999.2500   -77.1820     6.0120     5.7780     6.2940   420.9680
 3980.5000     0.3040  -999.2500  -999.2500   472.1440     7.5800  -999.2500   -76.8950     8.2530     5.7120     6.0340   429.0810
 3981.0000     0.3040  -999.2500  -999.2500   479.1440     7.5800  -999.2500   -76.6090     9.7960     5.6450     5.7750   436.3880
 3981.5000     0.3020  -999.2500  -999.2500   486.1440     7.5800  -999.2500   -76.3240     8.1490     5.5340     5.6890   441.5200
 3982.0000     0.3030  -999.2500  -999.2500   493.1430     7.5800  -999.2500   -76.0390     6.4680     5.5620     5.8650   446.6530
 3982.5000     0.3040  -999.2500  -999.2500   500.1430     7.5800  -999.2500   -75.7520     4.7870     5.6030     5.9020   451.7860
 3983.0000     0.2960  -999.2500  -999.2500   507.1430     7.5800  -999.2500   -75.4910     4.5610     5.6440     5.7950   456.9180
 3983.5000     0.2940  -999.2500  -999.2500   514.1430     7.5800  -999.2500   -75.7180     5.6720     5.6890     6.0600   462.0510
 3984.0000     0.2990  -999.2500  -999.2500   521.1430     7.5800  -999.2500   -75.9680     6.6090     5.7910     6.4400   467.1840
 3984.5000     0.3090  -999.2500  -999.2500   528.1430     7.5800  -999.2500   -76.2190     7.9990     5.9360     6.7890   472.3160
 3985.0000     0.3100  -999.2500  -999.2500   535.1430     7.5800  -999.2500   -76.4690     7.9050     6.0820     6.8400   477.4490
 3985.5000     0.2960  -999.2500  -999.2500   542.1420     7.5810  -999.2500   -76.6970     7.7100     6.2380     6.5660   482.5820
 3986.0000     0.2750  -999.2500  -999.2500   549.1420     7.5820  -999.2500   -76.7260     8.0270     6.0780     6.2690   491.4480
 3986.5000     0.2600  -999.2500  -999.2500   556.1420     7.5830  -999.2500   -76.7600     8.3650     5.8840     6.0120   503.6420
 3987.0000     0.2620  -999.2500  -999.2500   565.1270     7.5840  -999.2500   -76.7940     8.4530     5.6890     5.8480   515.8360
 3987.5000     0.2670  -999.2500  -999.2500   575.0460     7.5850  -999.2500   -76.8290     7.1940     5.6890     5.9120   528.0300
 3988.0000     0.2730  -999.2500  -999.2500   584.9660     7.5860  -999.2500   -76.8630     6.2560     5.8250     5.9970   540.2240
 3988.5000     0.2800  -999.2500  -999.2500   594.8850     7.5870  -999.2500   -76.8640     5.3180     6.0710     6.0820   552.4180
 3989.0000     0.2620  -999.2500  -999.2500   604.8050     7.5880  -999.2500   -76.7200     4.9090     6.3170     6.1670   565.0000
 3989.5000     0.2400  -999.2500  -999.2500   614.7240     7.5890  -999.2500   -76.5770     5.1810     6.8120     6.4310   572.3050
 3990.0000     0.2320  -999.2500  -999.2500   624.6440     7.5900  -999.2500   -76.4340     5.9550     7.7260     7.5450   579.8500
 3990.5000     0.2450  -999.2500  -999.2500   634.5630     7.5910  -999.2500   -76.2920     7.3260     8.6400     8.5800   587.3950
 3991.0000     0.2660  -999.2500  -999.2500   644.4820     7.5920  -999.2500   -76.1490     8.8650     9.4560     9.2650   594.9400
 3991.5000     0.2870  -999.2500  -999.2500   654.4020     7.5930  -999.2500   -76.0070    10.2910    10.2040     9.9500   602.4850
 3992.0000     0.3090  -999.2500  -999.2500   664.3210     7.5940  -999.2500   -75.8640    11.4090    10.9520    10.6360   610.0300
 3992.5000     0.3020  -999.2500  -999.2500   674.2410     7.5950  -999.2500   -75.7210    12.3230    11.2800    11.1110   617.5750
 3993.0000     0.2980  -999.2500  -999.2500   684.1600     7.5960  -999.2500   -75.5790    13.4900    11.4380    11.1440   625.1200
 3993.5000     0.2660  -999.2500  -999.2500   694.0800     7.5970  -999.2500   -75.5010    14.8170    11.5620    11.1960   632.6650
 3994.0000     0.2600  -999.2500  -999.2500   703.9990     7.5980  -999.2500   -75.5340    16.1080    11.7770    11.2470   640.2100
 3994.5000     0.2530  -999.2500  -999.2500   713.9190     7.5990  -999.2500   -75.5650    13.8950    11.7530    11.3510   647.7550
 3995.0000     0.2550  -999.2500  -999.2500   723.8380     7.6000  -999.2500   -75.5960    11.2250    11.7250    12.0160   655.0000
 3995.5000     0.2570  -999.2500  -999.2500   733.7570     7.6010  -999.2500   -75.6280     8.5560    11.6960    12.6600   667.1630
 3996.0000     0.2600  -999.2500  -999.2500   743.6770     7.6020  -999.2500   -75.6590     8.0730    11.6690    13.3040   678.8600
 3996.5000     0.2730  -999.2500  -999.2500   753.5960     7.6020  -999.2500   -75.6900    14.2780    11.5100    13.9470   690.5580
 3997.0000     0.2890  -999.2500  -999.2500   763.5160     7.6030  -999.2500   -75.7210    20.1790    11.2670    14.4220   702.2560
 3997.5000     0.2990  -999.2500  -999.2500   773.4350     7.6040  -999.2500   -75.7520    26.0800    11.0420    14.3650   713.9530
 3998.0000     0.3040  -999.2500  -999.2500   782.0550     7.6050  -999.2500   -75.7840    31.9800    10.8400    14.3190   725.6510
 3998.5000     0.3040  -999.2500  -999.2500   789.5910     7.6060  -999.2500   -75.8150    36.2270    10.6420    14.2730   737.3490
 3999.0000     0.3030  -999.2500  -999.2500   797.1280     7.6070  -999.2500   -75.8460    31.2630    10.6420    14.2280   749.0470
 3999.5000     0.3020  -999.2500  -999.2500   804.6640     7.6080  -999.2500   -75.8770    24.4790    10.6420    14.1820   757.4410
 4000.0000     0.3000  -999.2500  -999.2500   812.2010     7.6090  -999.2500   -75.9050    16.8460    10.6190    14.1000   765.7920
