~VERSION INFORMATION
 VERS.                2.0:   CWLS LOG ASCII STANDARD - VERSION 2.0
 WRAP.                 NO:   ONE LINE PER DEPTH STEP
~WELL INFORMATION
#MNEM.UNIT      DATA TYPE    INFORMATION
#----------   ------------   ------------------------------
 STRT.F          629.0000:   START DEPTH
 STOP.F         4090.0000:   STOP DEPTH
 STEP.F            0.5000:   STEP LENGTH
 NULL.          -999.2500:   NO VALUE
 COMP. LAWRENCE ALLISON & ASSOCIATES:   COMPANY
 WELL. LAWRENCE NPR 3 "SHX" #36-10:   WELL
 FLD .      NPR - WILDCAT:   FIELD
 LOC .      S10 T38N R78W:   LOCATION
 CNTY.            NATRONA:   COUNTY
 STAT.            WYOMING:   STATE
 CTRY. UNITED STATES OF AMERICA:   COUNTRY
 SRVC.      DRESSER ATLAS:   SERVICE COMPANY
 DATE.        24-DEC-1981:   LOGDATE
 API .     49025108310000:   API NUMBER
~CURVE INFORMATION
#MNEM.UNIT       API CODE    CURVE DESCRIPTION
#----------   ------------   ------------------------------
 DEPT.F                  :   
 DT  .US/F   60 520 00 00:   DELTA TIME
 TENS.LBS    60 635 01 00:   TENSION FROM SONIC
 GRR .GAPI   07 310 01 00:   GAMMA RAY FROM RESISTIVITY
 SPR .MV     07 010 01 00:   SPONTANEOUS POTENTIAL
 RFOC.OHMM   07 220 04 00:   RESISTIVITY FOCUSED LOG RES.
 RILM.OHMM   07 120 44 00:   INDUCTION LOG MEDIUM RESISTIVITY
 RILD.OHMM   07 120 46 00:   DEEP INDUCTION RESISTIVITY
 TENR.LBS    07 635 01 00:   TENSION FROM RESISTIVITY
 NPHI.DEC    42 890 03 00:   NEUTRON POROSITY SANDSTONE
 RHOB.G/C3   45 350 01 00:   BULK DENSITY
 CORR.G/C3   45 356 01 00:   DENSITY CORRECTION
 TEND.LBS    45 635 01 00:   TENSION FROM DENSITY LOG
 CALD.IN     45 280 60 00:   CALIPER FROM DENSITY LOG
~PARAMETER INFORMATION
#MNEM.UNIT          VALUE    DESCRIPTION
#----------   ------------   ------------------------------
 EKB .F         5234.0000:   Kelly bushing
 EGL .F         5224.0000:   Ground level
 EDF .F         5233.0000:   Drilling floor
 EPD .F            0.0000:   Permanent datum
 TD  .F         4100.0000:   Total depth
 DATE.        24-DEC-1981:   Date logged
 CLNT.            A2DTECH:   Client Code
 SL  . 1798' FSL & 1455' FWL:   Surface Location
 PD  .                 GL:   Permanent Datum
 DAPD.F                10:   Feet Above Permanent Datum
 DD  .F              4100:   Depth driller
 DL  .F              4082:   Depth logger
 BLI .F              4074:   Bottom log interval
 TLI .F              2300:   Top log interval
 CS1 .IN            9.625:   Casing size
 CBD1.      9.625" @ 650':   Casing driller 1
 BS1 .IN            7.875:   Bit size
 BSD1.F              4100:   Depth drilled with bit1
 DFT .            KCL/GEL:   Type fluid in hole
 DFD .                9.1:   Density
 DFV .                 60:   Viscosity
 DFPH.                  8:   pH
 DFL .                 12:   Fluid loss
 MSS .           FLOWLINE:   Source of sample
 RMS .OHMM           .536:   Rm
 RMF .OHMM           .402:   Rmf
 RMC .OHMM            067:   Rmc
 MFSS.               CALC:   Source Rmf.
 MCSS.               CALC:   Source Rmc.
 RMB .OHMM            .35:   Rm. at BHT
 BHT .F               135:   BHT.
 TCS .HRS               6:   Time Circ. stopped
 MRT .F               141:   Maximum recorded temp.
 LUL .               GLT1:   Logging unit location
 UWI .     49025108310000:   Unique Well ID
 DICO. A2D TECHNOLOGIES, INC.:   Digitizing Company
~OTHER INFORMATION
~A   DEPT       DT       TENS         GRR       SPR       RFOC       RILM       RILD       TENR       NPHI       RHOB       CORR       TEND       CALD   
# ...
 2657.0000    77.3640  -123.7700    74.3490     0.6050    21.2180    22.2480    26.8630  -104.8550     0.2140     2.4140     0.0590  -113.2630     8.2410
 2657.5000    76.9190  -123.6740    75.1970     0.0330    21.9230    22.7000    28.5980  -104.8550     0.2110     2.4180     0.0500  -111.9470     8.2410
 2658.0000    76.4860  -123.5780    78.3500    -0.5340    22.3400    23.1510    29.9320  -104.8550     0.2110     2.4220     0.0420  -110.6310     8.2410
 2658.5000    76.2270  -123.4820    76.1220    -1.1360    22.5470    23.6030    31.1330  -104.8550     0.2090     2.4150     0.0330  -109.3160     8.2410
 2659.0000    75.9750  -123.3870    72.6460    -0.7990    22.7550    24.0550    33.0800  -104.8550     0.2090     2.4070     0.0250  -108.0000     8.2410
 2659.5000    75.7230  -123.2910    70.2150    -0.5850    23.0340    24.5070    34.8500  -104.8550     0.2090     2.4030     0.0380  -106.6840     8.2410
 2660.0000    75.4700  -123.1950    71.8070    -0.3400    23.2600    24.9580    36.6200  -104.8550     0.2100     2.3990     0.0520  -105.3680     8.2410
 2660.5000    75.2180  -123.0990    73.3160    -0.0870    23.4850    25.7220    38.3900  -104.8550     0.2030     2.3890     0.0670  -104.0520     8.2410
 2661.0000    75.1700  -123.0030    74.6170     0.1690    23.7110    26.7980    40.1600  -104.8550     0.2010     2.3960     0.0800  -102.7370     8.2410
 2661.5000    75.3500  -122.9070    73.0570     0.4290    23.9370    27.8740    41.9300  -104.8550     0.2010     2.4070     0.0720  -101.4210     8.2410
 2662.0000    75.5310  -122.8110    71.4620     0.7050    25.4180    28.9500    43.7000  -104.8550     0.2010     2.4170     0.0580  -100.1050     8.2410
 2662.5000    74.8150  -122.7150    69.8780     0.1970    39.1070    30.0260    45.4700  -104.8550     0.1890     2.4240     0.0440   -98.7890     8.2410
 2663.0000    73.0230  -122.6190    68.2960    -0.3000    51.5530    30.8470    47.1410  -104.8550     0.1740     2.4410     0.0300   -97.4730     8.2410
 2663.5000    70.7940  -122.5230    66.7510    -0.7890    63.9980    30.8470    47.5780  -104.8550     0.1720     2.4670     0.0160   -96.1580     8.2420
 2664.0000    67.4310  -122.4270    66.2210    -1.2780    73.3830    29.6490    47.5780  -104.8550     0.1730     2.5360     0.0000   -95.3090     8.2430
 2664.5000    65.1750  -122.3320    69.5050    -1.7670    44.6210    28.5600    45.5090  -104.8550     0.1770     2.5430     0.0300   -96.2500     8.2440
 2665.0000    67.0770  -122.2360    72.6610    -2.2580    24.4700    27.4710    43.2100  -104.8550     0.1810     2.5040     0.0780   -98.8810     8.2450
 2665.5000    70.6200  -122.1400    74.8760    -2.7420    20.7510    26.3820    40.9100  -104.8550     0.1890     2.4550     0.0800  -101.5130     8.2460
 2666.0000    74.3870  -122.0440    73.4500    -3.0940    20.9740    25.1840    38.6110  -104.8550     0.1960     2.4060     0.0580  -104.1440     8.2470
 2666.5000    78.2880  -121.9480    72.1480    -2.9180    21.4190    25.0940    36.3120  -104.8550     0.2040     2.3690     0.0290  -105.2890     8.2480
 2667.0000    78.2880  -121.8520    71.7750    -2.7540    21.7300    24.9940    34.0130  -104.8550     0.2120     2.3690     0.0280  -105.2890     8.2490
 2667.5000    78.2880  -121.7560    75.0590    -2.5920    21.7300    24.8940    31.7140  -104.8550     0.2120     2.3720     0.0460  -105.2890     8.2500
 2668.0000    77.6410  -121.6600    78.2610    -2.4290    21.9320    24.7940    30.2840  -104.8550     0.2060     2.4010     0.0360  -105.2890     8.2510
 2668.5000    76.5310  -121.5640    82.1940    -2.2660    23.8290    24.5900    30.0660  -104.8550     0.2010     2.4360     0.0180  -105.2890     8.2520
 2669.0000    75.4210  -121.4680    80.3900    -2.1030    23.8290    24.1430    30.3660  -104.8550     0.1980     2.4360     0.0000  -105.2890     8.2540
 2669.5000    75.4060  -121.3730    76.8430    -1.9330    23.4840    23.6950    30.7660  -104.8550     0.1990     2.4160    -0.0040  -105.2890     8.2550
 2670.0000    76.1000  -121.2770    74.8240    -2.1070    23.1010    23.2480    31.1660  -104.8550     0.2010     2.3840     0.0030  -105.2890     8.2560
 2670.5000    76.7940  -121.1810    75.0240    -2.3410    22.7550    22.7550    31.5660  -104.8550     0.1990     2.3520     0.0090  -105.2890     8.2570
 2671.0000    77.1870  -121.0850    76.4880    -2.5780    22.7550    22.7550    32.0060  -104.8550     0.1990     2.3500     0.0220  -105.2890     8.2580
 2671.5000    76.9550  -120.9890    78.1600    -2.8140    22.7550    22.7550    33.9650  -104.8550     0.2070     2.3600     0.0390  -105.2890     8.2590
 2672.0000    76.7310  -120.8930    79.8650    -3.0510    23.5230    23.1590    36.1420  -104.8550     0.2150     2.3820     0.0400  -105.2890     8.2600
 2672.5000    76.5070  -120.7970    81.6410    -3.2880    24.6200    24.5060    38.3180  -104.8550     0.2080     2.3990     0.0350  -105.2890     8.2610
 2673.0000    76.2820  -120.7010    79.6600    -3.5160    25.7180    25.8530    40.4950  -104.8550     0.1950     2.3990     0.0210  -105.2890     8.2620
 2673.5000    76.0580  -120.6050    76.9740    -3.4240    26.8150    27.1990    42.6720  -104.8550     0.1870     2.3850     0.0060  -105.2890     8.2630
 2674.0000    74.4610  -120.5090    74.2660    -3.2620    30.5360    28.2610    44.6040  -104.8550     0.1820     2.3860    -0.0080  -105.2890     8.2640
 2674.5000    72.2140  -120.4140    71.6030    -3.1010    36.8830    28.6540    45.0180  -104.8550     0.1800     2.4120    -0.0230  -105.2890     8.2650
 2675.0000    71.1440  -120.3180    69.9550    -2.9390    42.9890    26.8640    45.0180  -104.8550     0.1770     2.4460    -0.0190  -105.2890     8.2660
 2675.5000    71.0290  -120.2220    72.6900    -2.7780    35.5090    25.4870    43.4100  -104.8550     0.1750     2.4560    -0.0030  -105.2890     8.2670
 2676.0000    72.0430  -120.1260    77.0540    -2.6160    25.8910    24.1100    40.1960  -104.8550     0.1840     2.4280     0.0340  -105.2890     8.2690
 2676.5000    74.3130  -120.0300    79.8320    -2.4550    24.2560    22.7330    36.9810  -104.8550     0.1990     2.3980     0.0450  -104.9090     8.2700
 2677.0000    76.5840  -119.9340    82.5700    -2.2940    22.7700    21.3570    33.7660  -104.8550     0.2130     2.3780     0.0420  -103.0570     8.2710
 2677.5000    77.4940  -119.8380    85.3200    -2.1320    21.7300    20.4100    30.5520  -104.8550     0.2210     2.3740     0.0440  -101.2050     8.2720
 2678.0000    77.9110  -119.7420    88.1130    -1.9710    21.2980    19.9070    26.3720  -104.8550     0.2240     2.3840     0.0460   -99.3530     8.2730
 2678.5000    78.3290  -119.6460    88.2690    -1.8100    20.8170    19.4540    26.7070  -104.8550     0.2250     2.3940     0.0490   -97.5010     8.2740
 2679.0000    78.7460  -119.5500    87.8160    -1.7090    20.3360    19.4540    27.1860  -104.8550     0.2250     2.4050     0.0510   -95.6490     8.2750
 2679.5000    79.1640  -119.4550    87.3200    -1.7100    20.0000    19.4540    27.6170  -104.8550     0.2190     2.4190     0.0540   -95.9010     8.2760
 2680.0000    79.5900  -119.3590    85.2210    -1.7100    20.8450    19.6260    26.2970  -104.8550     0.2130     2.4220     0.0580   -96.6260     8.2770
 2680.5000    78.6710  -119.2630    80.3670    -1.7100    21.4950    20.1990    25.0970  -104.8550     0.2070     2.4230     0.0610   -97.3500     8.2780
 2681.0000    77.7340  -119.1670    78.3250    -1.7090    22.3400    20.7720    24.4970  -104.8550     0.2050     2.4310     0.0700   -98.0750     8.2790
 2681.5000    76.7970  -119.0710    77.0610    -1.7110    21.6280    21.3330    24.9930  -104.8550     0.2080     2.4420     0.0840   -98.8000     8.2800
 2682.0000    75.8600  -118.9750    79.6810    -1.7820    20.6120    20.9420    25.1840  -104.8550     0.2140     2.4520     0.0920   -99.5240     8.2810
 2682.5000    75.8910  -118.8790    82.1710    -2.2180    19.5950    20.3820    24.7560  -104.8550     0.2200     2.4470     0.0810  -100.2490     8.2820
