~VERSION INFORMATION
 VERS.                2.0:   CWLS LOG ASCII STANDARD - VERSION 2.0
 WRAP.                 NO:   ONE LINE PER DEPTH STEP
~WELL INFORMATION
#MNEM.UNIT      DATA TYPE    INFORMATION
#----------   ------------   ------------------------------
 STRT.F          629.0000:   START DEPTH
 STOP.F         4090.0000:   STOP DEPTH
 STEP.F            0.5000:   STEP LENGTH
 NULL.          -999.2500:   NO VALUE
 COMP. LAWRENCE ALLISON & ASSOCIATES:   COMPANY
 WELL. LAWRENCE NPR 3 "SHX" #36-10:   WELL
 FLD .      NPR - WILDCAT:   FIELD
 LOC .      S10 T38N R78W:   LOCATION
 CNTY.            NATRONA:   COUNTY
 STAT.            WYOMING:   STATE
 CTRY. UNITED STATES OF AMERICA:   COUNTRY
 SRVC.      DRESSER ATLAS:   SERVICE COMPANY
 DATE.        24-DEC-1981:   LOGDATE
 API .     49025108310000:   API NUMBER
~CURVE INFORMATION
#MNEM.UNIT       API CODE    CURVE DESCRIPTION
#----------   ------------   ------------------------------
 DEPT.F                  :   
 DT  .US/F   60 520 00 00:   DELTA TIME
 TENS.LBS    60 635 01 00:   TENSION FROM SONIC
 GRR .GAPI   07 310 01 00:   GAMMA RAY FROM RESISTIVITY
 SPR .MV     07 010 01 00:   SPONTANEOUS POTENTIAL
 RFOC.OHMM   07 220 04 00:   RESISTIVITY FOCUSED LOG RES.
 RILM.OHMM   07 120 44 00:   INDUCTION LOG MEDIUM RESISTIVITY
 RILD.OHMM   07 120 46 00:   DEEP INDUCTION RESISTIVITY
 TENR.LBS    07 635 01 00:   TENSION FROM RESISTIVITY
 NPHI.DEC    42 890 03 00:   NEUTRON POROSITY SANDSTONE
 RHOB.G/C3   45 350 01 00:   BULK DENSITY
 CORR.G/C3   45 356 01 00:   DENSITY CORRECTION
 TEND.LBS    45 635 01 00:   TENSION FROM DENSITY LOG
 CALD.IN     45 280 60 00:   CALIPER FROM DENSITY LOG
~PARAMETER INFORMATION
#MNEM.UNIT          VALUE    DESCRIPTION
#----------   ------------   ------------------------------
 EKB .F         5234.0000:   Kelly bushing
 EGL .F         5224.0000:   Ground level
 EDF .F         5233.0000:   Drilling floor
 EPD .F            0.0000:   Permanent datum
 TD  .F         4100.0000:   Total depth
 DATE.        24-DEC-1981:   Date logged
 CLNT.            A2DTECH:   Client Code
 SL  . 1798' FSL & 1455' FWL:   Surface Location
 PD  .                 GL:   Permanent Datum
 DAPD.F                10:   Feet Above Permanent Datum
 DD  .F              4100:   Depth driller
 DL  .F              4082:   Depth logger
 BLI .F              4074:   Bottom log interval
 TLI .F              2300:   Top log interval
 CS1 .IN            9.625:   Casing size
 CBD1.      9.625" @ 650':   Casing driller 1
 BS1 .IN            7.875:   Bit size
 BSD1.F              4100:   Depth drilled with bit1
 DFT .            KCL/GEL:   Type fluid in hole
 DFD .                9.1:   Density
 DFV .                 60:   Viscosity
 DFPH.                  8:   pH
 DFL .                 12:   Fluid loss
 MSS .           FLOWLINE:   Source of sample
 RMS .OHMM           .536:   Rm
 RMF .OHMM           .402:   Rmf
 RMC .OHMM            067:   Rmc
 MFSS.               CALC:   Source Rmf.
 MCSS.               CALC:   Source Rmc.
 RMB .OHMM            .35:   Rm. at BHT
 BHT .F               135:   BHT.
 TCS .HRS               6:   Time Circ. stopped
 MRT .F               141:   Maximum recorded temp.
 LUL .               GLT1:   Logging unit location
 UWI .     49025108310000:   Unique Well ID
 DICO. A2D TECHNOLOGIES, INC.:   Digitizing Company
~OTHER INFORMATION
~A   DEPT       DT       TENS         GRR       SPR       RFOC       RILM       RILD       TENR       NPHI       RHOB       CORR       TEND       CALD   
# ...
 3359.0000    78.7130   -93.0600   129.5350   -35.0740     8.4070     6.9920     6.4290   -93.7560     0.2220     2.5440     0.0690   -45.4090     8.1810
 3359.5000    78.7440   -92.8560   130.6630   -35.1000     8.3440     6.9920     6.6150   -93.8310     0.2220     2.5470     0.0910   -45.4090     8.1810
 3360.0000    78.7760   -92.6520   131.7140   -35.1260     8.2160     6.9960     6.7700   -93.9050     0.2230     2.5460     0.0760   -47.4760     8.1810
 3360.5000    78.7820   -92.4470   132.1440   -35.1520     8.1780     7.0130     6.8010   -93.9790     0.2310     2.5390     0.0630   -51.0910     8.1810
 3361.0000    78.7630   -92.2430   130.8190   -35.1790     8.2160     7.0290     6.8080   -94.0530     0.2290     2.5330     0.0570   -54.7050     8.1810
 3361.5000    78.7440   -92.0390   129.6680   -35.2050     8.3300     7.0450     6.8300   -94.1270     0.2270     2.5350     0.0560   -54.3550     8.1810
 3362.0000    78.7260   -91.8350   130.7370   -35.2310     8.3300     7.1220     6.8530   -94.2010     0.2250     2.5370     0.0550   -52.6680     8.1810
 3362.5000    78.7070   -91.6300   132.1970   -35.2570     8.3150     7.1880     6.8640   -94.2750     0.2310     2.5380     0.0540   -50.9810     8.1810
 3363.0000    78.6890   -91.4260   132.7370   -35.2830     8.2660     7.2540     6.9920   -94.3490     0.2360     2.5400     0.0420   -49.2950     8.1810
 3363.5000    78.9970   -91.2220   130.5650   -35.3120     8.2160     7.4010     7.0840   -94.4230     0.2310     2.5340     0.0290   -47.6080     8.1810
 3364.0000    79.3040   -91.0170   131.0240   -35.4120     8.1670     7.5640     7.1870   -94.4970     0.2240     2.5270     0.0190   -45.9210     8.1810
 3364.5000    79.6110   -90.8130   130.4920   -35.5240     8.1030     7.7280     7.2900   -94.5710     0.2240     2.5190     0.0080   -45.4090     8.1810
 3365.0000    79.6740   -90.6090   125.8940   -35.6360     8.2530     7.8820     7.3210   -94.6450     0.2330     2.5200     0.0130   -50.2000     8.1810
 3365.5000    79.3970   -90.4050   121.2990   -35.7480     8.4680     7.9550     7.3210   -94.7190     0.2390     2.5260     0.0220   -65.3790     8.1810
 3366.0000    79.1190   -90.2000   120.1930   -35.8600     8.6820     7.9550     7.3210   -94.7930     0.2380     2.5320     0.0310   -75.3490     8.1810
 3366.5000    78.8420   -89.9960   121.1040   -35.9710     8.8970     7.9550     7.2900   -94.8290     0.2370     2.5380     0.0360   -73.7790     8.1810
 3367.0000    78.5650   -89.7920   120.6340   -36.0830     9.1120     7.9550     7.2260   -94.7740     0.2400     2.5340     0.0410   -69.3790     8.1810
 3367.5000    78.2880   -89.5880   120.0960   -36.1950     9.3260     7.9550     7.1630   -94.7200     0.2460     2.5310     0.0470   -64.9790     8.1810
 3368.0000    78.6290   -89.3830   119.3350   -36.3060     9.4780     7.9550     7.0990   -94.6660     0.2490     2.5320     0.0520   -60.5790     8.1810
 3368.5000    79.3170   -89.1790   121.8370   -36.4160     9.0700     7.7930     7.0350   -94.6120     0.2490     2.5360     0.0570   -56.1790     8.1810
 3369.0000    80.0050   -88.9750   125.4080   -36.5320     8.6170     7.6130     6.9720   -94.5570     0.2490     2.5420     0.0620   -46.1330     8.1810
 3369.5000    80.6920   -88.7700   129.0740   -36.8530     8.1640     7.4340     6.9010   -94.5030     0.2540     2.5470     0.0610   -49.2950     8.1800
 3370.0000    80.9910   -88.5660   131.6600   -37.1620     8.0280     7.2540     6.8150   -94.4490     0.2600     2.5520     0.0560   -52.4580     8.1790
 3370.5000    80.8440   -88.3620   133.9750   -37.4680     8.3350     7.0560     6.7280   -94.3950     0.2570     2.5560     0.0520   -55.6200     8.1780
 3371.0000    80.2860   -88.1580   136.3610   -37.7710     8.6760     7.1240     6.6420   -94.3400     0.2520     2.5610     0.0710   -58.7820     8.1770
 3371.5000    80.3120   -87.9530   137.5870   -37.8380     9.0510     7.2000     6.5550   -94.2860     0.2470     2.5620     0.1000   -61.9450     8.1760
 3372.0000    80.9970   -87.7490   138.8190   -37.5020     9.1350     7.2760     6.4940   -94.2320     0.2440     2.5580     0.1100   -65.1070     8.1750
 3372.5000    81.4910   -87.5450   140.1500   -37.1770     9.1350     7.3510     6.5600   -94.1770     0.2430     2.5560     0.0880   -68.2700     8.1750
 3373.0000    81.4910   -87.3410   138.8120   -36.8510     9.1350     7.3890     6.6110   -94.1230     0.2420     2.5530     0.0610   -71.4320     8.1740
 3373.5000    81.8320   -87.1360   138.5260   -36.5250     9.1350     7.3610     6.6610   -94.0690     0.2410     2.5500     0.0390   -74.5950     8.1730
 3374.0000    82.1820   -86.9320   140.0510   -36.1980     9.0510     7.3390     6.6770   -94.0150     0.2410     2.5410     0.0290   -75.4020     8.1720
 3374.5000    82.5320   -86.7280   140.3890   -35.8680     8.8530     7.3170     6.6770   -93.9600     0.2410     2.5370     0.0280   -75.7100     8.1710
 3375.0000    82.8820   -86.5240   140.7020   -35.5300     8.5710     7.2960     6.6770   -93.9060     0.2430     2.5410     0.0370   -76.0190     8.1700
 3375.5000    83.2330   -86.3190   143.1640   -35.7300     8.2890     7.2740     6.6770   -93.8520     0.2440     2.5470     0.0550   -76.3270     8.1690
 3376.0000    83.5830   -86.1150   147.7630   -35.9770     8.0070     7.2540     6.6770   -93.7980     0.2460     2.5490     0.0640   -76.6360     8.1680
 3376.5000    83.8800   -85.9110   152.3330   -36.2230     7.7380     7.2540     6.6770   -93.7430     0.2490     2.5490     0.0730   -76.9440     8.1670
 3377.0000    83.7540   -85.7060   155.5120   -36.4680     7.6670     7.2540     6.6760   -93.6890     0.2560     2.5480     0.0710   -77.2530     8.1670
 3377.5000    83.3810   -85.5020   154.5430   -36.7120     8.0480     7.2540     6.6770   -93.6350     0.2660     2.5520     0.0630   -77.5610     8.1660
 3378.0000    82.7780   -85.2980   149.3230   -36.9560     8.3300     7.2540     6.6730   -93.5810     0.2750     2.5560     0.0400   -77.8700     8.1650
 3378.5000    82.6250   -85.0940   144.9650   -37.2010     8.4070     7.2540     6.6850   -93.5260     0.2700     2.5570     0.0380   -78.1780     8.1640
 3379.0000    82.8760   -84.8890   147.1230   -37.3210     8.3830     7.2540     6.5550   -93.4720     0.2610     2.5590     0.0430   -78.4870     8.1630
 3379.5000    83.0930   -84.8350   149.2970   -37.0920     8.3300     7.2540     6.5170   -93.4180     0.2530     2.5600     0.0490   -78.7950     8.1620
 3380.0000    82.9080   -84.8350   148.6470   -36.8350     8.4530     7.1880     6.4350   -93.3640     0.2560     2.5600     0.0510   -79.1040     8.1610
 3380.5000    82.6570   -84.8350   145.2090   -36.5780     8.7230     7.1650     6.3710   -93.3090     0.2560     2.5550     0.0300   -79.4130     8.1600
 3381.0000    82.3920   -84.8350   141.7720   -36.3200     8.8040     7.1400     6.2810   -93.2550     0.2570     2.5500     0.0190   -79.7210     8.1590
 3381.5000    83.0910   -84.8350   139.0430   -36.0630     8.4520     7.1150     6.1900   -93.2010     0.2580     2.5460     0.0470   -80.0300     8.1590
 3382.0000    83.8280   -84.8350   137.0840   -35.8050     7.9490     7.0900     6.1450   -93.1470     0.2690     2.5440     0.0680   -80.3380     8.1580
 3382.5000    84.5950   -85.4930   136.3640   -35.5480     7.5960     7.0640     6.1450   -93.0920     0.2800     2.5400     0.0840   -80.6470     8.1570
 3383.0000    84.7150   -86.1810   139.2430   -35.2910     7.7420     7.0390     6.0890   -93.0380     0.2800     2.5370     0.0840   -80.9550     8.1560
 3383.5000    84.8410   -86.8700   142.0960   -35.0730     7.8540     7.0140     6.0890   -92.9840     0.2720     2.5410     0.0910   -81.2640     8.1550
 3384.0000    84.7230   -87.5580   142.5850   -34.9480     7.9650     7.0260     6.0890   -92.9300     0.2590     2.5540     0.1020   -81.5720     8.1540
 3384.5000    84.4220   -88.2460   142.2800   -34.8190     8.0770     6.8720     6.0610   -92.8750     0.2650     2.5670     0.1120   -81.8810     8.1530
