~VERSION INFORMATION
 VERS.                2.0:   CWLS LOG ASCII STANDARD - VERSION 2.0
 WRAP.                 NO:   ONE LINE PER DEPTH STEP
~WELL INFORMATION
#MNEM.UNIT      DATA TYPE    INFORMATION
#----------   ------------   ------------------------------
 STRT.F           22.0000:   START DEPTH
 STOP.F         4228.5000:   STOP DEPTH
 STEP.F            0.5000:   STEP LENGTH
 NULL.          -999.2500:   NO VALUE
 COMP. LAWRENCE ALLISON & ASSOCIATES:   COMPANY
 WELL. LAWRENCE NPR 3 "X" #25-2:   WELL
 FLD .                NPR:   FIELD
 LOC .       S2 T38N R78W:   LOCATION
 CNTY.            NATRONA:   COUNTY
 STAT.            WYOMING:   STATE
 CTRY. UNITED STATES OF AMERICA:   COUNTRY
 SRVC.      DRESSER ATLAS:   SERVICE COMPANY
 DATE.        22-DEC-1985:   LOGDATE
 API .     49025110700000:   API NUMBER
~CURVE INFORMATION
#MNEM.UNIT       API CODE    CURVE DESCRIPTION
#----------   ------------   ------------------------------
 DEPT.F                  :   
 TENS.LBS    60 635 01 00:   TENSION FROM SONIC
 DT  .US/F   60 520 00 00:   DELTA TIME
 SPHI.DEC    60 890 00 00:   SONIC POROSITY
 TENR.LBS    07 635 01 00:   TENSION FROM RESISTIVITY
 CALR.IN     07 280 01 00:   CALIPER FROM RESISTIVITY
 SPR .MV     07 010 01 00:   SPONTANEOUS POTENTIAL
 GRR .GAPI   07 310 01 00:   GAMMA RAY FROM RESISTIVITY
 SFL .OHMM   07 220 01 00:   SHALLOW FOCUSED LOG RESISTIVITY
 ILD .OHMM   07 120 46 00:   DEEP INDUCTION RESISTIVITY
 ILM .OHMM   07 120 44 00:   INDUCTION LOG MEDIUM RESISTIVITY
~PARAMETER INFORMATION
#MNEM.UNIT          VALUE    DESCRIPTION
#----------   ------------   ------------------------------
 EKB .F         5148.0000:   Kelly bushing
 EGL .F         5136.0000:   Ground level
 EDF .F            0.0000:   Drilling floor
 TD  .F         4228.0000:   Total depth
 DATE.        22-DEC-1985:   Date logged
 CLNT.            A2DTECH:   Client Code
 SL  . 1350' FWL & 1968' FSL:   Surface Location
 PD  .                 GL:   Permanent Datum
 DD  .F              4224:   Depth driller
 DL  .F              4228:   Depth logger
 BLI .F              4225:   Bottom log interval
 CS1 .IN            8.625:   Casing size
 CBD1.      8.625" @ 677':   Casing driller 1
 CBL1.F               677:   Casing logger 1
 BS1 .IN            7.875:   Bit size
 DFT .            KCL/GEL:   Type fluid in hole
 DFD .                9.2:   Density
 DFV .                 45:   Viscosity
 DFPH.                8.5:   pH
 DFL .               11.5:   Fluid loss
 MSS .               TANK:   Source of sample
 RMS .OHMM           .256:   Rm
 MST .F                63:   Rm Meas. temp.
 RMF .OHMM           .192:   Rmf
 MFST.F                64:   Rmf Meas. temp.
 RMC .OHMM           .320:   Rmc
 MCST.F                64:   Rmc Meas. temp.
 MFSS.               MEAS:   Source Rmf.
 RMB .OHMM           .119:   Rm. at BHT
 BHT .F               143:   BHT.
 TCS .HRS             4.5:   Time Circ. stopped
 MRT .F               143:   Maximum recorded temp.
 LUN .               6427:   Logging unit number
 LUL .          WILLISTON:   Logging unit location
 ENGI.             MCHUCH:   Recorded By
 WITN.             STRONG:   Witnessed by
 ORIG.           5" PRINT:   Origin of data
 UWI .     49025110700000:   Unique Well ID
 DICO. A2D TECHNOLOGIES, INC.:   Digitizing Company
 DAPD.                 12:   Feet Above Permanent Datum
 BSD1.               4224:   Depth drilled with bit1
 MCSS.               CALC:   Source Rmc.
 EPD .F              5136:   Elevation Permanent Datum
 LMF .                 KB:   Log Measured From
 DMF .                 KB:   Drilling Measured From
~OTHER INFORMATION
~A   DEPT     TENS         DT       SPHI       TENR       CALR        SPR         GRR       SFL        ILD        ILM   
# ...
 2333.5000  -999.2500  -999.2500  -999.2500   -75.5230     8.8810   -62.6520    95.4590    10.1370     7.9710     7.8720
 2334.0000  -999.2500  -999.2500  -999.2500   -75.5230     8.8860   -62.7040    98.4800    10.0310     7.8880     7.8210
 2334.5000  -999.2500  -999.2500  -999.2500   -49.9100     8.8910   -62.6750    98.3530     9.3250     7.7670     7.6960
 2335.0000  -999.2500  -999.2500  -999.2500   -15.5030     8.8740   -62.4400    98.1770     8.6190     7.9240     7.9190
 2335.5000  -999.2500  -999.2500  -999.2500   -16.7090     8.8380   -62.2080    99.0570     8.1320     8.2210     8.1430
 2336.0000  -999.2500  -999.2500  -999.2500   -26.0720     8.8020   -62.1150    98.7320     9.2270     8.5190     8.2450
 2336.5000  -999.2500  -999.2500  -999.2500   -35.4340     8.7650   -62.0640    97.2220    10.1370     8.7500     8.3470
 2337.0000  -999.2500  -999.2500  -999.2500   -44.7970     8.7530   -62.0160    95.5650    10.8980     8.9090     8.5130
 2337.5000  -999.2500  -999.2500  -999.2500   -54.1590     8.7500   -61.9660    93.8940    11.0110     9.2140     8.8400
 2338.0000  -999.2500  -999.2500  -999.2500   -47.6570     8.7480   -61.9500    92.1750    11.0110     9.6920     9.1660
 2338.5000  -999.2500  -999.2500  -999.2500   -35.6430     8.7450   -61.9480    93.5650    11.3450     9.7850     9.4390
 2339.0000  -999.2500  -999.2500  -999.2500   -45.7130     8.7420   -61.9900    95.0360    11.7470     9.8020     9.5250
 2339.5000  -999.2500  -999.2500  -999.2500   -58.0010     8.7400   -62.0380    96.5100    12.0690     9.8180     9.6120
 2340.0000  -999.2500  -999.2500  -999.2500   -75.5230     8.7370   -62.0870    98.0090    11.6470     9.8350     9.6820
 2340.5000  -999.2500  -999.2500  -999.2500   -51.4460     8.7360   -62.1360    97.9990    11.3020     9.8510     9.5800
 2341.0000  -999.2500  -999.2500  -999.2500   -35.6430     8.7420   -62.1850    97.6150    11.0110     9.8680     9.5060
 2341.5000  -999.2500  -999.2500  -999.2500   -59.0230     8.7480   -62.2340    98.6010    10.8100     9.8850     9.6070
 2342.0000  -999.2500  -999.2500  -999.2500   -83.5990     8.7550   -62.2830   100.6450    10.8760     9.9010     9.6950
 2342.5000  -999.2500  -999.2500  -999.2500  -105.7760     8.7610   -62.3310   103.6210    11.0110     9.9180     9.7830
 2343.0000  -999.2500  -999.2500  -999.2500  -108.8480     8.7670   -62.4230   103.4960    11.3750     9.9340     9.8620
 2343.5000  -999.2500  -999.2500  -999.2500  -111.9200     8.7740   -62.5310   101.0360    11.7770     9.9510     9.6240
 2344.0000  -999.2500  -999.2500  -999.2500  -114.9930     8.7890   -62.6400   100.4160    12.0690     9.7160     9.4080
 2344.5000  -999.2500  -999.2500  -999.2500   -99.4390     8.8060   -62.7480   100.1060    11.7280     9.4470     9.1740
 2345.0000  -999.2500  -999.2500  -999.2500   -85.4940     8.8220   -62.8560    99.4380    11.4320     9.1780     8.8890
 2345.5000  -999.2500  -999.2500  -999.2500   -97.2580     8.8390   -62.9430    97.0930    10.9530     8.9610     8.6040
 2346.0000  -999.2500  -999.2500  -999.2500  -105.4340     8.8560   -62.9410    94.0140    10.3770     8.7750     8.3190
 2346.5000  -999.2500  -999.2500  -999.2500  -100.9110     8.8720   -63.0020    95.9250     9.8010     8.5880     8.1990
 2347.0000  -999.2500  -999.2500  -999.2500   -96.4420     8.8890   -63.1570    99.8520     9.2480     8.4320     8.1870
 2347.5000  -999.2500  -999.2500  -999.2500   -99.3020     8.9060   -63.3110   103.7030     9.2480     8.4060     8.1740
 2348.0000  -999.2500  -999.2500  -999.2500  -104.2170     8.9060   -63.4650   103.0750     9.5350     8.3810     8.1610
 2348.5000  -999.2500  -999.2500  -999.2500  -100.7840     8.8940   -63.4620   101.0040     9.8570     8.3490     8.1480
 2349.0000  -999.2500  -999.2500  -999.2500   -87.3790     8.8820   -63.3330   100.4480    10.1450     8.2810     8.1360
 2349.5000  -999.2500  -999.2500  -999.2500   -77.7970     8.8730   -63.2040    99.8500    10.2310     8.2130     8.1080
 2350.0000  -999.2500  -999.2500  -999.2500   -95.4640     8.8730   -63.0750    98.0860    10.1440     8.1450     8.0740
 2350.5000  -999.2500  -999.2500  -999.2500   -92.0970     8.8730   -62.9450    97.3610     9.9740     8.0760     8.0410
 2351.0000  -999.2500  -999.2500  -999.2500   -88.3460     8.8730   -62.8170    99.0250     9.6560     7.9840     8.0080
 2351.5000  -999.2500  -999.2500  -999.2500   -85.4940     8.8730   -62.7430   103.8000     9.3180     7.9940     7.9740
 2352.0000  -999.2500  -999.2500  -999.2500   -89.6980     8.8730   -62.7580   105.9400     8.9140     8.0090     7.9410
 2352.5000  -999.2500  -999.2500  -999.2500   -93.7600     8.8730   -62.8320   103.9330     9.1400     8.0240     7.9070
 2353.0000  -999.2500  -999.2500  -999.2500   -97.8230     8.8690   -62.9030    98.8250     9.5130     8.0390     7.8740
 2353.5000  -999.2500  -999.2500  -999.2500  -101.8860     8.8560   -62.9460    94.0710     9.8870     8.0580     7.8390
 2354.0000  -999.2500  -999.2500  -999.2500  -104.6610     8.8430   -63.1360    95.6720    10.1370     8.0250     7.7880
 2354.5000  -999.2500  -999.2500  -999.2500   -98.5670     8.8320   -63.1500   101.1700     9.7240     7.9800     7.7340
 2355.0000  -999.2500  -999.2500  -999.2500   -95.4640     8.8270   -63.2030   103.6950     9.3580     7.9350     7.6570
 2355.5000  -999.2500  -999.2500  -999.2500   -95.4640     8.8220   -63.2530   103.5770     9.0450     7.8520     7.5220
 2356.0000  -999.2500  -999.2500  -999.2500   -95.4640     8.8170   -63.3020   102.5110     8.7520     7.7250     7.4100
 2356.5000  -999.2500  -999.2500  -999.2500   -95.4640     8.8190   -63.3520    99.9220     8.9960     7.5980     7.3510
 2357.0000  -999.2500  -999.2500  -999.2500   -95.4640     8.8330   -63.4010    97.3270     8.8780     7.4190     7.3840
 2357.5000  -999.2500  -999.2500  -999.2500   -95.4640     8.8470   -63.4510    96.5030     8.5140     7.4910     7.4680
 2358.0000  -999.2500  -999.2500  -999.2500   -95.4640     8.8580   -63.5000    97.0630     8.7350     7.6140     7.5560
 2358.5000  -999.2500  -999.2500  -999.2500   -95.4640     8.8680   -63.5360    95.6990     9.1290     7.6960     7.5310
 2359.0000  -999.2500  -999.2500  -999.2500   -80.4230     8.8770   -63.5350    93.3840     9.5230     7.6320     7.4970
 2359.5000  -999.2500  -999.2500  -999.2500   -59.5290     8.8860   -63.5350    91.1600    10.0440     7.5750     7.3580
 2360.0000  -999.2500  -999.2500  -999.2500   -38.6340     8.8990   -63.5790    89.2960     9.6330     7.4150     7.1730
 2360.5000  -999.2500  -999.2500  -999.2500   -44.9260     8.9240   -63.6480    90.3840     9.0230     7.2050     6.9880
 2361.0000  -999.2500  -999.2500  -999.2500   -55.7600     8.9500   -63.7180    91.1070     8.4790     6.9960     6.8030
 2361.5000  -999.2500  -999.2500  -999.2500   -66.5950     8.9750   -63.7330    89.1550     7.8390     6.7380     6.5920
 2362.0000  -999.2500  -999.2500  -999.2500   -77.4290     8.9930   -63.7340    84.4620     7.8980     6.4680     6.3760
 2362.5000  -999.2500  -999.2500  -999.2500   -88.2630     9.0000   -63.7340    81.2280     7.9840     6.2250     6.1600
 2363.0000  -999.2500  -999.2500  -999.2500   -99.0970     9.0060   -63.7340    84.7680     7.5510     5.9900     5.9440
 2363.5000  -999.2500  -999.2500  -999.2500  -109.9310     9.0120   -63.7330    86.5710     7.1750     5.6840     5.7270
 2364.0000  -999.2500  -999.2500  -999.2500  -112.1870     9.0160   -63.7580    86.1690     6.7990     5.7750     5.5300
 2364.5000  -999.2500  -999.2500  -999.2500  -105.6860     9.0200   -63.7950    84.6980     6.5040     5.8970     5.7710
 2365.0000  -999.2500  -999.2500  -999.2500   -99.1860     9.0240   -63.8320    84.4570     6.4050     6.2310     5.9930
 2365.5000  -999.2500  -999.2500  -999.2500   -93.3800     9.0280   -63.8690    85.2610     6.8990     6.5660     6.2160
 2366.0000  -999.2500  -999.2500  -999.2500   -88.5040     9.0310   -63.9060    85.6940     8.0540     6.8880     6.4380
 2366.5000  -999.2500  -999.2500  -999.2500   -89.7310     8.9760   -63.9430    83.4200     9.2090     7.2840     6.6600
