~VERSION INFORMATION
 VERS.                2.0:   CWLS LOG ASCII STANDARD - VERSION 2.0
 WRAP.                 NO:   ONE LINE PER DEPTH STEP
~WELL INFORMATION
#MNEM.UNIT      DATA TYPE    INFORMATION
#----------   ------------   ------------------------------
 STRT.F          480.0000:   START DEPTH
 STOP.F         4609.5000:   STOP DEPTH
 STEP.F            0.5000:   STEP LENGTH
 NULL.          -999.2500:   NO VALUE
 COMP.   FENNIX & SCISSON:   COMPANY
 WELL. FENNIX NPR-3 "LX" #58-14:   WELL
 FLD .              NPR-3:   FIELD
 LOC .      S14 T38N R78W:   LOCATION
 CNTY.            NATRONA:   COUNTY
 STAT.            WYOMING:   STATE
 CTRY. UNITED STATES OF AMERICA:   COUNTRY
 SRVC.       SCHLUMBERGER:   SERVICE COMPANY
 DATE.        08-MAR-1978:   LOGDATE
 API .     49025105920000:   API NUMBER
~CURVE INFORMATION
#MNEM.UNIT       API CODE    CURVE DESCRIPTION
#----------   ------------   ------------------------------
 DEPT.F                  :   
 SPR .MV     07 010 01 00:   SPONTANEOUS POTENTIAL
 SFL .OHMM   07 220 01 00:   SHALLOW FOCUSED LOG RESISTIVITY
 ILD .OHMM   07 120 46 00:   DEEP INDUCTION RESISTIVITY
 ILM .OHMM   07 120 44 00:   INDUCTION LOG MEDIUM RESISTIVITY
 CALD.IN     45 280 60 00:   CALIPER FROM DENSITY LOG
 GRD .GAPI   45 310 01 00:   GAMMA RAY FROM DENSITY LOG
 CORR.G/C3   45 356 01 00:   DENSITY CORRECTION
 RHOB.G/C3   45 350 01 00:   BULK DENSITY
 NPHI.DEC    42 890 03 00:   NEUTRON POROSITY SANDSTONE
~PARAMETER INFORMATION
#MNEM.UNIT          VALUE    DESCRIPTION
#----------   ------------   ------------------------------
 EKB .F         5320.0000:   Kelly bushing
 EGL .F         5310.0000:   Ground level
 EDF .F            0.0000:   Drilling floor
 TD  .F         4635.0000:   Total depth
 DATE.        08-MAR-1978:   Date logged
 CLNT.            A2DTECH:   Client Code
 SL  . 810' FSL & 1830' FEL:   Surface Location
 PD  .                 GL:   Permanent Datum
 DD  .F              4635:   Depth driller
 DL  .F              4608:   Depth logger
 BLI .F              4607:   Bottom log interval
 DFT .                FGM:   Type fluid in hole
 DFD .                9.1:   Density
 DFV .                 38:   Viscosity
 DFPH.                 11:   pH
 MSS .           FLOWLINE:   Source of sample
 RMS .OHMM           1.53:   Rm
 MST .F                58:   Rm Meas. temp.
 RMF .OHMM           1.06:   Rmf
 MFST.F                58:   Rmf Meas. temp.
 MFSS.               MEAS:   Source Rmf.
 RMB .OHMM           0.68:   Rm. at BHT
 BHT .F               131:   BHT.
 TCS .HRS            0630:   Time Circ. stopped
 MRT .F               131:   Maximum recorded temp.
 LUN .               8039:   Logging unit number
 LUL .               CSPP:   Logging unit location
 ENGI.           PETERSON:   Recorded By
 ORIG.           5" PRINT:   Origin of data
 UWI .     49025105920000:   Unique Well ID
 DICO. A2D TECHNOLOGIES, INC.:   Digitizing Company
 DAPD.                 20:   Feet Above Permanent Datum
 BSD1.               4635:   Depth drilled with bit1
 EPD .               5310:   Elevation Permanent Datum
 LMF .                 KB:   Log Measured From
 DMF .                 KB:   Drilling Measured From
 TLI .                508:   Top log interval
 CS1 .              8.625:   Casing size
 CBL1.                508:   Casing logger 1
 BS1 .              7.875:   Bit size
~OTHER INFORMATION
~A   DEPT      SPR        SFL        ILD        ILM       CALD         GRD      CORR       RHOB         NPHI 
# ...
 4568.0000   -34.9700     5.2080     3.0260     3.3720     8.3260   119.2150     0.1100     2.6140     0.3330
 4568.5000   -35.0930     4.3700     2.9080     3.0990     8.3700   122.1320     0.0870     2.5470     0.3760
 4569.0000   -35.2180     3.5430     2.8180     2.8600     8.3570   123.6520     0.0760     2.5410     0.3850
 4569.5000   -35.3390     3.1900     2.7260     2.7530     8.3460   125.2660     0.0720     2.5480     0.3920
 4570.0000   -35.2340     3.1900     2.5950     2.6450     8.3350   127.5270     0.0840     2.5550     0.3930
 4570.5000   -35.2130     3.1900     2.4850     2.5550     8.3560   130.2650     0.1020     2.5620     0.3910
 4571.0000   -35.4420     3.1240     2.5040     2.4400     8.3950   129.1320     0.1220     2.5680     0.3950
 4571.5000   -35.6610     3.0370     2.5550     2.4630     8.3910   125.3400     0.1350     2.5480     0.4180
 4572.0000   -35.8800     2.9630     2.7100     2.4400     8.3610   119.5310     0.0820     2.5240     0.4430
 4572.5000   -36.0990     3.1030     2.8820     2.6250     8.2630   112.7320     0.0350     2.5100     0.4240
 4573.0000   -36.3180     4.0580     3.0110     2.9650     8.2090   106.5050     0.0070     2.5510     0.3830
 4573.5000   -36.5370     5.7320     3.1500     3.3040     8.2020   107.0140     0.0260     2.6050     0.2890
 4574.0000   -36.7620     7.5290     3.2970     3.5870     8.1930   112.7460     0.0610     2.6220     0.2680
 4574.5000   -37.0320     8.0440     3.4440     3.6990     8.2490   120.6040     0.0980     2.6300     0.2770
 4575.0000   -37.3170     6.6750     3.5910     3.6530     8.3270   128.8700     0.1320     2.6230     0.2910
 4575.5000   -37.6800     4.9440     3.6990     3.6170     8.4110   136.5950     0.1120     2.6020     0.3290
 4576.0000   -38.0790     3.8740     3.6650     3.5820     8.3050   142.1760     0.0790     2.5780     0.3580
 4576.5000   -39.0250     4.0960     3.4440     3.5470     8.1570   147.3100     0.0960     2.5690     0.3650
 4577.0000   -39.5510     4.6180     3.2410     3.5110     8.1910   152.1730     0.1510     2.6240     0.3430
 4577.5000   -39.9090     4.4130     3.1030     3.3590     8.2910   156.6420     0.2300     2.6210     0.3350
 4578.0000   -40.3290     3.9370     3.3340     3.1480     8.4140   156.2990     0.2140     2.5780     0.3730
 4578.5000   -41.1960     3.4220     3.6030     3.0460     8.3110   146.5930     0.1060     2.5000     0.4290
 4579.0000   -41.5820     3.3110     3.9380     3.1450     8.1690   135.7380     0.0550     2.5060     0.4350
 4579.5000   -41.9700     5.2260     4.3110     3.5630     8.0640   125.2620     0.0030     2.5610     0.3940
 4580.0000   -42.3570    10.4550     4.6780     4.1610     7.9960   120.3830    -0.0020     2.6280     0.3540
 4580.5000   -42.7440    15.8770     5.1180     5.0050     8.0270   120.7270     0.0210     2.6610     0.2930
 4581.0000   -43.1420    17.1700     5.5570     5.6270     8.0550   121.7950     0.0320     2.6320     0.2740
 4581.5000   -43.5830    14.7340     5.8190     5.9920     8.0770   124.0480     0.0400     2.6020     0.2660
 4582.0000   -44.0810    11.8610     5.7290     6.0390     8.0880   127.5910     0.0480     2.5740     0.2660
 4582.5000   -44.9250     7.0670     5.5350     5.8870     8.0990   134.8270     0.0530     2.5620     0.2810
 4583.0000   -45.7540     5.8210     5.3400     5.4910     8.1100   135.0910     0.0580     2.5540     0.2900
 4583.5000   -46.4060     4.8840     5.1600     5.1130     8.1230   129.4170     0.0610     2.5440     0.3110
 4584.0000   -47.0200     4.5760     5.3970     5.0660     8.1370   113.7980     0.0550     2.5230     0.3300
 4584.5000   -48.9890     5.6780     5.8110     5.0660     8.1510    99.1170     0.0320     2.4670     0.3490
 4585.0000   -50.2440    15.6100     6.5370     5.7800     8.0960    86.8310     0.0140     2.4380     0.3000
 4585.5000   -52.5320    27.9780     7.4100     7.4500     8.0350    82.4740     0.0340     2.4530     0.3040
 4586.0000   -53.9420    44.9200     9.1940     9.5500     8.0280    83.5870     0.0690     2.4780     0.2120
 4586.5000   -54.7050    40.4960    11.2670    11.6490     8.0230    85.5440     0.1190     2.4930     0.1490
 4587.0000   -55.3950    31.1960    14.1430    13.7480     8.0180    87.2380     0.1060     2.4550     0.1580
 4587.5000   -56.1490    27.0120    16.9710    15.8480     8.0120    87.6370     0.0820     2.4070     0.1720
 4588.0000   -57.6020    27.1360    19.1850    18.1370     8.0010    87.4500     0.0580     2.3790     0.1770
 4588.5000   -58.3480    27.2630    18.8920    19.7660     7.9900    84.1310     0.0420     2.3840     0.1700
 4589.0000   -57.7290    28.0450    18.2920    20.2220     7.9790    81.2020     0.0330     2.3930     0.1610
 4589.5000   -56.9940    29.0270    17.6910    20.4680     7.9750    80.3890     0.0240     2.3980     0.1590
 4590.0000   -56.2490    29.4850    17.0460    20.2790     7.9770    81.6660     0.0210     2.3990     0.1570
 4590.5000   -55.7970    29.6290    16.0890    19.0380     7.9790    85.3300     0.0230     2.4160     0.1560
 4591.0000   -55.5530    25.7990    15.1330    17.4340     7.9810    86.8890     0.0250     2.4220     0.1560
 4591.5000   -55.5420    21.5730    14.1850    15.8300     7.9830    85.3030     0.0260     2.4170     0.1600
 4592.0000   -55.5430    17.0830    13.2370    14.2710     7.9850    83.7150     0.0240     2.4000     0.1630
 4592.5000   -55.3970    12.5380    12.3080    12.7350     7.9870    83.0970     0.0200     2.3800     0.1670
 4593.0000   -55.1420    11.9710    11.9670    11.8000     7.9890    82.6690     0.0140     2.3630     0.1710
 4593.5000   -54.8860    13.2050    11.8610    11.6540     7.9910    82.4030     0.0080     2.3580     0.1710
 4594.0000   -54.6300    15.2130    11.8610    11.5370     7.9930    83.1450     0.0020     2.3570     0.1700
 4594.5000   -54.3520    18.6320    11.6880    12.5710     7.9910    84.3210     0.0030     2.3640     0.1700
 4595.0000   -53.5020    23.5130    11.0130    13.4340     7.9790    83.8530     0.0120     2.3740     0.1700
 4595.5000   -52.5950    34.9950     9.2970    13.6260     7.9670    80.9650     0.0250     2.3960     0.1700
 4596.0000   -51.4000    37.2350     7.6130    13.5000     7.9550    78.5760     0.0430     2.4320     0.1700
 4596.5000   -49.9550    25.6070     5.9280    10.8430     7.9680    77.9120     0.1030     2.4650     0.1700
 4597.0000   -48.4610    11.1180     5.1390     8.0850     7.9820    79.7010     0.1430     2.4870     0.1700
 4597.5000   -47.3380     4.8370     4.3140     5.1600     8.0100    81.5270     0.1890     2.4950     0.1680
 4598.0000   -46.6500     3.4540     3.5220     4.0130     8.1080    84.1620     0.1980     2.4700     0.1660
 4598.5000   -45.9270     2.3660     2.9090     3.0720     8.1910    85.0550     0.1700     2.4130     0.1660
 4599.0000   -44.9440     2.2040     2.7040     2.7520     8.1230  -999.2500     0.1190     2.3730     0.1660
 4599.5000   -43.9620     2.3060     2.4630     2.4630     8.0470  -999.2500     0.0670     2.3550     0.1670
 4600.0000   -42.9790     2.5050     2.4400     2.4140     7.9720  -999.2500     0.0250     2.3730     0.1650
 4600.5000   -42.5720     2.7040     2.4090     2.3770     7.9310  -999.2500     0.0210     2.4310     0.1630
 4601.0000   -42.7540     2.8290     2.3770     2.3730     7.9220  -999.2500     0.0230     2.4480     0.1630
 4601.5000   -42.9320     3.0420     2.4510     2.4440     7.9130  -999.2500     0.0250     2.4560     0.1630
 4602.0000   -43.0390     3.3100     2.5390     2.5260     7.8970  -999.2500     0.0260     2.4680     0.1680
 4602.5000   -42.8870     3.6650     2.6760     2.6520     7.8810  -999.2500     0.0250     2.4750     0.1720
 4603.0000   -43.0090     3.6310     2.6630     2.6480     7.8660  -999.2500     0.0230     2.4720     0.1730
 4603.5000   -43.2560     3.4350     2.6270     2.6410     7.8550  -999.2500     0.0250     2.4710     0.1710
 4604.0000   -43.5580     3.0460     2.6780     2.6330     7.8550  -999.2500     0.0310     2.4760     0.1680
