~VERSION INFORMATION
 VERS.                2.0:   CWLS LOG ASCII STANDARD - VERSION 2.0
 WRAP.                 NO:   ONE LINE PER DEPTH STEP
~WELL INFORMATION
#MNEM.UNIT      DATA TYPE    INFORMATION
#----------   ------------   ------------------------------
 STRT.F           40.0000:   START DEPTH
 STOP.F         3032.5000:   STOP DEPTH
 STEP.F            0.5000:   STEP LENGTH
 NULL.          -999.2500:   NO VALUE
 COMP.   TESORO PETROLEUM:   COMPANY
 WELL. TESORO NPR 3 "AX" #51-15:   WELL
 FLD .        TEAPOT DOME:   FIELD
 LOC .      S15 T38N R78W:   LOCATION
 CNTY.            NATRONA:   COUNTY
 STAT.            WYOMING:   STATE
 CTRY. UNITED STATES OF AMERICA:   COUNTRY
 SRVC.       SCHLUMBERGER:   SERVICE COMPANY
 DATE.        21-JUL-1969:   LOGDATE
 API .     49025100240000:   API NUMBER
~CURVE INFORMATION
#MNEM.UNIT       API CODE    CURVE DESCRIPTION
#----------   ------------   ------------------------------
 DEPT.F                  :   
 CALD.IN     45 280 60 00:   CALIPER FROM DENSITY LOG
 GRD .GAPI   45 310 01 00:   GAMMA RAY FROM DENSITY LOG
 RHOB.G/C3   45 350 01 00:   BULK DENSITY
 CORR.G/C3   45 356 01 00:   DENSITY CORRECTION
 GR  .GAPI   35 310 01 00:   GAMMA RAY FROM GAMMA RAY LOG
 SPR .MV     05 010 01 00:   SPONTANEOUS POTENTIAL
 ASN .OHMM   05 041 16 00:   AMPLIFIED SHORT NORMAL 16"
 ILD .OHMM   05 120 46 00:   DEEP INDUCTION RESISTIVITY
~PARAMETER INFORMATION
#MNEM.UNIT          VALUE    DESCRIPTION
#----------   ------------   ------------------------------
 EKB .F         5235.0000:   Kelly bushing
 EGL .F         5222.0000:   Ground level
 EDF .F            0.0000:   Drilling floor
 TD  .F         3027.0000:   Total depth
 DATE.        21-JUL-1969:   Date logged
 CLNT.            A2DTECH:   Client Code
 SL  . 2000' FEL & 660' FNL:   Surface Location
 PD  .                 GL:   Permanent Datum
 EPD .F              5222:   Elevation Permanent Datum
 LMF .                 KB:   Log Measured From
 DMF .                 KB:   Drilling Measured From
 DAPD.F                13:   Feet Above Permanent Datum
 DD  .F              3027:   Depth driller
 DL  .F              3025:   Depth logger
 BLI .F              3024:   Bottom log interval
 TLI .F              2604:   Top log interval
 CS1 .IN            10.75:   Casing size
 CBD1.      10.75" @ 622':   Casing driller 1
 BS1 .IN                9:   Bit size
 BSD1.F              3027:   Depth drilled with bit1
 DFT .          FRESH/GEL:   Type fluid in hole
 DFD .                9.7:   Density
 DFV .                 65:   Viscosity
 DFPH.                9.5:   pH
 DFL .                  7:   Fluid loss
 MSS .           FLOWLINE:   Source of sample
 RMS .OHMM           2.48:   Rm
 MST .F                80:   Rm Meas. temp.
 RMF .OHMM           2.80:   Rmf
 MFST.F                80:   Rmf Meas. temp.
 MFSS.               MEAS:   Source Rmf.
 RMB .OHMM           2.20:   Rm. at BHT
 BHT .F               106:   BHT.
 TCS .HRS               1:   Time Circ. stopped
 MRT .F               106:   Maximum recorded temp.
 LUN .               4507:   Logging unit number
 LUL .               CSPR:   Logging unit location
 ENGI.           CHAMPLIN:   Recorded By
 WITN.                MAY:   Witnessed by
 ORIG.           5" PRINT:   Origin of data
 UWI .     49025100240000:   Unique Well ID
 DICO. A2D TECHNOLOGIES, INC.:   Digitizing Company
~OTHER INFORMATION
~A   DEPT     CALD        GRD       RHOB       CORR         GR        SPR        ASN          ILD 
# ...
 2996.5000     8.9410    40.2970     2.6350     0.0430  -999.2500   -56.4800    55.9030    50.6620
 2997.0000     8.9510    41.0650     2.5880     0.0390  -999.2500   -56.3210    51.7200    50.4330
 2997.5000     8.9400    42.3410     2.5430     0.0470  -999.2500   -56.0590    50.3840    44.8030
 2998.0000     8.9260    41.0680     2.4950     0.0580  -999.2500   -55.8220    44.5320    37.6360
 2998.5000     8.9110    41.9030     2.4480     0.0680  -999.2500   -54.4430    36.8100    30.2670
 2999.0000     8.8970    43.2770     2.3640     0.0730  -999.2500   -55.1730    33.5110    25.9860
 2999.5000     8.8830    44.9780     2.2820     0.0570  -999.2500   -55.8620    30.2120    22.8980
 3000.0000     8.8690    46.5570     2.2880     0.0440  -999.2500   -55.6170    26.3050    20.7970
 3000.5000     8.8540    52.7310     2.3160     0.0630  -999.2500   -52.2760    23.2640    18.6920
 3001.0000     8.8400    56.9590     2.3410     0.0680  -999.2500   -48.0450    21.9250    18.5180
 3001.5000     8.8240    59.6730     2.3670     0.0620  -999.2500   -45.2940    22.1230    18.4170
 3002.0000     8.8070    60.1780     2.3590     0.0590  -999.2500   -48.0770    22.8950    18.4350
 3002.5000     8.7900    55.4710     2.3310     0.0550  -999.2500   -51.2590    23.8520    20.1240
 3003.0000     8.7720    51.4450     2.3030     0.0510  -999.2500   -55.0510    24.8090    21.5050
 3003.5000     8.7540    50.2140     2.2740     0.0470  -999.2500   -56.0860    25.7650    22.9080
 3004.0000     8.7370    50.2990     2.2930     0.0440  -999.2500   -56.3410    26.7220    23.7790
 3004.5000     8.7170    51.1240     2.2890     0.0450  -999.2500   -56.2910    27.6790    22.6850
 3005.0000     8.7260    51.3660     2.2840     0.0460  -999.2500   -56.2510    27.0830    21.3690
 3005.5000     8.7600    51.2710     2.2930     0.0410  -999.2500   -55.4280    26.0910    20.1090
 3006.0000     8.7910    51.0070     2.3150     0.0330  -999.2500   -53.3970    23.9090    18.6850
 3006.5000     8.8220    53.4040     2.3440     0.0390  -999.2500   -50.7440    21.7260    18.2350
 3007.0000     8.8540    60.2550     2.3810     0.0470  -999.2500   -44.9030    20.2240    17.7620
 3007.5000     8.8860    65.9080     2.4090     0.0340  -999.2500   -39.3010    20.1340    16.9510
 3008.0000     8.9160  -999.2500     2.4350     0.0250  -999.2500   -37.2830    20.2320    15.7460
 3008.5000     8.9490  -999.2500     2.4500     0.0350  -999.2500   -41.0130    20.8050    15.1360
 3009.0000     8.9460  -999.2500     2.4210     0.0490  -999.2500   -45.4790    21.4680    15.2130
 3009.5000     8.9410  -999.2500     2.3610     0.0530  -999.2500   -49.7430    21.6630    15.4330
 3010.0000     8.9340  -999.2500     2.3560     0.0240  -999.2500   -49.9130    20.8780    15.7890
 3010.5000     8.9280  -999.2500     2.3510     0.0150  -999.2500   -49.1040    20.0910    16.0210
 3011.0000     8.9220  -999.2500     2.3490     0.0200  -999.2500   -47.1820    19.1920    15.7050
 3011.5000     8.9160  -999.2500     2.3530     0.0250  -999.2500   -47.7810    18.7140    15.1640
 3012.0000     8.9090  -999.2500     2.3620     0.0250  -999.2500   -52.3050    18.7690    14.8190
 3012.5000     8.9030  -999.2500     2.3590     0.0410  -999.2500   -55.3020    18.7580    14.7420
 3013.0000     8.8970  -999.2500     2.3680     0.0480  -999.2500   -55.5570    18.7390    15.2530
 3013.5000     8.8910  -999.2500     2.3790     0.0490  -999.2500   -56.0450    18.9580    16.1390
 3014.0000     8.8850  -999.2500     2.3710     0.0450  -999.2500   -55.2870    19.5190    16.8710
 3014.5000     8.8790  -999.2500     2.3750     0.0390  -999.2500   -54.0680    20.0880    17.6730
 3015.0000     8.8720  -999.2500     2.3670     0.0350  -999.2500   -53.1380    20.6390    18.4590
 3015.5000     8.8660  -999.2500     2.3530     0.0300  -999.2500   -53.8190    21.7320    19.2440
 3016.0000     8.8600  -999.2500     2.3370     0.0440  -999.2500   -55.7440    22.7200    20.0320
 3016.5000     8.8540  -999.2500     2.3220     0.0480  -999.2500   -57.1890    23.6940    20.8250
 3017.0000     8.8480  -999.2500     2.3050     0.0430  -999.2500   -58.0570    24.7850    21.5970
 3017.5000     8.8420  -999.2500     2.2980     0.0350  -999.2500   -59.1150    24.9990    22.4160
 3018.0000     8.8360  -999.2500     2.2990     0.0290  -999.2500   -59.5380    25.0920    22.7140
 3018.5000     8.8290  -999.2500     2.3170     0.0210  -999.2500   -58.8500    25.1100    22.6290
 3019.0000     8.8230  -999.2500     2.3360     0.0210  -999.2500   -56.8820    25.0310    22.5960
 3019.5000     8.8170  -999.2500     2.3470     0.0200  -999.2500   -56.7240    24.8910    22.5470
 3020.0000     8.8110  -999.2500     2.3370     0.0370  -999.2500   -56.6790    24.4010    22.5010
 3020.5000     8.8050  -999.2500     2.3280     0.0440  -999.2500   -56.2800    23.9220    22.4570
 3021.0000     8.7990  -999.2500     2.3180     0.0520  -999.2500   -55.5900    23.4080    22.4100
 3021.5000     8.7920  -999.2500     2.3110     0.0580  -999.2500   -55.5680    22.8960    22.3650
 3022.0000     8.7860  -999.2500     2.3180     0.0580  -999.2500   -55.9530    22.0370    22.3180
 3022.5000     8.7800  -999.2500     2.3330     0.0500  -999.2500   -56.3920    21.1700    22.2730
 3023.0000     8.7740  -999.2500     2.3490     0.0410  -999.2500   -56.7090    20.2240    22.2250
 3023.5000     8.7680  -999.2500     2.3620     0.0340  -999.2500   -56.6920    19.5350    22.1800
 3024.0000     8.7620  -999.2500     2.3740     0.0440  -999.2500   -56.3960    18.9320    22.1280
 3024.5000     8.7550  -999.2500     2.3770     0.0530  -999.2500   -56.0540  -999.2500    22.1230
 3025.0000  -999.2500  -999.2500  -999.2500     0.0530  -999.2500  -999.2500  -999.2500  -999.2500
 3025.5000  -999.2500  -999.2500  -999.2500     0.0590  -999.2500  -999.2500  -999.2500  -999.2500
 3026.0000  -999.2500  -999.2500     2.3760     0.0630  -999.2500  -999.2500  -999.2500  -999.2500
 3026.5000  -999.2500  -999.2500     2.3760     0.0660  -999.2500  -999.2500  -999.2500  -999.2500
 3027.0000  -999.2500  -999.2500     2.3760     0.0600  -999.2500  -999.2500  -999.2500  -999.2500
 3027.5000  -999.2500  -999.2500     2.3760     0.0670  -999.2500  -999.2500  -999.2500  -999.2500
 3028.0000  -999.2500  -999.2500     2.3760     0.0700  -999.2500  -999.2500  -999.2500  -999.2500
 3028.5000  -999.2500  -999.2500     2.3760     0.0630  -999.2500  -999.2500  -999.2500  -999.2500
 3029.0000  -999.2500  -999.2500     2.3760     0.0660  -999.2500  -999.2500  -999.2500  -999.2500
 3029.5000  -999.2500  -999.2500     2.3760     0.0790  -999.2500  -999.2500  -999.2500  -999.2500
 3030.0000  -999.2500  -999.2500     2.3760     0.0980  -999.2500  -999.2500  -999.2500  -999.2500
 3030.5000  -999.2500  -999.2500  -999.2500     0.0930  -999.2500  -999.2500  -999.2500  -999.2500
 3031.0000  -999.2500  -999.2500  -999.2500     0.0730  -999.2500  -999.2500  -999.2500  -999.2500
 3031.5000  -999.2500  -999.2500  -999.2500     0.0660  -999.2500  -999.2500  -999.2500  -999.2500
 3032.0000  -999.2500  -999.2500  -999.2500     0.0600  -999.2500  -999.2500  -999.2500  -999.2500
 3032.5000  -999.2500  -999.2500  -999.2500     0.0750  -999.2500  -999.2500  -999.2500  -999.2500
