~VERSION INFORMATION
 VERS.                2.0:   CWLS LOG ASCII STANDARD - VERSION 2.0
 WRAP.                 NO:   ONE LINE PER DEPTH STEP
~WELL INFORMATION
#MNEM.UNIT      DATA TYPE    INFORMATION
#----------   ------------   ------------------------------
 STRT.F           50.0000:   START DEPTH
 STOP.F         5698.0000:   STOP DEPTH
 STEP.F            0.5000:   STEP LENGTH
 NULL.          -999.2500:   NO VALUE
 COMP. LAWRENCE - ALLISON:   COMPANY
 WELL. LAWRENCE TPX #57-3:   WELL
 FLD .              NPR 3:   FIELD
 LOC .       S3 T38N R78W:   LOCATION
 CNTY.            NATRONA:   COUNTY
 STAT.            WYOMING:   STATE
 CTRY. UNITED STATES OF AMERICA:   COUNTRY
 SRVC.       SCHLUMBERGER:   SERVICE COMPANY
 DATE.        09-AUG-1982:   LOGDATE
 API .     49025108900000:   API NUMBER
~CURVE INFORMATION
#MNEM.UNIT       API CODE    CURVE DESCRIPTION
#----------   ------------   ------------------------------
 DEPT.F                  :   
 TEND.LBS    45 635 01 00:   TENSION FROM DENSITY LOG
 CALD.IN     45 280 60 00:   CALIPER FROM DENSITY LOG
 NPHI.DEC    42 890 03 00:   NEUTRON POROSITY SANDSTONE
 CORR.G/C3   45 356 01 00:   DENSITY CORRECTION
 RHOB.G/C3   45 350 01 00:   BULK DENSITY
 SPR .MV     11 010 01 00:   SPONTANEOUS POTENTIAL FROM RESISTIVITY
 TENR.LBS    11 635 01 00:   TENSION FROM RESISTIVITY
 GRR .GAPI   11 310 01 00:   GAMMA RAY FROM RESISTIVITY
 LLD .OHMM   11 220 10 00:   LATEROLOG DEEP
 LLS .OHMM   11 220 09 00:   LATEROLOG LOG SHALLOW
 MSFL.OHMM   11 270 04 00:   MICRO SPHERICALLY FOCUSED
~PARAMETER INFORMATION
#MNEM.UNIT          VALUE    DESCRIPTION
#----------   ------------   ------------------------------
 EKB .F         5190.0000:   Kelly bushing
 EGL .F         5180.0000:   Ground level
 EDF .F         5189.0000:   Drilling floor
 TD  .F         5686.0000:   Total depth
 CLNT.            A2DTECH:   Client Code
 SL  . 1002' FSL & 2479' FEL:   Surface Location
 PD  .                 GL:   Permanent Datum
 EPD .F              5180:   Elevation Permanent Datum
 LMF .                 KB:   Log Measured From
 DMF .                 KB:   Drilling Measured From
 DAPD.F                10:   Feet Above Permanent Datum
 DATE.        09-AUG-1982:   Date Logged [DD-MMM-YYYY]
 DD  .F              5685:   Depth driller
 DL  .F              5686:   Depth logger
 BLI .F              5683:   Bottom log interval
 TLI .F               494:   Top log interval
 CS1 .IN            9.625:   Casing size
 CBD1.      9.625" @ 500':   Casing driller 1
 CBL1.F               494:   Casing logger 1
 BS1 .IN             8.75:   Bit size
 BSD1.F              5685:   Depth drilled with bit1
 DFT .                KCL:   Type fluid in hole
 DFD .                9.0:   Density
 DFV .                 38:   Viscosity
 DFPH.                8.5:   pH
 DFL .                9.0:   Fluid loss
 MSS .            MUDTANK:   Source of sample
 RMS .OHMM           0.27:   Rm
 MST .F                79:   Rm Meas. temp.
 RMF .OHMM           0.27:   Rmf
 MFST.F                79:   Rmf Meas. temp.
 MFSS.               MEAS:   Source Rmf.
 RMB .OHMM            .13:   Rm. at BHT
 BHT .F               164:   BHT.
 TCS .HRS            1300:   Time Circ. stopped
 MRT .F               164:   Maximum recorded temp.
 LUN .               8035:   Logging unit number
 LUL .               CSPR:   Logging unit location
 ENGI.            PERAKIS:   Recorded By
 WITN.           L. FIVAS:   Witnessed by
 ORIG.        2" 5" PRINT:   Origin of data
 UWI .     49025108900000:   Unique Well ID
 DICO. A2D TECHNIOLOGIES,INC.:   Digitizing Company
 RMC .OHMM           0.41:   Rmc
 MCST.F                79:   Rmc Meas. temp.
 MCSS.               CALC:   Source Rmc.
 TLAB.HRS            2000:   Time logger at bottom
~OTHER INFORMATION
~A  DEPTH     TEND       CALD       NPHI       CORR       RHOB        SPR       TENR        GRR        LLD        LLS       MSFL
# ...
 3588.0000  1384.4739     8.9720     0.3742     0.1448     2.0703   -73.5325  1427.8861   198.1465     2.8211     3.7905     2.4814
 3588.5000  1386.5181     9.4448     0.4202     0.0584     2.0152   -73.8306  1427.7096   180.0734     3.9791     5.4917     4.4244
 3589.0000  1388.5623     9.1147     0.4057     0.0309     2.0570   -74.1578  1427.5645   169.2401     6.4840     7.7831    12.6655
 3589.5000  1390.6064     8.8145     0.3416     0.0294     2.1904   -74.5976  1427.4193   166.2499     8.0813     9.4386    14.0521
 3590.0000  1392.6506     8.7700     0.3100     0.0406     2.3758   -74.8553  1427.2743   167.7846     8.4238     9.6391    12.7673
 3590.5000  1394.6948     8.7554     0.2736     0.0310     2.4312   -74.7046  1427.1293   178.3690     8.1384     9.1900    11.7609
 3591.0000  1400.0309     8.7561     0.2793     0.0168     2.4447   -74.7001  1426.9841   181.1104     8.0878     9.0672    11.9308
 3591.5000  1407.9473     8.7717     0.2825     0.0042     2.4589   -74.7889  1426.8365   183.6161     8.9077     9.7842    12.4412
 3592.0000  1415.6246     8.7723     0.2812     0.0058     2.4738   -75.0270  1426.6868   187.8063     9.8778    10.2725    12.8845
 3592.5000  1408.8389     8.7580     0.2723     0.0153     2.4821   -75.2654  1426.5126   189.9443     9.8127    10.1735    12.8032
 3593.0000  1401.9545     8.7586     0.2650     0.0349     2.4538   -75.2351  1426.3676   191.7806     8.9763     7.6494    11.5400
 3593.5000  1395.5823     8.7892     0.2626     0.0439     2.3928   -75.1563  1426.2369   194.2203     5.5116     5.0664     5.5422
 3594.0000  1378.8384     8.8199     0.2885     0.0342     2.2528   -75.0992  1411.0847   197.8666     3.9096     3.9034     2.8966
 3594.5000  1363.1140     8.8054     0.3503     0.0000     2.1328   -75.1848  1410.9397   199.9980     3.9665     3.7986     3.4667
 3595.0000  1360.1680     8.7759     0.3727    -0.0216     2.1604   -75.5387  1410.7947   195.2045     4.8771     4.9689     5.6960
 3595.5000  1369.4597     8.7615     0.3468    -0.0253     2.2432   -76.1183  1410.6447   191.0077     7.3140     7.0579    10.5943
 3596.0000  1378.7513     8.7622     0.3089    -0.0118     2.3431   -76.9379  1410.4681   190.1291     7.6235     8.3279    11.2008
 3596.5000  1388.0431     8.7628     0.2932     0.0051     2.4207   -76.9448  1410.3230   194.6870     7.0223     8.3227    10.8276
 3597.0000  1397.3348     8.7634     0.2947     0.0165     2.4371   -76.7440  1410.1949   198.3333     6.5576     7.8886    10.3237
 3597.5000  1406.6265     8.7790     0.3076     0.0158     2.4386   -76.5362  1410.0328   194.7398     6.2943     7.5211     9.9112
 3598.0000  1415.6626     8.7796     0.3106     0.0114     2.4387   -76.4480  1409.8878   192.3529     6.2896     7.0728     9.6472
 3598.5000  1401.6600     8.7651     0.3037     0.0092     2.4410   -76.3844  1409.7427   191.1661     6.5179     6.9312     9.5206
 3599.0000  1388.0321     8.7657     0.2946     0.0085     2.4463   -76.3195  1424.5901   196.6289     7.0988     6.9818     9.7347
 3599.5000  1375.5020     8.7664     0.2937     0.0100     2.4515   -76.3463  1424.4088   202.0874     7.6914     7.4303    10.9407
 3600.0000  1375.5020     8.7518     0.2994     0.0145     2.4518   -76.4129  1439.2925   209.9570     7.3827     8.0171    11.4861
 3600.5000  1375.5020     8.7675     0.3060     0.0153     2.4442   -76.4860  1421.4812   217.8265     6.7534     7.9521    10.9522
 3601.0000  1375.5020     8.7682     0.3051     0.0116     2.4353   -76.3690  1420.9031   224.1877     6.3500     7.2382    10.0193
 3601.5000  1375.5020     8.7688     0.3026     0.0079     2.4263   -76.1861  1420.3250   226.0241     6.1367     6.9009     9.0888
 3602.0000  1375.5020     8.7693     0.3002     0.0072     2.4212   -76.0119  1419.7471   225.7488     6.0963     6.8557     8.7995
 3602.5000  1375.5020     8.7699     0.3032     0.0080     2.4228   -75.8230  1419.1616   223.6702     6.2278     7.0021     9.0514
 3603.0000  1375.5020     8.7705     0.3086     0.0133     2.4355   -75.5980  1418.4462   220.3784     6.4477     7.4008     9.5036
 3603.5000  1375.5020     8.7712     0.3119     0.0200     2.4497   -75.3788  1417.8680   214.9749     6.7214     7.8762    10.0474
 3604.0000  1375.5020     8.7731     0.3128     0.0260     2.4594   -75.1624  1417.2902   210.1748     7.1037     8.0990    10.1223
 3604.5000  1377.2490     8.7757     0.3119     0.0236     2.4483   -74.9530  1416.7120   208.9945     7.3546     8.0408     9.4535
 3605.0000  1378.9491     8.7784     0.3085     0.0194     2.4417   -74.3950  1416.1339   207.8143     7.2065     7.6145     7.6397
 3605.5000  1380.6493     8.7811     0.3057     0.0217     2.4264   -73.7563  1415.5558   207.2368     6.8237     6.1553     8.0310
 3606.0000  1382.3494     8.7837     0.3025     0.0373     2.4008   -73.1117  1414.9701   209.7026     3.6520     4.3069     6.8036
 3606.5000  1384.0496     8.7859     0.3368     0.0635     2.3485   -72.5315  1414.2551   212.1176     2.1908     2.6793     2.5418
 3607.0000  1385.7496     9.0427     0.3861     0.0605     2.2978   -73.0125  1413.6770   202.1950     2.1087     2.8126     2.4567
 3607.5000  1387.4498     9.4075     0.4165     0.0369     2.2800   -73.5246  1413.1737   197.0908     3.3665     4.5553     3.8469
 3608.0000  1389.1499     9.1026     0.4020     0.0079     2.3396   -74.0320  1412.5208   191.6872     6.6962     6.6503    10.8919
 3608.5000  1390.8501     8.7570     0.3373     0.0013     2.3874   -74.4966  1411.9426   196.2384     8.1759     8.7577    10.8985
 3609.0000  1392.5502     8.7422     0.2991     0.0029     2.4262   -74.5561  1411.3647   203.8105     7.6354     9.0669    10.0645
 3609.5000  1394.2504     8.7426     0.2943     0.0133     2.4560   -74.6044  1410.7784   211.0766     5.9228     6.7491     7.9476
 3610.0000  1395.5823     8.7579     0.2938     0.0312     2.4598   -74.6539  1410.0638   214.4211     4.9212     5.4557     5.4066
 3610.5000  1395.5823     8.7582     0.3238     0.0365     2.4389   -74.7422  1409.5807   211.1291     5.1092     5.6195     5.0836
 3611.0000  1395.5823     8.7585     0.3358     0.0231     2.4164   -75.1086  1408.9080   200.2561     6.0945     7.1876     8.1265
 3611.5000  1395.5823     8.7588     0.3291     0.0113     2.4114   -75.4839  1408.3297   190.9726     7.4413     7.8081     9.6590
 3612.0000  1395.5823     8.7591     0.3042     0.0031     2.4174   -75.5700  1407.7844   184.3623     7.1923     7.7041    10.0065
 3612.5000  1395.5823     8.7745     0.2990     0.0002     2.4301   -75.6399  1407.1735   188.2390     6.4013     7.2444     9.5921
 3613.0000  1395.5823     8.7748     0.3005     0.0010     2.4384   -75.7018  1406.5868   201.6138     5.9781     6.9064     9.3469
 3613.5000  1395.5823     8.8051     0.3210    -0.0005     2.4451   -75.7003  1420.9875   202.5385     5.8984     6.7676     9.6809
 3614.0000  1395.5823     8.8054     0.3238     0.0003     2.4645   -75.6996  1420.2649   199.4601     5.9004     6.6775     9.8191
 3614.5000  1395.5823     8.8057     0.3179     0.0071     2.4780   -75.6679  1419.6866   192.9488     5.7034     6.6292     8.9223
 3615.0000  1395.5823     8.8061     0.3123     0.0161     2.4832   -75.5818  1419.1085   184.8303     5.2898     6.4125     8.1623
 3615.5000  1395.5823     8.8064     0.3077     0.0288     2.4855   -75.5067  1403.5607   180.0300     4.8061     6.0714     7.1156
 3616.0000  1395.5823     8.8217     0.3064     0.0424     2.4803   -75.6441  1402.9824   176.1346     4.4884     5.5163     5.4289
 3616.5000  1395.5823     8.8220     0.3112     0.0334     2.4357   -75.7897  1402.3951   172.5410     4.4282     5.3312     5.2606
 3617.0000  1395.5823     8.8072     0.3163     0.0133     2.3969   -75.9307  1401.6816   168.0424     4.5535     5.4073     5.7565
 3617.5000  1395.5823     8.8075     0.3248     0.0067     2.3828   -76.0673  1401.1038   163.1017     4.7796     5.5599     5.6030
 3618.0000  1395.5823     8.8054     0.3356     0.0060     2.3868   -76.2011  1400.5256   154.8284     4.9917     5.7567     6.9416
