~VERSION INFORMATION
 VERS.                2.0:   CWLS LOG ASCII STANDARD - VERSION 2.0
 WRAP.                 NO:   ONE LINE PER DEPTH STEP
~WELL INFORMATION
#MNEM.UNIT      DATA TYPE    INFORMATION
#----------   ------------   ------------------------------
 STRT.F          195.5000:   START DEPTH
 STOP.F         3197.0000:   STOP DEPTH
 STEP.F            0.5000:   STEP LENGTH
 NULL.          -999.2500:   NO VALUE
 COMP.    FENIX & SCISSON:   COMPANY
 WELL.  FENIX "AX" #17-11:   WELL
 FLD .              NPR-3:   FIELD
 LOC .      S11 T38N R78W:   LOCATION
 CNTY.            NATRONA:   COUNTY
 STAT.            WYOMING:   STATE
 CTRY. UNITED STATES OF AMERICA:   COUNTRY
 SRVC.              WELEX:   SERVICE COMPANY
 DATE.        16-SEP-1977:   LOGDATE
 API .     49025104170000:   API NUMBER
~CURVE INFORMATION
#MNEM.UNIT       API CODE    CURVE DESCRIPTION
#----------   ------------   ------------------------------
 DEPT.F                  :   
 GRD .GAPI   45 310 01 00:   GAMMA RAY FROM DENSITY LOG
 CALD.IN     45 280 60 00:   CALIPER FROM DENSITY LOG
 CORR.G/C3   45 356 01 00:   DENSITY CORRECTION
 TEND.LBS    45 635 01 00:   TENSION FORM DENSITY LOG
 RHOB.G/C3   45 350 01 00:   BULK DENSITY
 SPR .MV     07 010 01 00:   SPONTANEOUS POTENTIAL
 TENR.LBS    07 635 01 00:   TENSION FROM RESISTIVITY
 ILD .OHMM   07 120 46 00:   DEEP INDUCTION RESISTIVITY
 ILM .OHMM   07 120 44 00:   INDUCTION LOG MEDIUM RESISTIVITY
 SGRD.OHMM   07 220 05 00:   SHALLOW SHORT GUARD RESISTIVITY
~PARAMETER INFORMATION
#MNEM.UNIT          VALUE    DESCRIPTION
#----------   ------------   ------------------------------
 EKB .F         5212.0000:   Kelly bushing
 EGL .F         5202.0000:   Ground level
 TD  .F         3195.0000:   Total depth
 CLNT.            A2DTECH:   Client Code
 SL  . 1090' FSL & 330' FWL:   Surface Location
 PD  .                 GL:   Permanent Datum
 EPD .F              5202:   Elevation Permanent Datum
 LMF .                 KB:   Log Measured From
 DMF .                 KB:   Drilling Measured From
 DAPD.F                10:   Feet Above Permanent Datum
 DATE.        16-SEP-1977:   Date Logged [DD-MMM-YYYY]
 DD  .F              3195:   Depth driller
 DL  .F              3195:   Depth logger
 BLI .F              3193:   Bottom log interval
 TLI .F               217:   Top log interval
 CS1 .IN            8.625:   Casing size
 CBD1.      8.625" @ 216':   Casing driller 1
 CBL1.F               217:   Casing logger 1
 BS1 .IN            7.875:   Bit size
 BSD1.F              3195:   Depth drilled with bit1
 DFT .            KCL MUD:   Type fluid in hole
 DFD .                9.2:   Density
 DFV .                 36:   Viscosity
 DFPH.                 11:   pH
 DFL .                8.8:   Fluid loss
 MSS .           FLOWLINE:   Source of sample
 RMS .OHMM           2.76:   Rm
 MST .F                99:   Rm Meas. temp.
 RMF .OHMM           1.54:   Rmf
 MFST.F                99:   Rmf Meas. temp.
 MFSS.               MEAS:   Source Rmf.
 RMC .OHMM           3.01:   Rmc
 MCST.F                99:   Rmc Meas. temp.
 MCSS.               MEAS:   Source Rmc.
 RMB .OHMM           2.40:   Rm. at BHT
 BHT .F               112:   BHT.
 TCS .HRS               6:   Time Circ. stopped
 MRT .F               112:   Maximum recorded temp.
 LUN .               8611:   Logging unit number
 LUL .             CASPER:   Logging unit location
 ENGI.          D. LAWSON:   Recorded By
 WITN.         HARRINGTON:   Witnessed by
 ORIG.           5" PRINT:   Origin of data
 UWI .     49025104170000:   Unique Well ID
 DICO. A2D TECHNOLOGIES, INC.:   Digitizing Company
~OTHER INFORMATION
~A   DEPT       GRD      CALD       CORR       TEND       RHOB        SPR       TENR        ILD        ILM       SGRD   
# ...
 1200.5000   104.2508    10.7503     0.0244  1408.2023     2.5146   -70.7679  1198.3337     6.0103     8.2763     9.5199
 1201.0000   105.4042    10.7492     0.0215  1439.0137     2.5078   -70.7808  1199.4274     6.0902     8.3899     9.6496
 1201.5000   104.1885    10.7483     0.0200  1439.8849     2.5055   -70.7911  1200.3024     6.2699     8.5060     9.8498
 1202.0000   102.6738    10.7627     0.0154  1426.3118     2.5077   -70.8014  1201.1976     6.3576     8.5636    10.0542
 1202.5000   101.1590    10.7769     0.0123  1427.5837     2.5153   -70.6577  1202.2706     6.4019     8.7417    10.1215
 1203.0000    99.9455    10.7909     0.0107  1413.3773     2.5121   -70.5165  1203.1456     6.4465     8.7399    10.0861
 1203.5000    98.1277    10.8051     0.0091  1412.0519     2.5046   -70.2263  1204.0205     6.4465     8.8608    10.0460
 1204.0000    96.2249    10.8193     0.0105  1400.5988     2.5015   -70.0852  1204.8953     6.4465     8.9261    10.0432
 1204.5000    94.7966    10.8183     0.0149  1401.7151     2.5015   -69.9439  1205.7703     6.4465     8.7321     9.9705
 1205.0000    93.8843    10.8174     0.0193  1402.7328     2.5022   -69.9546  1206.6451     6.5367     8.6123     9.9678
 1205.5000    94.4780    10.8165     0.0237  1403.7506     2.5074   -69.6616  1207.5199     6.5367     8.7914    10.0345
 1206.0000    97.4813    10.8157     0.0291  1419.7605     2.5104   -69.5230  1208.3949     6.5823     8.9752    10.1016
 1206.5000   100.7859    10.8148     0.0326  1426.8214     2.5043   -69.3792  1209.2814     6.6281     9.0989    10.2399
 1207.0000   100.4704    10.7986     0.0295  1451.7964     2.5012   -69.3921  1210.1796     6.7209     9.1605    10.3091
 1207.5000    97.3642    10.7979     0.0249  1467.9564     2.4997   -69.4024  1211.0779     6.7819     9.2225    10.5223
 1208.0000    95.9382    10.7819     0.0218  1468.9742     2.4997   -69.4127  1212.1132     6.8149     9.2848    10.5194
 1208.5000    95.6305    10.7659     0.0232  1469.9919     2.5041   -69.4231  1212.8743     6.8624     9.3472    10.5166
 1209.0000    97.4268    10.7499     0.0235  1485.9282     2.5063   -69.4334  1213.7723     6.9102     9.2780    10.4410
 1209.5000    99.2253    10.7475     0.0245  1486.9978     2.5040   -69.4439  1214.7377     6.9102     9.0681    10.3654
 1210.0000    99.2973    10.7329     0.0244  1488.0240     2.5025   -69.4566  1215.6124     7.0069     8.7142    10.4347
 1210.5000    97.6957    10.7320     0.0258  1481.7179     2.5039   -69.4651  1216.4669     7.1049     9.0832    10.5052
 1211.0000    95.8392    10.7311     0.0258  1475.0811     2.5084   -69.4773  1217.3651     7.1049     9.3373    10.5751
 1211.5000    94.6702    10.7303     0.0280  1491.3235     2.5181   -69.4876  1218.2634     7.1049     9.4664    10.5721
 1212.0000    94.3602    10.7294     0.0303  1492.3412     2.5293   -69.4970  1219.3307     7.1049     9.5969    10.5692
 1212.5000    94.3515    10.7285     0.0336  1493.3590     2.5401   -69.5076  1220.2057     7.1049     9.7288    10.5663
 1213.0000    95.2464    10.7427     0.0382  1479.4066     2.5495   -69.5182  1221.0806     7.1049     9.7267    10.6370
 1213.5000    94.9365    10.7418     0.0433  1480.5092     2.5525   -69.5289  1221.9553     7.1049     9.7247    10.7082
 1214.0000    92.5141    10.7408     0.0447  1481.4371     2.5479   -69.5394  1222.8302     7.0557     9.7227    10.7798
 1214.5000    91.6054    10.7399     0.0431  1467.5150     2.5404   -69.5500  1223.7052     6.9539     9.7203    10.7761
 1215.0000    91.8982    10.7541     0.0384  1468.5629     2.5336   -69.5624  1224.5800     6.8149     9.7184    10.6988
 1215.5000    92.1907    10.7533     0.0309  1469.6108     2.5275   -69.5712  1225.4548     6.8149     9.7164    10.7703
 1216.0000    93.0834    10.7691     0.0248  1470.7129     2.5189   -69.5818  1226.3472     7.0069     9.7144    10.8423
 1216.5000    93.0747    10.7817     0.0233  1471.7067     2.5054   -69.5934  1227.4235     7.1049     9.7125    10.9149
 1217.0000    92.4636    10.7806     0.0202  1472.7545     2.4986   -69.6030  1228.1437     7.2043     9.8464    10.8364
 1217.5000    91.2451    10.7797     0.0206  1473.8513     2.4926   -69.6136  1229.0420     7.4073     9.9821    10.8334
 1218.0000    89.6868    10.7789     0.0190  1489.8391     2.4880   -69.6243  1230.0481     7.6159    10.0496    10.9052
 1218.5000    88.2184    10.7780     0.0190  1490.8683     2.4842   -69.6348  1230.9227     7.8305     9.9775    11.2870
 1219.0000    87.3060    10.7224     0.0189  1491.9160     2.4947   -69.6455  1231.7977     8.0571     9.9755    11.7634
 1219.5000    86.6949    10.7216     0.0248  1493.1470     2.5053   -69.6579  1232.6346     8.4031     9.9734    12.0083
 1220.0000    87.8910    10.7209     0.0307  1494.1647     2.5037   -69.6682  1233.5330     8.7510    10.0414    12.0042
 1220.5000    89.0871    10.7202     0.0322  1495.1825     2.4961   -69.6258  1234.4312     9.0602    10.1094    11.5118
 1221.0000    88.7588    10.7195     0.0321  1496.2003     2.4908   -69.2343  1235.3292     9.2510    10.3916    10.8875
 1221.5000    86.2598    10.7187     0.0290  1512.1257     2.4856   -69.0924  1236.3907     9.5116    11.6107    10.5136
 1222.0000    84.5407    10.7029     0.0244  1513.3756     2.4803   -68.8004  1237.1257     9.5116    12.6174    10.4381
 1222.5000    83.9295    10.7021     0.0199  1506.7817     2.4765   -68.6592  1238.1406     9.6447    13.3448    10.4473
 1223.0000    83.6196    10.7013     0.0168  1500.1018     2.4741   -68.5180  1239.0153     9.7119    13.7086    10.5775
 1223.5000    83.9143    10.7156     0.0167  1501.5436     2.4749   -68.5288  1239.8903     9.7796    13.8013    10.5886
 1224.0000    84.8072    10.7149     0.0166  1502.3951     2.4892   -68.5394  1240.7653     9.9164    13.7023    10.7940
 1224.5000    86.0100    10.7142     0.0181  1503.4431     2.4914   -68.5516  1241.6399    10.0551    13.5106    11.0180
 1225.0000    87.1992    10.7134     0.0225  1504.5969     2.4861   -68.5619  1242.5149    10.3384    13.3215    11.1688
 1225.5000    88.3931    10.7125     0.0239  1505.6150     2.4831   -68.5722  1228.4198    10.6297    13.1357    11.3218
 1226.0000    88.9868    10.7118     0.0253  1506.5868     2.4808   -68.5825  1214.3245    10.9292    13.5024    11.3187
 1226.5000    89.2814    10.7112     0.0282  1507.6505     2.4808   -68.5924  1215.4181    11.0820    13.6885    11.3944
 1227.0000    89.2705    10.7104     0.0282  1508.6826     2.4882   -68.6030  1216.2931    11.1593    13.6856    11.6416
 1227.5000    88.3582    10.6945     0.0311  1509.7306     2.4950   -68.6136  1217.1680    11.1593    13.6822    12.2202
 1228.0000    87.7470    10.6787     0.0346  1510.7786     2.4889   -68.6242  1218.0427    11.1593    13.4907    12.6325
 1228.5000    88.0395    10.6780     0.0355  1511.8264     2.4806   -68.6367  1218.9177    11.0820    13.1184    12.8946
 1229.0000    88.3320    10.6772     0.0248  1512.9939     2.4746   -68.6455  1219.7926    11.0820    12.7564    13.2538
 1229.5000    88.0199    10.6917     0.0218  1514.0116     2.4738   -68.6561  1235.6375    11.0820    12.3184    13.4362
 1230.0000    86.8064    10.6907     0.0202  1514.9701     2.4790   -68.6667  1236.5271    10.9292    12.0620    13.4316
 1230.5000    87.4000    10.6900     0.0217  1516.0181     2.4775   -68.6780  1249.2998    10.6297    12.0595    13.3352
 1231.0000    89.4998    10.6893     0.0216  1517.0659     2.4767   -68.6879  1253.4509    10.3384    12.0571    13.4245
 1231.5000    91.6085    10.6733     0.0225  1518.1139     2.4774   -68.6987  1254.1915    10.1958    12.2232    13.7029
 1232.0000    93.6970    10.6575     0.0229  1519.1616     2.4789   -68.8614  1255.0898    10.0551    12.3917    13.7945
 1232.5000    95.1943    10.6569     0.0244  1520.2096     2.4826   -69.0227  1256.0756     9.9164    12.5625    13.7906
 1233.0000    96.0892    10.6409     0.0288  1506.2875     2.5000   -69.3383  1256.9503     9.7769    12.5594    13.5962
 1233.5000    95.7793    10.6251     0.0347  1507.5232     2.5197   -69.3470  1257.8252     9.5116    12.2979    13.2206
