~VERSION INFORMATION
 VERS.                2.0:   CWLS LOG ASCII STANDARD - VERSION 2.0
 WRAP.                 NO:   ONE LINE PER DEPTH STEP
~WELL INFORMATION
#MNEM.UNIT      DATA TYPE    INFORMATION
#----------   ------------   ------------------------------
 STRT.F            0.0000:   START DEPTH
 STOP.F         3982.0000:   STOP DEPTH
 STEP.F            0.5000:   STEP LENGTH
 NULL.          -999.2500:   NO VALUE
 COMP.   LAWRENCE ALLISON:   COMPANY
 WELL. LAWRENCE NPR 3 "LX" #61-10:   WELL
 FLD .                NPR:   FIELD
 LOC .      S10 T38N R78W:   LOCATION
 CNTY.            NATRONA:   COUNTY
 STAT.            WYOMING:   STATE
 CTRY. UNITED STATES OF AMERICA:   COUNTRY
 SRVC.      DRESSER ATLAS:   SERVICE COMPANY
 DATE.        14-APR-1983:   LOGDATE
 API .     49025109180000:   API NUMBER
~CURVE INFORMATION
#MNEM.UNIT       API CODE    CURVE DESCRIPTION
#----------   ------------   ------------------------------
 DEPT.F                  :   
 CALD.IN     45 280 60 00:   CALIPER FROM DENSITY LOG
 RHOB.G/C3   45 350 01 00:   BULK DENSITY
 DRHO.G/C3   45 356 01 00:   DENSITY CORRECTION
 TEND.LBS    45 635 01 00:   TENSION FROM DENSITY LOG
 CNC .DEC    42 890 03 00:   NEUTRON PORISITY SANDSTONE
 GRR .GAPI   07 310 01 00:   GAMMA RAY FROM RESISTIVITY
 SPR .MV     07 010 01 00:   SPONTANEOUS POTENTIAL
 ILD .OHMM   07 120 46 00:   DEEP INDUCTION RESISTIVITY
 ILM .OHMM   07 120 44 00:   INDUCTION LOG MEDIUM RESISTIVITY
 SFL .OHMM   07 220 01 00:   SHALLOW FOCUSED LOG RESISTIVITY
 TENS.LBS    60 635 01 00:   TENSION FROM SONIC LOG
 DT  .US/F   60 520 00 00:   DELTA TIME
 TENR.LBS    07 635 01 00:   TENSION FROM RESISTIVITY
~PARAMETER INFORMATION
#MNEM.UNIT          VALUE    DESCRIPTION
#----------   ------------   ------------------------------
 EKB .F         5164.0000:   Kelly bushing
 EGL .F         5154.0000:   Ground level
 EDF .F            0.0000:   Drilling floor
 TD  .F         3985.0000:   Total depth
 DATE.        14-APR-1983:   Date logged
 CLNT.            A2DTECH:   Client Code
 SL  . 138' FNL & 1331' FEL:   Surface Location
 PD  .                 GL:   Permanent Datum
 EPD .F              5154:   Elevation Permanent Datum
 LMF .                 KB:   Log Measured From
 DMF .                 KB:   Drilling Measured From
 DD  .F              3985:   Depth driller
 DL  .F              3948:   Depth logger
 BLI .F              3945:   Bottom log interval
 CS1 .IN            8.625:   Casing size
 CBD1.      8.625" @ 442':   Casing driller 1
 CBL1.F               453:   Casing logger 1
 BS1 .IN            7.875:   Bit size
 DFT .                KCI:   Type fluid in hole
 DFD .                8.9:   Density
 DFV .                 40:   Viscosity
 DFPH.                8.5:   pH
 DFL .                 10:   Fluid loss
 MSS .           FLOWLINE:   Source of sample
 RMS .OHMM           0.38:   Rm
 MST .F                68:   Rm Meas. temp.
 RMF .OHMM           0.30:   Rmf
 MFST.F                68:   Rmf Meas. temp.
 RMC .OHMM           0.49:   Rmc
 MCST.F                68:   Rmc Meas. temp.
 MFSS.               MEAS:   Source Rmf.
 RMB .OHMM           0.22:   Rm. at BHT
 BHT .F               122:   BHT.
 TCS .HRS               4:   Time Circ. stopped
 MRT .F               122:   Maximum recorded temp.
 LUN .               6764:   Logging unit number
 LUL .              WLSTN:   Logging unit location
 ENGI.            QUICKEL:   Recorded By
 WITN.           JENNINGS:   Witnessed by
 ORIG.           5" PRINT:   Origin of data
 UWI .     49025109180000:   Unique Well ID
 DICO. A2D TECHNOLOGIES, INC.:   Digitizing Company
 DAPD.                 10:   Feet Above Permanent Datum
 BSD1.               3985:   Depth drilled with bit1
 MCSS.               CALC:   Source Rmc.
~OTHER INFORMATION
~A    DEPT    CALD       RHOB       DRHO       TEND        CNC         GRR       SPR        ILD        ILM        SFL       TENS         DT       TENR   
# ...
  676.0000     9.0700     2.4880     0.0510   -66.0110     0.3250   112.3000   -43.5860     6.2850     6.0640     5.9000  -999.2500  -999.2500   -66.6500
  676.5000     9.0700     2.4810     0.0470   -66.6790     0.3220   111.4940   -43.3200     6.3080     6.0850     5.9220  -999.2500  -999.2500   -66.6500
  677.0000     9.0700     2.4840     0.0420   -67.3470     0.3170   110.4870   -43.0740     6.3320     6.1040     5.9440  -999.2500  -999.2500   -66.6500
  677.5000     9.0700     2.4850     0.0390   -68.0150     0.3120   109.1760   -42.8660     6.3550     6.1110     5.9660  -999.2500  -999.2500   -66.6500
  678.0000     9.0700     2.4800     0.0390   -68.6830     0.3180   108.8880   -42.6520     6.3780     6.1180     5.9940  -999.2500  -999.2500   -66.6500
  678.5000     9.0700     2.4750     0.0400   -69.3510     0.3380   109.8930   -42.4630     6.3890     6.1240     6.0010  -999.2500  -999.2500   -66.6500
  679.0000     9.0700     2.4690     0.0430   -70.0190     0.3440   110.3940   -42.4690     6.3890     6.1310     6.0090  -999.2500  -999.2500   -66.6500
  679.5000     9.0700     2.4660     0.0450   -70.6870     0.3440   110.9570   -42.6180     6.3890     6.1370     6.0180  -999.2500  -999.2500   -66.6500
  680.0000     9.0700     2.4700     0.0430   -71.3550     0.3590   111.2400   -42.7980     6.3890     6.1430     6.0270  -999.2500  -999.2500   -66.6500
  680.5000     9.0700     2.4750     0.0420   -72.0230     0.3560   109.6990   -43.0420     6.4020     6.1500     6.0360  -999.2500  -999.2500   -66.6500
  681.0000     9.0700     2.4800     0.0490   -72.6910     0.3480   108.6570   -43.2960     6.4170     6.1560     6.0450  -999.2500  -999.2500   -66.6500
  681.5000     9.0700     2.4850     0.0480   -73.3590     0.3360   110.5620   -43.5580     6.4310     6.1540     6.0360  -999.2500  -999.2500   -66.6500
  682.0000     9.0700     2.5020     0.0210   -74.0270     0.3230   113.8510   -43.7590     6.4450     6.1380     6.0150  -999.2500  -999.2500   -66.6500
  682.5000     9.0700     2.5250     0.0240   -74.6950     0.3290   114.6470   -43.7510     6.4590     6.1220     5.9940  -999.2500  -999.2500   -66.6500
  683.0000     9.0700     2.5500     0.0410   -75.3630     0.3460   112.1490   -43.6870     6.4730     6.1040     5.9720  -999.2500  -999.2500   -66.6500
  683.5000     9.0700     2.5480     0.0860   -76.8080     0.3600   112.0690   -43.6690     6.4870     6.1190     5.9510  -999.2500  -999.2500   -66.6500
  684.0000     9.0710     2.5380     0.0960   -79.0350     0.3590   115.5660   -43.6190     6.5010     6.1360     5.9770  -999.2500  -999.2500   -66.6500
  684.5000     9.0720     2.5270     0.1030   -81.2620     0.3510   116.3630   -43.5840     6.4940     6.1540     6.0630  -999.2500  -999.2500   -66.6500
  685.0000     9.0730     2.5170     0.1070   -83.4880     0.3510   115.1950   -43.5710     6.4760     6.1600     6.1600  -999.2500  -999.2500   -66.6500
  685.5000     9.0730     2.5080     0.1050   -85.7150     0.3410   116.2760   -43.5800     6.4570     6.1540     6.1000  -999.2500  -999.2500   -66.8780
  686.0000     9.0740     2.4950     0.0930   -87.9420     0.3240   117.1680   -43.5850     6.4470     6.1410     6.0300  -999.2500  -999.2500   -67.1430
  686.5000     9.0750     2.4780     0.0640   -90.1680     0.3140   115.7010   -43.5590     6.3780     6.1280     6.0130  -999.2500  -999.2500   -67.4070
  687.0000     9.0760     2.4820     0.0330   -92.3950     0.3220   113.4950   -43.6050     6.3130     6.1160     6.0490  -999.2500  -999.2500   -67.6720
  687.5000     9.0770     2.4950     0.0270   -94.6220     0.3310   112.1230   -43.5500     6.2480     6.1040     5.9370  -999.2500  -999.2500   -67.9360
  688.0000     9.0780     2.5100     0.0560   -93.3720     0.3400   111.5200   -43.3990     6.2160     6.0330     5.8920  -999.2500  -999.2500   -68.2010
  688.5000     9.0790     2.5210     0.0820   -89.3100     0.3490   111.2660   -43.5880     6.2400     5.9940     5.9040  -999.2500  -999.2500   -68.4660
  689.0000     9.0800     2.5200     0.0800   -85.2480     0.3490   111.9270   -43.7630     6.2580     6.0080     5.9160  -999.2500  -999.2500   -68.7300
  689.5000     9.0800     2.5160     0.0650   -81.1860     0.3430   111.3510   -43.4390     6.2730     6.0360     5.9290  -999.2500  -999.2500   -68.9950
  690.0000     9.0810     2.4860     0.0820   -77.1240     0.3330   107.2230   -43.0900     6.4700     6.0640     5.9390  -999.2500  -999.2500   -69.2590
  690.5000     9.0820     2.4550     0.0920   -73.0620     0.3220   103.1210   -43.0280     6.6860     6.0920     6.0180  -999.2500  -999.2500   -69.5240
  691.0000     9.0830     2.4310     0.0650   -69.0000     0.3050   101.6160   -43.0600     7.0020     6.2630     6.1040  -999.2500  -999.2500   -69.7890
  691.5000     9.0840     2.4240     0.0410   -66.3350     0.2890   100.1340   -43.1140     7.4230     6.6930     6.5660  -999.2500  -999.2500   -70.0530
  692.0000     9.0850     2.4210     0.0440   -69.3710     0.2830    97.4890   -43.1710     7.8450     7.2580     6.9970  -999.2500  -999.2500   -70.3180
  692.5000     9.0860     2.4220     0.0410   -72.4070     0.2960    95.1590   -43.2180     8.2490     7.6680     7.4590  -999.2500  -999.2500   -70.5830
  693.0000     9.0870     2.4240     0.0270   -75.4440     0.3080    93.4520   -43.2650     8.6430     8.0230     7.6660  -999.2500  -999.2500   -70.8470
  693.5000     9.0870     2.4270     0.0140   -78.4800     0.3170    92.5250   -43.3280     9.1150     8.2620     7.7750  -999.2500  -999.2500   -71.1120
  694.0000     9.0880     2.4310     0.0010   -81.5160     0.3170    94.4370   -43.3730     9.3110     8.5030     7.6930  -999.2500  -999.2500   -71.3760
  694.5000     9.0890     2.4330    -0.0050   -84.5530     0.3040    98.0370   -43.3460     9.5560     8.7890     7.5960  -999.2500  -999.2500   -71.6410
  695.0000     9.0890     2.4330    -0.0030   -85.0740     0.2920    99.1350   -43.3000     9.8020     8.9810     7.6930  -999.2500  -999.2500   -71.9060
  695.5000     9.0730     2.4380     0.0040   -84.1580     0.2820    97.9990   -43.2470     9.8940     9.2180     7.8110  -999.2500  -999.2500   -72.1700
  696.0000     9.0570     2.4440     0.0120   -83.2410     0.2830    96.6500   -43.2080     9.9230     9.4550     7.9010  -999.2500  -999.2500   -72.4350
  696.5000     9.0410     2.4570     0.0200   -82.3250     0.2950    95.8510   -43.1900     9.9510     9.5170     7.9530  -999.2500  -999.2500   -72.6990
  697.0000     9.0240     2.4710     0.0310   -81.4080     0.3010    97.1410   -43.1590     9.9780     9.4810     8.0050  -999.2500  -999.2500   -72.9640
  697.5000     9.0080     2.4760     0.0410   -80.4920     0.3010    98.6650   -43.2140    10.0060     9.4450     8.0770  -999.2500  -999.2500   -73.2290
  698.0000     8.9920     2.4760     0.0410   -79.5760     0.2960    97.3150   -43.1500    10.0340     9.4080     8.1710  -999.2500  -999.2500   -73.4930
  698.5000     8.9870     2.4770     0.0360   -78.6590     0.2890    95.2110   -42.7760    10.0620     9.3680     8.1710  -999.2500  -999.2500   -73.7580
  699.0000     8.9850     2.4810     0.0330   -77.7430     0.2830    94.8250   -42.3860    10.0760     9.3680     8.1710  -999.2500  -999.2500   -74.0220
  699.5000     8.9820     2.4810     0.0410   -76.8260     0.2770    95.3290   -41.9850    10.0760     9.3680     8.0300  -999.2500  -999.2500   -74.2870
  700.0000     8.9790     2.4710     0.0460   -75.9100     0.2720    96.3720   -41.6220    10.0760     9.3680     7.9720  -999.2500  -999.2500   -74.5520
  700.5000     8.9760     2.4710     0.0300   -74.9930     0.2730    98.3460   -41.6070    10.0760     9.5160     8.0160  -999.2500  -999.2500   -74.8160
  701.0000     8.9730     2.4770     0.0170   -74.0770     0.2760    99.3070   -41.6820    10.0760     9.6810     8.0590  -999.2500  -999.2500   -75.0810
  701.5000     8.9700     2.4850     0.0190   -73.1600     0.2800    97.8730   -41.6870    10.0760     9.8450     8.0970  -999.2500  -999.2500   -75.3450
