~VERSION INFORMATION
 VERS.                2.0:   CWLS LOG ASCII STANDARD - VERSION 2.0
 WRAP.                 NO:   ONE LINE PER DEPTH STEP
~WELL INFORMATION
#MNEM.UNIT      DATA TYPE    INFORMATION
#----------   ------------   ------------------------------
 STRT.F          198.5000:   START DEPTH
 STOP.F         3172.0000:   STOP DEPTH
 STEP.F            0.5000:   STEP LENGTH
 NULL.          -999.2500:   NO VALUE
 COMP.    FENIX & SCISSON:   COMPANY
 WELL. FENIX & SCISSON AX #26-11:   WELL
 FLD .              NPR-3:   FIELD
 LOC .      S11 T38N R78W:   LOCATION
 CNTY.            NATRONA:   COUNTY
 STAT.            WYOMING:   STATE
 CTRY. UNITED STATES OF AMERICA:   COUNTRY
 SRVC.              WELEX:   SERVICE COMPANY
 DATE.        11-NOV-1977:   LOGDATE
 API .     49025104420000:   API NUMBER
~CURVE INFORMATION
#MNEM.UNIT       API CODE    CURVE DESCRIPTION
#----------   ------------   ------------------------------
 DEPT.F                  :   
 GRD .GAPI   45 310 01 00:   GAMMA RAY FROM DENSITY LOG
 CALD.IN     45 280 60 00:   CALIPER FROM DENSITY LOG
 CORR.G/C3   45 356 01 00:   DENSITY CORRECTION
 TEND.LBS    45 635 01 00:   TENSION FROM DENSITY LOG
 RHOB.G/C3   45 350 01 00:   BULK DENSITY
 SPR .MV     07 010 01 00:   SPONTANEOUS POTENTIAL
 ILD .OHMM   07 120 46 00:   DEEP INDUCTION RESISTIVITY
 ILM .OHMM   07 120 44 00:   INDUCTION LOG MEDIUM RESISTIVITY
 SGRD.OHMM   07 220 05 00:   SHALLOW SHORT GUARD RESISTIVITY
~PARAMETER INFORMATION
#MNEM.UNIT          VALUE    DESCRIPTION
#----------   ------------   ------------------------------
 EKB .F         5187.0000:   Kelly bushing
 EGL .F         5177.0000:   Ground level
 EDF .F            0.0000:   Drilling floor
 EPD .F         5177.0000:   Permanent datum
 TD  .F         3174.0000:   Total depth
 CLNT.            A2DTECH:   Client Code
 SL  . 1650' FSL & 840' FWL:   Surface Location
 PD  .                 GL:   Permanent Datum
 LMF .                 KB:   Log Measured From
 DMF .                 KB:   Drilling Measured From
 DAPD.F                10:   Feet Above Permanent Datum
 DATE.        11-NOV-1977:   Date Logged [DD-MMM-YYYY]
 DD  .F              3170:   Depth driller
 DL  .F              3174:   Depth logger
 BLI .F              3172:   Bottom log interval
 TLI .F               200:   Top log interval
 CS1 .              8.625:   Casing size
 CBD1.      8.625" @ 220':   Casing driller 1
 CBL1.IN              220:   Casing logger 1
 BS1 .IN            7.875:   Bit size
 BSD1.F              3170:   Depth drilled with bit1
 DFT .            KCL MUD:   Type fluid in hole
 DFD .                8.9:   Density
 DFV .                 37:   Viscosity
 DFPH.               11.0:   pH
 DFL .                6.4:   Fluid loss
 MSS .           FLOWLINE:   Source of sample
 RMS .OHMM           2.79:   Rm
 MST .F                50:   Rm Meas. temp.
 RMF .OHMM           2.16:   Rmf
 MFST.F                50:   Rmf Meas. temp.
 MFSS.               FANN:   Source Rmf.
 MCSS.               TEST:   Source Rmc.
 RMB .OHMM           1.22:   Rm. at BHT
 BHT .F               114:   BHT.
 TCS .HRS               3:   Time Circ. stopped
 MRT .F               114:   Maximum recorded temp.
 LUN .               8611:   Logging unit number
 LUL .             CASPER:   Logging unit location
 ENGI.            C. DOAK:   Recorded By
 WITN.         HARRINGTON:   Witnessed by
 ORIG.      2.5" 5" PRINT:   Origin of data
 UWI .     49025104420000:   Unique Well ID
 DICO. A2D TECHNOLOGIES, INC.:   Digitizing Company
~OTHER INFORMATION
~A   DEPT       GRD      CALD       CORR       TEND       RHOB        SPR        ILD        ILM       SGRD   
# ...
  636.5000    95.0856    10.3344     0.0474  1060.3805     2.5192   -73.1351     3.5784     3.6674     6.3535
  637.0000    95.3841    10.3344     0.0474  1060.9913     2.5170   -73.2922     3.9688     4.4832     6.5292
  637.5000    96.2835    10.3344     0.0409  1061.6022     2.5132   -73.4564     4.2813     5.6057     6.6170
  638.0000    97.7313    10.3034     0.0350  1062.2130     2.5122   -73.4725     4.9847     6.4413     6.8000
  638.5000    99.3527    10.3034     0.0357  1062.8237     2.5153   -73.3319     5.4147     6.8067     7.0874
  639.0000   100.9741    10.3344     0.0486  1063.4346     2.5238   -73.1946     5.7607     7.0731     7.3415
  639.5000   102.5955    10.3344     0.0564  1064.0453     2.5354   -73.2113     5.8390     7.1689     7.8257
  640.0000   104.2169    10.3344     0.0532  1064.6561     2.5423   -73.2247     5.8355     7.1142     8.4756
  640.5000   105.8383    10.3653     0.0470  1065.2670     2.5446   -73.2380     5.8327     6.9634     8.8937
  641.0000   107.6087    10.3653     0.0401  1065.8778     2.5420   -73.2514     5.8299     6.8634     9.4631
  641.5000   113.6893    10.3963     0.0346  1066.4885     2.5310   -73.1141     5.8271     7.1018     9.7261
  642.0000   111.7776    10.4272     0.0306  1067.0994     2.5202   -72.9735     5.8649     7.2987     9.5187
  642.5000   110.9835    10.4272     0.0284  1067.7101     2.5054   -72.9902     5.8620     7.4470     9.4476
  643.0000   110.9820    10.4582     0.0283  1068.3209     2.4977   -73.0036     5.8592     7.3911     9.7088
  643.5000   110.9805    10.4582     0.0294  1068.9318     2.4946   -73.0169     5.8563     7.3357     9.8394
  644.0000   110.6787    10.4892     0.0325  1069.5426     2.4977   -73.1809     5.8535     7.3826     9.6309
  644.5000   110.0205    10.4892     0.0344  1070.1538     2.4992   -73.3449     5.8507     7.4815     9.1681
  645.0000   108.1532    10.5201     0.0343  1070.7693     2.5023   -73.3584     5.8473     7.4193     9.0365
  645.5000   106.1698    10.5211     0.0329  1071.3845     2.5038   -73.3720     5.8041     7.2670     9.0946
  646.0000   107.1371    10.5511     0.0297  1072.0000     2.5038   -73.3855     5.8013     7.2628     9.0896
  646.5000   107.3680    10.5511     0.0234  1072.6154     2.5054   -73.4016     5.7985     7.3102     8.8970
  647.0000   104.8077    10.5511     0.0218  1073.2308     2.5054   -73.4150     5.7557     7.1543     8.6481
  647.5000   100.4582    10.5539     0.0265  1071.0297     2.5069   -73.4283     5.7131     6.9542     8.4003
  648.0000   105.2975    10.5820     0.0327  1043.6597     2.5084   -73.4417     5.7104     6.8069     8.1023
  648.5000   107.6260    10.5820     0.0371  1044.3076     2.5100   -73.4550     5.7077     6.6626     7.9333
  649.0000   109.4385    10.5820     0.0382  1040.7156     2.5131   -73.4684     5.7049     6.7052     7.8273
  649.5000   111.7552    10.5820     0.0277  1014.7229     2.5069   -73.4817     5.7022     6.9865     8.0437
  650.0000   112.1624    10.5820     0.0215  1015.3846     2.5008   -73.4951     5.7391     7.1294     8.5599
  650.5000   109.2255    10.5820     0.0153  1015.9999     2.4962   -73.5084     5.7363     7.1751     8.6149
  651.0000   102.9939    10.5820     0.0091  1016.6154     2.4946   -73.5218     5.7336     7.1708     8.6090
  651.5000   105.7352    10.5820     0.0091  1017.2308     2.4946   -73.5003     5.8468     7.0678     8.3682
  652.0000   108.7166    10.5820     0.0121  1017.8461     2.4962   -73.4383     5.8414     7.0147     8.1341
  652.5000   110.5931    10.5820     0.0213  1018.4615     2.4962   -73.3762     5.8370     6.9612     8.0173
  653.0000   112.1011    10.5900     0.0274  1049.8461     2.4977   -73.3142     5.8326     7.0067     7.9022
  653.5000   113.0526    10.6130     0.0243  1050.4615     2.5008   -73.3088     5.7480     6.9531     7.8431
  654.0000   112.0180    10.6130     0.0212  1051.0768     2.5054   -73.3294     5.6645     6.9491     7.6769
  654.5000   111.9845    10.6130     0.0150  1051.6923     2.4946   -73.6431     5.5437     6.8970     7.5667
  655.0000   112.1471    10.6228     0.0118  1052.3076     2.4839   -73.8135     5.4255     6.7979     7.4063
  655.5000   112.5901    10.6440     0.0087  1052.9231     2.4808   -73.9803     5.2731     6.6078     7.0997
  656.0000   113.1932    10.6440     0.0118  1053.5385     2.4839   -73.9965     5.1250     6.3344     6.8045
  656.5000   114.2488    10.6440     0.0209  1054.1538     2.4838   -74.1633     5.1196     5.9885     6.4755
  657.0000   116.2132    10.6440     0.0270  1054.7692     2.4791   -74.3301     5.0810     5.5834     6.0662
  657.5000   116.6241    10.6749     0.0270  1055.3846     2.4731   -74.6476     4.9735     5.3897     5.5637
  658.0000   114.2925    10.6749     0.0270  1056.0000     2.4876   -74.9650     4.9697     5.3852     5.0351
  658.5000   111.1277    10.6749     0.0269  1056.6154     2.5042   -75.1318     4.9652     5.6186     5.6241
  659.0000   106.4694    10.6749     0.0269  1057.2307     2.5120   -75.2986     4.9960     6.0702     6.2392
  659.5000   102.8444    10.6749     0.0302  1057.8461     2.5161   -75.4654     5.0630     6.6221     6.5470
  660.0000   104.0237    10.6749     0.0329  1058.4614     2.5126   -75.4820     5.0934     7.1437     6.7750
  660.5000   106.1243    10.6749     0.0298  1059.0769     2.5080   -75.4985     5.2692     7.6002     6.9633
  661.0000   107.0240    10.6749     0.0339  1059.6923     2.5036   -75.5181     5.4890     8.0298     7.1080
  661.5000   106.7220    10.6749     0.0426  1060.3077     2.5023   -75.5344     5.6795     8.4837     7.2976
  662.0000   104.9187    10.6749     0.0488  1060.9230     2.5063   -75.5506     5.8349     8.9632     7.6066
  662.5000   102.2145    10.6749     0.0542  1061.5385     2.5122   -75.5668     5.9934     9.2746     7.8191
  663.0000   103.4142    10.6749     0.0573  1062.1538     2.5161   -75.5830     6.1148     9.5968     7.9818
  663.5000   103.7132    10.6749     0.0563  1062.7692     2.5108   -75.5992     6.1956     9.8615     8.0920
  664.0000   104.6124    10.6440     0.0470  1063.3846     2.5031   -75.6154     6.3211     9.9246     8.0893
  664.5000   104.9114    10.6440     0.0345  1064.1216     2.4973   -75.6316     6.4101    10.1981     8.1441
  665.0000   106.1109    10.6130     0.0294  1064.7324     2.5001   -75.4970     6.4892    10.4794     8.1413
  665.5000   107.0103    10.6130     0.0263  1065.3433     2.5038   -75.3629     6.5295    10.6978     8.1391
  666.0000   104.9067    10.5820     0.0262  1065.9540     2.4983   -75.3795     6.5688    10.8371     8.0804
  666.5000   102.8031    10.5820     0.0231  1066.5648     2.4941   -75.3994     6.5638    10.7543     8.1346
  667.0000   101.3001    10.5820     0.0216  1067.1757     2.4910   -75.4156     6.6058    10.4536     8.1892
  667.5000    99.7971    10.5820     0.0168  1067.7865     2.4889   -75.4318     6.6455    10.4475     8.2435
  668.0000    99.7957    10.5511     0.0199  1068.3972     2.4935   -75.4480     6.6406    10.6613     8.2994
  668.5000    99.7942    10.5511     0.0307  1069.0081     2.5173   -75.4642     6.6356    10.8057     8.2966
  669.0000    99.7927    10.5511     0.0304  1069.6189     2.5214   -75.4804     6.5848    10.7232     8.2943
  669.5000   100.0916    10.5511     0.0241  1070.2297     2.5160   -75.4966     6.6259    10.0675     8.2920
  670.0000   107.2972    10.5511     0.0197  1070.8405     2.5016   -75.5129     6.6207     9.4519     8.2323
  670.5000   109.6982    10.5511     0.0289  1040.6154     2.5068   -75.5291     6.5700     8.9981     8.1730
  671.0000   106.3933    10.5511     0.0319  1041.2928     2.5070   -75.5453     6.5160     8.5068     8.0579
  671.5000   104.2897    10.5511     0.0349  1041.9037     2.4993   -75.5617     6.4181     7.9867     8.0557
  672.0000   102.4864    10.5201     0.0410  1042.5144     2.5099   -75.5783     6.2869     7.6562     7.8325
  672.5000   101.2837    10.5201     0.0471  1043.1252     2.5246   -75.5980     6.2388     7.4391     7.6641
