~VERSION INFORMATION
 VERS.                2.0:   CWLS LOG ASCII STANDARD - VERSION 2.0
 WRAP.                 NO:   ONE LINE PER DEPTH STEP
~WELL INFORMATION
#MNEM.UNIT      DATA TYPE    INFORMATION
#----------   ------------   ------------------------------
 STRT.F          748.0000:   START DEPTH
 STOP.F         2734.0000:   STOP DEPTH
 STEP.F            0.5000:   STEP LENGTH
 NULL.          -999.2500:   NO VALUE
 COMP.    FENIX & SCISSON:   COMPANY
 WELL. FENIX NPR 3 "SHX" #84-4:   WELL
 FLD .             TEAPOT:   FIELD
 LOC .       S4 T38N R78W:   LOCATION
 CNTY.            NATRONA:   COUNTY
 STAT.            WYOMING:   STATE
 CTRY. UNITED STATES OF AMERICA:   COUNTRY
 SRVC.              WELEX:   SERVICE COMPANY
 DATE.        08-MAY-1980:   LOGDATE
 API .     49025108050000:   API NUMBER
~CURVE INFORMATION
#MNEM.UNIT       API CODE    CURVE DESCRIPTION
#----------   ------------   ------------------------------
 DEPT.F                  :   
 CALD.IN     45 280 60 00:   CALIPER FROM DENSITY LOG
 GRD .GAPI   45 310 01 00:   GAMMA RAY FROM DENSITY LOG
 RHOB.G/C3   45 350 01 00:   BULK DENSITY
 CORR.G/C3   45 356 01 00:   DENSITY CORRECTION
~PARAMETER INFORMATION
#MNEM.UNIT          VALUE    DESCRIPTION
#----------   ------------   ------------------------------
 EKB .F         5244.0000:   Kelly bushing
 EGL .F         5234.0000:   Ground level
 EDF .F            0.0000:   Drilling floor
 TD  .F         2733.0000:   Total depth
 DATE.        08-MAY-1980:   Date logged
 CLNT.            A2DTECH:   Client Code
 SL  . 7461' FNL & 383' FEL:   Surface Location
 PD  .                 GL:   Permanent Datum
 EPD .F              5234:   Elevation Permanent Datum
 LMF .                 KB:   Log Measured From
 DMF .                 KB:   Drilling Measured From
 DAPD.F                10:   Feet Above Permanent Datum
 DD  .F              2700:   Depth driller
 DL  .F              2733:   Depth logger
 BLI .F              2731:   Bottom log interval
 TLI .F               752:   Top log interval
 CS1 .IN            9.625:   Casing size
 CBD1.      9.625" @ 260':   Casing driller 1
 BS1 .IN              8.5:   Bit size
 BSD1.F              2700:   Depth drilled with bit1
 DFT .                AIR:   Type fluid in hole
 MRT .F               118:   Maximum recorded temp.
 LUN .                  2:   Logging unit number
 ENGI.           TORTILLE:   Recorded By
 WITN.              AMEND:   Witnessed by
 ORIG.           5" PRINT:   Origin of data
 UWI .     49025108050000:   Unique Well ID
 DICO. A2D TECHNOLOGIES, INC.:   Digitizing Company
~OTHER INFORMATION
~A   DEPT       CALD       GRD        RHOB       CORR 
# ...
 1113.0000     8.9490    84.8810     2.4400     0.0330
 1113.5000     8.9500    84.0230     2.4350     0.0280
 1114.0000     8.9510    83.0850     2.4290     0.0240
 1114.5000     8.9530    82.1170     2.4220     0.0200
 1115.0000     8.9540    81.1310     2.4220     0.0130
 1115.5000     8.9550    80.6940     2.4210     0.0080
 1116.0000     8.9560    81.2030     2.4330     0.0160
 1116.5000     8.9580    81.6340     2.4590     0.0310
 1117.0000     8.9590    81.9050     2.4840     0.0460
 1117.5000     8.9600    81.4750     2.4930     0.0610
 1118.0000     8.9610    81.0190     2.4940     0.0760
 1118.5000     8.9620    80.5840     2.5010     0.0850
 1119.0000     8.9640    80.1520     2.4920     0.0840
 1119.5000     8.9650    80.5560     2.4820     0.0710
 1120.0000     8.9660    81.0080     2.4770     0.0610
 1120.5000     8.9670    81.4970     2.4750     0.0540
 1121.0000     8.9680    81.9590     2.4800     0.0540
 1121.5000     8.9700    82.4220     2.4880     0.0620
 1122.0000     8.9710    82.9240     2.4940     0.0650
 1122.5000     8.9720    83.0030     2.4880     0.0640
 1123.0000     8.9730    82.7530     2.4830     0.0610
 1123.5000     8.9740    82.5460     2.4810     0.0650
 1124.0000     8.9760    82.3320     2.4930     0.0730
 1124.5000     8.9770    82.1120     2.4860     0.0710
 1125.0000     8.9780    81.9190     2.4760     0.0660
 1125.5000     8.9790    81.9110     2.4660     0.0600
 1126.0000     8.9800    82.2530     2.4550     0.0550
 1126.5000     8.9820    82.7250     2.4500     0.0490
 1127.0000     8.9840    83.1540     2.4550     0.0510
 1127.5000     8.9860    83.6620     2.4660     0.0590
 1128.0000     8.9880    83.6300     2.4750     0.0610
 1128.5000     8.9900    83.4660     2.4800     0.0530
 1129.0000     8.9920    83.2910     2.4540     0.0450
 1129.5000     8.9940    83.1280     2.4620     0.0540
 1130.0000     8.9960    82.9610     2.4810     0.0640
 1130.5000     8.9980    82.7930     2.4860     0.0740
 1131.0000     9.0010    82.6200     2.4900     0.0780
 1131.5000     9.0030    82.5620     2.5010     0.0790
 1132.0000     9.0050    82.7950     2.5010     0.0810
 1132.5000     9.0070    83.0200     2.4990     0.0820
 1133.0000     9.0090    83.2540     2.5080     0.0910
 1133.5000     9.0110    83.4850     2.5160     0.0990
 1134.0000     9.0130    83.7170     2.5130     0.1010
 1134.5000     9.0150    83.9490     2.4980     0.0850
 1135.0000     9.0170    84.1800     2.4820     0.0850
 1135.5000     9.0190    84.4120     2.5020     0.0970
 1136.0000     9.0200    84.6430     2.5050     0.1080
 1136.5000     9.0200    84.8750     2.4990     0.1170
 1137.0000     9.0200    85.1050     2.4930     0.1100
 1137.5000     9.0200    85.3390     2.5010     0.1130
 1138.0000     9.0200    85.5700     2.5050     0.1190
 1138.5000     9.0200    85.7970     2.5000     0.1210
 1139.0000     9.0200    86.0440     2.4940     0.1160
 1139.5000     9.0200    85.9390     2.4870     0.1100
 1140.0000     9.0200    85.3940     2.4780     0.1040
 1140.5000     9.0200    84.8730     2.4720     0.0980
 1141.0000     9.0200    84.3350     2.4870     0.0940
 1141.5000     9.0200    83.8130     2.4860     0.0930
 1142.0000     9.0200    83.2720     2.4840     0.0940
 1142.5000     9.0200    82.7330     2.4700     0.0820
 1143.0000     9.0200    82.5470     2.4460     0.0610
 1143.5000     9.0200    83.3800     2.4170     0.0420
 1144.0000     9.0200    84.1080     2.4320     0.0280
 1144.5000     9.0200    84.8700     2.4720     0.0340
 1145.0000     9.0200    85.4750     2.4660     0.0620
 1145.5000     9.0200    85.1220     2.4690     0.0700
 1146.0000     9.0200    84.5910     2.4700     0.0650
 1146.5000     9.0200    84.2600     2.4590     0.0560
 1147.0000     9.0200    84.4050     2.4440     0.0500
 1147.5000     9.0200    84.5990     2.4380     0.0460
 1148.0000     9.0200    84.7890     2.4500     0.0450
 1148.5000     9.0200    84.8900     2.4620     0.0610
 1149.0000     9.0200    84.4380     2.4720     0.0700
 1149.5000     9.0200    84.0140     2.4770     0.0690
 1150.0000     9.0200    83.5550     2.4710     0.0690
 1150.5000     9.0200    83.0090     2.4710     0.0680
 1151.0000     9.0200    82.4300     2.4860     0.0660
 1151.5000     9.0200    82.4430     2.5050     0.0840
 1152.0000     9.0200    82.3510     2.4970     0.0920
 1152.5000     9.0200    82.2890     2.4760     0.0810
 1153.0000     9.0200    82.2270     2.4730     0.0720
 1153.5000     9.0200    82.1590     2.4610     0.0610
 1154.0000     9.0200    82.0930     2.4660     0.0540
 1154.5000     9.0200    82.0270     2.4780     0.0610
 1155.0000     9.0200    81.9740     2.4780     0.0770
 1155.5000     9.0200    81.8720     2.4770     0.0760
 1156.0000     9.0200    82.1980     2.4650     0.0670
 1156.5000     9.0200    82.7240     2.4600     0.0570
 1157.0000     9.0200    83.2270     2.4670     0.0520
 1157.5000     9.0200    83.7870     2.4730     0.0570
 1158.0000     9.0200    84.4150     2.4790     0.0670
 1158.5000     9.0200    84.4410     2.4900     0.0770
 1159.0000     9.0200    84.5670     2.4970     0.0830
 1159.5000     9.0230    84.6600     2.4790     0.0850
 1160.0000     9.0270    84.7550     2.4690     0.0740
 1160.5000     9.0310    84.8570     2.4780     0.0770
 1161.0000     9.0340    84.9540     2.4880     0.0900
 1161.5000     9.0380    85.0520     2.4900     0.0980
 1162.0000     9.0420    85.1510     2.4910     0.0970
 1162.5000     9.0460    85.2490     2.4780     0.0910
 1163.0000     9.0490    85.3470     2.4720     0.0830
 1163.5000     9.0530    85.4450     2.4770     0.0750
 1164.0000     9.0570    85.5440     2.4610     0.0660
 1164.5000     9.0600    85.6430     2.4680     0.0770
 1165.0000     9.0580    85.7400     2.4770     0.0890
 1165.5000     9.0560    85.8390     2.4870     0.0900
 1166.0000     9.0530    85.9380     2.4810     0.0850
 1166.5000     9.0510    86.0290     2.4870     0.0760
 1167.0000     9.0490    86.2900     2.4880     0.0700
 1167.5000     9.0470    86.8590     2.4740     0.0700
 1168.0000     9.0450    87.4170     2.4640     0.0770
 1168.5000     9.0430    87.9840     2.4820     0.0840
 1169.0000     9.0410    88.5490     2.4760     0.0770
 1169.5000     9.0390    89.1120     2.4650     0.0700
 1170.0000     9.0370    89.6760     2.4550     0.0610
 1170.5000     9.0350    90.2450     2.4540     0.0560
 1171.0000     9.0330    90.8010     2.4600     0.0460
 1171.5000     9.0300    91.3670     2.4510     0.0350
 1172.0000     9.0280    91.6510     2.4380     0.0220
 1172.5000     9.0260    91.8240     2.4430     0.0260
 1173.0000     9.0240    92.0430     2.4560     0.0380
 1173.5000     9.0220    91.8720     2.4690     0.0510
 1174.0000     9.0200    91.3690     2.4780     0.0620
 1174.5000     9.0200    90.9270     2.4870     0.0710
 1175.0000     9.0200    90.5210     2.4940     0.0810
 1175.5000     9.0200    89.6790     2.5010     0.0810
 1176.0000     9.0200    88.1880     2.5040     0.0670
 1176.5000     9.0200    86.9820     2.5060     0.0600
 1177.0000     9.0200    85.7750     2.4970     0.0540
 1177.5000     9.0200    84.3900     2.4890     0.0480
 1178.0000     9.0200    83.5880     2.4790     0.0420
 1178.5000     9.0200    82.6220     2.4660     0.0430
 1179.0000     9.0200    81.7860     2.4570     0.0470
 1179.5000     9.0200    80.7790     2.4470     0.0510
 1180.0000     9.0200    80.7040     2.4460     0.0550
 1180.5000     9.0200    80.6100     2.4630     0.0570
 1181.0000     9.0200    80.5560     2.4570     0.0560
 1181.5000     9.0200    80.4690     2.4590     0.0550
 1182.0000     9.0200    80.3950     2.4630     0.0530
 1182.5000     9.0200    80.3230     2.4660     0.0530
 1183.0000     9.0200    80.2460     2.4700     0.0550
 1183.5000     9.0200    80.1590     2.4720     0.0580
 1184.0000     9.0200    80.1360     2.4750     0.0610
 1184.5000     9.0200    79.7710     2.4620     0.0520
 1185.0000     9.0200    79.1790     2.4520     0.0400
 1185.5000     9.0200    78.6340     2.4410     0.0280
