~VERSION INFORMATION
 VERS.                2.0:   CWLS LOG ASCII STANDARD - VERSION 2.0
 WRAP.                 NO:   ONE LINE PER DEPTH STEP
~WELL INFORMATION
#MNEM.UNIT      DATA TYPE    INFORMATION
#----------   ------------   ------------------------------
 STRT.F          330.0000:   START DEPTH
 STOP.F         2880.0000:   STOP DEPTH
 STEP.F            0.5000:   STEP LENGTH
 NULL.          -999.2500:   NO VALUE
 COMP.   TESORO PETROLEUM:   COMPANY
 WELL. TESORO NPR "AX" #3-21:   WELL
 FLD .        TEAPOT DOME:   FIELD
 LOC .      S21 T39N R78W:   LOCATION
 CNTY.            NATRONA:   COUNTY
 STAT.            WYOMING:   STATE
 CTRY. UNITED STATES OF AMERICA:   COUNTRY
 SRVC.       SCHLUMBERGER:   SERVICE COMPANY
 DATE.        17-AUG-1972:   LOGDATE
 API .     49025102150000:   API NUMBER
~CURVE INFORMATION
#MNEM.UNIT       API CODE    CURVE DESCRIPTION
#----------   ------------   ------------------------------
 DEPT.F                  :   
 GRD .GAPI   45 310 01 00:   GAMMA RAY FROM DENSITY LOG
 CALD.IN     45 280 60 00:   CALIPER FROM DENSITY LOG
 CORR.G/C3   45 356 01 00:   DENSITY CORRECTION
 RHOB.G/C3   45 350 01 00:   BULK DENSITY
 SPR .MV     05 010 01 00:   SPONTANEOUS POTENTIAL FROM RES.
 ILD .OHMM   05 120 46 00:   INDUCTION LOG DEEP
 ASN .OHMM   05 041 16 00:   AMPLIFIED SHORT NORMAL 16"
~PARAMETER INFORMATION
#MNEM.UNIT          VALUE    DESCRIPTION
#----------   ------------   ------------------------------
 EKB .F         4985.0000:   Kelly bushing
 EGL .F         4975.0000:   Ground level
 EDF .F            0.0000:   Drilling floor
 EPD .F         4975.0000:   Permanent datum
 TD  .F         2880.0000:   Total depth
 CLNT.            A2DTECH:   Client Code
 DATE.        17-AUG-1972:   Date Logged [DD-MMM-YYYY]
 DD  .F              2875:   Depth driller
 DL  .F              2880:   Depth logger
 BLI .F              2879:   Bottom log interval
 TLI .F               330:   Top log interval
 CS1 .              10.75:   Casing size
 CBD1.       10.75" @ 327:   Casing driller 1
 CBL1.IN              330:   Casing logger 1
 BS1 .IN                9:   Bit size
 BSD1.F              2875:   Depth drilled with bit1
 DFT .           CHEM-GEL:   Type fluid in hole
 DFD .                9.3:   Density
 DFV .                 61:   Viscosity
 DFPH.                9.0:   pH
 DFL .                 66:   Fluid loss
 MSS .           FLOWLINE:   Source of sample
 RMS .OHMM           1.86:   Rm
 MST .F                76:   Rm Meas. temp.
 RMF .OHMM           1.58:   Rmf
 MFST.F                76:   Rmf Meas. temp.
 MFSS.               MEAS:   Source Rmf.
 RMB .OHMM           1.25:   Rm. at BHT
 BHT .F               113:   BHT.
 TCS .HRS               3:   Time Circ. stopped
 MRT .F               113:   Maximum recorded temp.
 LUN .               7037:   Logging unit number
 LUL .               CSPR:   Logging unit location
 ENGI.              GOLAS:   Recorded By
 WITN.                MAY:   Witnessed by
 ORIG.      1" 2.5" PRINT:   Origin of data
 UWI .     49025102150000:   Unique Well ID
 DICO. A2D TECHNOLOGIES, INC.:   Digitizing Company
~OTHER INFORMATION
~A   DEPT      GRD       CALD       CORR       RHOB        SPR          ILD        ASN 
# ...
 2559.5000   120.8761     9.1790     0.0033     2.5135   -13.3929     7.5948     9.5821
 2560.0000   122.0764     9.1790     0.0262     2.5179   -13.0952     7.5925    10.0054
 2560.5000   118.7722     9.1790     0.0552     2.5381   -13.0952     7.5902    10.0468
 2561.0000   113.3654     9.1790     0.0262     2.5363   -13.0952     7.5880    10.0881
 2561.5000   110.7829     9.1790     0.0340     2.5897   -13.0952     7.7435    10.1294
 2562.0000   111.7462     9.1790     0.0355     2.5980   -13.0952     8.0464    10.1493
 2562.5000   113.4807     9.2099     0.0401     2.6024   -13.3929     8.1984    10.1493
 2563.0000   112.4078     9.2099     0.0293     2.5807   -13.3929     8.3677    10.2985
 2563.5000   110.5272     9.2099     0.0123     2.5620   -13.6905     8.5244    10.2985
 2564.0000   108.3692     9.1790     0.0031     2.5458   -13.6905     8.6545    10.2985
 2564.5000   107.5577     9.1790     0.0046     2.5367   -13.6905     8.8066    10.2985
 2565.0000   108.9616     9.1790     0.0077     2.5263   -13.9881     8.8040    10.2985
 2565.5000   109.4538     9.1481     0.0046     2.5297   -13.9881     8.8017    10.2985
 2566.0000   107.3614     9.1481     0.0015     2.5378   -13.9881     8.7994    10.3423
 2566.5000   105.4940     9.1481     0.0077     2.5424   -13.9583     8.7471    10.4478
 2567.0000   105.8773     9.1173     0.0201     2.5485   -13.6905     8.5860    10.4478
 2567.5000   108.3184     9.1173     0.0309     2.5551   -13.6905     8.3295    10.3905
 2568.0000   108.7857     9.1173     0.0355     2.5642   -13.6905     8.1728    10.2368
 2568.5000   109.7144     9.1173     0.0278     2.5728   -13.3929     7.9477    10.0832
 2569.0000   113.4124     9.1173     0.0216     2.5633   -13.3929     7.7052     9.7800
 2569.5000   114.5977     9.1173     0.0154     2.5517   -13.3929     7.5486     9.4771
 2570.0000   111.5776     9.1173     0.0325     2.5555   -13.3929     7.4640     9.1741
 2570.5000   111.4807     9.1173     0.0342     2.5777   -13.3929     7.3897     9.0203
 2571.0000   113.4352     9.1173     0.0419     2.5620   -13.3929     7.3873     8.9552
 2571.5000   112.5178     9.1173     0.0480     2.5721   -13.3929     7.5394     8.9552
 2572.0000   111.1388     9.1173     0.0731     2.5828   -13.5318     7.5366     9.1045
 2572.5000   110.2215     9.1173     0.0789     2.5832   -13.6905     7.5344     9.5522
 2573.0000   109.7654     9.1173     0.0893     2.5702   -13.6905     7.6864     9.5522
 2573.5000   109.3097     9.1173     0.1009     2.5811   -13.9881     7.8384     9.4030
 2574.0000   108.3924     9.1173     0.0978     2.5647   -13.9881     7.9905     9.4030
 2574.5000   107.9365     9.1173     0.0910     2.5557   -13.9881     8.1427     9.5522
 2575.0000   108.4230     9.1173     0.0876     2.5528   -14.2857     8.2946     9.7015
 2575.5000   108.8712     9.1173     0.0789     2.5424   -14.2857     8.4468    10.1493
 2576.0000   107.9077     9.1173     0.0535     2.5349   -14.2857     8.5987    10.2985
 2576.5000   106.5155     9.1173     0.0341     2.5305   -14.2857     8.7507    10.5970
 2577.0000   105.5114     9.1173     0.0241     2.5305   -14.2857     8.9027    10.8955
 2577.5000   104.1924     9.1173     0.0159     2.5291   -14.2857     9.1224    11.0448
 2578.0000   103.8225     9.1347     0.0096     2.5276   -14.2857     9.0868    11.1940
 2578.5000   104.5173     9.1481     0.0056     2.5322   -13.9881     9.1261    11.3433
 2579.0000   106.2693     9.1481     0.0096     2.5382   -13.9881     9.1280    11.3433
 2579.5000   107.2116     9.1481     0.0184     2.5368   -13.9881     9.1299    11.4925
 2580.0000   107.9990     9.1481     0.0187     2.5578   -13.6905     9.1815    11.4925
 2580.5000   102.3859     9.1481     0.0093     2.5580   -13.3929     9.4861    11.5169
 2581.0000    99.2412     9.1481     0.0054     2.5564   -13.0952     9.7343    11.6995
 2581.5000    99.2481     9.1481     0.0015     2.5490   -13.0654     9.7954    12.1230
 2582.0000    99.0462     9.1481     0.0070     2.5430   -12.7976    10.0998    12.7243
 2582.5000    98.7981     9.1481     0.0108     2.5371   -12.5000    10.2545    13.3259
 2583.0000    98.8038     9.1481     0.0062     2.5401   -12.5000    10.4091    13.6288
 2583.5000    98.8096     9.1481     0.0015     2.5372   -12.5000    10.4921    13.7313
 2584.0000    99.4004     9.1481     0.0062     2.5420   -12.5000    10.3443    13.1722
 2584.5000   104.3608     9.1481     0.0082     2.5554   -12.5000    10.3462    12.3567
 2585.0000   103.4434     9.1481     0.0000     2.5519   -12.5000    10.1173    11.5771
 2585.5000   102.9865     9.1481    -0.0031     2.5403   -12.6093     9.9008    11.2741
 2586.0000   101.6086     9.1173     0.0077     2.5389   -12.7976     9.7530    11.1204
 2586.5000    99.7681     9.1481     0.0139     2.5491   -12.7976     9.4558    11.0448
 2587.0000    98.3892     9.1481     0.0170     2.5684   -12.7976     9.1583    11.0448
 2587.5000    98.8564     9.1481     0.0216     2.5785   -12.7976     8.8607    11.1940
 2588.0000   100.2467     9.1790     0.0185     2.5909   -12.7976     8.5632    11.1940
 2588.5000    98.4062     9.1790     0.0062     2.5868   -13.0952     8.5650    11.3433
 2589.0000    97.0273     9.1790     0.0031     2.5678   -13.0952     8.2675    10.7463
 2589.5000    99.3407     9.1790     0.0015     2.5566   -13.0952     7.9699     9.8507
 2590.0000   102.5772     9.1790     0.0046     2.5486   -13.0952     7.6724     9.5522
 2590.5000   106.2752     9.1790     0.0154     2.5366   -13.0952     7.3748     8.7164
 2591.0000   108.5885     9.1790     0.0247     2.5320   -13.0952     7.0773     8.1194
 2591.5000   110.9056     9.1790     0.0201     2.5400   -13.0952     6.7797     7.7612
 2592.0000   112.7693     9.1790     0.0046     2.5285   -13.0952     6.4822     7.4030
 2592.5000   113.6827     9.1790     0.0046     2.5172   -13.3929     6.0349     7.1343
 2593.0000   113.2267     9.1790     0.0139     2.5268   -13.3929     5.5877     6.8955
 2593.5000   115.9310     9.1790     0.0203     2.5209   -13.0952     5.1404     6.5970
 2594.0000   121.6403     9.1790     0.0311     2.5280   -13.0952     4.5435     6.2388
 2594.5000   133.1598     9.1790     0.0387     2.5310   -13.0952     3.9465     5.2822
 2595.0000   144.4070     9.1790     0.0417     2.5150   -13.0952     3.3986     4.6103
 2595.5000   154.7945     9.1790     0.0313     2.4981   -13.3929     2.8332     3.8089
 2596.0000   169.5694     9.1790     0.0178     2.4778   -13.3929     2.2679     3.4251
 2596.5000   179.2674     9.1790     0.0077     2.4474   -13.3929     1.7053     3.0413
 2597.0000   188.0423     9.1790     0.0099     2.4239   -13.3533     1.5543     2.6683
 2597.5000   192.7211     9.1790     0.0149     2.4172   -13.0952     1.4127     2.5264
 2598.0000   198.2076     9.1790     0.0201     2.4089   -13.0952     1.2649     2.4776
 2598.5000   193.3785     9.1790     0.0150     2.3996   -13.0952     1.1170     2.4703
 2599.0000   187.7663     9.1790     0.0119     2.3712   -13.0952     1.1190     2.4016
 2599.5000   181.6261     9.1790     0.0083     2.3368   -13.0952     1.1208     2.2895
 2600.0000   182.2301     9.1790     0.0113     2.3219   -13.0952     1.1227     2.1990
 2600.5000   189.0877     9.1790     0.0243     2.3713   -13.0952     1.1247     2.4016
 2601.0000   187.7655     9.1790     0.0363     2.3833   -13.3929     1.2762     2.5726
 2601.5000   167.4530     9.1790     0.0494     2.3909   -13.8196     1.3124     2.7245
 2602.0000   150.2539     9.1790     0.0652     2.3864   -14.1270     1.4296     2.9496
 2602.5000   123.0289     9.1790     0.0373     2.3970   -14.2857     1.4721     3.5569
 2603.0000   108.2471     9.1790     0.0135     2.4275   -13.8294     1.9261     5.7612
 2603.5000   106.4249     9.1790     0.0300     2.4900   -13.2244     2.5769     6.1791
 2604.0000   109.7229     9.1790     0.0254     2.5138   -12.7976     3.6826     6.5075
 2604.5000   109.5343     9.1762     0.0028     2.4989   -12.5000     4.8384     6.7761
