~VERSION INFORMATION
 VERS.                2.0:   CWLS LOG ASCII STANDARD - VERSION 2.0
 WRAP.                 NO:   ONE LINE PER DEPTH STEP
~WELL INFORMATION
#MNEM.UNIT      DATA TYPE    INFORMATION
#----------   ------------   ------------------------------
 STRT.F          198.5000:   START DEPTH
 STOP.F         3172.0000:   STOP DEPTH
 STEP.F            0.5000:   STEP LENGTH
 NULL.          -999.2500:   NO VALUE
 COMP.    FENIX & SCISSON:   COMPANY
 WELL. FENIX & SCISSON AX #26-11:   WELL
 FLD .              NPR-3:   FIELD
 LOC .      S11 T38N R78W:   LOCATION
 CNTY.            NATRONA:   COUNTY
 STAT.            WYOMING:   STATE
 CTRY. UNITED STATES OF AMERICA:   COUNTRY
 SRVC.              WELEX:   SERVICE COMPANY
 DATE.        11-NOV-1977:   LOGDATE
 API .     49025104420000:   API NUMBER
~CURVE INFORMATION
#MNEM.UNIT       API CODE    CURVE DESCRIPTION
#----------   ------------   ------------------------------
 DEPT.F                  :   
 GRD .GAPI   45 310 01 00:   GAMMA RAY FROM DENSITY LOG
 CALD.IN     45 280 60 00:   CALIPER FROM DENSITY LOG
 CORR.G/C3   45 356 01 00:   DENSITY CORRECTION
 TEND.LBS    45 635 01 00:   TENSION FROM DENSITY LOG
 RHOB.G/C3   45 350 01 00:   BULK DENSITY
 SPR .MV     07 010 01 00:   SPONTANEOUS POTENTIAL
 ILD .OHMM   07 120 46 00:   DEEP INDUCTION RESISTIVITY
 ILM .OHMM   07 120 44 00:   INDUCTION LOG MEDIUM RESISTIVITY
 SGRD.OHMM   07 220 05 00:   SHALLOW SHORT GUARD RESISTIVITY
~PARAMETER INFORMATION
#MNEM.UNIT          VALUE    DESCRIPTION
#----------   ------------   ------------------------------
 EKB .F         5187.0000:   Kelly bushing
 EGL .F         5177.0000:   Ground level
 EDF .F            0.0000:   Drilling floor
 EPD .F         5177.0000:   Permanent datum
 TD  .F         3174.0000:   Total depth
 CLNT.            A2DTECH:   Client Code
 SL  . 1650' FSL & 840' FWL:   Surface Location
 PD  .                 GL:   Permanent Datum
 LMF .                 KB:   Log Measured From
 DMF .                 KB:   Drilling Measured From
 DAPD.F                10:   Feet Above Permanent Datum
 DATE.        11-NOV-1977:   Date Logged [DD-MMM-YYYY]
 DD  .F              3170:   Depth driller
 DL  .F              3174:   Depth logger
 BLI .F              3172:   Bottom log interval
 TLI .F               200:   Top log interval
 CS1 .              8.625:   Casing size
 CBD1.      8.625" @ 220':   Casing driller 1
 CBL1.IN              220:   Casing logger 1
 BS1 .IN            7.875:   Bit size
 BSD1.F              3170:   Depth drilled with bit1
 DFT .            KCL MUD:   Type fluid in hole
 DFD .                8.9:   Density
 DFV .                 37:   Viscosity
 DFPH.               11.0:   pH
 DFL .                6.4:   Fluid loss
 MSS .           FLOWLINE:   Source of sample
 RMS .OHMM           2.79:   Rm
 MST .F                50:   Rm Meas. temp.
 RMF .OHMM           2.16:   Rmf
 MFST.F                50:   Rmf Meas. temp.
 MFSS.               FANN:   Source Rmf.
 MCSS.               TEST:   Source Rmc.
 RMB .OHMM           1.22:   Rm. at BHT
 BHT .F               114:   BHT.
 TCS .HRS               3:   Time Circ. stopped
 MRT .F               114:   Maximum recorded temp.
 LUN .               8611:   Logging unit number
 LUL .             CASPER:   Logging unit location
 ENGI.            C. DOAK:   Recorded By
 WITN.         HARRINGTON:   Witnessed by
 ORIG.      2.5" 5" PRINT:   Origin of data
 UWI .     49025104420000:   Unique Well ID
 DICO. A2D TECHNOLOGIES, INC.:   Digitizing Company
~OTHER INFORMATION
~A   DEPT       GRD      CALD       CORR       TEND       RHOB        SPR        ILD        ILM       SGRD   
# ...
 2169.5000   130.3862     8.2858     0.0028  1789.8459     2.4710   -72.9756     6.2846    13.0747    10.8766
 2170.0000   130.9550     8.2848    -0.0013  1790.7692     2.4653   -72.9769     6.2803    11.2291    11.0963
 2170.5000   131.5270     8.2839    -0.0106  1791.6925     2.4572   -72.9783     6.2760     9.9828    10.3979
 2171.0000   130.9015     8.2830    -0.0230  1792.6154     2.4467   -72.9796     6.2716     9.5751    10.1382
 2171.5000   130.2759     8.2820    -0.0317  1793.5385     2.4341   -72.9810     6.3120     9.3118    11.3213
 2172.0000   127.8540     8.2811    -0.0379  1794.4614     2.4076   -72.9823     6.3516     9.2452    10.9344
 2172.5000   124.8332     8.3113    -0.0404  1795.3846     2.4206   -72.9837     6.4348     9.2427    10.7825
 2173.0000   120.6149     8.3102    -0.0337  1796.3076     2.4356   -72.9850     6.4304     9.3042    11.7124
 2173.5000   126.5761     8.3404    -0.0306  1797.2307     2.4460   -72.9864     6.5157     9.3746    12.1219
 2174.0000   127.7485     8.3393    -0.0252  1798.1541     2.4513   -72.9877     6.5565     9.5589    12.2888
 2174.5000   127.7202     8.3384    -0.0253  1799.0768     2.4483   -72.9891     6.5988     9.6231    12.2010
 2175.0000   128.2934     8.3375    -0.0253  1800.0001     2.4483   -72.9904     6.6390     9.6872    11.8658
 2175.5000   128.2655     8.3365    -0.0254  1800.9230     2.4490   -72.9918     6.6806     9.7516    11.3812
 2176.0000   127.6400     8.3356    -0.0215  1801.8462     2.4535   -72.9931     6.6760     9.7483    11.1453
 2176.5000   128.2121     8.3347    -0.0154  1802.7690     2.4572   -72.9945     6.7180     9.7457    11.6150
 2177.0000   129.9817     8.3337    -0.0071  1803.6923     2.4639   -72.9958     6.7600     9.7430    12.2731
 2177.5000   132.3502     8.3328     0.0008  1804.6156     2.4760   -72.9972     6.8023     9.7404    12.5278
 2178.0000   134.7309     8.3319     0.0020  1805.5383     2.4878   -72.9985     6.7976     9.8059    12.2681
 2178.5000   138.8962     8.3310    -0.0051  1806.4617     2.4850   -72.9999     6.8403     9.8025    11.9245
 2179.0000   137.5468     8.3300    -0.0082  1807.3845     2.4796   -73.0012     6.8354     9.8679    11.6030
 2179.5000   131.5501     8.3291    -0.0135  1808.3077     2.4730   -73.0026     6.8307     9.9334    11.5207
 2180.0000   127.2650     8.3280    -0.0166  1778.3392     2.4628   -73.0039     6.8737    10.0688    11.5984
 2180.5000   123.1087     8.3271    -0.0177  1779.3846     2.4538   -73.0053     6.9156    10.2107    11.9212
 2181.0000   120.1279     8.3261    -0.0197  1780.3079     2.4478   -73.0066     6.9589    10.4168    11.9182
 2181.5000   118.8945     8.3252    -0.0187  1781.2307     2.4389   -73.0080     7.0525    10.7049    12.5067
 2182.0000   117.7365     8.3243    -0.0156  1782.1539     2.4492   -73.0093     7.0967    10.9260    13.1249
 2182.5000   117.6247     8.3234    -0.0107  1783.0770     2.4596   -73.0107     7.1399    11.1524    12.7636
 2183.0000   116.8964     8.3225    -0.0076  1784.0000     2.4700   -73.0120     7.1350    11.2266    13.2099
 2183.5000   115.2605     8.3215    -0.0034  1784.9230     2.4789   -73.0134     7.1301    11.1455    13.5776
 2184.0000   114.5229     8.3206    -0.0016  1785.8462     2.4833   -73.0147     7.1252    10.9141    13.5746
 2184.5000   113.2895     8.3197    -0.0060  1786.7694     2.4729   -73.0161     7.0711    10.4684    13.3854
 2185.0000   112.5251     8.3498    -0.0078  1787.6923     2.4669   -73.0174     7.0174     9.9717    12.9279
 2185.5000   110.3623     8.3488    -0.0079  1788.6155     2.4639   -73.0188     6.9160     9.4333    11.8960
 2186.0000   110.1875     8.3479    -0.0079  1789.5386     2.4743   -73.0201     6.8635     8.9240    11.0990
 2186.5000   109.5528     8.3470    -0.0080  1790.4617     2.4831   -73.0215     6.7175     8.4422    10.5724
 2187.0000   109.0838     8.3771    -0.0036  1791.3846     2.4891   -73.0228     6.5747     8.2668    10.2110
 2187.5000   109.6596     8.3761     0.0026  1792.3077     2.4950   -73.0242     6.4797     8.2077     9.8620
 2188.0000   109.6287     8.3752     0.0042  1793.2310     2.5009   -73.0255     6.4305     8.2662     9.7926
 2188.5000   110.2049     8.3743     0.0041  1794.1537     2.5009   -73.0269     6.3375     8.5581    10.7852
 2189.0000   110.1737     8.4043     0.0041  1795.0770     2.5008   -73.0282     6.2894     8.6668    11.1623
 2189.5000   110.1467     8.4034     0.0040  1796.0000     2.4948   -73.0296     6.1985     8.6931    11.3155
 2190.0000   111.1578     8.4025     0.0071  1796.9231     2.4978   -73.0309     6.1089     8.3676    11.3131
 2190.5000   112.7165     8.4015     0.0147  1797.8462     2.5067   -73.0323     6.0206     7.9160    11.2328
 2191.0000   114.8616     8.4006     0.0192  1798.7693     2.5155   -73.0336     6.0165     7.5404    11.2305
 2191.5000   117.2245     8.3997     0.0223  1799.6925     2.5125   -73.0350     6.0542     7.2325    10.8465
 2192.0000   116.1755     8.3988     0.0175  1800.6152     2.5065   -73.0363     6.0922     7.1808     9.6416
 2192.5000   112.1159     8.3978     0.0096  1785.6255     2.4991   -73.0377     6.1779     7.7989     8.5115
 2193.0000   111.1557     8.3969     0.0020  1771.6924     2.4886   -73.0390     6.2614     8.8410     9.5053
 2193.5000   112.5754     8.3960    -0.0042  1772.6154     2.4737   -73.0404     6.3902     9.1362    10.9885
 2194.0000   115.8592     8.3950    -0.0087  1773.5385     2.4871   -73.0417     6.5559     9.1331    11.6178
 2194.5000   117.9599     8.3941    -0.0069  1774.4614     2.5004   -73.0431     6.6892     9.1306    12.3677
 2195.0000   116.7265     8.3932    -0.0008  1775.3848     2.5078   -73.0444     6.8251     9.5801    11.5643
 2195.5000   114.6138     8.3613     0.0035  1776.3076     2.5122   -73.0458     6.9638     9.9826    12.1747
 2196.0000   113.9880     8.3604     0.0096  1777.2308     2.5152   -73.0471     7.0087    10.2593    13.5071
 2196.5000   113.3623     8.3594     0.0157  1778.1538     2.5137   -73.0485     7.1017    10.0463    13.6931
 2197.0000   114.2792     8.3585     0.0125  1779.2576     2.5121   -73.0498     7.1462     9.7028    12.8636
 2197.5000   115.9228     8.3651     0.0033  1780.1759     2.5076   -73.0512     7.1401     9.5013    12.1689
 2198.0000   118.0666     8.3877    -0.0060  1781.0947     2.4942   -73.0525     7.1352     9.5652    11.6720
 2198.5000   119.2374     8.3867    -0.0091  1782.0129     2.4763   -73.0539     7.1303     9.6281    11.4300
 2199.0000   119.2107     8.3858    -0.0091  1782.9313     2.4703   -73.0552     7.1254     9.6922    12.1620
 2199.5000   118.5852     8.3848    -0.0061  1783.8501     2.4881   -73.0566     7.1205     9.6896    11.8272
 2200.0000   117.5999     8.3839    -0.0031  1784.7683     2.5089   -73.0579     7.1156     9.5541    12.9372
 2200.5000   116.4730     8.3830     0.0000  1785.6871     2.5020   -73.0593     7.1107     9.3589    13.1174
 2201.0000   115.1355     8.3820     0.0030  1786.6055     2.4935   -73.0606     7.0567     8.6751    12.7595
 2201.5000   114.3084     8.3811    -0.0001  1787.5238     2.4860   -73.0620     7.0518     7.9858    11.9897
 2202.0000   114.8623     8.3802    -0.0002  1788.4425     2.4760   -73.0639     7.0132     7.4536    11.1887
 2202.5000   117.0410     8.3483    -0.0002  1789.3608     2.4760   -73.0662     6.8395     7.0535    10.4411
 2203.0000   119.4110     8.3474    -0.0032  1790.2795     2.4760   -73.0685     6.6658     6.7675    10.0168
 2203.5000   122.1525     8.3155    -0.0001  1791.1979     2.4759   -73.0708     6.5805     6.7217     9.8792
 2204.0000   127.3294     8.3146    -0.0001  1792.1162     2.4779   -73.0731     6.5329     6.8743    10.1563
 2204.5000   127.9583     8.3136     0.0029  1793.0350     2.4808   -73.0753     6.5311     7.2710    10.5136
 2205.0000   125.1794     8.3127     0.0029  1793.9532     2.4832   -73.0776     6.5293     7.6656    10.8834
 2205.5000   122.0558     8.3118     0.0029  1788.0000     2.4886   -73.0799     6.5275     7.8265    11.1887
