~VERSION INFORMATION
 VERS.                2.0:   CWLS LOG ASCII STANDARD - VERSION 2.0
 WRAP.                 NO:   ONE LINE PER DEPTH STEP
~WELL INFORMATION
#MNEM.UNIT      DATA TYPE    INFORMATION
#----------   ------------   ------------------------------
 STRT.F          200.0000:   START DEPTH
 STOP.F         3248.0000:   STOP DEPTH
 STEP.F            0.5000:   STEP LENGTH
 NULL.          -999.2500:   NO VALUE
 COMP.    FENIX & SCISSON:   COMPANY
 WELL.   FENIX "AX" #28-3:   WELL
 FLD .              NPR-3:   FIELD
 LOC .       S3 T38N R78W:   LOCATION
 CNTY.            NATRONA:   COUNTY
 STAT.            WYOMING:   STATE
 CTRY. UNITED STATES OF AMERICA:   COUNTRY
 SRVC.              WELEX:   SERVICE COMPANY
 DATE.        30-JUN-1977:   LOGDATE
 API .     49025104200000:   API NUMBER
~CURVE INFORMATION
#MNEM.UNIT       API CODE    CURVE DESCRIPTION
#----------   ------------   ------------------------------
 DEPT.F                  :   
 CALD.IN     45 280 60 00:   CALIPER FROM DENSITY LOG
 GRD .GAPI   45 310 01 00:   GAMMA RAY FROM DENSITY LOG
 RHOB.G/C3   45 350 01 00:   BULK DENSITY
 CORR.G/C3   45 356 01 00:   DENSITY CORRECTION
 SPR .MV     07 010 01 00:   SPONTANEOUS POTENTIAL
 ILD .OHMM   07 120 46 00:   DEEP INDUCTION RESISTIVITY
 ILM .OHMM   07 120 44 00:   INDUCTION LOG MEDIUM RESISTIVITY
 SGRD.OHMM   07 220 05 00:   SHALLOW SHORT GUARD RESISTIVITY
~PARAMETER INFORMATION
#MNEM.UNIT          VALUE    DESCRIPTION
#----------   ------------   ------------------------------
 EKB .F         4969.0000:   Kelly bushing
 EGL .F         4959.0000:   Ground level
 TD  .F         3250.0000:   Total depth
 CLNT.            A2DTECH:   Client Code
 SL  . 500' FSL & 800' FWL:   Surface Location
 PD  .                 GL:   Permanent Datum
 EPD .F              4959:   Elevation Permanent Datum
 LMF .                 KB:   Log Measured From
 DMF .                 KB:   Drilling Measured From
 DAPD.F                10:   Feet Above Permanent Datum
 DATE.        30-JUN-1977:   Date Logged [DD-MMM-YYYY]
 DD  .F              3250:   Depth driller
 DL  .F              3250:   Depth logger
 BLI .F              3248:   Bottom log interval
 TLI .F               200:   Top log interval
 CS1 .IN            8.625:   Casing size
 CBD1.      8.625" @ 217':   Casing driller 1
 CBL1.F               225:   Casing logger 1
 BS1 .IN            7.875:   Bit size
 BSD1.F              3250:   Depth drilled with bit1
 DFT .                KCL:   Type fluid in hole
 DFD .                8.9:   Density
 RMS .OHMM           1.76:   Rm
 MST .F                63:   Rm Meas. temp.
 TCS .HRS             2.5:   Time Circ. stopped
 MRT .F                68:   Maximum recorded temp.
 LUN .               8611:   Logging unit number
 ENGI.         G. BENTSEN:   Recorded By
 WITN.         PETTINGILL:   Witnessed by
 ORIG.         2.5" PRINT:   Origin of data
 UWI .     49025104200000:   Unique Well ID
 DICO. A2D TECHNOLOGIES, INC.:   Digitizing Company
 DFV .                 30:   Viscosity
 DFPH.                  7:   pH
 DFL .                 10:   Fluid loss
 MSS .                PIT:   Source of sample
 RMF .OHMM           1.09:   Rmf
 MFST.F                68:   Rmf Meas. temp.
 MFSS.               MEAS:   Source Rmf.
 RMC .OHMM           2.01:   Rmc
 MCST.F                68:   Rmc Meas. temp.
 MCSS.               MEAS:   Source Rmc.
 RMB .OHMM           1.01:   Rm. at BHT
 BHT .F               118:   BHT.
 LUL .             CASPER:   Logging unit location
~OTHER INFORMATION
~A   DEPT       CALD       GRD        RHOB      CORR       SPR        ILD        ILM       SGRD   
# ...
  402.5000     8.3268    90.3462     2.5100     0.0190   -18.5841     7.2976     8.1389     9.0384
  403.0000     8.3047    90.9456     2.5069     0.0189   -18.8791     7.2986     8.1389     9.0968
  403.5000     8.3038    91.2440     2.5038     0.0189   -19.4690     7.2996     8.1389     9.0409
  404.0000     8.3029    91.2409     2.5086     0.0189   -19.7640     7.4014     8.2514     9.0421
  404.5000     8.3020    91.5427     2.5162     0.0188   -19.7640     7.5048     8.2514     9.0382
  405.0000     8.3012    92.1536     2.5159     0.0188   -19.7640     7.6095     8.3655     8.9113
  405.5000     8.3001    92.4369     2.5130     0.0188   -19.7640     7.5068     8.3655     8.8011
  406.0000     8.2993    92.4337     2.5168     0.0203   -19.7640     7.4929     8.1389     8.8024
  406.5000     8.2984    91.7786     2.5191     0.0202   -20.0590     7.3877     8.0280     8.8036
  407.0000     8.2976    91.2229     2.5141     0.0202   -20.0590     7.3064     8.0280     8.8048
  407.5000     8.2967    90.9187     2.5151     0.0217   -20.0909     7.3076     8.1389     8.8060
  408.0000     8.2959    90.9157     2.5161     0.0217   -20.3540     7.3086     8.1389     8.8477
  408.5000     8.2950    90.9126     2.5183     0.0232   -20.4164     7.3096     8.1312     8.9300
  409.0000     8.2941    91.2114     2.5184     0.0231   -20.6490     7.2107     8.0156     8.9312
  409.5000     8.2933    91.6280     2.5113     0.0231   -20.6525     7.1555     7.9185     8.9324
  410.0000     8.2924    92.2390     2.5008     0.0231   -20.6787     7.2594     7.9185     8.9337
  410.5000     8.2915    92.5487     2.5100     0.0231   -20.6801     7.3136     7.9185     8.8297
  411.0000     8.2906    93.1596     2.5130     0.0230   -20.6816     7.2601     8.0439     8.8930
  411.5000     8.3191    93.4694     2.5161     0.0230   -20.9780     7.1581     8.1389     8.9376
  412.0000     8.3181    93.6024     2.5345     0.0249   -20.9794     7.1185     7.7606     8.8169
  412.5000     8.3173    93.2976     2.5329     0.0264   -20.9809     7.1196     7.3933     8.8183
  413.0000     8.3164    92.6923     2.5329     0.0290   -21.2773     7.0235     7.3933     8.6994
  413.5000     8.3447    92.0869     2.5329     0.0290   -21.2788     6.8342     7.3933     8.7006
  414.0000     8.3439    91.1803     2.5314     0.0274   -21.5831     6.6500     7.3933     8.5832
  414.5000     8.3428    90.5750     2.5345     0.0274   -21.8904     6.4708     7.3338     8.5844
  415.0000     8.3420    89.9696     2.5407     0.0282   -22.1681     6.3834     7.2925     8.5856
  415.5000     8.3411    89.0630     2.5436     0.0289   -22.1696     6.2973     7.0951     7.5903
  416.0000     8.3402    88.7589     2.5337     0.0288   -22.2222     6.2123     7.0951     6.8968
  416.5000     8.3687    87.8523     2.5258     0.0288   -22.4676     5.8812     7.0951     7.0977
  417.0000     8.3678    88.1506     2.5184     0.0288   -22.7640     5.7227     7.0951     7.4900
  417.5000     8.3669    89.3574     2.5106     0.0272   -23.0605     5.6403     6.9983     7.6075
  418.0000     8.3661    91.1847     2.5028     0.0257   -23.3569     5.4854     6.9029     7.7180
  418.5000     8.3652    92.3840     2.4986     0.0256   -23.3584     5.3346     6.6244     7.8076
  419.0000     8.3643    92.9580     2.4918     0.0241   -23.4759     5.1303     6.3572     7.5997
  419.5000     8.3928    91.6526     2.4855     0.0240   -23.6563     5.1311     6.1831     5.9729
  420.0000     8.3918    90.7831     2.4777     0.0240   -23.6578     5.1318     6.0952     4.4134
  420.5000     8.3909    90.5392     2.4772     0.0242   -23.9543     5.2255     6.0176     4.2159
  421.0000     8.3901    90.9207     2.4793     0.0255   -23.9558     5.3014     6.1137     5.5302
  421.5000     8.3892    91.2304     2.4809     0.0258   -23.9572     5.4820     6.4803     7.2826
  422.0000     8.3883    92.3379     2.4870     0.0269   -23.9590     5.6858     6.9029     7.5520
  422.5000     8.4167    92.6361     2.5023     0.0269   -23.6652     5.9289     7.0257     7.6617
  423.0000     8.4158    91.6415     2.5176     0.0269   -23.3719     6.1824     7.1271     7.7108
  423.5000     8.4320    90.2390     2.5360     0.0269   -23.3734     6.2721     7.2299     7.7121
  424.0000     8.4433    89.3133     2.5314     0.0253   -23.3748     6.4511     7.2925     7.7131
  424.5000     8.4423    89.7756     2.5161     0.0244   -23.6712     6.5784     7.2925     7.7142
  425.0000     8.4414    90.9890     2.5161     0.0228   -24.2627     6.5793     7.2925     7.7152
  425.5000     8.4406    92.3157     2.5159     0.0221   -24.5591     6.4905     7.1931     7.7162
  426.0000     8.4397    93.8188     2.5112     0.0221   -24.8555     6.2295     7.0951     7.7173
  426.5000     8.4681    96.2255     2.5019     0.0221   -25.7419     5.8974     6.8088     7.7183
  427.0000     8.4672    98.0297     2.4953     0.0220   -25.7434     5.6603     6.2705     7.6143
  427.5000     8.4664    98.6292     2.4885     0.0220   -26.0398     5.4327     5.8546     7.4094
  428.0000     8.4655    98.0238     2.4916     0.0220   -25.7463     5.2863     5.6961     6.3733
  428.5000     8.4646    93.5028     2.4977     0.0220   -25.4527     5.1438     5.6961     5.3249
  429.0000     8.4637    90.7890     2.4945     0.0219   -25.1592     5.1445     5.6961     4.8863
  429.5000     8.4629    89.8824     2.4863     0.0219   -24.8657     5.1452     5.8546     4.3292
  430.0000     8.4620    91.6867     2.4625     0.0220   -24.5721     5.1459     5.9355     4.7426
  430.5000     8.4611    92.8915     2.4792     0.0234   -24.5737     5.2254     6.1850     7.0817
  431.0000     8.4602    94.4176     2.4940     0.0233   -24.5752     5.3856     6.4468     6.7767
  431.5000     8.4594    95.3414     2.5116     0.0233   -24.5767     5.6190     6.5341     6.7045
  432.0000     8.4585    96.4941     2.5301     0.0228   -24.5782     5.9435     6.5438     7.3177
  432.5000     8.4576    95.4443     2.5121     0.0217   -24.5796     6.2868     6.6382     7.8378
  433.0000     8.4860    94.0191     2.5001     0.0211   -24.5811     6.6215     6.8270     7.9470
  433.5000     8.4850    93.7033     2.4977     0.0186   -24.2876     7.0001     6.9255     8.0578
  434.0000     8.4841    92.6205     2.4954     0.0162   -23.9941     7.2387     7.0951     8.1701
  434.5000     8.4832    90.2867     2.5072     0.0155   -23.7006     7.4494     7.2253     8.1712
  435.0000     8.5117    87.8163     2.5100     0.0139   -23.7021     7.7219     7.3295     8.1723
  435.5000     8.5400    85.5798     2.5038     0.0139   -23.7038     7.9423     7.5810     8.1734
  436.0000     8.5392    87.4740     2.4793     0.0123   -23.7053     8.1690     7.8595     8.1745
  436.5000     8.5383    90.4728     2.4732     0.0123   -23.7067     8.2209     8.1948     8.0643
  437.0000     8.5667    93.4450     2.4793     0.0123   -23.4132     8.3359     8.5444     8.1767
  437.5000     8.5658    95.2059     2.4946     0.0122   -23.4146     8.4522     8.9089     8.1778
  438.0000     8.5942    98.0381     2.5023     0.0137   -23.4161     8.3996     9.0836     8.1789
  438.5000     8.5933   101.8769     2.5054     0.0152   -23.4175     8.3391     9.0836     8.1801
  439.0000     8.6218   100.7142     2.5084     0.0152   -23.4190     8.2265     8.8376     8.1812
  439.5000     8.6308    98.8580     2.5131     0.0168   -23.4204     8.2277     8.5983     8.0919
  440.0000     8.6493    95.8430     2.5161     0.0182   -23.1269     8.2288     8.5983     8.2063
  440.5000     8.6616    94.6352     2.5113     0.0200   -22.8333     8.2299     8.5983     8.2091
  441.0000     8.6766    95.2347     2.5066     0.0212   -22.5398     8.2311     8.5983     8.3253
  441.5000     8.6757    95.5331     2.5032     0.0212   -22.5413     8.1963     8.7171     7.8838
  442.0000     8.7041    95.8313     2.5023     0.0211   -22.5428     8.0102     8.5983     7.9953
  442.5000     8.7031    96.1295     2.5118     0.0211   -22.5442     8.0115     8.3655     8.2203
