~VERSION INFORMATION
 VERS.                2.0:   CWLS LOG ASCII STANDARD - VERSION 2.0
 WRAP.                 NO:   ONE LINE PER DEPTH STEP
~WELL INFORMATION
#MNEM.UNIT      DATA TYPE    INFORMATION
#----------   ------------   ------------------------------
 STRT.F          186.0000:   START DEPTH
 STOP.F         3060.0000:   STOP DEPTH
 STEP.F            0.5000:   STEP LENGTH
 NULL.          -999.2500:   NO VALUE
 COMP.    FENIX & SCISSON:   COMPANY
 WELL. FENIX NPR 3 "AX" #63-29:   WELL
 FLD .              N P R:   FIELD
 LOC .      S29 T39N R78W:   LOCATION
 CNTY.            NATRONA:   COUNTY
 STAT.            WYOMING:   STATE
 CTRY. UNITED STATES OF AMERICA:   COUNTRY
 SRVC.           BIRDWELL:   SERVICE COMPANY
 DATE.        28-FEB-1978:   LOGDATE
 API .     49025105960000:   API NUMBER
~CURVE INFORMATION
#MNEM.UNIT       API CODE    CURVE DESCRIPTION
#----------   ------------   ------------------------------
 DEPT.F                  :   
 CALD.IN     45 280 60 00:   CALIPER FROM DENSITY LOG
 GRD .GAPI   45 310 01 00:   GAMMA RAY FROM DENSITY LOG
 DEN .LBS    07 635 01 00:   
 CORR.G/C3   45 356 01 00:   DENSITY CORRECTION
 SPR .MV     05 010 01 00:   SPONTANEOUS POTENTIAL
 SN  .OHMM   05 040 00 00:   SHORT NORMAL
 ILD .OHMM   05 120 46 00:   DEEP INDUCTION RESISTIVITY
~PARAMETER INFORMATION
#MNEM.UNIT          VALUE    DESCRIPTION
#----------   ------------   ------------------------------
 EKB .F         4993.0000:   Kelly bushing
 EGL .F         4983.0000:   Ground level
 EDF .F            0.0000:   Drilling floor
 TD  .F         3060.0000:   Total depth
 DATE.        28-FEB-1978:   Date logged
 CLNT.            A2DTECH:   Client Code
 SL  . 1300' FNL & 1050' FEL:   Surface Location
 PD  .                 GL:   Permanent Datum
 DD  .F              3060:   Depth driller
 DL  .F              3056:   Depth logger
 BLI .F              5050:   Bottom log interval
 CS1 .IN            8.625:   Casing size
 CBD1.      8.625" @ 214':   Casing driller 1
 CBL1.F               218:   Casing logger 1
 BS1 .IN            7.875:   Bit size
 DFT .     LIGNOSULFONATE:   Type fluid in hole
 DFD .                  9:   Density
 DFV .                 34:   Viscosity
 DFPH.               10.5:   pH
 DFL .                  9:   Fluid loss
 MSS .           FLOWLINE:   Source of sample
 RMS .OHMM            1.8:   Rm
 MST .F                58:   Rm Meas. temp.
 RMF .OHMM             .9:   Rmf
 MFST.F                65:   Rmf Meas. temp.
 RMC .OHMM            2.5:   Rmc
 MCST.F                70:   Rmc Meas. temp.
 MFSS.               MEAS:   Source Rmf.
 RMB .OHMM             88:   Rm. at BHT
 BHT .F               118:   BHT.
 TCS .HRS               8:   Time Circ. stopped
 MRT .F               118:   Maximum recorded temp.
 LUN .               2959:   Logging unit number
 LUL .               CASP:   Logging unit location
 ENGI.             MILLER:   Recorded By
 WITN.         HARRINGTON:   Witnessed by
 ORIG.           5" PRINT:   Origin of data
 UWI .     49025105960000:   Unique Well ID
 DICO. A2D TECHNOLOGIES, INC.:   Digitizing Company
 BSD1.F              3060:   Depth drilled with bit1
 EPD .F              4983:   Elevation Permanent Datum
 LMF .                 KB:   Log Measured From
 DMF .                 KB:   Drilling Measured From
 TLI .F               800:   Top log interval
~OTHER INFORMATION
~A   DEPT     CALD         GRD       DEN       CORR        SPR         SN        ILD   
# ...
  231.5000    13.1810    55.0120     2.3300     0.0340  -999.2500  -999.2500  -999.2500
  232.0000    13.2600    55.1250     2.3380     0.0390  -999.2500  -999.2500  -999.2500
  232.5000    13.3290    55.7090     2.3450     0.0460  -999.2500  -999.2500  -999.2500
  233.0000    13.4020    56.1980     2.3380     0.0450  -999.2500  -999.2500  -999.2500
  233.5000    13.4740    57.4130     2.3310     0.0420  -999.2500  -999.2500  -999.2500
  234.0000    13.5460    57.5350     2.3330     0.0390  -999.2500  -999.2500  -999.2500
  234.5000    13.6190    57.1730     2.3370     0.0380  -999.2500  -999.2500  -999.2500
  235.0000    13.6920    56.3880     2.3400     0.0430  -999.2500  -999.2500  -999.2500
  235.5000    13.7450    54.9150     2.3440     0.0480  -999.2500  -999.2500  -999.2500
  236.0000    13.7450    53.5480     2.3480     0.0540  -999.2500  -999.2500  -999.2500
  236.5000    13.7460    52.1870     2.3440     0.0540  -999.2500  -999.2500  -999.2500
  237.0000    13.7460    52.4730     2.3370     0.0530  -999.2500  -999.2500  -999.2500
  237.5000    13.7450    53.7370     2.3330     0.0520  -999.2500  -999.2500  -999.2500
  238.0000    13.7450    54.9270     2.3340     0.0510  -999.2500  -999.2500  -999.2500
  238.5000    13.7490    54.7610     2.3340     0.0500  -999.2500  -999.2500  -999.2500
  239.0000    13.7080    54.6140     2.3350     0.0490  -999.2500  -999.2500  -999.2500
  239.5000    13.6160    56.2330     2.3340     0.0480  -999.2500  -999.2500  -999.2500
  240.0000    13.5470    58.7420     2.3340     0.0470  -999.2500  -999.2500  -999.2500
  240.5000    13.5470    61.8300     2.3370     0.0450  -999.2500  -999.2500  -999.2500
  241.0000    13.5450    60.1630     2.3340     0.0440  -999.2500  -999.2500  -999.2500
  241.5000    13.5460    56.6180     2.3330     0.0430  -999.2500  -999.2500  -999.2500
  242.0000    13.5460    52.4310     2.3310     0.0420  -999.2500  -999.2500  -999.2500
  242.5000    13.5460    53.8990     2.3290     0.0400  -999.2500  -999.2500  -999.2500
  243.0000    13.5480    57.1740     2.3320     0.0390  -999.2500  -999.2500  -999.2500
  243.5000    13.5210    60.3080     2.3440     0.0380  -999.2500  -999.2500  -999.2500
  244.0000    13.4530    61.3220     2.3560     0.0350  -999.2500  -999.2500  -999.2500
  244.5000    13.3870    61.2010     2.3680     0.0320  -999.2500  -999.2500  -999.2500
  245.0000    13.3220    61.1210     2.3800     0.0290  -999.2500  -999.2500  -999.2500
  245.5000    13.2560    61.0670     2.3920     0.0260  -999.2500  -999.2500  -999.2500
  246.0000    13.1850    60.9980     2.4030     0.0330  -999.2500  -999.2500  -999.2500
  246.5000    13.1440    60.9370     2.4150     0.0370  -999.2500  -999.2500  -999.2500
  247.0000    13.1510    61.1250     2.4190     0.0420  -999.2500  -999.2500  -999.2500
  247.5000    13.1530    61.3370     2.4220     0.0420  -999.2500  -999.2500  -999.2500
  248.0000    13.1560    61.5470     2.4260     0.0400  -999.2500  -999.2500  -999.2500
  248.5000    13.1600    61.5460     2.4290     0.0390  -999.2500  -999.2500  -999.2500
  249.0000    13.1630    60.8110     2.4330     0.0380  -999.2500  -999.2500  -999.2500
  249.5000    13.1660    59.9780     2.4360     0.0380  -999.2500  -999.2500  -999.2500
  250.0000    13.1700    60.2700     2.4400     0.0410  -999.2500  -999.2500  -999.2500
  250.5000    13.1730    61.5410     2.4440     0.0450  -999.2500  -999.2500  -999.2500
  251.0000    13.1760    62.6430     2.4470     0.0460  -999.2500  -999.2500  -999.2500
  251.5000    13.1790    63.6040     2.4510     0.0430  -999.2500  -999.2500  -999.2500
  252.0000    13.1820    62.8990     2.4500     0.0400  -999.2500  -999.2500  -999.2500
  252.5000    13.1870    62.1500     2.4480     0.0360  -999.2500  -999.2500  -999.2500
  253.0000    13.1740    61.7810     2.4470     0.0330  -999.2500  -999.2500  -999.2500
  253.5000    13.1310    63.0750     2.4530     0.0300  -999.2500  -999.2500  -999.2500
  254.0000    13.0910    64.9400     2.4530     0.0300  -999.2500  -999.2500  -999.2500
  254.5000    13.0500    66.8470     2.4460     0.0310  -999.2500  -999.2500  -999.2500
  255.0000    13.0090    67.3960     2.4410     0.0320  -999.2500  -999.2500  -999.2500
  255.5000    12.9680    66.4170     2.4390     0.0330  -999.2500  -999.2500  -999.2500
  256.0000    12.9270    65.5580     2.4390     0.0340  -999.2500  -999.2500  -999.2500
  256.5000    12.8860    64.7720     2.4390     0.0350  -999.2500  -999.2500  -999.2500
  257.0000    12.8570    63.9110     2.4390     0.0360  -999.2500  -999.2500  -999.2500
  257.5000    12.8390    65.4340     2.4390     0.0380  -999.2500  -999.2500  -999.2500
  258.0000    12.8210    67.6400     2.4400     0.0360  -999.2500  -999.2500  -999.2500
  258.5000    12.8020    69.6890     2.4430     0.0320  -999.2500  -999.2500  -999.2500
  259.0000    12.7830    70.7660     2.4450     0.0310  -999.2500  -999.2500  -999.2500
  259.5000    12.7650    71.6590     2.4490     0.0360  -999.2500  -999.2500  -999.2500
  260.0000    12.7460    71.4160     2.4510     0.0390  -999.2500  -999.2500  -999.2500
  260.5000    12.7270    71.2050     2.4480     0.0420  -999.2500  -999.2500  -999.2500
  261.0000    12.7090    70.0420     2.4460     0.0420  -999.2500  -999.2500  -999.2500
  261.5000    12.6900    69.0590     2.4430     0.0400  -999.2500  -999.2500  -999.2500
  262.0000    12.6720    67.9860     2.4470     0.0380  -999.2500  -999.2500  -999.2500
  262.5000    12.6530    67.4310     2.4520     0.0360  -999.2500  -999.2500  -999.2500
  263.0000    12.6340    67.9730     2.4560     0.0330  -999.2500  -999.2500  -999.2500
  263.5000    12.6160    68.4550     2.4610     0.0300  -999.2500  -999.2500  -999.2500
  264.0000    12.5970    68.9620     2.4630     0.0300  -999.2500  -999.2500  -999.2500
  264.5000    12.5790    69.5320     2.4590     0.0300  -999.2500  -999.2500  -999.2500
  265.0000    12.5590    69.3120     2.4540     0.0330  -999.2500  -999.2500  -999.2500
  265.5000    12.5480    68.5730     2.4490     0.0390  -999.2500  -999.2500  -999.2500
  266.0000    12.5410    67.8710     2.4450     0.0460  -999.2500  -999.2500  -999.2500
  266.5000    12.5320    67.2380     2.4410     0.0450  -999.2500  -999.2500  -999.2500
  267.0000    12.5240    66.5620     2.4370     0.0430  -999.2500  -999.2500  -999.2500
  267.5000    12.5150    67.3900     2.4360     0.0410  -999.2500  -999.2500  -999.2500
  268.0000    12.5040    68.1980     2.4510     0.0390  -999.2500  -999.2500  -999.2500
  268.5000    12.4900    69.1910     2.4550     0.0380  -999.2500  -999.2500  -999.2500
  269.0000    12.4770    69.0600     2.4520     0.0380  -999.2500  -999.2500  -999.2500
  269.5000    12.4630    68.1760     2.4490     0.0400  -999.2500  -999.2500  -999.2500
  270.0000    12.4490    66.7940     2.4470     0.0420  -999.2500  -999.2500  -999.2500
  270.5000    12.4350    65.8440     2.4540     0.0430  -999.2500  -999.2500  -999.2500
  271.0000    12.4210    65.4220     2.4590     0.0450  -999.2500  -999.2500  -999.2500
  271.5000    12.4070    65.3170     2.4650     0.0470  -999.2500  -999.2500  -999.2500
  272.0000    12.3910    65.7190     2.4670     0.0480  -999.2500  -999.2500  -999.2500
  272.5000    12.3480    66.1110     2.4670     0.0500  -999.2500  -999.2500  -999.2500
  273.0000    12.2970    67.6000     2.4660     0.0460  -999.2500  -999.2500  -999.2500
  273.5000    12.2450    71.5530     2.4660     0.0420  -999.2500  -999.2500  -999.2500
  274.0000    12.1940    75.5340     2.4650     0.0380  -999.2500  -999.2500  -999.2500
  274.5000    12.1430    78.1610     2.4620     0.0390  -999.2500  -999.2500  -999.2500
  275.0000    12.0920    78.8800     2.4580     0.0470  -999.2500  -999.2500  -999.2500
  275.5000    12.0400    78.6920     2.4550     0.0550  -999.2500  -999.2500  -999.2500
  276.0000    11.9880    78.6250     2.4510     0.0570  -999.2500  -999.2500  -999.2500
  276.5000    11.9520    78.5770     2.4470     0.0560  -999.2500  -999.2500  -999.2500
