~VERSION INFORMATION
 VERS.                2.0:   CWLS LOG ASCII STANDARD - VERSION 2.0
 WRAP.                 NO:   ONE LINE PER DEPTH STEP
~WELL INFORMATION
#MNEM.UNIT      DATA TYPE    INFORMATION
#----------   ------------   ------------------------------
 STRT.F           50.0000:   START DEPTH
 STOP.F         3270.0000:   STOP DEPTH
 STEP.F            0.5000:   STEP LENGTH
 NULL.          -999.2500:   NO VALUE
 COMP.   LAWRENCE ALLISON:   COMPANY
 WELL. LAWRENCE NPR 3 "AX" #12-11:   WELL
 FLD .                NPR:   FIELD
 LOC .      S11 T38N R78W:   LOCATION
 CNTY.            NATRONA:   COUNTY
 STAT.            WYOMING:   STATE
 CTRY. UNITED STATES OF AMERICA:   COUNTRY
 SRVC.      DRESSER ATLAS:   SERVICE COMPANY
 DATE.        18-JUL-1985:   LOGDATE
 API .     49025110460000:   API NUMBER
~CURVE INFORMATION
#MNEM.UNIT       API CODE    CURVE DESCRIPTION
#----------   ------------   ------------------------------
 DEPT.F                  :   
 TEND.LBS    45 635 01 00:   TENSION FROM DENSITY LOG
 RHOB.G/C3   45 350 01 00:   BULK DENSITY
 CORR.G/C3   45 356 01 00:   DENSITY CORRECTION
 NPHI.DEC    42 890 03 00:   NEUTRON POROSITY SANDSTONE
 TENR.LBS    07 635 01 00:   TENSION
 GRR .GAPI   07 310 01 00:   GAMMA RAY FROM RESISTIVITY
 RFOC.OHMM   07 220 01 00:   RESISTIVITY FOCUSED LOG RES.
 RILD.OHMM   07 120 46 00:   INDUCTION LOG DEEP RESISTIVITY
 RILM.OHMM   07 120 44 00:   INDUCTION LOG MEDIUM RESISTIVITY
 SN  .OHMM   01 040 00 00:   SHORT NORMAL
 ILD .OHMM   07 120 46 00:   INDUCTION LOG DEEP RESISTIVITY
 TENS.LBS    60 635 01 00:   TENSION FROM SONIC LOG
 DT  .US/F   60 520 00 00:   DELTA TIME
 SPR .MV     07 010 01 00:   SPONTANEOUS POTENTIAL
~PARAMETER INFORMATION
#MNEM.UNIT          VALUE    DESCRIPTION
#----------   ------------   ------------------------------
 EKB .F         5152.0000:   Kelly bushing
 EGL .F         5140.0000:   Ground level
 EDF .F            0.0000:   Drilling floor
 TD  .F         3271.0000:   Total depth
 DATE.        18-JUL-1985:   Date logged
 CLNT.            A2DTECH:   Client Code
 SL  . 1050' FNL & 150' FWL:   Surface Location
 PD  .                 GL:   Permanent Datum
 EPD .F              5140:   Elevation Permanent Datum
 LMF .                 KB:   Log Measured From
 DMF .                 KB:   Drilling Measured From
 DAPD.F                12:   Feet Above Permanent Datum
 DD  .F              3271:   Depth driller
 DL  .F              3262:   Depth logger
 BLI .F              3259:   Bottom log interval
 CS1 .IN            8.625:   Casing size
 CBD1.      8.625" @ 560':   Casing driller 1
 CBL1.F               560:   Casing logger 1
 BS1 .IN            7.875:   Bit size
 BSD1.F              3271:   Depth drilled with bit1
 DFT .            GEL/KCL:   Type fluid in hole
 DFD .                8.8:   Density
 DFV .                 40:   Viscosity
 DFPH.                  8:   pH
 DFL .                  8:   Fluid loss
 MSS .           MUD/TANK:   Source of sample
 RMS .OHMM            .31:   Rm
 MST .F                82:   Rm Meas. temp.
 RMF .OHMM            .25:   Rmf
 MFST.F                82:   Rmf Meas. temp.
 RMC .OHMM            .39:   Rmc
 MCST.F                82:   Rmc Meas. temp.
 MFSS.               MEAS:   Source Rmf.
 MCSS.               CALC:   Source Rmc.
 RMB .OHMM           .198:   Rm. at BHT
 BHT .F               128:   BHT.
 TCS .HRS               3:   Time Circ. stopped
 MRT .F               128:   Maximum recorded temp.
 LUN .            HL-6274:   Logging unit number
 LUL .           GILLETTE:   Logging unit location
 ENGI.             RAUTIO:   Recorded By
 WITN.             STRONG:   Witnessed by
 ORIG.           5" PRINT:   Origin of data
 UWI .     49025110460000:   Unique Well ID
 DICO. A2D TECHNOLOGIES, INC.:   Digitizing Company
~OTHER INFORMATION
~A   DEPT     TEND       RHOB       CORR       NPHI       TENR        GRR       RFOC       RILD       RILM           SN        ILD     TENS         DT         SPR  
# ...
 3235.0000   174.9230     2.4690     0.0160     0.2610   355.8430  -999.2500     4.3550     3.2170     3.3920  -999.2500  -999.2500   335.4520    81.2850    65.2080
 3235.5000   177.3110     2.4610     0.0180     0.2670   358.6060  -999.2500     4.3550     3.2110     3.3680  -999.2500  -999.2500   339.3320    81.2850    64.7610
 3236.0000   179.6990     2.4500     0.0120     0.2730   361.3680  -999.2500     4.3550     3.2010     3.3680  -999.2500  -999.2500   343.2120    81.2850    63.8290
 3236.5000   182.0870     2.4440     0.0040     0.2730   364.1310  -999.2500     4.2340     3.1900     3.3680  -999.2500  -999.2500   347.0920    81.2850    63.0040
 3237.0000   184.4750     2.4480     0.0020     0.2710   366.8930  -999.2500     4.0840     3.1870     3.3680  -999.2500  -999.2500   350.9730    81.2850    62.7900
 3237.5000   186.8630     2.4530     0.0050     0.2680   369.6560  -999.2500     4.2320     3.2250     3.3700  -999.2500  -999.2500   354.8530    81.2350    62.5640
 3238.0000   189.2510     2.4560     0.0080     0.2650   372.4180  -999.2500     4.3950     3.2530     3.3680  -999.2500  -999.2500   358.7330    80.9240    62.2680
 3238.5000   191.6390     2.4550     0.0060     0.2620   375.1810  -999.2500     4.3120     3.3070     3.5910  -999.2500  -999.2500   362.6130    78.7890    61.1480
 3239.0000   194.0270     2.4560    -0.0060     0.2470   377.9430  -999.2500     4.2030     3.5550     3.8620  -999.2500  -999.2500   366.4940    75.0100    60.0110
 3239.5000   196.4160     2.4640    -0.0120     0.2280   380.7060  -999.2500     4.0930     3.8010     4.1330  -999.2500  -999.2500   370.3740    73.6160    59.0350
 3240.0000   198.8040     2.4720    -0.0040     0.2020   383.4680  -999.2500     4.0470     4.0470     4.3950  -999.2500  -999.2500   374.2540    77.5760    59.1980
 3240.5000   201.1920     2.5130     0.0090     0.1820   386.2310  -999.2500     5.4470     4.2930     4.5560  -999.2500  -999.2500   378.1340    80.5880    59.8030
 3241.0000   204.4370     2.5200     0.0220     0.1840   388.9930  -999.2500     7.1910     4.6620     4.8010  -999.2500  -999.2500   382.0140  -999.2500    60.3820
 3241.5000   209.2530     2.5160     0.0320     0.1910   391.7560  -999.2500     8.9350     4.6440     4.7740  -999.2500  -999.2500   385.8950  -999.2500    60.9600
 3242.0000   214.0680     2.4960     0.0350     0.2200   394.5180  -999.2500    10.3250     4.8030     4.9370  -999.2500  -999.2500   389.7750  -999.2500    61.5390
 3242.5000   218.8840     2.4860     0.0310     0.2450   397.2810  -999.2500     6.6950     4.9350     5.0730  -999.2500  -999.2500   393.6550  -999.2500    62.1180
 3243.0000   223.6990     2.4990     0.0270     0.2410   400.0430  -999.2500     5.4880     5.0910     5.2330  -999.2500  -999.2500   397.5350  -999.2500    62.6970
 3243.5000   228.5150     2.5140     0.0230     0.2400   402.8060  -999.2500     5.2330     4.7910     4.9250  -999.2500  -999.2500   401.4160  -999.2500    63.2760
 3244.0000   233.3300     2.5100     0.0190     0.2390   405.5680  -999.2500     5.8750     4.4240     4.5480  -999.2500  -999.2500   405.2960  -999.2500    63.8550
 3244.5000   238.1460     2.4980     0.0150     0.2400   408.3310  -999.2500     6.1740     4.0570     4.1700  -999.2500  -999.2500   409.1760  -999.2500    64.4340
 3245.0000   242.9610     2.4710     0.0200     0.2480   411.0930  -999.2500     5.6360     3.6900     3.7930  -999.2500  -999.2500   413.0560  -999.2500    65.0150
 3245.5000   247.7770     2.4460     0.0250     0.2590   413.8550  -999.2500     4.9660     3.4480     3.5540  -999.2500  -999.2500   416.9360  -999.2500    65.5630
 3246.0000   252.5920     2.4330     0.0250     0.2690   416.6180  -999.2500     4.2970     3.2760     3.3930  -999.2500  -999.2500   420.8170  -999.2500    65.5780
 3246.5000   257.4080     2.4230     0.0140     0.2720   419.3800  -999.2500     4.1220     3.1030     3.2320  -999.2500  -999.2500   424.6970  -999.2500    65.5760
 3247.0000   262.2230     2.4190     0.0030     0.2750   422.1430  -999.2500     4.0020     2.9310     3.0700  -999.2500  -999.2500   428.5770  -999.2500    65.5780
 3247.5000   267.0390     2.4210     0.0020     0.2740   424.9050  -999.2500     3.8620     2.8810     2.9620  -999.2500  -999.2500   432.4570  -999.2500    65.4430
 3248.0000   271.8540     2.4280     0.0020     0.2740   427.6680  -999.2500     3.7600     2.9000     2.9780  -999.2500  -999.2500   436.3380  -999.2500    65.2450
 3248.5000   276.6700     2.4450     0.0020     0.2750   430.4300  -999.2500     3.7600     2.9480     3.0420  -999.2500  -999.2500   440.2180  -999.2500    64.7760
 3249.0000   281.4850     2.4600     0.0010     0.2770   432.9510  -999.2500     3.6920     3.0320     3.2330  -999.2500  -999.2500   444.0980  -999.2500    64.1760
 3249.5000   286.3010     2.4980    -0.0030     0.2830   436.4430  -999.2500     3.6920     3.1170     3.3680  -999.2500  -999.2500   447.9780  -999.2500    63.5570
 3250.0000   291.1160     2.4910     0.0010     0.2870   441.5040  -999.2500     3.9950     3.2010     3.3990  -999.2500  -999.2500   451.8580  -999.2500    63.3420
 3250.5000   295.9320     2.4810     0.0050     0.2800   446.5650  -999.2500     4.8980     3.2760     3.3990  -999.2500  -999.2500   455.7390  -999.2500    63.2230
 3251.0000   300.7470     2.4740     0.0070     0.2730   451.6260  -999.2500     6.0620     3.3280     3.4150  -999.2500  -999.2500   459.6190  -999.2500    63.1950
 3251.5000   305.5630     2.4770     0.0040     0.2690   456.6870  -999.2500     5.9180     3.3990     3.4380  -999.2500  -999.2500   463.4990  -999.2500    63.1940
 3252.0000   310.3780     2.4820     0.0090     0.2740   461.7480  -999.2500     5.6380     3.4210     3.4610  -999.2500  -999.2500   467.3790  -999.2500    63.1920
 3252.5000   315.1940     2.4860     0.0170     0.2800   466.8090  -999.2500     5.3580     3.4460     3.4830  -999.2500  -999.2500   471.2600  -999.2500    63.3290
 3253.0000   320.0090     2.4820     0.0250     0.2840   471.8700  -999.2500     5.2820     3.4620     3.5060  -999.2500  -999.2500   475.1400  -999.2500    63.5250
 3253.5000   325.9870     2.4820     0.0260     0.2890   476.9310  -999.2500     5.2820     3.4450     3.5260  -999.2500  -999.2500   479.0200  -999.2500    63.7250
 3254.0000   332.8860     2.4890     0.0290     0.2900   481.9920  -999.2500     5.2820  -999.2500  -999.2500  -999.2500  -999.2500   482.9000  -999.2500    64.0670
 3254.5000   339.7840     2.4990     0.0370  -999.2500   487.0530  -999.2500     5.2820  -999.2500  -999.2500  -999.2500  -999.2500   486.7800  -999.2500    64.1830
 3255.0000   346.6830     2.5090     0.0510  -999.2500   492.1140  -999.2500     5.3640  -999.2500  -999.2500  -999.2500  -999.2500   490.6610  -999.2500    64.1870
 3255.5000   353.5820     2.5190     0.0540  -999.2500   497.1750  -999.2500     5.4790  -999.2500  -999.2500  -999.2500  -999.2500   494.5410  -999.2500    64.1870
 3256.0000   360.4810     2.5190     0.0350  -999.2500   502.2360  -999.2500     5.8520  -999.2500  -999.2500  -999.2500  -999.2500   498.4210  -999.2500    64.1870
 3256.5000   345.6220     2.5060     0.0200  -999.2500   507.2970  -999.2500     6.2430  -999.2500  -999.2500  -999.2500  -999.2500   502.3010  -999.2500    64.1870
 3257.0000   324.9250     2.4960     0.0190  -999.2500   512.3580  -999.2500     6.6450  -999.2500  -999.2500  -999.2500  -999.2500   506.1820  -999.2500    64.1870
 3257.5000   237.3850     2.4990     0.0180  -999.2500   517.4190  -999.2500     6.7060  -999.2500  -999.2500  -999.2500  -999.2500   510.0620  -999.2500    64.1870
 3258.0000   139.4460  -999.2500     0.0170  -999.2500   522.4800  -999.2500     6.6420  -999.2500  -999.2500  -999.2500  -999.2500   521.9120  -999.2500    64.1870
 3258.5000    41.5070  -999.2500     0.0160  -999.2500   527.5410  -999.2500     6.4050  -999.2500  -999.2500  -999.2500  -999.2500   521.9120  -999.2500    64.1870
 3259.0000   -56.4320  -999.2500     0.0140  -999.2500   532.6520  -999.2500     6.4400  -999.2500  -999.2500  -999.2500  -999.2500   464.6410  -999.2500    64.1870
