~VERSION INFORMATION
 VERS.                2.0:   CWLS LOG ASCII STANDARD - VERSION 2.0
 WRAP.                 NO:   ONE LINE PER DEPTH STEP
~WELL INFORMATION
#MNEM.UNIT      DATA TYPE    INFORMATION
#----------   ------------   ------------------------------
 STRT.F           30.0000:   START DEPTH
 STOP.F         3240.0000:   STOP DEPTH
 STEP.F            0.5000:   STEP LENGTH
 NULL.          -999.2500:   NO VALUE
 COMP. LAWRENCE-ALLISON ASSOCIATES WES:   COMPANY
 WELL. LAWRENCE "AX" #87AX28:   WELL
 FLD .   TEAPOT N.P.R. #3:   FIELD
 LOC .      S28 T39N R78W:   LOCATION
 CNTY.            NATRONA:   COUNTY
 STAT.            WYOMING:   STATE
 CTRY. UNITED STATES OF AMERICA:   COUNTRY
 SRVC.       SCHLUMBERGER:   SERVICE COMPANY
 DATE.        28-MAY-1982:   LOGDATE
 API .     49025108860000:   API NUMBER
~CURVE INFORMATION
#MNEM.UNIT       API CODE    CURVE DESCRIPTION
#----------   ------------   ------------------------------
 DEPT.F                  :   
 TENR.LBS    07 635 01 00:   TENSION FROM RESISTIVITY
 GRR .GAPI   07 310 01 00:   GAMMA RAY FROM RESISTIVITY
 SPR .MV     07 010 01 00:   SPONTANEOUS POTENTIAL FROM RES.
 ILD .OHMM   07 120 46 00:   DEEP INDUCTION RESISTIVITY
 ILM .OHMM   07 120 44 00:   INDUCTION LOG MEDIUM RESISTIVITY
 SFL .OHMM   07 220 01 00:   SHALLOW FOCUSED LOG RESISITIVITY
 TEND.LBS    45 635 01 00:   TENSION FORM DENSITY LOG
 NPHI.DEC    42 890 03 00:   NEUTRON POROSITY SANDSTONE
 CALD.IN     45 280 60 00:   CALIPER FROM DENSITY LOG
 CORR.G/C3   45 356 01 00:   DENSITY CORRECTION
 RHOB.G/C3   45 350 01 00:   BULK DENSITY
~PARAMETER INFORMATION
#MNEM.UNIT          VALUE    DESCRIPTION
#----------   ------------   ------------------------------
 EKB .F         5070.0000:   Kelly bushing
 EGL .F         5060.0000:   Ground level
 TD  .F         3220.0000:   Total depth
 CLNT.            A2DTECH:   Client Code
 SL  . 1341' FSL & 162' FEL:   Surface Location
 PD  .                 GL:   Permanent Datum
 EPD .F              5060:   Elevation Permanent Datum
 LMF .                 KB:   Log Measured From
 DMF .                 KB:   Drilling Measured From
 DAPD.F                10:   Feet Above Permanent Datum
 DATE.        28-MAY-1982:   Date Logged [DD-MMM-YYYY]
 DD  .F              3220:   Depth driller
 DL  .F              3215:   Depth logger
 BLI .F              3212:   Bottom log interval
 TLI .F               489:   Top log interval
 CS1 .IN            9.625:   Casing size
 CBD1.      9.625" @ 461':   Casing driller 1
 CBL1.F               489:   Casing logger 1
 BS1 .IN            9.750:   Bit size
 BSD1.F              3220:   Depth drilled with bit1
 DFT .          POLY./KCL:   Type fluid in hole
 DFD .                8.8:   Density
 DFV .                 44:   Viscosity
 DFPH.                7.0:   pH
 DFL .                8.0:   Fluid loss
 MSS .           MUD TANK:   Source of sample
 RMS .OHMM          0.778:   Rm
 MST .F                65:   Rm Meas. temp.
 RMF .OHMM          0.710:   Rmf
 MFST.F                67:   Rmf Meas. temp.
 MFSS.               MEAS:   Source Rmf.
 RMB .OHMM          0.447:   Rm. at BHT
 BHT .F               118:   BHT.
 TCS .HRS            2000:   Time Circ. stopped
 TLAB.HRS            2430:   Time logger at bottom
 MRT .F               118:   Maximum recorded temp.
 LUN .               8043:   Logging unit number
 LUL .               CSPR:   Logging unit location
 ENGI.             DENNIS:   Recorded By
 WITN.             STRONG:   Witnessed by
 ORIG.           5" PRINT:   Origin of data
 UWI .     49025108860000:   Unique Well ID
 DICO. A2D TECHNOLOGIES, INC.:   Digitizing Company
~OTHER INFORMATION
~A   DEPT     TENR         GRR       SPR        ILD        ILM        SFL       TEND       NPHI       CALD       CORR       RHOB   
# ...
 2988.5000  1518.4370   111.3802   -26.4455     4.1430     4.2295     4.9189  1784.8092    -0.1291     8.3852    -0.0117     2.4557
 2989.0000  1518.7898   111.6261   -26.2879     4.0861     4.1452     5.2205  1782.4258    -0.1307     8.3850    -0.0062     2.4664
 2989.5000  1519.1426   111.6393   -26.2825     4.0017     4.0603     5.4441  1780.0424    -0.1356     8.3849     0.0033     2.4953
 2990.0000  1519.4952   111.6525   -26.4323     3.9746     4.0050     4.8622  1777.6589    -0.1397     8.3847     0.0127     2.5116
 2990.5000  1519.8480   109.3721   -26.4268     3.9204     3.9499     4.3417  1759.8423    -0.1327     8.3998     0.0190     2.5140
 2991.0000  1520.2008   107.5505   -26.4224     3.9222     3.8967     4.1337  1740.6316    -0.1248     8.3997     0.0133     2.4986
 2991.5000  1520.5535   107.5670   -26.5712     3.8960     3.8428     4.1667  1723.6147    -0.1164     8.3995     0.0036     2.4840
 2992.0000  1520.9062   106.8921   -26.5666     3.8429     3.7913     4.3844  1721.2313    -0.1133     8.3994    -0.0002     2.4676
 2992.5000  1521.2590   104.6117   -26.7154     3.7901     3.7665     4.4828  1718.8479    -0.1173     8.3992    -0.0024     2.4609
 2993.0000  1521.6118   102.5607   -26.7106     3.7918     3.7960     4.4865  1716.4645    -0.1244     8.3991    -0.0008     2.4610
 2993.5000  1521.9645   101.8826   -26.8597     3.7935     3.8253     4.3952  1714.0798    -0.1281     8.3989     0.0016     2.4626
 2994.0000  1522.3173   102.8165   -27.0084     3.8224     3.8547     4.3057  1711.6964    -0.1309     8.3988     0.0040     2.4642
 2994.5000  1522.6700   103.5183   -27.1562     3.9069     3.9684     4.3110  1709.2588    -0.1328     8.3986     0.0073     2.4659
 2995.0000  1523.0227   103.0756   -27.3100     4.0268     4.0599     4.3436  1706.3331    -0.1347     8.3985     0.0089     2.4675
 2995.5000  1523.3755   102.6268   -27.4535     4.2304     4.2669     4.3163  1719.9771    -0.1359     8.3983     0.0082     2.4715
 2996.0000  1523.7283   102.4106   -27.6022     4.3861     4.3927     4.3516  1716.9984    -0.1363     8.3982     0.0075     2.4731
 2996.5000  1524.0811   101.7391   -27.7499     4.5475     4.5546     4.6770  1714.6138    -0.1372     8.3980     0.0052     2.4677
 2997.0000  1524.4337    98.3119   -27.7454     4.6150     4.6557     5.7149  1728.2589    -0.1397     8.3979     0.0007     2.4662
 2997.5000  1524.7865    96.2609   -27.7410     4.7849     4.7930     6.1968  1725.2791    -0.1560     8.3977    -0.0039     2.4687
 2998.0000  1525.1393    98.8004   -27.7366     4.9257     4.9360     6.1485  1722.8390    -0.1710     8.3975    -0.0087     2.4726
 2998.5000  1525.4919   100.6484   -27.7311     4.9993     5.0444     5.8540  1719.9158    -0.1717     8.3974    -0.0115     2.4773
 2999.0000  1525.8447   100.4323   -27.7267     4.9654     5.0472     5.6135  1733.5596    -0.1709     8.3972    -0.0091     2.4759
 2999.5000  1526.1975    99.5281   -27.7223     4.8978     5.0134     5.6988  1746.6083    -0.1660     8.3971    -0.0067     2.4759
 3000.0000  1526.5503    99.3119   -27.5647     4.7961     4.9107     6.1807  1759.6570    -0.1599     8.3969    -0.0035     2.4807
 3000.5000  1526.9030    99.7102   -27.5603     4.6632     4.8094     6.2741  1772.1093    -0.1627     8.3963    -0.0019     2.4869
 3001.0000  1527.2557   101.3314   -27.5559     4.5664     4.6768     6.2789  1769.7258    -0.1674     8.4110    -0.0042     2.4900
 3001.5000  1527.6085   102.4932   -27.5273     4.5685     4.5394     5.8937  1767.2844    -0.1680     8.4104    -0.0025     2.4901
 3002.0000  1527.9612   103.1955   -27.4974     4.4107     4.3604     5.2260  1780.3898    -0.1570     8.4097    -0.0002     2.4871
 3002.5000  1528.3140   105.2761   -27.5268     4.2579     4.2401     4.7339  1777.4099    -0.1458     8.4091     0.0022     2.4840
 3003.0000  1528.6667   107.3615   -27.3660     4.1691     4.1527     4.6706  1759.5945    -0.1311     8.4085     0.0053     2.4756
 3003.5000  1529.0195   108.0624   -27.2038     4.0830     4.0788     4.6750  1757.2111    -0.1269     8.4079     0.0038     2.4625
 3004.0000  1529.3722   107.8459   -27.0432     4.0557     3.9856     4.6454  1739.3955    -0.1282     8.4073     0.0062     2.4648
 3004.5000  1529.7250   106.4809   -27.0358     4.0001     3.9366     4.4864  1727.0458    -0.1273     8.4067     0.0094     2.4719
 3005.0000  1530.0778   104.8861   -27.1834     4.0019     3.9678     4.4255  1706.2539    -0.1215     8.4061     0.0079     2.4773
 3005.5000  1530.4304   103.9805   -27.3291     4.0682     4.0280     4.5902  1720.1456    -0.1160     8.4054     0.0032     2.4727
 3006.0000  1530.7832   104.1920   -27.3199     4.0705     4.0605     4.6265  1733.0035    -0.1118     8.4048     0.0002     2.4674
 3006.5000  1531.1360   105.8005   -27.1593     4.1021     4.0926     4.6300  1730.9445    -0.1128     8.4196    -0.0013     2.4651
 3007.0000  1531.4888   104.6641   -27.1516     4.1045     4.1251     4.6686  1728.8855    -0.1226     8.4189    -0.0005     2.4659
 3007.5000  1531.8414   103.9825   -27.1426     4.1363     4.1577     4.8748  1726.8265    -0.1290     8.4337     0.0042     2.4714
 3008.0000  1532.1942   105.3732   -27.1352     4.1983     4.1651     5.0914  1724.6915    -0.1349     8.4330     0.0105     2.4851
 3008.5000  1532.5470   106.2995   -27.1278     4.1715     4.1640     5.2424  1722.1932    -0.1410     8.4324     0.0167     2.5009
 3009.0000  1532.8997   105.3932   -26.9672     4.1141     4.1082     5.3216  1720.1333    -0.1469     8.4471     0.0215     2.5149
 3009.5000  1533.2524   105.4032   -26.9598     4.0293     4.0531     5.1030  1718.0742    -0.1512     8.4463     0.0176     2.5095
 3010.0000  1533.6052   111.3706   -26.7993     3.9468     3.9711     4.8242  1716.0153    -0.1409     8.4457     0.0044     2.4910
 3010.5000  1533.9580   118.0596   -26.7821     3.8654     3.8900     4.5932  1729.3884    -0.1314     8.4452    -0.0010     2.4648
 3011.0000  1534.3107   120.8261   -26.6294     3.8128     3.8371     4.3394  1711.3821    -0.1241     8.4446    -0.0033     2.4554
 3011.5000  1534.6635   118.5390   -26.3157     3.7569     3.8128     4.2186  1709.3230    -0.1159     8.4440    -0.0016     2.4540
 3012.0000  1535.0162   110.9686   -26.1552     3.7098     3.7893     4.1671  1707.2631    -0.1117     8.4434     0.0007     2.4572
 3012.5000  1535.3689   109.8300   -25.9946     3.6856     3.7652     4.2611  1705.2040    -0.1053     8.4275     0.0031     2.4619
 3013.0000  1535.7217   111.2183   -25.5278     3.7147     3.7688     4.4188  1718.5771    -0.1007     8.4268     0.0070     2.4666
 3013.5000  1536.0745   113.5516   -25.3672     3.7169     3.7717     4.5824  1716.0029    -0.1020     8.4262     0.0125     2.4736
 3014.0000  1536.4272   113.9948   -25.3598     3.7457     3.7745     4.6516  1713.9438    -0.1149     8.4256     0.0213     2.4884
 3014.5000  1536.7799   109.4131   -25.3522     3.7479     3.7505     4.4289  1711.8839    -0.1198     8.4250     0.0321     2.4996
 3015.0000  1537.1327   105.2883   -25.4963     3.6974     3.7003     4.2763  1709.8248    -0.1182     8.4244     0.0368     2.5140
 3015.5000  1537.4855   103.9175   -25.4889     3.6727     3.6506     4.2502  1707.7162    -0.1095     8.4221     0.0252     2.5071
 3016.0000  1537.8381   106.6865   -25.7896     3.6488     3.6141     4.3771  1705.1917    -0.1022     8.4078     0.0182     2.4932
 3016.5000  1538.1909   111.5204   -26.0884     3.6249     3.5541     4.3185  1687.7006    -0.1038     8.4072     0.0159     2.4848
 3017.0000  1538.5437   115.9164   -26.5386     3.6012     3.5568     4.1706  1701.5879    -0.1066     8.4066     0.0136     2.4809
 3017.5000  1538.8965   116.3668   -26.6843     3.5782     3.5084     4.0279  1699.0743    -0.1090     8.4061     0.0114     2.4787
 3018.0000  1539.2491   110.6340   -26.9832     3.5548     3.4861     4.0016  1696.9135    -0.1103     8.3902     0.0098     2.4780
 3018.5000  1539.6019   107.4281   -27.4788     3.5316     3.4640     4.0918  1694.3804    -0.1064     8.3896     0.0099     2.4788
