~VERSION INFORMATION
 VERS.                2.0:   CWLS LOG ASCII STANDARD - VERSION 2.0
 WRAP.                 NO:   ONE LINE PER DEPTH STEP
~WELL INFORMATION
#MNEM.UNIT      DATA TYPE    INFORMATION
#----------   ------------   ------------------------------
 STRT.F          209.5000:   START DEPTH
 STOP.F         3130.0000:   STOP DEPTH
 STEP.F            0.5000:   STEP LENGTH
 NULL.          -999.2500:   NO VALUE
 COMP. FENIX & SCISSON-U.S. NAVY:   COMPANY
 WELL.   FENIX "A" #66-29:   WELL
 FLD .              NPR 3:   FIELD
 LOC .      S29 T39N R78W:   LOCATION
 CNTY.            NATRONA:   COUNTY
 STAT.            WYOMING:   STATE
 CTRY. UNITED STATES OF AMERICA:   COUNTRY
 SRVC.       SCHLUMBERGER:   SERVICE COMPANY
 DATE.        12-JUN-1977:   LOGDATE
 API .     49025103850000:   API NUMBER
~CURVE INFORMATION
#MNEM.UNIT       API CODE    CURVE DESCRIPTION
#----------   ------------   ------------------------------
 DEPT.F                  :   
 CALD.IN     45 280 60 00:   CALIPER FROM DENSITY LOG
 GRD .GAPI   45 310 01 00:   GAMMA RAY FROM DENSITY LOG
 RHOB.G/C3   45 350 01 00:   BULK DENSITY
 CORR.G/C3   45 356 01 00:   DENSITY CORRECTION
 LL8 .OHMM   07 220 08 00:   LATEROLOG-8 RES.
 ILD .OHMM   07 120 46 00:   DEEP INDUCTION RESISTIVITY
 ILM .OHMM   07 120 44 00:   INDUCTION LOG MEDIUM RESISTIVITY
 SPR .MV     07 010 01 00:   SPONTANEOUS POTENTIAL
~PARAMETER INFORMATION
#MNEM.UNIT          VALUE    DESCRIPTION
#----------   ------------   ------------------------------
 EKB .F         5058.0000:   Kelly bushing
 EGL .F         5048.0000:   Ground level
 EDF .F            0.0000:   Drilling floor
 TD  .F         3120.0000:   Total depth
 DATE.        12-JUN-1977:   Date logged
 CLNT.            A2DTECH:   Client Code
 SL  . 1650' FSL & 1650' FEL:   Surface Location
 PD  .                 GL:   Permanent Datum
 EPD .F              5048:   Elevation Permanent Datum
 LMF .                 KB:   Log Measured From
 DMF .                 KB:   Drilling Measured From
 DAPD.F                10:   Feet Above Permanent Datum
 DD  .F              3120:   Depth driller
 DL  .F              3120:   Depth logger
 BLI .F              3120:   Bottom log interval
 TLI .F               219:   Top log interval
 CS1 .IN            8.625:   Casing size
 CBD1.      8.625" @ 225':   Casing driller 1
 CBL1.F               219:   Casing logger 1
 BS1 .IN            7.875:   Bit size
 BSD1.F              3120:   Depth drilled with bit1
 DFT .            KCL MUD:   Type fluid in hole
 DFD .                8.8:   Density
 DFV .                 32:   Viscosity
 DFPH.                7.5:   pH
 DFL .                  8:   Fluid loss
 MSS .              CIRC.:   Source of sample
 RMS .OHMM           2.01:   Rm
 MST .F                72:   Rm Meas. temp.
 RMF .OHMM            1.9:   Rmf
 MFST.F                72:   Rmf Meas. temp.
 RMC .OHMM           3.02:   Rmc
 MCST.F                72:   Rmc Meas. temp.
 MFSS.               MEAS:   Source Rmf.
 MCSS.               CALC:   Source Rmc.
 RMB .OHMM           1.21:   Rm. at BHT
 BHT .F               120:   BHT.
 TCS .HRS            1400:   Time Circ. stopped
 TLAB.HRS            1730:   Time logger at bottom
 MRT .F               120:   Maximum recorded temp.
 LUN .               7711:   Logging unit number
 LUL .               CSPR:   Logging unit location
 ENGI.             SAYLER:   Recorded By
 WITN.             RHODES:   Witnessed by
 ORIG.           5" PRINT:   Origin of data
 UWI .     49025103850000:   Unique Well ID
 DICO. A2D TECHNOLOGIES, INC.:   Digitizing Company
~OTHER INFORMATION
~A   DEPT     CALD         GRD      RHOB       CORR        LL8        ILD        ILM        SPR   
# ...
  412.0000     8.6892    77.2379     2.3822     0.0082     8.1186    12.2763    11.9443   -27.5464
  412.5000     8.6893    78.4247     2.3902     0.0112     8.6557    13.2099    13.0897   -27.9365
  413.0000     8.6893    79.2162     2.4061     0.0072     8.9790    15.8635    14.3451   -28.5246
  413.5000     8.6696    78.0305     2.4201     0.0132     9.9290    16.4560    16.1579   -29.3106
  414.0000     8.6697    77.4378     2.4444     0.0162    11.5976    19.0510    17.5465   -30.0965
  414.5000     8.6302    78.2290     2.4763     0.0191    19.6954    20.1279    15.7263   -30.4866
  415.0000     8.6302    80.4051     2.4883     0.0072    22.1800    20.6912    13.8396   -31.0734
  415.5000     8.6303    80.8012     2.5166     0.0052    18.9959    18.8876    12.5178   -31.2656
  416.0000     8.6303    82.1861     2.5211     0.0121    16.1205    17.2407    10.6204   -30.8641
  416.5000     8.6502    80.8024     2.4942     0.0251    12.3734    15.4521     9.6942   -30.6616
  417.0000     8.6502    80.4075     2.4633     0.0310     8.9907    13.9763     9.0948   -29.6666
  417.5000     8.6700    79.4192     2.4314     0.0241     7.4245    12.7575     8.5325   -28.8694
  418.0000     8.6701    78.6287     2.4125     0.0191     7.0937    11.8703     8.2275   -27.2809
  418.5000     8.6702    77.0471     2.3876     0.0111     7.3582    10.9242     8.1540   -26.6817
  419.0000     8.6702    77.0476     2.3796     0.0073     8.3633     9.7921     8.3058   -25.8847
  419.5000     8.6703    78.2348     2.3786     0.0061     8.3641     9.5282     8.2316   -25.6813
  420.0000     8.6703    81.2025     2.3786     0.0061     7.7692     9.3568     7.6523   -25.4779
  420.5000     8.7099    81.7961     2.3726     0.0061     7.2166     9.6189     7.3787   -25.6701
  421.0000     8.7100    80.2144     2.3537     0.0140     6.7838     9.6205     7.2462   -25.6645
  421.5000     8.7100    79.2260     2.3507     0.0190     6.2956     9.7105     7.2474   -25.6589
  422.0000     8.7892    76.8531     2.3467     0.0110     6.0707     9.5361     7.2486   -25.8512
  422.5000     8.8090    77.4470     2.3417     0.0070     6.1273     9.4509     7.4514   -26.2412
  423.0000     8.8289    76.6563     2.3487     0.0060     6.1844     9.6270     7.6598   -27.0269
  423.5000     8.8091    75.2721     2.3606     0.0120     6.1854     9.8063     7.8741   -27.6147
  424.0000     8.8092    75.6682     2.3725     0.0190     6.6545     9.9889     8.0208   -28.5980
  424.5000     8.8093    75.8665     2.3725     0.0130     6.9660    10.2684     8.0221   -28.9880
  425.0000     8.8093    76.2627     2.3745     0.0140     7.0310    10.4597     8.0234   -29.3779
  425.5000     8.8291    76.4611     2.3765     0.0169     6.9050    10.5576     7.9517   -29.7678
  426.0000     8.7896    75.2745     2.3805     0.0209     6.4791    10.6563     8.0258   -30.3543
  426.5000     8.8293    73.4946     2.3755     0.0209     6.4214    10.7560     8.0274   -30.7441
  427.0000     8.8293    74.0886     2.3735     0.0209     6.3641    10.6599     8.0287   -31.3318
  427.5000     8.8096    75.6717     2.3745     0.0209     6.3652    10.5647     8.0301   -31.9193
  428.0000     8.8096    77.6506     2.3695     0.0199     6.7242    10.3750     8.0314   -32.5069
  428.5000     8.8097    80.4212     2.3565     0.0119     6.7869    10.0959     8.1065   -32.8966
  429.0000     8.8295    81.2132     2.3555     0.0099     6.6048    10.1911     8.1078   -33.0886
  429.5000     8.8296    81.0159     2.3595     0.0139     6.5459    10.2454     8.1837   -33.2806
  430.0000     8.8297    78.4444     2.3615     0.0178     6.5470    10.2875     8.2602   -33.2748
  430.5000     8.8099    75.2791     2.3545     0.0208     6.5480    10.3827     8.3375   -33.0713
  431.0000     8.8298    73.4987     2.3614     0.0278     6.7307    10.4809     8.3389   -33.0656
  431.5000     8.8298    72.3119     2.3545     0.0318     6.8557    10.4827     8.4169   -33.0598
  432.0000     8.8299    71.9166     2.3574     0.0168     6.8568    10.4844     8.4183   -33.0540
  432.5000     8.8299    74.2916     2.3465     0.0058     6.9208    10.4862     8.4197   -33.0483
  433.0000     8.8696    76.6667     2.3445     0.0048     7.1139    10.4880     8.4211   -32.6471
  433.5000     8.8696    76.8653     2.3504     0.0148     7.1150    10.4897     8.5779   -32.6413
  434.0000     8.8697    76.6677     2.3634     0.0207     6.9241    10.6852     8.8990   -32.8333
  434.5000     8.8301    75.2830     2.3763     0.0287     6.6772    10.8839     8.9823   -33.4206
  435.0000     8.8104    74.4920     2.3773     0.0287     6.5576    11.1886     9.5778   -34.0079
  435.5000     8.7511    74.4925     2.3773     0.0197     6.9910    11.6074    10.4968   -34.5952
  436.0000     8.7511    75.0867     2.3862     0.0147     8.0171    11.9324    11.2952   -35.9732
  436.5000     8.7512    76.8683     2.3962     0.0058    10.3509    12.2664    11.9344   -37.1534
  437.0000     8.7315    77.2647     2.4171    -0.0012    11.3413    13.1999    12.4959   -38.7290
  437.5000     8.7909    77.4632     2.4519     0.0047    11.3417    14.0751    12.7279   -39.7114
  438.0000     8.8305    77.0677     2.4300     0.0167    11.0400    15.0083    13.0842   -41.0891
  438.5000     8.8504    78.0581     2.4230     0.0057    10.9405    15.4285    13.3280   -42.2691
  439.0000     8.8504    78.0586     2.4230     0.0057    10.8430    15.4312    13.5764   -43.0538
  439.5000     8.8505    77.2674     2.4280     0.0067    10.8448    15.4339    13.7036   -43.4430
  440.0000     8.8506    76.0803     2.4409     0.0156    10.7482    15.0188    13.8319   -44.4240
  440.5000     8.8110    77.0705     2.4419     0.0286    10.7500    14.6148    13.8342   -44.6156
  441.0000     8.8705    79.8423     2.4340     0.0166    10.8503    14.3523    13.7106   -44.8072
  441.5000     8.8705    80.8327     2.4235     0.0146    10.8522    14.2241    13.5881   -44.9988
  442.0000     8.8706    80.0415     2.4439     0.0106    10.7554    13.9686    13.4667   -44.7951
  442.5000     8.8706    78.6563     2.4568     0.0156    10.7573    13.9710    13.2249   -44.7891
  443.0000     8.8707    77.4691     2.4698     0.0196    10.7591    13.9720    13.1067   -44.7830
  443.5000     8.8707    78.0635     2.4797     0.0315    10.7609    13.9758    12.9896   -44.7770
  444.0000     8.8708    78.8560     2.4817     0.0375    10.7627    13.9783    12.8735   -45.1662
  444.5000     8.8709    81.4301     2.4768     0.0215    10.7645    13.9807    12.8748   -45.3577
  445.0000     8.8511    82.8167     2.4677     0.0155    10.7663    13.8557    12.7606   -45.3516
  445.5000     8.8710    83.4113     2.4747     0.0185    10.8668    13.8581    12.7628   -45.5432
  446.0000     8.8710    84.6002     2.4737     0.0225    10.7699    13.7343    12.7650   -46.3274
  446.5000     8.8711    82.2247     2.4637     0.0185    10.6739    13.6116    12.6509   -46.7165
  447.0000     8.8711    80.8393     2.4647     0.0185    10.6757    13.4890    12.6522   -47.3031
  447.5000     8.8712    82.8199     2.4766     0.0175    10.8741    13.4922    12.6552   -47.6922
  448.0000     8.8713    85.5931     2.4746     0.0175    10.6793    13.4946    12.5413   -48.8715
  448.5000     8.8713    86.1874     2.4726     0.0135    10.6811    13.4969    12.5443   -49.0629
  449.0000     8.8714    82.8219     2.4607     0.0075    10.6829    13.3763    12.4322   -49.6494
  449.5000     8.8714    78.8623     2.4607     0.0045    10.6847    13.2567    12.3210   -49.8408
  450.0000     8.8715    81.8335     2.4646     0.0045    10.5895    13.0186    12.2109   -50.8224
  450.5000     8.8715    82.2311     2.4728     0.0045    10.4951    12.7847    11.9915   -50.8162
  451.0000     8.8719    82.4307     2.4786     0.0045    10.3070    12.6704    11.8843   -51.6001
  451.5000     8.8523    82.2351     2.4786     0.0025    10.2151    12.6726    11.7781   -51.9890
  452.0000     8.8524    81.0489     2.4776     0.0045    10.1241    12.7913    11.7801   -52.1803
