~VERSION INFORMATION
 VERS.                2.0:   CWLS LOG ASCII STANDARD - VERSION 2.0
 WRAP.                 NO:   ONE LINE PER DEPTH STEP
~WELL INFORMATION
#MNEM.UNIT      DATA TYPE    INFORMATION
#----------   ------------   ------------------------------
 STRT.F         3500.0000:   START DEPTH
 STOP.F         6855.0000:   STOP DEPTH
 STEP.F            0.5000:   STEP LENGTH
 NULL.          -999.2500:   NO VALUE
 COMP.          U.S. NAVY:   COMPANY
 WELL.  US NAVY "G" #1-10:   WELL
 FLD . TEAPOT NAVAL RESERVE:   FIELD
 LOC .      S10 T38N R78W:   LOCATION
 CNTY.            NATRONA:   COUNTY
 STAT.            WYOMING:   STATE
 CTRY. UNITED STATES OF AMERICA:   COUNTRY
 SRVC.         LANE WELLS:   SERVICE COMPANY
 DATE.        23-MAR-1952:   LOGDATE
 API .     49025063380000:   API NUMBER
~CURVE INFORMATION
#MNEM.UNIT       API CODE    CURVE DESCRIPTION
#----------   ------------   ------------------------------
 DEPT.F                  :   
 GRN .GAPI   35 310 01 00:   GAMMA RAY
 NEUT.NAPI   35 330 01 00:   NEUTRON
~PARAMETER INFORMATION
#MNEM.UNIT          VALUE    DESCRIPTION
#----------   ------------   ------------------------------
 EKB .F         5195.0000:   Kelly bushing
 EGL .F         5184.0000:   Ground level
 EDF .F         5195.0000:   Drilling floor
 EPD .F            0.0000:   Permanent datum
 TD  .F         6861.0000:   Total depth
 CLNT.            A2DTECH:   Client Code
 PD  .                 GL:   Permanent Datum
 DATE.        23-MAR-1952:   Date Logged [DD-MMM-YYYY]
 DD  .F              6861:   Depth driller
 DL  .F              6861:   Depth logger
 BLI .F              6855:   Bottom log interval
 TLI .F              3500:   Top log interval
 BSD1.F              6861:   Depth drilled with bit1
 DFT .                MUD:   Type fluid in hole
 ENGI.            GAMBERG:   Recorded By
 WITN.           GRIBBENS:   Witnessed by
 ORIG.         2.5" PRINT:   Origin of data
 UWI .     49025063380000:   Unique Well ID
 DICO. A2D TECHNOLOGIES, INC.:   Digitizing Company
~OTHER INFORMATION
~A  DEPT       GRN        NEUT  
# ...
 6780.5000    74.0739  1090.9528
 6781.0000    73.2173  1122.5520
 6781.5000    75.9077  1194.5813
 6782.0000    78.8244  1233.9901
 6782.5000    78.4422  1273.3990
 6783.0000    77.8461  1290.6404
 6783.5000    78.3328  1268.4729
 6784.0000    79.5511  1217.9102
 6784.5000    80.0377  1180.2836
 6785.0000    79.7927  1150.8958
 6785.5000    77.5428  1088.9298
 6786.0000    74.6539  1080.3446
 6786.5000    74.4233  1082.2269
 6787.0000    74.9099  1096.2749
 6787.5000    73.4303  1096.9822
 6788.0000    71.6637  1076.3547
 6788.5000    69.7722  1066.5024
 6789.0000    67.5876  1078.8177
 6789.5000    69.2937  1098.5222
 6790.0000    71.7316  1095.7194
 6790.5000    73.9255  1065.5413
 6791.0000    75.6317  1019.5317
 6791.5000    76.3622   990.1478
 6792.0000    75.8242   955.6650
 6792.5000    73.9862   972.9064
 6793.0000    72.0471  1010.5560
 6793.5000    70.5260  1059.1133
 6794.0000    68.8526  1162.5615
 6794.5000    67.3671  1199.5074
 6795.0000    65.3375  1233.9901
 6795.5000    63.9132  1246.3054
 6796.0000    65.6193  1228.5223
 6796.5000    69.0328  1134.9313
 6797.0000    72.9341  1072.8704
 6797.5000    77.3231  1043.0634
 6798.0000    81.2640  1045.1710
 6798.5000    85.5326  1045.1075
 6799.0000    89.3281   997.5369
 6799.5000    92.8113   958.1281
 6800.0000    95.0403   903.9409
 6800.5000    95.8527   854.6798
 6801.0000    95.8512   820.1970
 6801.5000    95.9893   790.6404
 6802.0000    95.3608   798.0295
 6802.5000    93.4084   855.6025
 6803.0000    90.7243   913.0851
 6803.5000    86.3329   961.9838
 6804.0000    82.1853  1122.1130
 6804.5000    78.1907  1139.6273
 6805.0000    74.2554  1148.3599
 6805.5000    72.5196  1170.5610
 6806.0000    71.2421  1202.5902
 6806.5000    69.7194  1246.9043
 6807.0000    71.8479  1257.3195
 6807.5000    74.7534  1233.7925
 6808.0000    75.8339  1112.3810
 6808.5000    76.5645  1032.6047
 6809.0000    78.2706   998.8024
 6809.5000    81.9280   997.6096
 6810.0000    86.3170   817.5749
 6810.5000    85.7785   793.0930
 6811.0000    84.5244   793.3024
 6811.5000    84.0998   809.8801
 6812.0000    85.9347   849.8871
 6812.5000    86.2910   892.8739
 6813.0000    81.9959   927.7128
 6813.5000    77.3272   960.5983
 6814.0000    73.5366   963.2678
 6814.5000    69.4529   960.9030
 6815.0000    67.0119   968.3771
 6815.5000    64.8148   978.2932
 6816.0000    62.8616  1000.4943
 6816.5000    63.3474  1088.5181
 6817.0000    64.5650  1097.6042
 6817.5000    63.5874  1100.3767
 6818.0000    60.3984  1101.6133
 6818.5000    63.4695  1101.7014
 6819.0000    64.8496  1106.7034
 6819.5000    65.6606  1131.3616
 6820.0000    66.6670  1153.5627
 6820.5000    67.7219  1118.5548
 6821.0000    65.7850  1065.0442
 6821.5000    65.4085  1038.3479
 6822.0000    66.4955  1050.0789
 6822.5000    67.4692  1049.9097
 6823.0000    66.9794  1013.9407
 6823.5000    64.7823   999.4323
 6824.0000    62.5852   857.0142
 6824.5000    63.0711   783.3922
 6825.0000    64.5325   731.8832
 6825.5000    64.8068   680.3144
 6826.0000    67.0488   682.4324
 6826.5000    71.7947   735.3551
 6827.0000    77.4350   789.0551
 6827.5000    83.2215   868.7290
 6828.0000    91.1101   977.1699
 6828.5000    97.0879  1118.0027
 6829.0000   100.6137  1332.1407
 6829.5000   112.0751  1418.2239
 6830.0000   129.8781  1455.1671
 6830.5000   142.5589  1479.8251
 6831.0000   149.2134  1507.1420
 6831.5000   158.5039  1526.6844
 6832.0000   169.1520  1420.6025
 6832.5000   179.9492  1251.5739
 6833.0000   190.0610  1093.1091
 6833.5000   200.3998   992.0018
 6834.0000   207.4715   974.3287
 6834.5000   218.9492   866.3088
 6835.0000   228.3943   744.0428
 6835.5000   240.6362   636.3936
 6836.0000   256.3171   552.7718
 6836.5000   271.9400   492.6699
 6837.0000   282.0443   366.1924
 6837.5000   288.1399   291.8474
 6838.0000   298.8697   255.1759
 6838.5000   300.0000   252.7948
 6839.0000   300.0000   299.5781
 6839.5000   300.0000   434.8014
 6840.0000   300.0000   540.5406
 6840.5000   299.9837   615.0447
 6841.0000   299.9607   686.1895
 6841.5000   299.9377   741.6222
 6842.0000   299.9146   840.0214
 6842.5000   299.8916   947.0486
 6843.0000   299.8686  1055.7195
 6843.5000   299.8455  1350.6570
 6844.0000   299.8210  1769.9391
 6844.5000   297.6239  1901.9093
 6845.0000   289.5732  2078.4241
 6845.5000   278.2703  2116.5432
 6846.0000   270.0569  2121.6748
 6846.5000   262.0061  2119.0671
 6847.0000   253.9390  2114.0237
 6847.5000   244.7607  2079.4238
 6848.0000   236.9774  2021.1824
 6848.5000   234.8112  1978.0402
 6849.0000   234.3049  1970.0336
 6849.5000   237.3594  1946.9960
 6850.0000   240.7720  1856.2898
 6850.5000   244.1847  1742.4902
 6851.0000   247.5974  1655.5532
 6851.5000   252.2295  1536.5548
 6852.0000   256.6178  1457.6199
 6852.5000   259.2988  1358.9803
 6853.0000   261.7682  1339.1587
 6853.5000   262.4656  1349.2153
 6854.0000   260.4237  1374.0551
 6854.5000   258.7506  1381.2404
 6855.0000   200.3667  1383.1947
