~VERSION INFORMATION
 VERS.                2.0:   CWLS LOG ASCII STANDARD - VERSION 2.0
 WRAP.                 NO:   ONE LINE PER DEPTH STEP
~WELL INFORMATION
#MNEM.UNIT      DATA TYPE    INFORMATION
#----------   ------------   ------------------------------
 STRT.F           57.0000:   START DEPTH
 STOP.F         5817.0000:   STOP DEPTH
 STEP.F            0.5000:   STEP LENGTH
 NULL.          -999.2500:   NO VALUE
 COMP. DEPARTMENT OF ENERGY:   COMPANY
 WELL. DEPARTMENT NPR 371 "X" #1-4:   WELL
 FLD .              NPR-3:   FIELD
 LOC .       S4 T38N R78W:   LOCATION
 CNTY.            NATRONA:   COUNTY
 STAT.            WYOMING:   STATE
 CTRY. UNITED STATES OF AMERICA:   COUNTRY
 SRVC.       SCHLUMBERGER:   SERVICE COMPANY
 DATE.        25-AUG-2002:   LOGDATE
 API .     49025230480000:   API NUMBER
~CURVE INFORMATION
#MNEM.UNIT       API CODE    CURVE DESCRIPTION
#----------   ------------   ------------------------------
 DEPT.F                  :   
 HCAL.IN     07 280 01 00:   HRLT CALIPER
 RLA1.OHMM   06 120 01 00:   HRLT RESISTIVITY 1
 RLA2.OHMM   06 120 02 00:   HRLT RESISTIVITY 2
 RLA3.OHMM   06 120 03 00:   HRLT RESISTIVITY 3
 RXOZ.OHMM   06 270 04 00:   STAN RES. MICROCFL RESISTIVITY
 TENR.LBS    06 635 01 00:   TENSION FROM RESITIVITY
 GRR .GAPI   07 310 01 00:   GAMMA RAY FROM RESISTIVITY
 SPHI.DEC    60 890 22 00:   SONIC POROSITY SANDSTONE
 DT  .US/F   60 520 00 00:   DELTA TIME
 TENS.LBS    60 635 01 00:   TENSION FROM SONIC
 RT  .OHMM   06 120 00 00:   HRLT TRUE RESISTIVITY
~PARAMETER INFORMATION
#MNEM.UNIT          VALUE    DESCRIPTION
#----------   ------------   ------------------------------
 EKB .F         5196.0000:   Kelly bushing
 EGL .F         5186.0000:   Ground level
 EDF .F         5194.0000:   Drilling floor
 TD  .F         5803.0000:   Total depth
 CLNT.            A2DTECH:   Client Code
 SL  . 794' FEL & 333' FNL:   Surface Location
 PD  .                 GL:   Permanent Datum
 EPD .F              5186:   Elevation Permanent Datum
 LMF .                 KB:   Log Measured From
 DMF .                 KB:   Drilling Measured From
 DAPD.F                10:   Feet Above Permanent Datum
 DATE.        25-AUG-2002:   Date Logged [DD-MMM-YYYY]
 DD  .F              5800:   Depth driller
 DL  .F              5803:   Depth logger
 BLI .F              5803:   Bottom log interval
 TLI .F               656:   Top log interval
 CS1 .IN            9.625:   Casing size
 CBD1.      9.625" @ 660':   Casing driller 1
 CBL1.F               656:   Casing logger 1
 BS1 .IN            8.750:   Bit size
 BSD1.F              5800:   Depth drilled with bit1
 DFT .           GEL CHEM:   Type fluid in hole
 DFD .                  9:   Density
 DFV .                 36:   Viscosity
 DFPH.                8.5:   pH
 DFL .                7.6:   Fluid loss
 MSS .           FLOWLINE:   Source of sample
 RMS .OHMM          0.846:   Rm
 MST .F                90:   Rm Meas. temp.
 RMF .OHMM          0.670:   Rmf
 MFST.F                90:   Rmf Meas. temp.
 MFSS.               MEAS:   Source Rmf.
 RMC .OHMM          1.075:   Rmc
 MCST.F                90:   Rmc Meas. temp.
 MCSS.               CALC:   Source Rmc.
 TCS .HRS            0300:   Time Circ. stopped
 TLAB.HRS            0915:   Time logger at bottom
 MRT .F               156:   Maximum recorded temp.
 LUN .               2211:   Logging unit number
 LUL .             CASPER:   Logging unit location
 ENGI.        J.L. FLORES:   Recorded By
 WITN.        STEVE HARDY:   Witnessed by
 ORIG.        2" 5" PRINT:   Origin of data
 UWI .     49025230480000:   Unique Well ID
 DICO. A2D TECHNOLOGIES, INC.:   Digitizing Company
~OTHER INFORMATION
~A   DEPT     HCAL       RLA1       RLA2       RLA3       RXOZ       TENR         GRR      SPHI         DT       TENS         RT   
# ...
 5089.5000    10.5225    19.7245    23.8795    25.0162    18.0995  2610.8232   112.2553     0.1103    66.5420  2178.1350    24.7352
 5090.0000    10.5219    20.0000    23.3895    26.9995    17.7296  2611.9495   106.8131     0.1124    66.7672  2177.7112    26.8753
 5090.5000    10.4911    20.0000    22.9086    27.7601    15.6537  2563.3242    92.5331     0.1134    66.9169  2177.1960    27.2481
 5091.0000    10.5056    20.5626    23.5636    26.0836    17.0128  2564.7324    90.4897     0.1133    66.8396  2176.8071    25.7786
 5091.5000    10.5050    21.1410    23.8998    25.0228    17.4928  2615.8909    93.2036     0.1130    66.6872  2176.3552    24.7284
 5092.0000    10.5195    20.5143    23.7390    24.8519    14.9195  2567.2656    99.7705     0.1127    66.6102  2175.8398    24.5562
 5092.5000    10.5188    16.9333    19.9375    24.8535    14.7162  2565.6079   108.3762     0.1124    66.8351  2175.4221    24.2172
 5093.0000    10.5032    17.0511    17.9477    23.5149    14.4158  2519.7656   104.7462     0.1136    67.5890  2175.0002    22.7533
 5093.5000    10.4874    18.9205    18.0871    21.1945    14.1212  2620.6765   107.0080     0.1188    68.3428  2174.4832    21.9784
 5094.0000    10.4718    22.3472    20.8041    24.8589    23.2531  2671.8347   102.9243     0.1251    68.6436  2174.0659    31.7129
 5094.5000    10.4561    32.0516    30.5612    32.8021    32.2024  2672.9609    95.2163     0.1227    68.1131  2173.6448    38.7576
 5095.0000    10.4555    37.8563    40.4249    39.8720    41.3263  2674.3689    91.1326     0.1169    66.9788  2173.1929    43.8961
 5095.5000    10.4399    42.8899    44.9030    43.2866    47.4714  2675.4954    92.0349     0.1067    65.4311  2172.7092    47.6933
 5096.0000    10.4241    34.5925    44.9116    42.3986    50.1833  2626.8655    97.6944     0.0949    64.1055  2172.2893    49.7127
 5096.5000    10.4387    29.2882    42.4574    37.9515    49.1577  2628.2771   100.4094     0.0931    64.1041  2186.8977    41.8115
 5097.0000    10.4380    31.3916    36.1794    33.9703    38.9831  2629.4036   101.9914     0.0946    64.4169  2186.4460    36.1538
 5097.5000    10.4525    30.3217    33.7437    32.1402    35.0212  2630.8103    99.2672     0.0973    65.0073  2185.9941    35.6547
 5098.0000    10.4669    23.1357    33.0516    30.6206    35.0267  2631.9365   102.8885     0.0994    65.1574  2185.5422    35.4063
 5098.5000    10.4890    24.9698    31.4782    30.6598    36.0161  2633.0850   105.8290     0.1009    65.1556  2185.0903    37.1610
 5099.0000    10.5035    31.1746    35.9581    34.9350    38.0725  2634.4697   104.9186     0.1033    65.2294  2184.6387    40.0972
 5099.5000    10.5104    29.9040    35.7145    34.4563    40.2476  2635.5959   104.2337     0.1045    65.3039  2184.1177    39.2706
 5100.0000    10.5098    27.5159    32.8479    31.2010    38.6144  2637.0042   106.4955     0.1045    65.4532  2183.7349    35.1525
 5100.5000    10.4790    26.3944    29.1709    28.1806    32.0415  2638.1292   113.9687     0.1057    65.8291  2183.2832    30.1863
 5101.0000    10.4483    25.4948    27.5866    26.6573    30.3243  2639.5374   123.0270     0.1072    66.0546  2182.8313    29.3601
 5101.5000    10.4325    26.3944    30.8525    29.5730    30.7593  2640.6636   127.7813     0.1088    66.2794  2182.3435    29.7675
 5102.0000    10.4169    26.0308    27.5901    27.7812    32.2973  2641.7910   126.4166     0.1097    66.5046  2181.9263    26.9129
 5102.5000    10.4163    27.9003    29.5895    27.0183    33.4458  2643.1968   111.0047     0.1094    66.1290  2166.3442    30.9034
 5103.0000    10.4157    30.3217    32.4060    30.3917    34.6378  2644.3230   105.7881     0.1075    65.6752  2165.9270    31.5460
 5103.5000    10.4302    31.5922    33.3267    31.2421    34.8896  2645.7300   104.8777     0.1036    65.2213  2165.5122    30.6691
 5104.0000    10.4295    29.6900    32.6200    30.3830    33.8941  2646.8562   108.7255     0.1018    64.9183  2164.9880    24.9005
 5104.5000    10.4441    23.1498    28.9839    27.0029    29.5682  2648.8838   108.4938     0.1000    64.9176  2164.5708    19.6624
 5105.0000    10.4585    17.9548    21.0174    19.3858    28.9671  2654.5715   106.6770     0.1006    65.1512  2164.1531    16.0740
 5105.5000    10.4579    14.8750    16.2301    15.7226    17.6023  2656.1484   105.9922     0.1069    66.0490  2162.5098    19.9235
 5106.0000    10.4723    15.3999    18.6659    18.4371    18.7402  2607.9604   108.7071     0.1184    67.9365  2163.2805    31.9170
 5106.5000    10.4869    27.9147    29.6060    30.5730    36.9529  2609.9495   108.9286     0.1311    69.7484  2177.8254    38.2125
 5107.0000    10.4862    35.5617    41.9913    37.1157    48.4261  2611.5261   108.6979     0.1332    69.6721  2177.4097    36.8962
 5107.5000    10.4857    40.5588    40.8364    38.6936    43.9689  2663.2510   109.4863     0.1299    68.9162  2176.8977    37.1418
 5108.0000    10.4851    34.5997    39.4155    36.0906    38.2942  2664.8296   111.1811     0.1207    67.7068  2176.5061    37.9085
 5108.5000    10.4995    32.7412    42.0000    40.8804    47.8129  2666.4185   115.7088     0.1057    65.6669  2175.9700    38.1609
 5109.0000    10.5141    32.9727    49.6723    47.6075    59.2810  2668.3801   118.4227     0.1024    64.9025  2175.5576    37.1000
 5109.5000    10.5435    32.5232    48.6449    46.9463    65.3419  2669.9585   118.8718     0.0997    64.6834  2175.1455    36.8353
 5110.0000    10.5581    32.0799    49.6787    43.7960    66.2690  2671.9304   117.5071     0.0985    64.6072  2174.6987    38.6503
 5110.5000    10.5877    31.8621    40.8533    37.5968    62.7223  2673.5090   116.8233     0.0971    64.4553  2174.2178    40.0021
 5111.0000    10.6021    32.5449    40.2889    39.4606    50.6244  2675.1250   116.3655     0.0961    64.3791  2173.7952    40.8308
 5111.5000    10.6166    34.1522    42.6088    41.7049    44.0907  2677.0610   116.5875     0.0958    64.3029  2173.2900    37.5966
 5112.0000    10.6160    36.6011    41.9850    38.9064    44.1051  2678.6379   121.1151     0.0952    64.2265  2172.8916    35.3325
 5112.5000    10.6305    35.6073    38.3741    36.5492    45.0483  2680.6116   122.0164     0.0949    64.2258  2172.4397    37.8730
 5113.0000    10.6600    34.1629    38.6456    37.8319    44.1361  2682.1902   122.9186     0.0946    64.2251  2171.9880    38.4051
 5113.5000    10.6745    35.6148    40.3037    38.8916    45.7091  2684.1621   119.0615     0.0940    64.3753  2186.5981    36.0848
 5114.0000    10.6889    30.1727    39.4701    37.3017    44.1675  2685.7407   115.8852     0.0937    64.8278  2186.1445    25.8690
 5114.5000    10.7186    25.5616    35.4993    28.8601    37.1278  2687.3191   111.3489     0.0975    65.8088  2185.6704    23.8051
 5115.0000    10.7331    23.5293    26.5058    24.7758    29.1693  2639.1465   105.4532     0.1085    66.7144  2185.1550    26.9731
 5115.5000    10.7324    23.3689    26.1392    25.1297    31.7094  2641.0442   102.0498     0.1154    67.4697  2199.8030    28.7127
 5116.0000    10.7319    26.8391    29.2342    28.8482    33.0678  2643.0920   100.0064     0.1190    67.6194  2199.3977    28.5166
 5116.5000    10.7312    27.2157    29.6476    28.6453    33.0782  2594.9177   100.2279     0.1187    67.3920  2198.9458    26.0606
 5117.0000    10.7457    26.1124    28.6314    25.6347    32.4083  2596.4961   105.6619     0.1151    66.7113  2198.4629    23.1640
 5117.5000    10.7601    23.5422    26.1471    23.1008    28.6215  2548.3235   104.5238     0.1115    66.3330  2182.9822    21.4643
 5118.0000    10.7898    22.7450    24.0454    21.7012    25.2752  2550.2954   103.1602     0.1094    66.4079  2182.4751    21.1703
 5118.5000    10.8118    21.0819    22.0852    21.1045    25.4803  2552.2690   104.6284     0.1118    66.8601  2167.0024    22.6930
 5119.0000    10.8489    20.5089    22.5829    21.6950    26.3663  2553.8474   110.6283     0.1127    66.8595  2166.4873    25.0089
 5119.5000    10.8785    20.3698    24.3889    24.2534    26.9283  2605.5706   105.1861     0.1124    66.7832  2166.1145    25.7150
