~VERSION INFORMATION
 VERS.                2.0:   CWLS LOG ASCII STANDARD - VERSION 2.0
 WRAP.                 NO:   ONE LINE PER DEPTH STEP
~WELL INFORMATION
#MNEM.UNIT      DATA TYPE    INFORMATION
#----------   ------------   ------------------------------
 STRT.F          206.0000:   START DEPTH
 STOP.F         3080.5000:   STOP DEPTH
 STEP.F            0.5000:   STEP LENGTH
 NULL.          -999.2500:   NO VALUE
 COMP.    FENIX & SCISSON:   COMPANY
 WELL.   FENIX "A" #61-28:   WELL
 FLD .           N P R #3:   FIELD
 LOC .      S28 T39N R78W:   LOCATION
 CNTY.            NATRONA:   COUNTY
 STAT.            WYOMING:   STATE
 CTRY. UNITED STATES OF AMERICA:   COUNTRY
 SRVC.        SCHLUMBEGER:   SERVICE COMPANY
 DATE.        16-MAY-1977:   LOGDATE
 API .     49025103680000:   API NUMBER
~CURVE INFORMATION
#MNEM.UNIT       API CODE    CURVE DESCRIPTION
#----------   ------------   ------------------------------
 DEPT.F                  :   
 SPR .MV     07 010 01 00:   SPONTANEOUS POTENTIAL
 LL8 .OHMM   07 220 08 00:   LATEROLOG-8 RES.
 ILM .OHMM   07 120 44 00:   INDUCTION LOG MEDIUM RESISTIVITY
 ILD .OHMM   07 120 46 00:   DEEP INDUCTION RESISTIVITY
 CALD.IN     45 280 60 00:   CALIPER FROM DENSITY LOG
 GRD .GAPI   45 310 01 00:   GAMMA RAY FROM DENSITY LOG
 RHOB.G/C3   45 350 01 00:   BULK DENSITY
 CORR.G/C3   45 356 01 00:   DENSITY CORRECTION
~PARAMETER INFORMATION
#MNEM.UNIT          VALUE    DESCRIPTION
#----------   ------------   ------------------------------
 EKB .F         5019.0000:   Kelly bushing
 EGL .F         5009.0000:   Ground level
 EDF .F            0.0000:   Drilling floor
 TD  .F         3050.0000:   Total depth
 DATE.        16-MAY-1977:   Date logged
 CLNT.            A2DTECH:   Client Code
 SL  . 330' FNL & 1650' FEL:   Surface Location
 PD  .                 GL:   Permanent Datum
 DD  .F              3050:   Depth driller
 DL  .F              3079:   Depth logger
 BLI .F              3072:   Bottom log interval
 CS1 .IN            8.625:   Casing size
 CBD1.      8.625" @ 213':   Casing driller 1
 CBL1.F               213:   Casing logger 1
 BS1 .IN            7.875:   Bit size
 DFT .            KCL-MUD:   Type fluid in hole
 DFD .                9.2:   Density
 DFV .                 32:   Viscosity
 DFPH.                  8:   pH
 DFL .                7.6:   Fluid loss
 MSS .              CIRC.:   Source of sample
 RMS .OHMM          0.128:   Rm
 MST .F                62:   Rm Meas. temp.
 RMF .OHMM          0.126:   Rmf
 MFST.F                62:   Rmf Meas. temp.
 RMC .OHMM          0.192:   Rmc
 MCST.F                62:   Rmc Meas. temp.
 MFSS.               MEAS:   Source Rmf.
 RMB .OHMM           0.07:   Rm. at BHT
 BHT .F               112:   BHT.
 TCS .HRS            0900:   Time Circ. stopped
 MRT .F               112:   Maximum recorded temp.
 LUN .               7711:   Logging unit number
 LUL .               CSPR:   Logging unit location
 ENGI.             SAYLER:   Recorded By
 WITN.         PETTINGILL:   Witnessed by
 ORIG.           5" PRINT:   Origin of data
 UWI .     49025103680000:   Unique Well ID
 DICO. A2D TECHNOLOGIES, INC.:   Digitizing Company
 DAPD.                 10:   Feet Above Permanent Datum
 BSD1.               3050:   Depth drilled with bit1
 MCSS.               CALC:   Source Rmc.
 EPD .F              5009:   Elevation Permanent Datum
 LMF .                 KB:   Log Measured From
 DMF .                 KB:   Drilling Measured From
 TLI .F               213:   Top log interval
 TLAB.               1100:   Time logger at bottom
~OTHER INFORMATION
~A   DEPT      SPR        LL8        ILM        ILD       CALD         GRD      RHOB       CORR   
# ...
  570.5000   -79.3950     8.9070     9.0950     9.3260     8.6650   114.4180     2.4730     0.0050
  571.0000   -79.1920     9.0190     9.1570     9.4040     8.6630   113.1180     2.4810     0.0080
  571.5000   -79.0030     9.1230     9.2180     9.4830     8.6620   114.2380     2.4840     0.0030
  572.0000   -78.9020     9.2280     9.2790     9.5620     8.6610   117.8080     2.4730    -0.0040
  572.5000   -78.8080     9.3320     9.3400     9.6410     8.6600   120.6200     2.4640    -0.0090
  573.0000   -78.7160     9.4120     9.4120     9.7190     8.6620   120.5790     2.4550    -0.0100
  573.5000   -78.6230     9.4120     9.3380     9.7650     8.6670   118.9370     2.4520    -0.0060
  574.0000   -78.5300     9.2820     9.2480     9.6900     8.6720   117.6410     2.4620    -0.0020
  574.5000   -78.4370     9.1540     9.1590     9.6170     8.6770   117.9630     2.4700    -0.0040
  575.0000   -78.3440     9.0270     9.0690     9.5440     8.6800   119.8360     2.4780    -0.0080
  575.5000   -78.2510     8.9000     8.9800     9.4710     8.6810   120.4220     2.4810    -0.0080
  576.0000   -78.1580     8.7720     8.9070     9.4120     8.6820   118.6870     2.4820    -0.0070
  576.5000   -78.0640     8.9780     9.1840     9.6080     8.6830   114.0930     2.4880    -0.0030
  577.0000   -77.9740     9.2760     9.5390     9.7740     8.6840   111.5930     2.4870     0.0010
  577.5000   -77.8770     9.5870     9.7650     9.9460     8.6850   111.5240     2.4860     0.0060
  578.0000   -77.7880     9.5590     9.7380     9.9460     8.6860   114.7810     2.4880     0.0100
  578.5000   -77.6090     9.5080     9.7110     9.9150     8.6870   117.5000     2.4890     0.0050
  579.0000   -77.4520     9.4580     9.6830     9.8890     8.6880   118.7440     2.4780    -0.0010
  579.5000   -77.2860     9.4070     9.6550     9.8620     8.6890   116.6640     2.4680     0.0000
  580.0000   -77.1250     9.3570     9.6280     9.8360     8.6900   114.5290     2.4680     0.0010
  580.5000   -76.9620     9.3060     9.6000     9.8100     8.6910   115.3510     2.4690    -0.0020
  581.0000   -76.7990     9.2560     9.4120     9.7650     8.6920   116.6710     2.4720    -0.0050
  581.5000   -76.6370     9.2410     9.5480     9.8110     8.6930   118.4730     2.4820    -0.0010
  582.0000   -76.4740     9.3600     9.7430     9.9640     8.6940   118.9290     2.4860     0.0020
  582.5000   -76.3110     9.6030     9.9370    10.1180     8.6950   117.8990     2.4820     0.0000
  583.0000   -76.1490     9.8460    10.1320    10.2720     8.6960   117.4400     2.4850     0.0060
  583.5000   -75.9860    10.0890    10.3260    10.4260     8.6970   117.3390     2.4880     0.0090
  584.0000   -75.8240    10.3180    10.5100    10.5420     8.6980   117.8430     2.4900     0.0100
  584.5000   -75.6610    10.3180    10.5100    10.6120     8.6990   119.3350     2.4880     0.0110
  585.0000   -75.4980    10.3180    10.5100    10.6830     8.6980   120.2370     2.4820     0.0080
  585.5000   -75.3360    10.3180    10.5100    10.7530     8.6970   120.1900     2.4820     0.0050
  586.0000   -75.1730    10.3180    10.5100    10.8240     8.6950   116.7970     2.4830     0.0050
  586.5000   -75.0100    10.3180    10.6390    10.8940     8.6940   113.7000     2.4810     0.0050
  587.0000   -74.8480    10.3180    10.7660    10.9640     8.6930   113.4050     2.4760     0.0030
  587.5000   -74.6850    10.5100    10.8930    11.0350     8.6920   113.9190     2.4720     0.0010
  588.0000   -74.5220    10.5960    11.0190    11.1060     8.6910   114.5100     2.4740     0.0050
  588.5000   -74.3600    10.7050    11.1460    11.2810     8.6900   114.5840     2.4800     0.0120
  589.0000   -74.1970    10.8130    11.2730    11.4580     8.6890   114.5190     2.4850     0.0120
  589.5000   -74.0340    10.9030    11.3990    11.6340     8.6870   114.4230     2.4900     0.0120
  590.0000   -73.8750    10.9030    11.5260    11.8110     8.6860   113.3970     2.4970     0.0100
  590.5000   -73.7110    10.9030    11.6530    11.9880     8.6850   111.6910     2.5060     0.0070
  591.0000   -73.5420    10.9030    11.7350    12.1750     8.6840   111.0280     2.5120     0.0070
  591.5000   -73.3770    10.9030    11.6800    12.1750     8.6830   111.0500     2.5150     0.0110
  592.0000   -73.2120    11.0460    11.6220    12.0370     8.6820   110.7570     2.5090     0.0150
  592.5000   -73.0470    11.1060    11.5630    11.9160     8.6810   109.9980     2.5010     0.0120
  593.0000   -72.8780    11.0470    11.5050    11.7950     8.6790   109.9950     2.5040     0.0070
  593.5000   -72.7070    10.8610    11.4470    11.7350     8.6790   110.6580     2.5080     0.0020
  594.0000   -72.5360    10.6750    11.3880    11.8050     8.6790   110.8750     2.5130    -0.0020
  594.5000   -72.3650    10.4890    11.3120    11.9050     8.6790   110.0170     2.5090    -0.0050
  595.0000   -72.1940    10.3030    11.3690    12.0050     8.6790   109.1740     2.5040    -0.0080
  595.5000   -72.0240    10.1300    11.5740    12.1050     8.6790   108.3480     2.5000    -0.0080
  596.0000   -71.8530    10.6050    11.7780    12.2040     8.6790   107.8870     2.5030    -0.0090
  596.5000   -71.6820    11.0470    11.9830    12.3040     8.6790   108.9340     2.5010    -0.0090
  597.0000   -71.5110    11.4890    12.1870    12.4040     8.6790   109.8020     2.4840    -0.0060
  597.5000   -71.3400    11.7350    12.3920    12.5040     8.6790   108.6490     2.4680    -0.0110
  598.0000   -71.1700    11.6510    12.6310    12.6030     8.6790   106.9450     2.4600    -0.0090
  598.5000   -70.9990    11.5220    12.6310    12.7030     8.6790   105.2840     2.4680    -0.0030
  599.0000   -70.8280    11.5220    12.6310    12.8030     8.6790   104.0990     2.4800     0.0030
  599.5000   -70.6570    11.5790    12.6310    12.9030     8.6790   104.3030     2.4910     0.0090
  600.0000   -70.4870    11.6500    12.6310    13.0020     8.6790   104.4670     2.5020     0.0150
  600.5000   -70.3160    11.7210    12.6310    13.1040     8.6790   103.6660     2.5140     0.0150
  601.0000   -70.1450    11.7920    12.6310    13.1040     8.6790   102.7640     2.5100     0.0090
  601.5000   -69.9740    11.8630    12.6310    13.1040     8.6790   102.8180     2.5040     0.0040
  602.0000   -69.8040    11.9340    12.6310    13.1040     8.6790   105.3320     2.4970     0.0000
  602.5000   -69.6320    11.9530    12.6310    13.1040     8.6800   108.8450     2.4830    -0.0010
  603.0000   -69.4620    11.9530    12.6310    13.1040     8.6830   110.9110     2.4780    -0.0030
  603.5000   -69.2930    11.9530    12.3120    12.9800     8.6860   110.6450     2.4700    -0.0030
  604.0000   -69.1080    11.8500    12.1840    12.8030     8.6890   108.5430     2.4650     0.0020
  604.5000   -68.9700    11.6350    12.0570    12.6260     8.6930   106.1490     2.4710     0.0060
  605.0000   -68.9180    11.4190    11.9300    12.4490     8.6960   104.7240     2.4800     0.0100
  605.5000   -68.8490    11.2040    11.8030    12.2720     8.6990   104.8840     2.4870     0.0100
  606.0000   -68.7820    10.9030    11.6760    12.0950     8.7020   106.2860     2.4890     0.0100
  606.5000   -68.7180    10.9280    11.5480    11.9530     8.7050   108.3890     2.4860     0.0060
  607.0000   -68.6510    10.9700    11.5220    11.7350     8.7080   110.4450     2.4830     0.0020
  607.5000   -68.5850    11.0110    11.5220    11.7660     8.7110   112.8150     2.4810     0.0000
  608.0000   -68.5190    11.0530    11.5220    11.7980     8.7140   112.0730     2.4830     0.0010
  608.5000   -68.4540    11.0940    11.5220    11.8290     8.7170   110.7910     2.4880     0.0000
  609.0000   -68.3880    11.1060    11.5220    11.8610     8.7200   109.5310     2.4940    -0.0030
  609.5000   -68.3220    11.1060    11.5220    11.8920     8.7230   108.8150     2.4870    -0.0060
  610.0000   -68.2560    11.1060    11.3340    11.9240     8.7270   109.8060     2.4760    -0.0090
  610.5000   -68.1900    11.1060    11.1630    11.9530     8.7300   109.3030     2.4650    -0.0070
