~VERSION INFORMATION
 VERS.                2.0:   CWLS LOG ASCII STANDARD - VERSION 2.0
 WRAP.                 NO:   ONE LINE PER DEPTH STEP
~WELL INFORMATION
#MNEM.UNIT      DATA TYPE    INFORMATION
#----------   ------------   ------------------------------
 STRT.F          545.0000:   START DEPTH
 STOP.F         3193.0000:   STOP DEPTH
 STEP.F            0.5000:   STEP LENGTH
 NULL.          -999.2500:   NO VALUE
 COMP. FENIX & SCISSON-U.S. NAVY:   COMPANY
 WELL.   FENIX "A" #47-34:   WELL
 FLD .          N.P.R. #3:   FIELD
 LOC .      S34 T39N R78W:   LOCATION
 CNTY.            NATRONA:   COUNTY
 STAT.            WYOMING:   STATE
 CTRY. UNITED STATES OF AMERICA:   COUNTRY
 SRVC.       SCHLUMBERGER:   SERVICE COMPANY
 DATE.        26-MAR-1977:   LOGDATE
 API .     49025103260000:   API NUMBER
~CURVE INFORMATION
#MNEM.UNIT       API CODE    CURVE DESCRIPTION
#----------   ------------   ------------------------------
 DEPT.F                  :   
 SPR .MV     07 010 01 00:   SPONTANEOUS POTENTIAL FROM RES.
 ILM .OHMM   07 120 44 00:   INDUCTION LOG MEDIUM RESISTIVITY
 ILD .OHMM   07 120 46 00:   DEEP INDUCTION RESISTIVITY
 LL8 .OHMM   07 220 08 00:   LATEROLOG-8 RES.
 CALD.IN     45 280 60 00:   CALIPER FROM DENSITY LOG
 GRD .GAPI   45 310 01 00:   GAMMA RAY FROM DENSITY LOG
 RHOB.G/C3   45 350 01 00:   BULK DENSITY
 CORR.G/C3   45 356 01 00:   DENSITY CORRECTION
~PARAMETER INFORMATION
#MNEM.UNIT          VALUE    DESCRIPTION
#----------   ------------   ------------------------------
 EKB .F         5144.0000:   Kelly bushing
 EGL .F         5132.0000:   Ground level
 TD  .F         3194.0000:   Total depth
 CLNT.            A2DTECH:   Client Code
 SL  . 2310' FWL & 990' FSL:   Surface Location
 PD  .                 GL:   Permanent Datum
 EPD .F              5132:   Elevation Permanent Datum
 LMF .                 KB:   Log Measured From
 DMF .                 KB:   Drilling Measured From
 DAPD.F                12:   Feet Above Permanent Datum
 DATE.        26-MAR-1977:   Date Logged [DD-MMM-YYYY]
 DD  .F              3188:   Depth driller
 DL  .F              3194:   Depth logger
 BLI .F              3188:   Bottom log interval
 TLI .F               564:   Top log interval
 CS1 .IN            8.625:   Casing size
 CBD1.      8.625" @ 570':   Casing driller 1
 CBL1.F               564:   Casing logger 1
 BS1 .IN            7.875:   Bit size
 BSD1.F              3188:   Depth drilled with bit1
 DFT .                KCL:   Type fluid in hole
 DFD .                9.2:   Density
 DFV .                 30:   Viscosity
 DFL .                9.2:   Fluid loss
 MSS .                PIT:   Source of sample
 RMS .OHMM          0.354:   Rm
 MST .F                70:   Rm Meas. temp.
 RMF .OHMM          0.326:   Rmf
 MFST.F                70:   Rmf Meas. temp.
 MFSS.               MEAS:   Source Rmf.
 RMC .OHMM          0.531:   Rmc
 MCST.F                70:   Rmc Meas. temp.
 MCSS.               CALC:   Source Rmc.
 RMB .OHMM          0.205:   Rm. at BHT
 BHT .F               121:   BHT.
 TLAB.HRS            1900:   Time logger at bottom
 MRT .F               121:   Maximum recorded temp.
 LUN .               5642:   Logging unit number
 LUL .               CSPR:   Logging unit location
 ENGI.             MARTIN:   Recorded By
 WITN.         PETTINGILL:   Witnessed by
 ORIG.           5" PRINT:   Origin of data
 UWI .     49025103260000:   Unique Well ID
 DICO. A2D TECHNOLOGIES, INC.:   Digitizing Company
~OTHER INFORMATION
~A   DEPT      SPR        ILM        ILD        LL8       CALD         GRD      RHOB       CORR   
# ...
 3137.0000   -54.2803     3.9339     3.4701     7.1750     7.8581   139.5096     2.4849     0.0206
 3137.5000   -54.0611     3.9367     3.4827     7.4843     7.8531   141.0244     2.4790     0.0155
 3138.0000   -54.2628     3.9118     3.5006     7.3365     7.8481   141.9432     2.4776     0.0257
 3138.5000   -54.0865     3.9154     3.5035     6.5743     7.8431   141.9677     2.4807     0.0233
 3139.0000   -54.0603     3.9183     3.5067     5.8092     7.8380   139.0116     2.4890     0.0329
 3139.5000   -53.9989     3.9218     3.5098     5.6957     7.8330   134.5652     2.5041     0.0476
 3140.0000   -53.9379     3.9265     3.5135     7.1600     7.8280   133.2485     2.5165     0.0578
 3140.5000   -53.8882     3.9548     3.5203     6.8275     7.8230   135.0675     2.5058     0.0710
 3141.0000   -53.6632     3.9851     3.5456     6.3330     7.8180   134.6450     2.4984     0.0796
 3141.5000   -53.6909     4.0157     3.5716     6.0807     7.8129   134.0672     2.5007     0.0665
 3142.0000   -53.8798     4.0465     3.5995     6.2991     7.8084   134.8431     2.5173     0.0619
 3142.5000   -53.9762     4.0776     3.6526     7.0403     7.8080   136.2089     2.5226     0.0644
 3143.0000   -54.1931     4.1381     3.6581     7.6036     7.8263   135.0412     2.5167     0.0675
 3143.5000   -54.2541     4.1119     3.6851     7.8297     7.8524   131.7870     2.5055     0.0661
 3144.0000   -54.1290     4.0865     3.6883     8.0457     7.8787   133.2809     2.4893     0.0475
 3144.5000   -54.4573     4.0341     3.6159     7.2611     7.8881   136.4622     2.4788     0.0352
 3145.0000   -54.4653     4.0093     3.5934     5.9072     7.8488   133.9532     2.5111     0.0267
 3145.5000   -54.4649     3.9572     3.5480     5.5941     7.8108   131.2952     2.5202     0.0384
 3146.0000   -54.4617     3.9022     3.5023     6.3392     7.7606   132.6610     2.4828     0.0328
 3146.5000   -54.4546     3.8549     3.4813     6.0867     7.7308   133.4246     2.4761     0.0223
 3147.0000   -54.4546     3.8055     3.4845     5.7615     7.7290   132.4120     2.5025     0.0286
 3147.5000   -54.4617     3.8083     3.4876     7.8718     7.7292   131.6914     2.5198     0.0217
 3148.0000   -54.3548     3.7842     3.4907     7.1520     7.7292   132.6760     2.5002     0.0133
 3148.5000   -54.1821     3.7876     3.5184     6.2776     7.7292   134.1250     2.4810     0.0188
 3149.0000   -54.3084     3.7643     3.5217     6.1524     7.7292   132.9634     2.5073     0.0305
 3149.5000   -54.2794     3.7678     3.5244     6.8303     7.7292   132.3918     2.5179     0.0290
 3150.0000   -54.2562     3.7439     3.5275     6.8433     7.7292   131.5222     2.4798     0.0248
 3150.5000   -54.3883     3.7473     3.5134     6.5181     7.7292   123.7971     2.4746     0.0206
 3151.0000   -54.5146     3.6986     3.5096     6.2507     7.7292   123.3632     2.5159     0.0176
 3151.5000   -54.7903     3.6751     3.4844     5.9278     7.7292   125.6769     2.4948     0.0278
 3152.0000   -55.0613     3.6280     3.4673     5.6905     7.7292   128.6458     2.4861     0.0365
 3152.5000   -55.0371     3.6037     3.4464     5.7752     7.7292   128.7202     2.5049     0.0404
 3153.0000   -54.7145     3.5835     3.4257     5.8600     7.7292   127.3810     2.4946     0.0390
 3153.5000   -54.3870     3.5614     3.3592     5.5112     7.7292   124.5536     2.4856     0.0360
 3154.0000   -54.3638     3.5647     3.3390     5.7886     7.7292   122.7679     2.4842     0.0345
 3154.5000   -54.0416     3.5673     3.3426     6.2934     7.7292   125.0000     2.4941     0.0339
 3155.0000   -53.7195     3.5699     3.3455     5.8238     7.7292   127.8274     2.4904     0.0299
 3155.5000   -53.3973     3.5973     3.3716     5.4159     7.7292   129.0179     2.4837     0.0240
 3156.0000   -53.0752     3.6000     3.3742     5.2362     7.7292   130.0595     2.4846     0.0256
 3156.5000   -52.7530     3.6282     3.3774     5.2031     7.7292   128.8690     2.4952     0.0319
 3157.0000   -52.2810     3.6560     3.4038     5.5804     7.7292   125.2976     2.5073     0.0413
 3157.5000   -51.8039     3.7096     3.4541     6.5912     7.7292   120.9821     2.5081     0.0469
 3158.0000   -51.3323     3.7123     3.5058     7.8390     7.7292   119.9405     2.4887     0.0485
 3158.5000   -50.9491     3.8192     3.6071     7.1685     7.7292   120.3869     2.4671     0.0424
 3159.0000   -50.3890     3.8494     3.6857     6.7915     7.7292   121.1310     2.4859     0.0448
 3159.5000   -49.7679     3.9327     3.7660     7.1346     7.7292   122.3214     2.4758     0.0347
 3160.0000   -49.2963     4.0458     3.7566     7.8647     7.7292   123.5119     2.4531     0.0283
 3160.5000   -48.8247     4.0147     3.7015     8.6099     7.7292   120.5357     2.4514     0.0242
 3161.0000   -48.4950     3.9775     3.6465     8.1535     7.7292   117.4107     2.4560     0.0362
 3161.5000   -48.0046     3.9380     3.5879     6.5876     7.7292   116.3690     2.4696     0.0523
 3162.0000   -47.4040     3.8865     3.5667     5.7821     7.7292   115.9226     2.4802     0.0757
 3162.5000   -46.6334     3.8093     3.5215     5.1784     7.7293   116.2328     2.4826     0.0921
 3163.0000   -46.0123     3.6538     3.4977     4.8282     7.7288   117.8571     2.4609     0.0836
 3163.5000   -45.3912     3.6093     3.4325     4.6475     7.7507   118.7500     2.4386     0.0551
 3164.0000   -45.2185     3.6123     3.4079     4.5549     7.7783   116.5179     2.4342     0.0319
 3164.5000   -45.4943     3.6147     3.3689     4.9531     7.8072   115.6250     2.4383     0.0258
 3165.0000   -45.9241     3.5917     3.3497     5.7303     7.8087   118.3036     2.4507     0.0212
 3165.5000   -46.5167     3.5947     3.3533     6.6754     7.8082   125.7440     2.4675     0.0269
 3166.0000   -47.2184     3.5971     3.3567     6.0233     7.7075   128.1250     2.4789     0.0385
 3166.5000   -47.7931     3.5747     3.3601     5.4726     7.6462   129.3155     2.4887     0.0464
 3167.0000   -48.2125     3.5524     3.3635     5.8290     7.6496   128.8580     2.4903     0.0410
 3167.5000   -48.3446     3.5554     3.3444     5.3327     7.6563   127.5298     2.4717     0.0419
 3168.0000   -48.7640     3.5578     3.3305     5.1547     7.7728   127.3810     2.4710     0.0474
 3168.5000   -49.3387     3.5113     3.2825     5.0530     7.7701   128.4226     2.5012     0.0491
 3169.0000   -49.7668     3.4649     3.2725     5.3083     7.7664   129.6131     2.5031     0.0391
 3169.5000   -50.0397     3.4438     3.2440     6.0990     7.7600   130.6548     2.4804     0.0221
 3170.0000   -50.4649     3.3755     3.2249     5.3533     7.7536   131.6964     2.4693     0.0114
 3170.5000   -50.5912     3.3777     3.2062     5.0346     7.7472   132.4405     2.4664     0.0277
 3171.0000   -50.8612     3.3107     3.2025     5.3997     7.7408   132.5961     2.5012     0.0380
 3171.5000   -50.9932     3.2901     3.1906     5.4039     7.7344   131.6773     2.5071     0.0311
 3172.0000   -51.1137     3.2696     3.1720     5.1174     7.7281   130.9267     2.4495     0.0296
 3172.5000   -51.0905     3.2274     3.1753     5.0501     7.7217  -999.2500     2.4871     0.0445
 3173.0000   -51.5166     3.2068     3.1567     5.1965     7.7153  -999.2500     2.4939     0.0476
 3173.5000   -51.7915     3.2095     3.1380     5.2413     7.7089  -999.2500     2.4888     0.0323
 3174.0000   -51.9178     3.1458     3.1420     4.8573     7.7025  -999.2500     2.4679     0.0215
 3174.5000   -52.0440     3.1052     3.0809     4.6638     7.6961  -999.2500     2.4381     0.0138
 3175.0000   -52.0150     3.0641     3.0418     4.9334     7.6899  -999.2500     2.4562     0.0176
 3175.5000   -51.9918     3.0450     2.9773     5.1460     7.6897  -999.2500     2.5005     0.0327
 3176.0000   -51.9686     2.9851     2.9243     5.2568     7.6897  -999.2500     2.5096     0.0359
 3176.5000   -52.2444     2.9461     2.8871     5.0833     7.6897  -999.2500     2.4757     0.0290
 3177.0000   -52.2212     2.8876     2.8307     4.8807     7.6897  -999.2500     2.4852     0.0260
