~VERSION INFORMATION
 VERS.                2.0:   CWLS LOG ASCII STANDARD - VERSION 2.0
 WRAP.                 NO:   ONE LINE PER DEPTH STEP
~WELL INFORMATION
#MNEM.UNIT      DATA TYPE    INFORMATION
#----------   ------------   ------------------------------
 STRT.F           44.0000:   START DEPTH
 STOP.F         6166.0000:   STOP DEPTH
 STEP.F            0.5000:   STEP LENGTH
 NULL.          -999.2500:   NO VALUE
 COMP.   TESORO PETROLEUM:   COMPANY
 WELL. TESORO 11X NPR #3-23:   WELL
 FLD .             TEAPOT:   FIELD
 LOC .      S23 T38N R78W:   LOCATION
 CNTY.            NATRONA:   COUNTY
 STAT.            WYOMING:   STATE
 CTRY. UNITED STATES OF AMERICA:   COUNTRY
 SRVC.       SCHLUMBERGER:   SERVICE COMPANY
 DATE.        29-OCT-1968:   LOGDATE
 API .     49025100170000:   API NUMBER
~CURVE INFORMATION
#MNEM.UNIT       API CODE    CURVE DESCRIPTION
#----------   ------------   ------------------------------
 DEPT.F                  :   
 SN  .OHMM   05 040 18 00:   SHORT NORMAL 18"
 RES .OHMM   05 000 00 00:   RESISTIVITY
 ILD .OHMM   05 120 46 00:   INDUCTION LOG DEEP RESISTIVITY
 SPR .MV     05 010 01 00:   SPONTANEOUS POTENTIAL FROM RES.
~PARAMETER INFORMATION
#MNEM.UNIT          VALUE    DESCRIPTION
#----------   ------------   ------------------------------
 EKB .F         5283.0000:   Kelly bushing
 EGL .F         5272.0000:   Ground level
 EDF .F            0.0000:   Drilling floor
 TD  .F         6171.0000:   Total depth
 CLNT.            A2DTECH:   Client Code
 SL  . 380' FNL & 380' FWL:   Surface Location
 PD  .                 GL:   Permanent Datum
 EPD .F              5272:   Elevation Permanent Datum
 LMF .                 KB:   Log Measured From
 DMF .                 KB:   Drilling Measured From
 DAPD.F                11:   Feet Above Permanent Datum
 DATE.        29-OCT-1968:   Date Logged [DD-MMM-YYYY]
 DD  .F              6171:   Depth driller
 DL  .F              6167:   Depth logger
 BLI .F              6166:   Bottom log interval
 TLI .F               975:   Top log interval
 CS1 .IN            10.75:   Casing size
 CBD1.      10.75" @ 975':   Casing driller 1
 CBL1.F               975:   Casing logger 1
 BS1 .IN            9.125:   Bit size
 BSD1.F              6171:   Depth drilled with bit1
 DFT .           GEL-CHEM:   Type fluid in hole
 DFD .                9.6:   Density
 DFV .                 61:   Viscosity
 DFPH.                 10:   pH
 DFL .                6.8:   Fluid loss
 MSS .           FLOWLINE:   Source of sample
 RMS .OHMM           0.89:   Rm
 MST .F                80:   Rm Meas. temp.
 RMF .OHMM           0.60:   Rmf
 MFST.F                80:   Rmf Meas. temp.
 MFSS.               MEAS:   Source Rmf.
 RMB .OHMM           0.45:   Rm. at BHT
 BHT .F               160:   BHT.
 TCS .HRS               4:   Time Circ. stopped
 MRT .F               160:   Maximum recorded temp.
 LUN .               7041:   Logging unit number
 LUL .               CSPR:   Logging unit location
 ENGI.            MANGOLD:   Recorded By
 WITN.                MAY:   Witnessed by
 ORIG.         2.5" PRINT:   Origin of data
 UWI .     49025100170000:   Unique Well ID
 DICO. A2D TECHNIOLOGIES,INC.:   Digitizing Company
~OTHER INFORMATION
~A  DEPTH       SN        RES        ILD        SPR
# ...
 3694.0000     6.6667  -999.2500     6.3830   -45.7994
 3694.5000     6.6667  -999.2500     6.3830   -45.8351
 3695.0000     6.6667  -999.2500     6.3830   -45.8692
 3695.5000     6.5983  -999.2500     6.3830   -45.9032
 3696.0000     6.5152  -999.2500     6.3830   -45.9376
 3696.5000     6.3636  -999.2500     6.3830   -45.9724
 3697.0000     6.3636  -999.2500     6.3830   -46.0063
 3697.5000     6.3636  -999.2500     6.4615   -46.0398
 3698.0000     6.3636  -999.2500     6.6869   -46.0773
 3698.5000     6.3636  -999.2500     6.6869   -46.1068
 3699.0000     6.4238  -999.2500     6.6869   -46.1282
 3699.5000     6.6667  -999.2500     6.6869   -45.9709
 3700.0000     6.5152  -999.2500     6.5350   -45.8304
 3700.5000     6.0606  -999.2500     6.2164   -45.6801
 3701.0000     5.4545  -999.2500     5.7397   -45.5325
 3701.5000     5.1406  -999.2500     5.3564   -45.3859
 3702.0000     4.8157  -999.2500     4.9731   -45.2364
 3702.5000     4.4770  -999.2500     4.5746   -45.0900
 3703.0000     4.1382  -999.2500     4.1166   -44.9438
 3703.5000     3.7994  -999.2500     3.7979   -44.7899
 3704.0000     3.4606  -999.2500     3.5907   -44.6530
 3704.5000     3.0719  -999.2500     3.3703   -44.5407
 3705.0000     3.0761  -999.2500     3.3739   -44.9042
 3705.5000     3.0803  -999.2500     3.3775   -45.2247
 3706.0000     2.9131  -999.2500     3.3803   -45.6379
 3706.5000     2.7858  -999.2500     3.3832   -45.9640
 3707.0000     2.7909  -999.2500     3.0821   -45.9843
 3707.5000     2.4933  -999.2500     3.0600   -45.3073
 3708.0000     2.4975  -999.2500     2.7839   -45.0042
 3708.5000     2.5018  -999.2500     2.7391   -44.7869
 3709.0000     2.3545  -999.2500     2.4863   -43.9965
 3709.5000     2.3313  -999.2500     2.4057   -44.1434
 3710.0000     2.2114  -999.2500     2.1884   -44.1074
 3710.5000     2.2167  -999.2500     2.1918   -44.0723
 3711.0000     2.2220  -999.2500     2.1947   -44.0535
 3711.5000     2.2262  -999.2500     2.0456   -44.0118
 3712.0000     2.0789  -999.2500     2.0486   -43.9785
 3712.5000     2.0833  -999.2500     2.0517   -43.9451
 3713.0000     2.0879  -999.2500     2.2067   -43.9106
 3713.5000     2.0924  -999.2500     2.2097   -43.8761
 3714.0000     2.0970  -999.2500     2.2133   -43.8416
 3714.5000     2.1022  -999.2500     2.3682   -43.8071
 3715.0000     2.1064  -999.2500     2.5230   -43.7726
 3715.5000     2.2622  -999.2500     2.6779   -43.7381
 3716.0000     2.4384  -999.2500     2.8328   -43.7036
 3716.5000     2.6172  -999.2500     3.1398   -43.6692
 3717.0000     2.8818  -999.2500     3.3404   -43.6347
 3717.5000     3.1903  -999.2500     3.5765   -43.6002
 3718.0000     3.4975  -999.2500     3.8379   -43.5657
 3718.5000     3.8048  -999.2500     4.2163   -43.5312
 3719.0000     4.1954  -999.2500     4.3712   -43.4967
 3719.5000     4.4197  -999.2500     4.6780   -43.4620
 3720.0000     4.7778  -999.2500     4.9848   -43.4276
 3720.5000     5.0348  -999.2500     5.3096   -43.3932
 3721.0000     5.3432  -999.2500     5.5988   -43.3577
 3721.5000     5.4989  -999.2500     5.6018   -43.3246
 3722.0000     5.6547  -999.2500     5.6049   -43.2955
 3722.5000     5.8232  -999.2500     5.6085   -43.3286
 3723.0000     5.9667  -999.2500     5.6114   -43.3591
 3723.5000     6.2742  -999.2500     5.6142   -43.3925
 3724.0000     6.3596  -999.2500     5.4650   -43.4249
 3724.5000     6.5870  -999.2500     5.3160   -43.4571
 3725.0000     6.5913  -999.2500     5.3191   -43.4898
 3725.5000     6.5955  -999.2500     5.1698   -43.5223
 3726.0000     6.6000  -999.2500     5.0207   -43.5547
 3726.5000     6.6045  -999.2500     5.1763   -43.5877
 3727.0000     6.5367  -999.2500     5.3318   -43.6194
 3727.5000     6.4621  -999.2500     5.3347   -43.6517
 3728.0000     6.4667  -999.2500     5.3376   -43.6879
 3728.5000     6.4712  -999.2500     5.3404   -43.6759
 3729.0000     6.4757  -999.2500     5.3435   -43.6210
 3729.5000     6.3284  -999.2500     5.3465   -43.5701
 3730.0000     6.3333  -999.2500     5.3495   -43.5199
 3730.5000     6.3379  -999.2500     5.3526   -43.4684
 3731.0000     6.3432  -999.2500     5.3556   -43.4175
 3731.5000     6.1959  -999.2500     5.2067   -43.3666
 3732.0000     6.0485  -999.2500     5.0578   -43.3155
 3732.5000     6.0405  -999.2500     5.0609   -43.2646
 3733.0000     5.7541  -999.2500     4.7598   -43.2142
 3733.5000     5.7591  -999.2500     4.7173   -43.1622
 3734.0000     5.4606  -999.2500     4.4616   -43.1134
 3734.5000     5.1628  -999.2500     4.2548   -43.0601
 3735.0000     5.1670  -999.2500     4.1641   -43.0081
 3735.5000     4.8682  -999.2500     4.1677   -42.9690
 3736.0000     4.8525  -999.2500     4.1706   -42.8930
 3736.5000     4.7252  -999.2500     4.1735   -42.8439
 3737.0000     4.7960  -999.2500     4.1763   -42.3847
 3737.5000     4.8872  -999.2500     4.4833   -42.7439
 3738.0000     4.8909  -999.2500     4.4863   -42.4684
 3738.5000     5.0292  -999.2500     4.5855   -42.4634
 3739.0000     5.2030  -999.2500     4.7964   -42.3460
 3739.5000     5.2673  -999.2500     4.7994   -41.7185
 3740.0000     5.3889  -999.2500     5.1069   -42.4968
 3740.5000     5.5563  -999.2500     5.1097   -42.2083
 3741.0000     5.7237  -999.2500     5.2646   -42.0803
 3741.5000     5.8323  -999.2500     5.4195   -41.9644
 3742.0000     5.8909  -999.2500     5.4225   -41.7994
 3742.5000     6.1439  -999.2500     5.4255   -41.6640
 3743.0000     6.1838  -999.2500     5.4286   -41.5226
 3743.5000     6.4561  -999.2500     5.4316   -41.3723
 3744.0000     6.4606  -999.2500     5.7392   -41.2444
 3744.5000     6.6173  -999.2500     5.7420   -41.0894
 3745.0000     6.7731  -999.2500     5.8969   -40.9116
 3745.5000     6.7773  -999.2500     6.0517   -41.2061
 3746.0000     6.7818  -999.2500     6.0547   -41.7130
 3746.5000     6.9373  -999.2500     6.0578   -41.6616
 3747.0000     6.7909  -999.2500     6.0608   -41.6596
 3747.5000     6.4933  -999.2500     6.0005   -41.6732
 3748.0000     6.4975  -999.2500     5.7629   -41.6653
 3748.5000     6.0472  -999.2500     5.4625   -41.6671
 3749.0000     5.8898  -999.2500     5.1614   -41.6684
 3749.5000     5.5471  -999.2500     4.8604   -41.6665
 3750.0000     5.1662  -999.2500     4.5593   -41.6663
 3750.5000     4.8874  -999.2500     4.2582   -41.6346
 3751.0000     4.5714  -999.2500     4.2614   -41.5939
 3751.5000     4.1226  -999.2500     4.0593   -41.5530
 3752.0000     3.9757  -999.2500     3.9635   -41.5126
 3752.5000     3.9821  -999.2500     3.9672   -41.4720
 3753.0000     3.9879  -999.2500     3.8176   -41.4314
 3753.5000     3.9939  -999.2500     3.6687   -41.3908
 3754.0000     4.0000  -999.2500     3.6718   -41.3502
 3754.5000     4.0061  -999.2500     3.6748   -41.3097
 3755.0000     4.0122  -999.2500     3.6778   -41.2691
 3755.5000     3.9413  -999.2500     3.6809   -41.2286
 3756.0000     3.8723  -999.2500     3.6839   -41.1880
 3756.5000     3.7273  -999.2500     3.8022   -41.1475
 3757.0000     3.7330  -999.2500     3.9944   -41.1070
 3757.5000     3.7388  -999.2500     3.9973   -41.0664
 3758.0000     3.8967  -999.2500     4.0000   -41.0259
 3758.5000     4.0547  -999.2500     4.0031   -40.9853
 3759.0000     4.2128  -999.2500     4.2417   -40.9448
 3759.5000     4.5775  -999.2500     4.3131   -40.9042
 3760.0000     4.7518  -999.2500     4.5187   -40.8637
 3760.5000     5.1429  -999.2500     4.6231   -40.8231
 3761.0000     5.1499  -999.2500     4.6261   -40.7826
 3761.5000     5.1556  -999.2500     4.6296   -40.7420
 3762.0000     5.0094  -999.2500     4.6325   -40.7014
 3762.5000     4.8632  -999.2500     4.7874   -40.6608
 3763.0000     4.8530  -999.2500     4.7903   -40.6203
 3763.5000     4.7228  -999.2500     4.7933   -40.5795
 3764.0000     4.7295  -999.2500     4.6440   -40.5388
 3764.5000     4.7356  -999.2500     4.6474   -40.4990
 3765.0000     4.7416  -999.2500     4.6505   -40.4578
 3765.5000     4.7488  -999.2500     4.6540   -40.4673
 3766.0000     4.7545  -999.2500     4.6569   -40.4980
 3766.5000     4.7603  -999.2500     4.6598   -40.5282
