~VERSION INFORMATION
 VERS.                2.0:   CWLS LOG ASCII STANDARD - VERSION 2.0
 WRAP.                 NO:   ONE LINE PER DEPTH STEP
~WELL INFORMATION
#MNEM.UNIT      DATA TYPE    INFORMATION
#----------   ------------   ------------------------------
 STRT.F           50.0000:   START DEPTH
 STOP.F         2832.5000:   STOP DEPTH
 STEP.F            0.5000:   STEP LENGTH
 NULL.          -999.2500:   NO VALUE
 COMP.    FENIX & SCISSON:   COMPANY
 WELL. FENIX NPR 3 "AX" #87-20:   WELL
 FLD .              N P R:   FIELD
 LOC .      S20 T39N R78W:   LOCATION
 CNTY.            NATRONA:   COUNTY
 STAT.            WYOMING:   STATE
 CTRY. UNITED STATES OF AMERICA:   COUNTRY
 SRVC.           BIRDWELL:   SERVICE COMPANY
 DATE.        01-AUG-1978:   LOGDATE
 API .     49025106780000:   API NUMBER
~CURVE INFORMATION
#MNEM.UNIT       API CODE    CURVE DESCRIPTION
#----------   ------------   ------------------------------
 DEPT.F                  :   
 CALD.IN     45 280 60 00:   CALIPER FROM DENSITY LOG
 CORR.G/C3   45 356 01 00:   DENSITY CORRECTION
 GRD .GAPI   45 310 01 00:   GAMMA RAY FROM DENSITY LOG
 RHOB.G/C3   45 350 01 00:   BULK DENSITY
 SPR .MV     05 010 01 00:   SPONTANEOUS POTENTIAL
 ILD .OHMM   05 120 46 00:   DEEP INDUCTION RESISTIVITY
 SN  .OHMM   05 040 00 00:   SHORT NORMAL
~PARAMETER INFORMATION
#MNEM.UNIT          VALUE    DESCRIPTION
#----------   ------------   ------------------------------
 EKB .F         5007.0000:   Kelly bushing
 EGL .F         4997.0000:   Ground level
 EDF .F            0.0000:   Drilling floor
 EPD .F            0.0000:   Permanent datum
 TD  .F         2832.0000:   Total depth
 DATE.        01-AUG-1978:   Date logged
 CLNT.            A2DTECH:   Client Code
 SL  . 940' FSL & 200' FEL:   Surface Location
 PD  .                 GL:   Permanent Datum
 DD  .F              2825:   Depth driller
 DL  .F              2832:   Depth logger
 BLI .F              2826:   Bottom log interval
 CS1 .IN            8.625:   Casing size
 CBD1.      8.625" @ 140':   Casing driller 1
 CBL1.F               240:   Casing logger 1
 BS1 .IN            7.875:   Bit size
 DFT .            KCL/GEL:   Type fluid in hole
 DFD .                  9:   Density
 DFV .                 34:   Viscosity
 DFL .                  8:   Fluid loss
 MSS .           FLOWLINE:   Source of sample
 RMS .OHMM            1.5:   Rm
 MST .F                70:   Rm Meas. temp.
 RMF .OHMM            .70:   Rmf
 MFST.F                72:   Rmf Meas. temp.
 RMC .OHMM            2.2:   Rmc
 MCST.F                75:   Rmc Meas. temp.
 MFSS.               MEAS:   Source Rmf.
 TCS .HRS               6:   Time Circ. stopped
 LUN .               3007:   Logging unit number
 LUL .               CASP:   Logging unit location
 ENGI.            POINTER:   Recorded By
 WITN.              AMEND:   Witnessed by
 ORIG.           5" PRINT:   Origin of data
 UWI .     49025106780000:   Unique Well ID
 DICO. A2D TECHNOLOGIES, INC.:   Digitizing Company
 DAPD.                 10:   Feet Above Permanent Datum
 BSD1.F              2825:   Depth drilled with bit1
 LMF .                 KB:   Log Measured From
 DMF .                 KB:   Drilling Measured From
 TLI .F               140:   Top log interval
~OTHER INFORMATION
~A   DEPT     CALD       CORR         GRD      RHOB        SPR        ILD         SN   
# ...
 1915.5000     8.6590     0.1430   102.9980     2.4860   -25.3780     5.1190     5.2310
 1916.0000     8.6930     0.1610   105.4420     2.4860   -25.4430     5.1190     5.2130
 1916.5000     8.6540     0.1680   107.4010     2.5160   -25.4250     5.1190     5.8090
 1917.0000     8.6000     0.1660   104.4550     2.5330   -25.4060     5.1190     6.5410
 1917.5000     8.5580     0.1650   100.3170     2.5350   -25.3880     5.5150     6.8020
 1918.0000     8.5630     0.1640    97.1830     2.5280   -25.3700     5.8940     6.8200
 1918.5000     8.5690     0.1640    97.2780     2.5170   -25.3520     6.2740     6.8390
 1919.0000     8.5740     0.1640    94.6980     2.5300   -25.3330     6.6130     6.8590
 1919.5000     8.5640     0.1640    92.9630     2.5330   -25.3150     6.7080     6.9290
 1920.0000     8.5950     0.1600    94.5760     2.5370   -25.2970     6.8130     7.1470
 1920.5000     8.5850     0.1520    96.4570     2.5460   -25.2790     6.9220     7.2460
 1921.0000     8.5200     0.1420   101.7420     2.5470   -25.2600     6.8980     7.2120
 1921.5000     8.5050     0.1360   106.9500     2.5480   -25.2290     6.8660     7.1860
 1922.0000     8.5090     0.1330   105.8700     2.5550   -25.1600     6.8340     7.1600
 1922.5000     8.5150     0.1250   108.1040     2.5810   -25.0950     6.8030     7.1350
 1923.0000     8.5140     0.1070   111.0530     2.5990   -25.0770     6.7260     7.1150
 1923.5000     8.6630     0.0900   104.1550     2.6000   -25.1780     6.5610     7.1300
 1924.0000     8.6000     0.0730   100.0750     2.5810   -25.2730     6.3750     7.1440
 1924.5000     8.5990     0.0670   101.6610     2.5600   -25.3690     6.3820     7.1590
 1925.0000     8.5990     0.0640   103.1460     2.5550   -25.4910     6.3970     7.1730
 1925.5000     8.5990     0.0610   102.1250     2.5440   -25.7220     6.4120     7.2740
 1926.0000     8.5990     0.0630   103.3830     2.5330   -25.9570     6.4270     7.6550
 1926.5000     8.5990     0.0690    96.4470     2.5170   -26.0470     6.5250     7.6060
 1927.0000     8.5990     0.0790    95.8290     2.5170   -26.0670     6.6180     7.5400
 1927.5000     8.5990     0.0850    92.5160     2.5200   -26.0850     6.7100     7.4730
 1928.0000     8.5940     0.0830    95.1280     2.5450   -26.1040     6.8030     7.4070
 1928.5000     8.7320     0.0790    96.5780     2.5560   -26.1220     6.8960     7.3800
 1929.0000     8.6990     0.0750    98.7480     2.5570   -26.1410     6.9860     7.5410
 1929.5000     8.6680     0.0730   102.6080     2.5530   -26.1590     6.9570     7.7250
 1930.0000     8.6530     0.0710   109.0840     2.5410   -26.1780     6.9220     7.6640
 1930.5000     8.6410     0.0710   115.7800     2.5280   -26.1970     6.7810     7.5290
 1931.0000     8.6290     0.0710   117.4180     2.5230   -26.2150     6.6180     7.3940
 1931.5000     8.6150     0.0720   117.7050     2.5170   -26.2300     6.4550     7.0870
 1932.0000     8.5860     0.0890   116.6310     2.5170   -26.4380     6.2620     6.7590
 1932.5000     8.5940     0.1060   119.7570     2.5380   -26.1980     6.0410     6.4310
 1933.0000     8.6420     0.1030   113.5110     2.5580   -25.9080     5.8210     6.1020
 1933.5000     8.6900     0.0960   107.0080     2.5720   -25.6180     5.5070     5.7650
 1934.0000     8.7380     0.0990   105.7370     2.5260   -25.8150     5.5570     5.7650
 1934.5000     8.7570     0.1160   106.2110     2.5220   -26.4570     5.6610     5.8940
 1935.0000     8.7570     0.1270   107.1610     2.5340   -26.4970     5.6510     6.0570
 1935.5000     8.7560     0.1220   108.2040     2.5540   -26.5570     5.6340     6.2210
 1936.0000     8.7040     0.1210   110.7640     2.5390   -26.6190     5.6180     6.3750
 1936.5000     9.0360     0.1260   110.1130     2.5350   -26.6330     5.6090     6.3500
 1937.0000     8.6420     0.1220   109.4580     2.5500   -26.6340     5.7210     6.3110
 1937.5000     8.6850     0.1180   110.5910     2.5430   -26.6340     5.8180     6.2720
 1938.0000     8.6850     0.1140   117.5240     2.5440   -26.6330     5.7430     6.2340
 1938.5000     8.6890     0.1320   115.5840     2.5370   -26.6310     5.6090     6.1950
 1939.0000     8.6940     0.1400   112.4300     2.5550   -26.6440     5.6270     6.1460
 1939.5000     8.7030     0.1240   119.8080     2.5800   -27.0600     5.6500     6.2100
 1940.0000     8.7370     0.1120   125.0230     2.5490   -27.2640     5.7240     6.3250
 1940.5000     8.6890     0.1070   135.2510     2.5230   -27.3290     5.9260     6.4400
 1941.0000     8.5630     0.1100   130.0940     2.5150   -27.3920     5.9080     6.5550
 1941.5000     8.9300     0.1180   125.5440     2.5140   -27.4500     5.8650     6.7350
 1942.0000     8.7460     0.1260   117.2620     2.5300   -27.5510     5.8210     6.6530
 1942.5000     8.6300     0.1310   118.5810     2.5400   -27.5920     5.7780     6.4660
 1943.0000     8.6580     0.1330   115.9920     2.5450   -27.4550     5.7340     6.2800
 1943.5000     8.6760     0.1350   115.5060     2.5580   -27.3240     5.6910     6.0930
 1944.0000     8.6680     0.1360   119.3150     2.5740   -27.1950     5.6460     5.9260
 1944.5000     8.6590     0.1320   121.2960     2.5810   -27.0640     5.5040     5.9180
 1945.0000     8.6760     0.1350   121.7510     2.5500   -27.3490     5.3620     5.9090
 1945.5000     8.7020     0.1440   117.7080     2.5510   -27.8440     5.2130     5.9010
 1946.0000     8.9400     0.1430   113.6470     2.5760   -28.0300     5.2470     5.8920
 1946.5000     8.6770     0.1360   110.4600     2.5960   -28.2420     5.2820     5.8830
 1947.0000     8.6980     0.1290   107.7180     2.5950   -28.4320     5.3170     5.8750
 1947.5000     8.7350     0.1270   115.2500     2.5760   -28.7780     5.3580     5.7550
 1948.0000     8.7710     0.1260   117.3020     2.5760   -29.1370     5.3240     5.4570
 1948.5000     8.7710     0.1250   112.1830     2.5640   -29.4150     5.2700     5.4830
 1949.0000     8.7590     0.1240   107.9130     2.5590   -29.4320     5.2160     5.5400
 1949.5000     8.7450     0.1230   110.4390     2.5550   -29.4560     5.1660     5.5980
 1950.0000     8.7220     0.1230   113.0180     2.5520   -29.4810     5.1700     5.6610
 1950.5000     8.7390     0.1240   109.4480     2.5230   -29.5060     5.1800     5.6610
 1951.0000     8.7690     0.1270   117.3130     2.5080   -29.5300     5.1890     5.6340
 1951.5000     8.8440     0.1670   122.6480     2.4980   -29.5550     5.1980     5.6090
 1952.0000     8.9370     0.1740   124.3930     2.5290   -29.5800     5.2080     5.4790
 1952.5000     8.7100     0.1690   135.8250     2.5510   -29.6030     5.2130     5.3770
 1953.0000     8.6960     0.1630   146.9990     2.5460   -29.5720     5.1880     5.2610
 1953.5000     8.6980     0.1580   147.8580     2.5440   -29.5390     5.1670     5.3050
 1954.0000     8.7210     0.1510   137.6370     2.5440   -29.5060     5.1460     5.3400
 1954.5000     8.7700     0.1450   136.5030     2.5280   -29.4740     5.1250     5.3580
 1955.0000     8.6360     0.1460   146.0770     2.5230   -29.4410     5.0270     5.3580
 1955.5000     8.7500     0.1520   145.8760     2.5170   -29.3970     4.8900     5.3580
 1956.0000     8.6610     0.1610   148.5980     2.5150   -29.7750     4.8900     5.3580
 1956.5000     8.7690     0.1660   147.0320     2.5220   -30.0670     4.8900     5.3590
 1957.0000     8.6970     0.1590   150.1580     2.5420   -30.1950     4.8900     5.3590
 1957.5000     8.5960     0.1500   151.1120     2.5450   -30.3240     5.0530     5.3590
 1958.0000     8.6090     0.1580   155.2040     2.5110   -30.4500     5.2540     5.3580
 1958.5000     9.2260     0.1760   143.7350     2.5160   -30.5380     5.4540     5.5920
 1959.0000     8.6330     0.1810   141.1170     2.5230   -31.2170     5.6550     6.0960
 1959.5000     8.4760     0.1640   139.7850     2.5420   -31.3010     5.8550     6.6000
 1960.0000     9.0640     0.1560   140.5560     2.5330   -31.4150     6.0560     7.1040
 1960.5000     8.5220     0.1480   143.2170     2.5310   -31.5360     6.2720     7.7250
