~VERSION INFORMATION
 VERS.                2.0:   CWLS LOG ASCII STANDARD - VERSION 2.0
 WRAP.                 NO:   ONE LINE PER DEPTH STEP
~WELL INFORMATION
#MNEM.UNIT      DATA TYPE    INFORMATION
#----------   ------------   ------------------------------
 STRT.F           89.5000:   START DEPTH
 STOP.F         1300.5000:   STOP DEPTH
 STEP.F            0.5000:   STEP LENGTH
 NULL.          -999.2500:   NO VALUE
 COMP.            US NAVY:   COMPANY
 WELL. US NPR 3 "S" #62-11:   WELL
 FLD .             TEAPOT:   FIELD
 LOC .      S11 T38N R78W:   LOCATION
 CNTY.            NATRONA:   COUNTY
 STAT.            WYOMING:   STATE
 CTRY. UNITED STATES OF AMERICA:   COUNTRY
 SRVC.       SCHLUMBERGER:   SERVICE COMPANY
 DATE.        20-JUL-1964:   LOGDATE
 API .     49025063660000:   API NUMBER
~CURVE INFORMATION
#MNEM.UNIT       API CODE    CURVE DESCRIPTION
#----------   ------------   ------------------------------
 DEPT.F                  :   
 CALS.IN     60 280 50 00:   CALIPER FROM SONIC LOG
 DT  .US/F   60 520 33 00:   DELTA TIME
 SPR .MV     05 010 01 00:   SPONTANEOUS POTENTIAL FROM RES.
 ASN .OHMM   05 041 16 00:   AMPLIFIED SHORT NORMAL 16"
 ILD .OHMM   05 120 46 00:   INDUCTION LOG DEEP
~PARAMETER INFORMATION
#MNEM.UNIT          VALUE    DESCRIPTION
#----------   ------------   ------------------------------
 EKB .F         5223.0000:   Kelly bushing
 EGL .F         5215.0000:   Ground level
 EDF .F            0.0000:   Drilling floor
 TD  .F         1303.0000:   Total depth
 DATE.        20-JUL-1964:   Date logged
 CLNT.            A2DTECH:   Client Code
 PD  .                 GL:   Permanent Datum
 EPD .F              5215:   Elevation Permanent Datum
 LMF .                 KB:   Log Measured From
 DMF .                 KB:   Drilling Measured From
 DAPD.F                 8:   Feet Above Permanent Datum
 DD  .F              1303:   Depth driller
 DL  .F              1300:   Depth logger
 BLI .F              1299:   Bottom log interval
 TLI .F                94:   Top log interval
 CS1 .IN            12.25:   Casing size
 CBD1.       12.25" @ 10':   Casing driller 1
 BS1 .IN               11:   Bit size
 BSD1.F              1303:   Depth drilled with bit1
 DFT .            GEL/OIL:   Type fluid in hole
 DFD .                9.8:   Density
 DFV .                 60:   Viscosity
 DFL .                 10:   Fluid loss
 MSS .           FLOWLINE:   Source of sample
 RMS .OHMM           3.13:   Rm
 MST .F                86:   Rm Meas. temp.
 RMF .OHMM           1.81:   Rmf
 MFST.F                86:   Rmf Meas. temp.
 RMC .OHMM           3.39:   Rmc
 MCST.F                86:   Rmc Meas. temp.
 MFSS.                 FP:   Source Rmf.
 MCSS.                 FP:   Source Rmc.
 TCS .HRS             2.5:   Time Circ. stopped
 LUN .               4507:   Logging unit number
 LUL .               CSPR:   Logging unit location
 ENGI.             DANNER:   Recorded By
 WITN.         JORGENESEN:   Witnessed by
 ORIG.       2", 5" PRINT:   Origin of data
 UWI .     49025063660000:   Unique Well ID
 DICO. A2D TECHNOLOGIES, INC.:   Digitizing Company
~OTHER INFORMATION
~A   DEPT     CALS         DT        SPR        ASN          ILD 
# ...
 1187.5000  -999.2500  -999.2500   -33.5630     9.6620     8.3600
 1188.0000  -999.2500  -999.2500   -33.6310     9.5990     8.3550
 1188.5000  -999.2500  -999.2500   -33.6920     9.6100     8.3500
 1189.0000  -999.2500  -999.2500   -33.7730     9.6480     8.3450
 1189.5000  -999.2500  -999.2500   -33.8130     9.6690     8.3400
 1190.0000  -999.2500  -999.2500   -33.7310     9.6710     8.3340
 1190.5000  -999.2500  -999.2500   -33.6250     9.6650     8.3290
 1191.0000  -999.2500  -999.2500   -33.5460     9.6580     8.3240
 1191.5000  -999.2500  -999.2500   -33.4520     9.6590     8.3180
 1192.0000  -999.2500  -999.2500   -33.3610     9.6480     8.3140
 1192.5000  -999.2500  -999.2500   -33.2760     9.5880     8.3070
 1193.0000  -999.2500  -999.2500   -33.1810     9.5270     8.3020
 1193.5000  -999.2500  -999.2500   -33.0950     9.4700     8.3000
 1194.0000  -999.2500  -999.2500   -33.0650     9.4180     8.2880
 1194.5000  -999.2500  -999.2500   -33.0930     9.4110     8.2930
 1195.0000  -999.2500  -999.2500   -33.1230     9.4170     8.2770
 1195.5000  -999.2500  -999.2500   -33.1480     9.4140     8.1820
 1196.0000  -999.2500  -999.2500   -33.1780     9.3980     8.0820
 1196.5000  -999.2500  -999.2500   -33.2050     9.3600     8.0070
 1197.0000  -999.2500  -999.2500   -33.2340     9.3110     7.9120
 1197.5000  -999.2500  -999.2500   -33.2620     9.2590     7.8310
 1198.0000  -999.2500  -999.2500   -33.2900     9.2150     7.7860
 1198.5000  -999.2500  -999.2500   -33.3180     9.1670     7.7550
 1199.0000  -999.2500  -999.2500   -33.3460     9.1080     7.7340
 1199.5000  -999.2500  -999.2500   -33.3740     9.0620     7.7060
 1200.0000  -999.2500  -999.2500   -33.4030     8.9990     7.6900
 1200.5000  -999.2500  -999.2500   -33.4310     8.9630     7.7100
 1201.0000  -999.2500  -999.2500   -33.4590     9.0140     7.7380
 1201.5000  -999.2500  -999.2500   -33.4870     9.0800     7.7590
 1202.0000  -999.2500  -999.2500   -33.5150     9.1290     7.7860
 1202.5000  -999.2500  -999.2500   -33.5430     9.1880     7.8290
 1203.0000  -999.2500  -999.2500   -33.5710     9.2430     7.8950
 1203.5000  -999.2500  -999.2500   -33.5990     9.2980     7.9660
 1204.0000  -999.2500  -999.2500   -33.6270     9.3550     8.0330
 1204.5000  -999.2500  -999.2500   -33.6560     9.4100     8.1020
 1205.0000  -999.2500  -999.2500   -33.6830     9.4660     8.1720
 1205.5000  -999.2500  -999.2500   -33.7130     9.5220     8.2390
 1206.0000  -999.2500  -999.2500   -33.7400     9.5780     8.2840
 1206.5000  -999.2500  -999.2500   -33.7660     9.6310     8.2840
 1207.0000  -999.2500  -999.2500   -33.8010     9.6910     8.2510
 1207.5000  -999.2500  -999.2500   -33.8140     9.7310     8.2190
 1208.0000  -999.2500  -999.2500   -33.7710     9.7120     8.1860
 1208.5000  -999.2500  -999.2500   -33.6780     9.6550     8.1520
 1209.0000  -999.2500  -999.2500   -33.6490     9.5870     8.1220
 1209.5000  -999.2500  -999.2500   -33.8060     9.5610     8.0820
 1210.0000  -999.2500  -999.2500   -34.0580     9.5950     8.0880
 1210.5000  -999.2500  -999.2500   -34.1920     9.6390     8.1680
 1211.0000  -999.2500  -999.2500   -34.1530     9.6670     8.2510
 1211.5000  -999.2500  -999.2500   -34.0780     9.6740     8.3220
 1212.0000  -999.2500  -999.2500   -34.0330     9.7430     8.4020
 1212.5000  -999.2500  -999.2500   -33.9720     9.8350     8.4750
 1213.0000  -999.2500  -999.2500   -33.9170     9.9420     8.5540
 1213.5000  -999.2500  -999.2500   -33.8640    10.2600     8.6280
 1214.0000  -999.2500  -999.2500   -33.8010    10.4410     8.6800
 1214.5000  -999.2500  -999.2500   -33.7570    10.2960     8.7400
 1215.0000  -999.2500  -999.2500   -33.6840    10.2930     8.8070
 1215.5000  -999.2500  -999.2500   -33.6410    10.4340     8.8960
 1216.0000  -999.2500  -999.2500   -33.7360    10.5620     8.9720
 1216.5000  -999.2500  -999.2500   -33.8870    10.6450     8.9340
 1217.0000  -999.2500  -999.2500   -34.0180    10.5510     8.8390
 1217.5000  -999.2500  -999.2500   -34.1480    10.4250     8.7610
 1218.0000  -999.2500  -999.2500   -34.3000    10.3550     8.6740
 1218.5000  -999.2500  -999.2500   -34.3900    10.2730     8.5890
 1219.0000  -999.2500  -999.2500   -34.3340    10.1530     8.5060
 1219.5000  -999.2500  -999.2500   -34.2500    10.0100     8.4200
 1220.0000  -999.2500  -999.2500   -34.1960     9.9150     8.3590
 1220.5000  -999.2500  -999.2500   -34.1250     9.7790     8.3190
 1221.0000  -999.2500  -999.2500   -34.0590     9.6300     8.2750
 1221.5000  -999.2500  -999.2500   -33.9800     9.6110     8.2320
 1222.0000  -999.2500  -999.2500   -33.8640     9.6100     8.1930
 1222.5000  -999.2500  -999.2500   -33.7500     9.5860     8.1440
 1223.0000  -999.2500  -999.2500   -33.6390     9.5940     8.1120
 1223.5000  -999.2500  -999.2500   -33.5190     9.5670     8.0790
 1224.0000  -999.2500  -999.2500   -33.4400     9.5350     7.9950
 1224.5000  -999.2500  -999.2500   -33.4330     9.5100     7.9010
 1225.0000  -999.2500  -999.2500   -33.4390     9.4500     7.8220
 1225.5000  -999.2500  -999.2500   -33.4350     9.4470     7.7370
 1226.0000  -999.2500  -999.2500   -33.4370     9.3680     7.6490
 1226.5000  -999.2500  -999.2500   -33.4360     9.1230     7.5680
 1227.0000  -999.2500  -999.2500   -33.4360     8.9860     7.4830
 1227.5000  -999.2500  -999.2500   -33.4370     8.9370     7.3930
 1228.0000  -999.2500  -999.2500   -33.4360     8.8350     7.3220
 1228.5000  -999.2500  -999.2500   -33.4380     8.7550     7.2180
 1229.0000  -999.2500  -999.2500   -33.4350     8.6850     7.1040
 1229.5000  -999.2500  -999.2500   -33.4390     8.6090     7.0840
 1230.0000  -999.2500  -999.2500   -33.4350     8.5450     7.0990
 1230.5000  -999.2500  -999.2500   -33.3940     8.4760     7.0920
 1231.0000  -999.2500  -999.2500   -33.3430     8.4050     7.0910
 1231.5000  -999.2500  -999.2500   -33.2970     8.3390     7.0970
 1232.0000  -999.2500  -999.2500   -33.2480     8.3210     7.1210
 1232.5000  -999.2500  -999.2500   -33.2010     8.3480     7.1590
 1233.0000  -999.2500  -999.2500   -33.1530     8.3890     7.1940
 1233.5000  -999.2500  -999.2500   -33.1050     8.4190     7.2220
 1234.0000  -999.2500  -999.2500   -33.0580     8.4180     7.2650
 1234.5000  -999.2500  -999.2500   -33.0070     8.4120     7.2880
 1235.0000  -999.2500  -999.2500   -32.9650     8.3950     7.1910
 1235.5000  -999.2500  -999.2500   -32.9100     8.3820     7.0160
 1236.0000  -999.2500  -999.2500   -32.8630     8.3540     6.8500
 1236.5000  -999.2500  -999.2500   -32.8790     8.2520     6.6800
 1237.0000  -999.2500  -999.2500   -32.9180     8.1450     6.5100
 1237.5000  -999.2500  -999.2500   -32.9430     8.0020     6.3430
 1238.0000  -999.2500  -999.2500   -32.9760     7.7590     6.1700
 1238.5000  -999.2500  -999.2500   -33.0070     7.5060     6.0050
 1239.0000  -999.2500  -999.2500   -33.0340     7.2640     5.8310
 1239.5000  -999.2500  -999.2500   -33.0690     7.0730     5.6670
 1240.0000  -999.2500  -999.2500   -33.0950     6.9750     5.5730
 1240.5000  -999.2500  -999.2500   -33.1260     6.8990     5.5120
 1241.0000  -999.2500  -999.2500   -33.1630     6.8210     5.4440
 1241.5000  -999.2500  -999.2500   -33.1790     6.7400     5.3820
 1242.0000  -999.2500  -999.2500   -33.2320     6.6780     5.3150
 1242.5000  -999.2500  -999.2500   -33.2310     6.6320     5.2500
 1243.0000  -999.2500  -999.2500   -33.0590     6.5040     5.1890
 1243.5000  -999.2500  -999.2500   -32.8650     6.3240     5.1160
 1244.0000  -999.2500  -999.2500   -32.7010     6.1590     5.0650
 1244.5000  -999.2500  -999.2500   -32.5250     5.9720     4.9990
 1245.0000  -999.2500  -999.2500   -32.3470     5.8330     4.9180
 1245.5000  -999.2500  -999.2500   -32.1760     5.7860     4.9150
 1246.0000  -999.2500  -999.2500   -32.1580     5.8160     4.9430
 1246.5000  -999.2500  -999.2500   -32.2960     5.9540     4.9520
 1247.0000  -999.2500  -999.2500   -32.4410     6.1020     4.9690
 1247.5000  -999.2500  -999.2500   -32.5820     6.2150     4.9840
 1248.0000  -999.2500  -999.2500   -32.6280     6.3470     5.0020
