~VERSION INFORMATION
 VERS.                2.0:   CWLS LOG ASCII STANDARD - VERSION 2.0
 WRAP.                 NO:   ONE LINE PER DEPTH STEP
~WELL INFORMATION
#MNEM.UNIT      DATA TYPE    INFORMATION
#----------   ------------   ------------------------------
 STRT.F          204.0000:   START DEPTH
 STOP.F         3104.0000:   STOP DEPTH
 STEP.F            0.5000:   STEP LENGTH
 NULL.          -999.2500:   NO VALUE
 COMP.    FENIX & SCISSON:   COMPANY
 WELL. FENIX NPR 83 "AX" #3-10:   WELL
 FLD .                NPR:   FIELD
 LOC .      S10 T38N R78W:   LOCATION
 CNTY.            NATRONA:   COUNTY
 STAT.            WYOMING:   STATE
 CTRY. UNITED STATES OF AMERICA:   COUNTRY
 SRVC.              WELEX:   SERVICE COMPANY
 DATE.        14-JUL-1977:   LOGDATE
 API .     49025103980000:   API NUMBER
~CURVE INFORMATION
#MNEM.UNIT       API CODE    CURVE DESCRIPTION
#----------   ------------   ------------------------------
 DEPT.F                  :   
 ILD .OHMM   07 120 46 00:   DEEP INDUCTION RESISTIVITY
 GURD.OHMM   07 220 05 00:   GUARD LOG RESISTIVITY
 ILM .OHMM   07 120 44 00:   INDUCTION LOG MEDIUM RESISTIVITY
 SPR .MV     07 010 01 00:   SPONTANEOUS POTENTIAL
 CALD.IN     45 280 60 00:   CALIPER FROM DENSITY LOG
 GRD .GAPI   45 310 01 00:   GAMMA RAY FROM DENSITY LOG
 RHOB.G/C3   45 350 01 00:   BULK DENSITY
 CORR.G/C3   45 356 01 00:   DENSITY CORRECTION
 NPHI.DEC    42 890 03 00:   NEUTRON POROSITY SANDSTONE
~PARAMETER INFORMATION
#MNEM.UNIT          VALUE    DESCRIPTION
#----------   ------------   ------------------------------
 EKB .F         5176.0000:   Kelly bushing
 EGL .F         5166.0000:   Ground level
 TD  .F         3105.0000:   Total depth
 DATE.        14-JUL-1977:   Date logged
 CLNT.            A2DTECH:   Client Code
 SL  . 1650' FNL & 100' FEL:   Surface Location
 PD  .                 GL:   Permanent Datum
 DD  .F              3094:   Depth driller
 DL  .F              3105:   Depth logger
 BLI .F              3103:   Bottom log interval
 CS1 .IN            8.625:   Casing size
 CBD1.      8.625" @ 218':   Casing driller 1
 CBL1.F               220:   Casing logger 1
 BS1 .IN            7.875:   Bit size
 DFT .            KCL/GEL:   Type fluid in hole
 DFD .                9.4:   Density
 DFV .                 36:   Viscosity
 DFPH.                  8:   pH
 DFL .                 12:   Fluid loss
 MSS .           FLOWLINE:   Source of sample
 RMS .OHMM           1.54:   Rm
 MST .F               100:   Rm Meas. temp.
 RMF .OHMM            1.5:   Rmf
 MFST.F               100:   Rmf Meas. temp.
 RMC .OHMM           3.47:   Rmc
 MCST.F               100:   Rmc Meas. temp.
 MFSS.               FANN:   Source Rmf.
 RMB .OHMM           1.36:   Rm. at BHT
 BHT .F               113:   BHT.
 TCS .HRS             2.5:   Time Circ. stopped
 MRT .F               113:   Maximum recorded temp.
 LUN .               8766:   Logging unit number
 LUL .             CASPER:   Logging unit location
 ENGI. G. BENTSEN/T. JOYNER:   Recorded By
 WITN.      B. HARRINGTON:   Witnessed by
 ORIG.           5" PRINT:   Origin of data
 UWI .     49025103980000:   Unique Well ID
 DICO. A2D TECHNOLOGIES, INC.:   Digitizing Company
 DAPD.F                10:   Feet Above Permanent Datum
 BSD1.F              3094:   Depth drilled with bit1
 MCSS.                KIT:   Source Rmc.
 TLI .F               210:   Top log interval
 EPD .F              5166:   Elevation Permanent Datum
 LMF .                 KB:   Log Measured From
 DMF .                 KB:   Drilling Measured From
~OTHER INFORMATION
~A   DEPT      ILD       GURD        ILM        SPR       CALD        GRD       RHOB       CORR       NPHI   
# ...
 1919.5000     7.0100    10.3790     8.4710   -57.2800     9.6130   144.3630     2.4810     0.0490     0.4010
 1920.0000     6.9810    10.3790     8.3120   -57.3310     9.2990   143.5190     2.4750     0.0520     0.4030
 1920.5000     6.9530    10.3590     8.0420   -57.3810     9.1830   142.9020     2.4690     0.0630     0.4060
 1921.0000     6.9250    10.3030     7.6520   -57.4320     9.2450   143.7080     2.4720     0.0730     0.4110
 1921.5000     6.8960    10.2480     7.7750   -57.4820     9.3090   144.3880     2.4800     0.0840     0.4160
 1922.0000     6.8680    10.1890     7.9940   -57.5280     9.3750   144.5640     2.4690     0.0950     0.4170
 1922.5000     6.8390    10.1890     8.2140   -57.5370     9.3440   143.1860     2.4500     0.1050     0.4160
 1923.0000     6.8110    10.3580     8.3150   -57.5480     9.2990   141.9210     2.4210     0.1140     0.4140
 1923.5000     6.7890    10.4840     8.2840   -57.5600     9.2530   141.3640     2.3820     0.1230     0.4120
 1924.0000     6.8130    10.6100     8.2600   -57.5710     9.2080   142.0590     2.3430     0.1500     0.4080
 1924.5000     6.8360    10.6710     8.2420   -57.5820     9.1630   142.9320     2.3040     0.1340     0.4070
 1925.0000     6.8590    10.5440     8.5550   -57.5930     9.1190   143.8100     2.2910     0.1200     0.4070
 1925.5000     6.8830    10.4760     8.8400   -57.6040     9.0790   144.6860     2.3540     0.1230     0.4110
 1926.0000     6.9060    10.6000     8.9440   -57.6150     9.0520   145.5580     2.4290     0.1380     0.4150
 1926.5000     6.9300    10.7380     9.0260   -57.6260     9.0250   146.0610     2.4740     0.1490     0.4180
 1927.0000     6.9530    10.8770     8.9060   -57.6370     9.0190   145.3640     2.4440     0.1500     0.4210
 1927.5000     6.9770    11.0160     8.7570   -57.6480     9.0400   144.6540     2.4160     0.1510     0.4240
 1928.0000     7.0000    11.1760     8.6080   -57.6590     9.0620   143.9460     2.3920     0.1510     0.4250
 1928.5000     7.0240    11.0160     8.4590   -57.6700     9.0830   143.2360     2.3890     0.1480     0.4270
 1929.0000     7.0420    10.8270     8.3150   -57.6810     9.1040   142.5610     2.3860     0.1440     0.4270
 1929.5000     6.9290    10.6390     8.5470   -57.6920     9.1250   142.5660     2.3830     0.1400     0.4270
 1930.0000     6.8380    10.4510     8.7710   -57.7030     9.1470   143.0830     2.3800     0.1340     0.4240
 1930.5000     6.7470    10.2630     9.0360   -57.7140     9.1680   143.5990     2.3760     0.1280     0.4190
 1931.0000     6.6550    10.1890     8.9060   -57.7250     9.1890   144.1140     2.3710     0.1230     0.4150
 1931.5000     6.6010    10.2930     8.7450   -57.7360     9.2020   144.6150     2.3640     0.1170     0.4100
 1932.0000     6.6180    10.3960     8.5490   -57.7470     9.1780   144.5000     2.3570     0.0960     0.4070
 1932.5000     6.6410    10.4980     8.6540   -57.7580     9.1540   142.6250     2.3500     0.0750     0.4060
 1933.0000     6.6630    10.6010     8.7880   -57.7690     9.1310   141.4670     2.3460     0.0530     0.4070
 1933.5000     6.6860    10.7040     8.9530   -57.7800     9.1080   142.3620     2.3930     0.0420     0.4090
 1934.0000     6.7080    10.7700     8.8650   -57.7910     9.0840   143.2200     2.4360     0.0520     0.4140
 1934.5000     6.7310    10.6440     8.7060   -57.8020     9.0610   143.8030     2.4460     0.0630     0.4190
 1935.0000     6.7530    10.5730     8.5480   -57.8130     9.0570   145.5620     2.4400     0.0740     0.4220
 1935.5000     6.7860    10.9270     8.3900   -57.8240     9.0730   147.3070     2.4220     0.0840     0.4230
 1936.0000     6.7660    11.0730     8.3150   -57.8350     9.0890   148.4960     2.4040     0.0940     0.4240
 1936.5000     6.7280    10.9140     8.2710   -57.8460     9.1050   148.7970     2.3860     0.0900     0.4250
 1937.0000     6.6910    10.7730     8.2090   -57.8570     9.1210   149.1140     2.3700     0.0810     0.4260
 1937.5000     6.6530    10.6320     8.1470   -57.8690     9.1370   149.4290     2.3660     0.0740     0.4270
 1938.0000     6.6150    10.4910     8.0840   -57.8800     9.1530   149.7510     2.3750     0.0390     0.4260
 1938.5000     6.5770    10.4270     8.0220   -57.8910     9.1690   149.9730     2.4080     0.0340     0.4240
 1939.0000     6.5390    10.3560     7.9600   -57.9020     9.1850   148.5350     2.4340     0.0290     0.4220
 1939.5000     6.5010    10.2850     7.8870   -57.9130     9.2010   147.0220     2.4420     0.0240     0.4170
 1940.0000     6.4640    10.2140     7.8080   -57.9210     9.1840   145.5360     2.4510     0.0190     0.4110
 1940.5000     6.4200    10.1890     7.7300   -57.9210     9.1520   144.4920     2.4590     0.0210     0.4080
 1941.0000     6.4380    10.2480     7.6510   -57.9210     9.1200   144.5010     2.4680     0.0220     0.4040
 1941.5000     6.4600    10.3380     7.5730   -57.9210     9.0880   144.9580     2.4790     0.0240     0.4020
 1942.0000     6.4810    10.4280     7.5120   -57.9210     9.0560   145.5290     2.4770     0.0230     0.4020
 1942.5000     6.5020    10.5180     7.6810   -57.9210     9.0240   146.1040     2.4760     0.0220     0.4040
 1943.0000     6.5240    10.6090     7.8180   -57.9210     8.9920   146.6850     2.4780     0.0240     0.4090
 1943.5000     6.5450    10.6990     7.9560   -57.9210     8.9890   147.2090     2.4800     0.0260     0.4130
 1944.0000     6.5660    10.7890     8.0930   -57.9210     8.9880   146.0990     2.4730     0.0270     0.4180
 1944.5000     6.5870    10.8790     8.2310   -57.9210     8.9870   144.8500     2.4650     0.0230     0.4230
 1945.0000     6.6150    10.9710     8.3040   -57.9210     8.9860   144.7140     2.4570     0.0190     0.4250
 1945.5000     6.6510    10.9270     8.1960   -57.9210     8.9850   145.5700     2.4500     0.0140     0.4240
 1946.0000     6.6880    10.8510     8.1090   -57.9210     8.9840   146.4150     2.4550     0.0130     0.4230
 1946.5000     6.7240    10.7750     8.0220   -57.9210     8.9830   147.2470     2.4600     0.0150     0.4210
 1947.0000     6.7610    10.6990     7.9360   -57.9210     8.9820   148.0790     2.4640     0.0160     0.4200
 1947.5000     6.7970    10.6240     7.8490   -57.9210     8.9810   148.9120     2.4690     0.0180     0.4190
 1948.0000     6.8340    10.5730     7.7620   -57.9210     8.9800   149.7440     2.4730     0.0190     0.4170
 1948.5000     6.8700    10.6390     7.6760   -57.9210     8.9790   150.5770     2.4780     0.0200     0.4150
 1949.0000     6.9070    10.6880     7.5890   -57.9210     8.9770   151.4140     2.4850     0.0240     0.4120
 1949.5000     6.9430    10.7370     7.5240   -57.9210     8.9760   152.2620     2.4930     0.0280     0.4090
 1950.0000     6.9800    10.7860     7.7640   -57.9210     8.9750   151.7720     2.5020     0.0300     0.4070
 1950.5000     7.0160    10.8360     8.0140   -57.9210     8.9740   151.0850     2.4990     0.0250     0.4050
 1951.0000     7.0420    10.8700     7.9720   -57.9210     8.9730   150.8080     2.4910     0.0240     0.4050
 1951.5000     6.8370    10.9710     7.9260   -57.9210     8.9720   151.6030     2.4820     0.0240     0.4070
 1952.0000     6.6800    10.7990     7.8790   -57.9210     8.9710   152.4700     2.4730     0.0240     0.4070
 1952.5000     6.5230    10.6670     7.8330   -57.9210     8.9770   152.6970     2.4670     0.0240     0.4070
 1953.0000     6.3660    10.5350     7.7870   -57.9210     8.9920   151.7190     2.4660     0.0250     0.4100
 1953.5000     6.1300    10.4030     7.7400   -57.9210     9.0070   150.7430     2.4650     0.0250     0.4130
 1954.0000     6.1670    10.2840     7.6940   -57.9210     9.0220   149.7690     2.4640     0.0260     0.4140
 1954.5000     6.2410     9.3760     7.6520   -57.9210     9.0370   148.8190     2.4610     0.0260     0.4140
 1955.0000     6.3150     8.8710     7.8830   -57.9290     9.0520   149.6480     2.4580     0.0270     0.4130
 1955.5000     6.3890     9.5620     8.0920   -57.9370     9.0670   150.3900     2.4550     0.0270     0.4120
