~VERSION INFORMATION
 VERS.                2.0:   CWLS LOG ASCII STANDARD - VERSION 2.0
 WRAP.                 NO:   ONE LINE PER DEPTH STEP
~WELL INFORMATION
#MNEM.UNIT      DATA TYPE    INFORMATION
#----------   ------------   ------------------------------
 STRT.F            4.5000:   START DEPTH
 STOP.F         3216.0000:   STOP DEPTH
 STEP.F            0.5000:   STEP LENGTH
 NULL.          -999.2500:   NO VALUE
 COMP. LAWRENCE ALLISON & ASSCOCIATES:   COMPANY
 WELL. LAWRENCE ALLISON #38-34:   WELL
 FLD . NAVAL PET. RES. NO. 3:   FIELD
 LOC .      S34 T39N R78W:   LOCATION
 CNTY.            NATRONA:   COUNTY
 STAT.            WYOMING:   STATE
 CTRY. UNITED STATES OF AMERICA:   COUNTRY
 SRVC.      DRESSER ATLAS:   SERVICE COMPANY
 DATE.        12-OCT-1986:   LOGDATE
 API .     49025111120000:   API NUMBER
~CURVE INFORMATION
#MNEM.UNIT       API CODE    CURVE DESCRIPTION
#----------   ------------   ------------------------------
 DEPT.F                  :   
 CALD.IN     45 280 60 00:   CALIPER FROM DENSITY LOG
 RHOB.G/C3   45 350 01 00:   BULK DENSITY
 CORR.G/C3   45 356 01 00:   DENSITY CORRECTION
 CNC .DEC    42 890 01 00:   NEUTRON POROSITY
 SPR .MV     07 010 01 00:   SPONTANEOUS POTENTIAL
 TENR.LBS    06 635 01 00:   TENSION FROM RESISTIVITY
 GRR .GAPI   07 310 01 00:   GAMMA RAY FROM RESISTIVITY
 ILD .OHMM   07 120 46 00:   DEEP INDUCTION RESISTIVITY
 ILM .OHMM   07 120 44 00:   INDUCTION LOG MEDIUM RESISTIVITY
 SFL .OHMM   07 220 01 00:   SHALLOW FOCUSED LOG RESISITIVITY
~PARAMETER INFORMATION
#MNEM.UNIT          VALUE    DESCRIPTION
#----------   ------------   ------------------------------
 EKB .F         5229.5000:   Kelly bushing
 EGL .F         5217.7000:   Ground level
 TD  .F         3200.0000:   Total depth
 CLNT.            A2DTECH:   Client Code
 SL  . 1338' FWL & 132' FSL:   Surface Location
 PD  .                 GL:   Permanent Datum
 EPD .F            5217.7:   Elevation Permanent Datum
 LMF .                 KB:   Log Measured From
 DMF .                 KB:   Drilling Measured From
 DAPD.F              11.8:   Feet Above Permanent Datum
 DATE.        12-OCT-1986:   Date Logged [DD-MMM-YYYY]
 DD  .F              3200:   Depth driller
 DL  .F              3200:   Depth logger
 BLI .F              3194:   Bottom log interval
 TLI .F                 0:   Top log interval
 CS1 .IN            8.625:   Casing size
 CBD1.      8.625" @ 668':   Casing driller 1
 CBL1.F               668:   Casing logger 1
 BS1 .IN            7.875:   Bit size
 BSD1.F              3200:   Depth drilled with bit1
 DFT .        KCL POLYMER:   Type fluid in hole
 DFD .                  9:   Density
 DFV .                 36:   Viscosity
 DFPH.                9.5:   pH
 MSS .           FLOWLINE:   Source of sample
 RMS .OHMM           0.25:   Rm
 MST .F                70:   Rm Meas. temp.
 RMF .OHMM          0.191:   Rmf
 MFST.F                70:   Rmf Meas. temp.
 MFSS.               MEAS:   Source Rmf.
 RMB .OHMM          0.132:   Rm. at BHT
 BHT .F               132:   BHT.
 TCS .HRS               3:   Time Circ. stopped
 MRT .F               132:   Maximum recorded temp.
 LUN .               6274:   Logging unit number
 ENGI.             RAUTIO:   Recorded By
 ORIG.   1" 2.5" 5" PRINT:   Origin of data
 UWI .     49025111120000:   Unique Well ID
 DICO. A2D TECHNOLOGIES, INC.:   Digitizing Company
 LUL .               CLIT:   Logging unit location
 RMC .OHMM           0.31:   Rmc
 MCST.F                70:   Rmc Meas. temp.
 MCSS.               CALC:   Source Rmc.
~OTHER INFORMATION
~A    DEPT    CALD       RHOB       CORR        CNC        SPR       TENR        GRR        ILD        ILM        SFL   
# ...
 2148.5000  -999.2500  -999.2500  -999.2500  -999.2500   -75.1984    -6.4209   134.3943    10.1189    10.1190    10.4046
 2149.0000  -999.2500  -999.2500  -999.2500  -999.2500   -75.4651    -6.3030   142.2347    10.1175    10.1176    10.7156
 2149.5000  -999.2500  -999.2500  -999.2500  -999.2500   -75.6457    -6.2597   140.6749    10.1162    10.1162    11.7889
 2150.0000  -999.2500  -999.2500  -999.2500  -999.2500   -75.7065    -6.2500   134.6361     9.9751    10.0915    12.4618
 2150.5000  -999.2500  -999.2500  -999.2500  -999.2500   -75.7829    -6.2500   128.5974     9.9659     9.9431    12.8120
 2151.0000  -999.2500  -999.2500  -999.2500  -999.2500   -75.8586    -6.2500   123.7634     9.6834     9.6251    12.2863
 2151.5000  -999.2500  -999.2500  -999.2500  -999.2500   -75.9311    -6.2500   124.9536     9.4312     9.2161    11.4591
 2152.0000  -999.2500  -999.2500  -999.2500  -999.2500   -76.0062    -6.2500   127.9509     9.1423     8.7491    10.1091
 2152.5000  -999.2500  -999.2500  -999.2500  -999.2500   -76.0803    -6.2500   128.5392     8.8488     8.6205     9.0431
 2153.0000  -999.2500  -999.2500  -999.2500  -999.2500   -76.1544    -6.2500   127.9216     8.5524     8.6722     8.9169
 2153.5000  -999.2500  -999.2500  -999.2500  -999.2500   -76.2288    -6.2500   126.0752     8.4333     8.7380     9.7084
 2154.0000  -999.2500  -999.2500  -999.2500  -999.2500   -76.3030    -6.2500   125.4819     8.5500     8.7913    10.7242
 2154.5000  -999.2500  -999.2500  -999.2500  -999.2500   -76.3774   -25.7500   125.3781     8.7305     8.7898    11.2916
 2155.0000  -999.2500  -999.2500  -999.2500  -999.2500   -76.4516   -45.2500   121.7183     8.8586     8.9119    10.9498
 2155.5000  -999.2500  -999.2500  -999.2500  -999.2500   -76.5259   -25.7500   118.8121     8.9107     8.9106    10.5298
 2156.0000  -999.2500  -999.2500  -999.2500  -999.2500   -76.6008   -25.7500   120.0022     9.0341     8.9094    10.5283
 2156.5000  -999.2500  -999.2500  -999.2500  -999.2500   -76.6733   -25.7500   120.5900     9.0329     9.0330    10.6746
 2157.0000  -999.2500  -999.2500  -999.2500  -999.2500   -76.7504   -45.2500   116.5246     9.1583     9.0317    10.6119
 2157.5000  -999.2500  -999.2500  -999.2500  -999.2500   -76.8212   -25.7500   110.3568     9.2852     9.1570    10.3117
 2158.0000  -999.2500  -999.2500  -999.2500  -999.2500   -76.9529   -25.7500   108.7834     9.4141     9.2900    10.0198
 2158.5000  -999.2500  -999.2500  -999.2500  -999.2500   -77.0714    -6.2500   108.4789     9.4128     9.4262    10.1124
 2159.0000  -999.2500  -999.2500  -999.2500  -999.2500   -77.1952    -6.2500   112.6780     9.4115     9.5434    10.8161
 2159.5000  -999.2500  -999.2500  -999.2500  -999.2500   -77.3168    -6.2500   117.4826     9.4102     9.5142    11.1198
 2160.0000  -999.2500  -999.2500  -999.2500  -999.2500   -77.4384    -6.2500   121.0824     9.3915     9.2789    11.2742
 2160.5000  -999.2500  -999.2500  -999.2500  -999.2500   -77.5608    -6.2500   123.4774     9.1494     9.1494    11.4306
 2161.0000  -999.2500  -999.2500  -999.2500  -999.2500   -77.6829    -6.2500   123.4627     9.1481     9.1481    11.5891
 2161.5000  -999.2500  -999.2500  -999.2500  -999.2500   -77.8036    -6.2500   124.6528     9.3144     9.2750    11.7499
 2162.0000  -999.2500  -999.2500  -999.2500  -999.2500   -77.9288    13.2500   127.0478     9.4039     9.4036    10.8073
 2162.5000  -999.2500  -999.2500  -999.2500  -999.2500   -78.0303    -6.2500   131.8524     9.5341     9.4023    10.0797
 2163.0000  -999.2500  -999.2500  -999.2500  -999.2500   -78.1317    -6.2500   134.3122     9.5327     9.4008     9.8017
 2163.5000  -999.2500  -999.2500  -999.2500  -999.2500   -78.2176    -6.2500   130.2945     9.3997     9.3995    11.1077
 2164.0000  -999.2500  -999.2500  -999.2500  -999.2500   -78.3073    13.2500   122.7934     9.3222     9.1403    10.9527
 2164.5000  -999.2500  -999.2500  -999.2500  -999.2500   -78.3954    -6.2500   117.6794     9.1390     8.7655    10.9839
 2165.0000  -999.2500  -999.2500  -999.2500  -999.2500   -78.4838    -6.2500   118.4020     9.0115     8.5238    11.3006
 2165.5000  -999.2500  -999.2500  -999.2500  -999.2500   -78.5718    -6.2500   121.3038     8.6420     8.2887    11.4150
 2166.0000  -999.2500  -999.2500  -999.2500  -999.2500   -78.6613    -6.2500   122.1112     8.4037     8.1731    10.6848
 2166.5000  -999.2500  -999.2500  -999.2500  -999.2500   -78.7486   -45.2500   120.6318     8.1719     8.1720    10.0314
 2167.0000  -999.2500  -999.2500  -999.2500  -999.2500   -78.8275   -45.2500   119.9823     8.2853     8.2895     9.3906
 2167.5000  -999.2500  -999.2500  -999.2500  -999.2500   -78.8300   -23.4750   118.1277     8.4003     8.5288     9.8626
 2168.0000  -999.2500  -999.2500  -999.2500  -999.2500   -78.8317   -15.2850   115.9196     8.5168     8.7572    10.2892
 2168.5000  -999.2500  -999.2500  -999.2500  -999.2500   -78.8305    -7.0950   111.7895     8.5272     8.8787    10.3468
 2169.0000  -999.2500  -999.2500  -999.2500  -999.2500   -78.8306     1.0950   107.5580     8.6522     9.0018    10.4903
 2169.5000  -999.2500  -999.2500  -999.2500  -999.2500   -78.8306     9.2850   102.1216     8.7535     9.0004    10.4887
 2170.0000  -999.2500  -999.2500  -999.2500  -999.2500   -78.8308     3.1100    98.4925     8.8750     8.9992    10.6342
 2170.5000  -999.2500  -999.2500  -999.2500  -999.2500   -78.8293   -16.5460    96.6706     8.8736     8.9979    10.7818
 2171.0000  -999.2500  -999.2500  -999.2500  -999.2500   -78.8315   -25.7500   100.8728     8.8724     8.9967    10.7802
 2171.5000  -999.2500  -999.2500  -999.2500  -999.2500   -78.8348    32.7500   106.8822     8.9254     8.9954    10.3381
 2172.0000  -999.2500  -999.2500  -999.2500  -999.2500   -78.9319    32.7500   112.3230     8.9942     8.9942    10.0513
 2172.5000  -999.2500  -999.2500  -999.2500  -999.2500   -79.0374    13.2500   117.8980     9.0622     8.8684     9.9128
 2173.0000  -999.2500  -999.2500  -999.2500  -999.2500   -79.1457    -6.2500   123.3199     9.1176     8.7447    10.0672
 2173.5000  -999.2500  -999.2500  -999.2500  -999.2500   -79.2526    32.7500   125.6015     9.1162     8.6227    10.3325
 2174.0000  -999.2500  -999.2500  -999.2500  -999.2500   -79.3591    32.7500   125.3454     8.9890     8.3850    10.3310
 2174.5000  -999.2500  -999.2500  -999.2500  -999.2500   -79.4660    13.2500   124.0930     8.7411     8.2680    10.3295
 2175.0000  -999.2500  -999.2500  -999.2500  -999.2500   -79.5771    -6.2500   122.4404     8.5001     8.1527    10.1854
 2175.5000  -999.2500  -999.2500  -999.2500  -999.2500   -79.6749    -6.2500   116.2097     8.3815     8.1516    10.0433
 2176.0000  -999.2500  -999.2500  -999.2500  -999.2500   -79.7555    -6.2500   111.4932     8.3804     8.0378     9.9031
 2176.5000  -999.2500  -999.2500  -999.2500  -999.2500   -79.8406   -25.7500   113.0530     8.2630     8.0277     9.9702
 2177.0000  -999.2500  -999.2500  -999.2500  -999.2500   -79.9258    -5.0471   113.3434     8.1482     7.9246    10.1797
 2177.5000  -999.2500  -999.2500  -999.2500  -999.2500   -80.0099    13.7105   110.3133     8.0345     8.0346    10.1781
 2178.0000  -999.2500  -999.2500  -999.2500  -999.2500   -80.0948    32.5691   110.2987     8.0334     8.0334     9.8974
 2178.5000  -999.2500  -999.2500  -999.2500  -999.2500   -80.1795    12.6494   112.0912     8.0322     8.1449     9.4915
 2179.0000  -999.2500  -999.2500  -999.2500  -999.2500   -80.2641    12.5466   116.8958     8.0634     8.2579     9.1023
 2179.5000  -999.2500  -999.2500  -999.2500  -999.2500   -80.3488    12.6757   120.4956     8.2963     8.5385     8.7290
 2180.0000  -999.2500  -999.2500  -999.2500  -999.2500   -80.4335    12.9093   122.2882     8.5843     8.6635     9.2273
 2180.5000  -999.2500  -999.2500  -999.2500  -999.2500   -80.5181    13.1203   121.6711     8.9055     8.9135    10.0293
 2181.0000  -999.2500  -999.2500  -999.2500  -999.2500   -80.6028    13.2500   119.2468     8.9717     9.0442    10.9009
 2181.5000  -999.2500  -999.2500  -999.2500  -999.2500   -80.6875    13.2500   115.5523     8.9704     9.0961    11.3640
