~VERSION INFORMATION
 VERS.                2.0:   CWLS LOG ASCII STANDARD - VERSION 2.0
 WRAP.                 NO:   ONE LINE PER DEPTH STEP
~WELL INFORMATION
#MNEM.UNIT      DATA TYPE    INFORMATION
#----------   ------------   ------------------------------
 STRT.F          200.0000:   START DEPTH
 STOP.F         3142.0000:   STOP DEPTH
 STEP.F            0.5000:   STEP LENGTH
 NULL.          -999.2500:   NO VALUE
 COMP.    FENIX & SCISSON:   COMPANY
 WELL.  FENIX "AX" #37-10:   WELL
 FLD .              NPR-3:   FIELD
 LOC .      S10 T38N R78W:   LOCATION
 CNTY.            NATRONA:   COUNTY
 STAT.            WYOMING:   STATE
 CTRY. UNITED STATES OF AMERICA:   COUNTRY
 SRVC.              WELEX:   SERVICE COMPANY
 DATE.        19-SEP-1977:   LOGDATE
 API .     49025104190000:   API NUMBER
~CURVE INFORMATION
#MNEM.UNIT       API CODE    CURVE DESCRIPTION
#----------   ------------   ------------------------------
 DEPT.F                  :   
 CALD.IN     45 280 60 00:   CALIPER FROM DENSITY LOG
 GRD .GAPI   45 310 01 00:   GAMMA RAY FROM DENSITY LOG
 RHOB.G/C3   45 350 01 00:   BULK DENSITY
 CORR.G/C3   45 356 01 00:   DENSITY CORRECTION
 NPHI.DEC    42 890 03 00:   NEUTRON POROSITY SANDSTONE
 SPR .MV     07 010 01 00:   SPONTANEOUS POTENTIAL
 SGRD.OHMM   07 220 05 00:   SHALLOW GUARD RESISTIVITY
 ILD .OHMM   07 120 46 00:   INDUCTION LOG DEEP RESISTIVITY
 ILM .OHMM   07 120 44 00:   INDUCTION LOG MEDIUM RESISTIVITY
 TENR.LBS    07 635 01 00:   TENSION FROM RESISTIVITY
~PARAMETER INFORMATION
#MNEM.UNIT          VALUE    DESCRIPTION
#----------   ------------   ------------------------------
 EKB .F         5221.0000:   Kelly bushing
 EGL .F         5211.0000:   Ground level
 EDF .F            0.0000:   Drilling floor
 TD  .F         3150.0000:   Total depth
 DATE.        19-SEP-1977:   Date logged
 CLNT.            A2DTECH:   Client Code
 SL  . 1190' FSL & 1750' FWL:   Surface Location
 PD  .                 GL:   Permanent Datum
 DD  .F              3150:   Depth driller
 DL  .F              3146:   Depth logger
 BLI .F              3144:   Bottom log interval
 CS1 .IN            8.625:   Casing size
 CBD1.      8.625" @ 215':   Casing driller 1
 BS1 .IN            7.875:   Bit size
 DFT .            KCL/MUD:   Type fluid in hole
 DFD .                8.9:   Density
 TCS .HRS               2:   Time Circ. stopped
 MRT .F               116:   Maximum recorded temp.
 ENGI.            C. DOAK:   Recorded By
 WITN.      B. HARRINGTON:   Witnessed by
 ORIG.           5" PRINT:   Origin of data
 UWI .     49025104190000:   Unique Well ID
 DICO. A2D TECHNOLOGIES, INC.:   Digitizing Company
 DAPD.F                10:   Feet Above Permanent Datum
 BSD1.F              3150:   Depth drilled with bit1
 EPD .F              5211:   Elevation Permanent Datum
 LMF .                 KB:   Log Measured From
 DMF .                 KB:   Drilling Measured From
 TLI .F               200:   Top log interval
 CBL1.                213:   Casing logger 1
 DFV .                 37:   Viscosity
 DFPH.                 11:   pH
 DFL .                5.8:   Fluid loss
 MSS .           MEASURED:   Source of sample
 RMS .               2.82:   Rm
 MST .                 94:   Rm Meas. temp.
 RMF .               1.61:   Rmf
 MFST.                 94:   Rmf Meas. temp.
 MFSS.               MEAS:   Source Rmf.
 RMC .               3.12:   Rmc
 MCST.                 94:   Rmc Meas. temp.
 MCSS.               MEAS:   Source Rmc.
 RMB .               2.28:   Rm. at BHT
 BHT .                116:   BHT.
 LUN .               8611:   Logging unit number
 LUL .             CASPER:   Logging unit location
~OTHER INFORMATION
~A   DEPT       CALD       GRD        RHOB      CORR      NPHI        SPR       SGRD        ILD        ILM       TENR   
# ...
 3114.5000     7.8692    61.5887     2.4425    -0.0144     0.1347   -69.7627     7.3426     3.8980     5.3255  2113.4717
 3115.0000     7.8639    61.3886     2.4326    -0.0183     0.1480   -69.7349     6.4573     3.8624     5.1335  2111.0818
 3115.5000     7.8586    60.7932     2.4087    -0.0223     0.1617   -69.7072     5.9454     3.8624     5.0866  2108.6919
 3116.0000     7.8533    60.0002     2.4107    -0.0263     0.1621   -69.6794     5.8373     3.7922     4.9485  2106.3020
 3116.5000     7.8480    59.2072     2.4167    -0.0242     0.1504   -69.6517     6.1114     3.6555     4.9485  2075.8083
 3117.0000     7.8427    58.2166     2.4226    -0.0163     0.1580   -69.6239     8.7413     3.6555     4.9033  2092.8088
 3117.5000     7.8374    57.2260     2.4246    -0.0163     0.1657   -69.5961     6.0556     3.5890     4.9485  2095.7686
 3118.0000     7.8321    56.6307     2.4306    -0.0202     0.1732   -69.5699     5.6269     3.5238     4.9485  2096.6665
 3118.5000     7.8269    56.0377     2.4366    -0.0202     0.1724   -69.5707     5.8911     3.5238     4.9033  2097.5647
 3119.0000     7.8216    56.2299     2.4426    -0.0162     0.1699   -69.5714     6.1114     3.5238     4.9485  2098.4629
 3119.5000     7.8163    56.4255     2.4505    -0.0142     0.1699   -69.5722     6.2246     3.5238     4.9485  2099.3611
 3120.0000     7.8110    56.4250     2.4565    -0.0082     0.1739   -69.5729     5.8911     3.5238     5.0401  2100.2593
 3120.5000     7.8057    58.3509     2.4684    -0.0062     0.1771   -69.5737     6.3399     3.5562     4.9485  2101.1575
 3121.0000     7.8004    60.2768     2.4704    -0.0062     0.1691   -69.5748     6.2820     3.6221     4.9485  2102.0557
 3121.5000     7.7951    62.5416     2.4764    -0.0062     0.1667   -69.5749     5.9454     3.6555     4.9941  2102.9536
 3122.0000     7.7874    62.5395     2.4824    -0.0061     0.1666   -69.5752     6.5169     3.8272     5.0866  2103.8518
 3122.5000     7.7873    61.1537     2.4864    -0.0041     0.1707   -69.4492     6.6376     3.9340     5.0866  2104.7500
 3123.0000     7.7872    58.7798     2.4903    -0.0001     0.1674   -69.3232     6.1114     3.9703     5.2286  2105.6482
 3123.5000     7.7870    53.2445     2.5003     0.0019     0.1554   -69.1819     6.0002     4.1187     5.4241  2106.5464
 3124.0000     7.7856    24.1901     2.5142     0.0059     0.1470   -68.9842     6.5169     4.1950     5.7840  2107.4446
 3124.5000     7.7842     4.0296     2.5341     0.0138     0.1293   -68.3775     7.6172     4.4733     6.1677  2108.3425
 3125.0000     7.7828  -999.2500     2.5421     0.0158     0.1216   -67.7707     9.0682     4.8141     6.7605  2109.2407
 3125.5000     7.7815  -999.2500     2.5401     0.0159     0.1207   -67.4013     9.9397     4.9485     7.0133  2110.1389
 3126.0000     7.7801  -999.2500     2.5322     0.0159     0.1248   -67.4014    10.6969     5.0866     7.5476  2111.0371
 3126.5000     7.7787  -999.2500     2.5282     0.0119     0.1199   -67.4029    10.6969     5.1335     7.3426  2111.9353
 3127.0000     7.7773  -999.2500     2.5222     0.0040     0.1215   -67.6015    10.6969     5.1808     7.1432  2112.8335
 3127.5000     7.7759  -999.2500     2.5083    -0.0040     0.1271   -67.6024     9.9397     5.1808     6.9492  2113.7317
 3128.0000     7.7745  -999.2500     2.5003    -0.0059     0.1247   -67.6034     8.8219     5.0866     6.8229  2114.6296
 3128.5000     7.7732  -999.2500     2.4785    -0.0059     0.1207   -67.6041     9.1518     5.0401     6.8229  2115.5278
 3129.0000     7.7718  -999.2500     2.4705    -0.0039     0.1223   -67.6050     9.2361     4.8585     7.0133  2116.4260
 3129.5000     7.7704  -999.2500     2.4626    -0.0098     0.1263   -66.8279     9.1518     4.7701     6.1677  2117.3242
 3130.0000     7.7690  -999.2500     2.4646    -0.0078     0.1400   -66.0509     8.4263     4.7265     6.1677  2118.2224
 3130.5000     7.7676  -999.2500     2.4765    -0.0058     0.1424   -65.4282     8.1974     4.6834     6.1677  2119.1206
 3131.0000     7.7663  -999.2500     2.4845    -0.0038     0.1391   -64.1267     8.1225     4.6805     6.1677  2120.0188
 3131.5000     7.7649  -999.2500     2.4924     0.0002     0.1351   -63.2506     8.1225     4.6805     6.1677  2120.9167
 3132.0000     7.7431  -999.2500     2.4984     0.0002     0.1295   -58.1615     8.4263     4.8114     6.1677  2121.8149
 3132.5000     7.7033  -999.2500     2.4984     0.0002     0.1311   -55.5274     8.5039     5.0376     5.8373  2122.7131
 3133.0000     7.7032  -999.2500     2.4925     0.0002     0.1335   -51.5666     8.7413     5.4741     5.8373  2123.6113
 3133.5000     7.7030  -999.2500     2.4845     0.0002     0.1367   -47.2763     8.3493     6.2820     6.2246  2124.5095
 3134.0000     7.6433  -999.2500     2.4746     0.0023     0.1367   -36.4175     8.2730     7.0780     5.8373  2125.4077
 3134.5000     7.6431  -999.2500     2.4706     0.0023     0.1302   -36.2195     8.5039     7.6874     5.8911  2126.3059
 3135.0000     7.6232  -999.2500     2.4706     0.0023     0.1262   -38.1027    10.2238     7.5488     6.0002  2127.2039
 3135.5000     7.6031  -999.2500     2.4726     0.0043     0.1302   -38.3017    12.9839     7.3435     6.1677  2128.1021
 3136.0000     7.5830  -999.2500     2.4805     0.0063     0.1326   -39.0554    15.7484     7.4113     6.2820  2129.0002
 3136.5000     7.5434  -999.2500     2.4865     0.0143     0.1358   -39.8092    15.3201     7.9768     7.9748  2129.8984
 3137.0000     7.5234  -999.2500     2.4885     0.0223     0.1390   -40.4851    14.7670     8.8255     9.2361  2130.7966
 3137.5000     7.4637  -999.2500     2.4865     0.0283     0.1406   -40.8827    14.7670    10.4135     9.3213  2131.6946
 3138.0000     7.4437  -999.2500     2.4826     0.0322     0.1438   -41.2363    14.7670    11.8436     8.3493  2132.5930
 3138.5000     7.4632  -999.2500     2.4826     0.0462     0.1470   -41.5899    14.9034    10.7047     9.0682  2133.4910
 3139.0000     7.4827  -999.2500     2.4955     0.0622     0.1478   -41.9435    15.0410    11.4161     9.5815  2134.3892
 3139.5000     7.5022  -999.2500     2.5267     0.0900     0.1494   -42.7317    15.1799    11.8732     9.2139  2136.8621
 3140.0000     7.5020  -999.2500     2.5366     0.1171     0.1499   -43.3848    15.2741    12.4738     9.8645  2139.3350
 3140.5000  -999.2500  -999.2500     2.5384     0.1356  -999.2500   -44.1716    15.2741    13.0744    10.0237  -999.2500
 3141.0000  -999.2500  -999.2500     2.5384     0.1540  -999.2500   -44.9584    15.2741    13.6750    10.1580  -999.2500
 3141.5000  -999.2500  -999.2500     2.5384     0.1724  -999.2500   -45.7452    15.4208    14.2756    10.7436  -999.2500
 3142.0000  -999.2500  -999.2500  -999.2500     0.1915  -999.2500  -999.2500  -999.2500  -999.2500    11.5390  -999.2500
