~VERSION INFORMATION
 VERS.                2.0:   CWLS LOG ASCII STANDARD - VERSION 2.0
 WRAP.                 NO:   ONE LINE PER DEPTH STEP
~WELL INFORMATION
#MNEM.UNIT      DATA TYPE    INFORMATION
#----------   ------------   ------------------------------
 STRT.F          480.0000:   START DEPTH
 STOP.F         4609.5000:   STOP DEPTH
 STEP.F            0.5000:   STEP LENGTH
 NULL.          -999.2500:   NO VALUE
 COMP.   FENNIX & SCISSON:   COMPANY
 WELL. FENNIX NPR-3 "LX" #58-14:   WELL
 FLD .              NPR-3:   FIELD
 LOC .      S14 T38N R78W:   LOCATION
 CNTY.            NATRONA:   COUNTY
 STAT.            WYOMING:   STATE
 CTRY. UNITED STATES OF AMERICA:   COUNTRY
 SRVC.       SCHLUMBERGER:   SERVICE COMPANY
 DATE.        08-MAR-1978:   LOGDATE
 API .     49025105920000:   API NUMBER
~CURVE INFORMATION
#MNEM.UNIT       API CODE    CURVE DESCRIPTION
#----------   ------------   ------------------------------
 DEPT.F                  :   
 SPR .MV     07 010 01 00:   SPONTANEOUS POTENTIAL
 SFL .OHMM   07 220 01 00:   SHALLOW FOCUSED LOG RESISTIVITY
 ILD .OHMM   07 120 46 00:   DEEP INDUCTION RESISTIVITY
 ILM .OHMM   07 120 44 00:   INDUCTION LOG MEDIUM RESISTIVITY
 CALD.IN     45 280 60 00:   CALIPER FROM DENSITY LOG
 GRD .GAPI   45 310 01 00:   GAMMA RAY FROM DENSITY LOG
 CORR.G/C3   45 356 01 00:   DENSITY CORRECTION
 RHOB.G/C3   45 350 01 00:   BULK DENSITY
 NPHI.DEC    42 890 03 00:   NEUTRON POROSITY SANDSTONE
~PARAMETER INFORMATION
#MNEM.UNIT          VALUE    DESCRIPTION
#----------   ------------   ------------------------------
 EKB .F         5320.0000:   Kelly bushing
 EGL .F         5310.0000:   Ground level
 EDF .F            0.0000:   Drilling floor
 TD  .F         4635.0000:   Total depth
 DATE.        08-MAR-1978:   Date logged
 CLNT.            A2DTECH:   Client Code
 SL  . 810' FSL & 1830' FEL:   Surface Location
 PD  .                 GL:   Permanent Datum
 DD  .F              4635:   Depth driller
 DL  .F              4608:   Depth logger
 BLI .F              4607:   Bottom log interval
 DFT .                FGM:   Type fluid in hole
 DFD .                9.1:   Density
 DFV .                 38:   Viscosity
 DFPH.                 11:   pH
 MSS .           FLOWLINE:   Source of sample
 RMS .OHMM           1.53:   Rm
 MST .F                58:   Rm Meas. temp.
 RMF .OHMM           1.06:   Rmf
 MFST.F                58:   Rmf Meas. temp.
 MFSS.               MEAS:   Source Rmf.
 RMB .OHMM           0.68:   Rm. at BHT
 BHT .F               131:   BHT.
 TCS .HRS            0630:   Time Circ. stopped
 MRT .F               131:   Maximum recorded temp.
 LUN .               8039:   Logging unit number
 LUL .               CSPP:   Logging unit location
 ENGI.           PETERSON:   Recorded By
 ORIG.           5" PRINT:   Origin of data
 UWI .     49025105920000:   Unique Well ID
 DICO. A2D TECHNOLOGIES, INC.:   Digitizing Company
 DAPD.                 20:   Feet Above Permanent Datum
 BSD1.               4635:   Depth drilled with bit1
 EPD .               5310:   Elevation Permanent Datum
 LMF .                 KB:   Log Measured From
 DMF .                 KB:   Drilling Measured From
 TLI .                508:   Top log interval
 CS1 .              8.625:   Casing size
 CBL1.                508:   Casing logger 1
 BS1 .              7.875:   Bit size
~OTHER INFORMATION
~A   DEPT      SPR        SFL        ILD        ILM       CALD         GRD      CORR       RHOB         NPHI 
# ...
 4020.5000   -42.7620     6.1690     4.4590     4.6610     8.4900   149.1840     0.0120     2.5140     0.2910
 4021.0000   -42.7120     6.0950     4.4290     4.6240     8.4900   150.9970     0.0110     2.5060     0.2950
 4021.5000   -42.6990     5.7690     4.3980     4.5820     8.4900   152.6080     0.0100     2.5060     0.2990
 4022.0000   -42.8120     5.5820     4.3690     4.5400     8.4900   154.2140     0.0180     2.5090     0.3020
 4022.5000   -42.9210     5.4050     4.1160     4.4170     8.4900   155.8140     0.0260     2.5120     0.3060
 4023.0000   -43.0300     5.0940     3.9510     4.2390     8.4900   157.0680     0.0300     2.5130     0.3100
 4023.5000   -43.1390     4.7050     3.8170     4.0620     8.4900   157.4210     0.0310     2.5140     0.3160
 4024.0000   -43.2490     4.4780     3.6830     3.8840     8.4900   157.7180     0.0310     2.5130     0.3240
 4024.5000   -43.2510     4.2580     3.5880     3.7070     8.5160   156.8500     0.0300     2.5080     0.3360
 4025.0000   -43.2260     4.1090     3.5650     3.5650     8.5450   154.4500     0.0300     2.5010     0.3550
 4025.5000   -43.2000     3.9830     3.5320     3.5650     8.5750   152.1490     0.0250     2.4920     0.3620
 4026.0000   -43.1740     4.0540     3.5660     3.5650     8.5860   150.6080     0.0190     2.4870     0.3590
 4026.5000   -43.1480     4.3150     3.6250     3.6470     8.5800   150.5180     0.0130     2.4870     0.3450
 4027.0000   -43.1230     4.6990     3.6830     3.7310     8.5740   151.1270     0.0110     2.4900     0.3300
 4027.5000   -43.0970     4.9760     3.7420     3.8150     8.5730   151.7560     0.0090     2.4940     0.3170
 4028.0000   -43.0680     5.1150     3.8250     3.8990     8.5870   152.8560     0.0090     2.4960     0.3080
 4028.5000   -42.9160     5.2900     3.9290     3.9840     8.6010   155.7110     0.0110     2.5020     0.3040
 4029.0000   -42.7520     5.4550     4.0220     4.0620     8.6150   159.9420     0.0120     2.5110     0.3040
 4029.5000   -42.5910     5.3910     4.0340     4.1000     8.6280   160.8450     0.0170     2.5250     0.3030
 4030.0000   -42.5080     5.1800     4.0460     4.1380     8.6420   159.8880     0.0230     2.5260     0.3020
 4030.5000   -42.6420     5.1130     4.0580     4.1760     8.6560   157.4880     0.0280     2.5230     0.3010
 4031.0000   -42.7700     5.1740     4.0700     4.2100     8.6700   155.0700     0.0360     2.5230     0.3000
 4031.5000   -42.8970     5.2220     4.0820     4.2310     8.6840   155.1000     0.0390     2.5220     0.2990
 4032.0000   -43.0310     5.2660     4.0940     4.2500     8.6980   156.1730     0.0390     2.5130     0.2980
 4032.5000   -43.0680     5.3000     4.1440     4.2950     8.7130   156.6230     0.0260     2.5030     0.2980
 4033.0000   -43.0660     5.4200     4.2000     4.3390     8.7270   154.7490     0.0220     2.5010     0.2980
 4033.5000   -43.1820     5.5540     4.2570     4.3820     8.7410   152.1620     0.0190     2.5000     0.3030
 4034.0000   -43.3150     5.6880     4.3130     4.4510     8.7550   151.1550     0.0150     2.4900     0.3070
 4034.5000   -43.4480     5.7130     4.3290     4.4450     8.7680   150.2240     0.0040     2.4730     0.3130
 4035.0000   -43.5820     5.6700     4.3650     4.4310     8.7680   149.2530     0.0000     2.4660     0.3120
 4035.5000   -43.6640     5.5630     4.4100     4.4170     8.7680   149.3130     0.0080     2.4780     0.2990
 4036.0000   -43.6630     5.4550     4.3380     4.4030     8.7680   149.8160     0.0190     2.4980     0.2940
 4036.5000   -43.6660     5.2790     4.2500     4.3890     8.7680   153.7300     0.0290     2.5080     0.2910
 4037.0000   -43.5740     5.0990     4.2610     4.3750     8.7680   156.2000     0.0300     2.5070     0.2950
 4037.5000   -43.4600     4.8370     4.2940     4.3290     8.7690   151.8270     0.0200     2.5070     0.3120
 4038.0000   -43.3450     4.6180     4.3290     4.4670     8.7020   139.8260     0.0000     2.5310     0.3330
 4038.5000   -43.2660     4.8310     4.6370     4.7520     8.6100   105.9240    -0.0140     2.6340     0.3440
 4039.0000   -43.2670     6.7510     4.7920     5.0360     8.5180    86.6320    -0.0160     2.7270     0.3370
 4039.5000   -43.2700    10.0490     4.4280     5.3210     8.4690    92.5050     0.0520     2.7880     0.3110
 4040.0000   -43.3770    13.2530     4.0950     5.6600     8.5290   112.5620     0.1080     2.7990     0.3050
 4040.5000   -43.7940    11.5180     3.3810     5.1070     8.7380   144.3780     0.2110     2.7070     0.3190
 4041.0000   -44.1990     8.1790     2.8310     4.3240     8.9420   181.7880     0.2460     2.5750     0.3460
 4041.5000   -44.5990     4.9150     2.4170     3.5980     9.3410   193.8360     0.2480     2.4240     0.3970
 4042.0000   -44.6190     2.2790     2.2980     2.5740     9.8170   199.5980     0.1940     2.2720     0.5060
 4042.5000   -44.5810     1.4400     2.1860     2.0300     9.4960   183.6900     0.0510     2.1500     0.4980
 4043.0000   -44.5410     1.5010     2.0850     1.8490     9.0160   165.7520     0.0020     2.2000     0.4610
 4043.5000   -44.5020     2.0450     2.1280     2.0840     8.5130   147.5000    -0.0120     2.3120     0.3980
 4044.0000   -44.4580     3.3520     2.2240     2.2940     8.5040   140.9300    -0.0060     2.4180     0.3330
 4044.5000   -44.5710     4.6200     2.1440     2.4290     8.5310   140.4700     0.0020     2.4650     0.3010
 4045.0000   -44.7120     5.2570     2.6940     2.5990     8.5570   143.6560     0.0120     2.4800     0.2990
 4045.5000   -44.8410     5.1860     3.0840     3.0340     8.5820   147.3520     0.0220     2.4950     0.2990
 4046.0000   -44.6120     5.1130     3.4730     3.5130     8.5960   151.2490     0.0260     2.5010     0.2990
 4046.5000   -44.3650     5.1130     3.8740     3.9380     8.6070   156.6770     0.0210     2.4960     0.3070
 4047.0000   -44.3910     5.1510     4.0950     4.1000     8.6170   159.7070     0.0150     2.4860     0.3120
 4047.5000   -44.6180     5.3170     4.0920     4.1760     8.6280   158.6220     0.0100     2.4770     0.3120
 4048.0000   -44.8460     5.4260     4.0850     4.1830     8.6380   157.0230     0.0080     2.4730     0.3090
 4048.5000   -45.0760     5.4550     4.0780     4.1900     8.6490   156.6850     0.0050     2.4690     0.3060
 4049.0000   -45.3050     5.3130     4.0720     4.1970     8.6590   157.3130     0.0020     2.4690     0.3050
 4049.5000   -45.5350     5.1600     4.0650     4.2040     8.6690   157.7720     0.0000     2.4700     0.3100
 4050.0000   -45.7650     5.0070     4.0580     4.2100     8.6690   158.5030    -0.0030     2.4670     0.3190
 4050.5000   -45.9940     4.8540     4.0520     4.1780     8.6690   161.4380    -0.0040     2.4630     0.3260
 4051.0000   -46.2240     4.7640     4.0450     4.1490     8.6690   163.4740    -0.0030     2.4560     0.3280
 4051.5000   -46.4330     4.7050     4.0380     4.1200     8.6690   163.7450    -0.0010     2.4620     0.3250
 4052.0000   -46.4370     4.7390     4.0320     4.0910     8.6690   161.7710     0.0070     2.4730     0.3200
 4052.5000   -46.4350     4.9270     4.0250     4.0620     8.6690   160.6990     0.0090     2.4830     0.3150
 4053.0000   -46.3260     5.0190     4.0200     4.1010     8.6690   159.6000     0.0090     2.4840     0.3100
 4053.5000   -46.0400     5.2710     4.0720     4.1510     8.6970   158.4260     0.0050     2.4830     0.3050
 4054.0000   -46.0460     5.4550     4.1220     4.2010     8.7300   159.4670     0.0030     2.4860     0.3010
 4054.5000   -46.0800     5.4400     4.1720     4.2500     8.7630   161.0040     0.0100     2.4910     0.3070
 4055.0000   -45.6250     5.4220     4.2100     4.2660     8.7960   161.1810     0.0130     2.4900     0.3130
 4055.5000   -45.5470     5.4050     4.1670     4.2870     8.8290   161.0510     0.0150     2.4860     0.3190
 4056.0000   -45.4540     5.3060     4.1310     4.2590     8.8620   161.1580     0.0220     2.4900     0.3190
 4056.5000   -45.3670     5.2090     4.0580     4.2110     8.8670   163.4070     0.0280     2.4990     0.3200
