~VERSION INFORMATION
 VERS.                2.0:   CWLS LOG ASCII STANDARD - VERSION 2.0
 WRAP.                 NO:   ONE LINE PER DEPTH STEP
~WELL INFORMATION
#MNEM.UNIT      DATA TYPE    INFORMATION
#----------   ------------   ------------------------------
 STRT.F          200.0000:   START DEPTH
 STOP.F         3135.5000:   STOP DEPTH
 STEP.F            0.5000:   STEP LENGTH
 NULL.          -999.2500:   NO VALUE
 COMP.    FENOX & SCISSON:   COMPANY
 WELL. FENIX NPR 23 "AX" #3-11:   WELL
 FLD .                NPR:   FIELD
 LOC .      S11 T38N R78W:   LOCATION
 CNTY.            NATRONA:   COUNTY
 STAT.            WYOMING:   STATE
 CTRY. UNITED STATES OF AMERICA:   COUNTRY
 SRVC.       SCHLUMBERGER:   SERVICE COMPANY
 DATE.        06-NOV-1977:   LOGDATE
 API .     49025104320000:   API NUMBER
~CURVE INFORMATION
#MNEM.UNIT       API CODE    CURVE DESCRIPTION
#----------   ------------   ------------------------------
 DEPT.F                  :   
 CALD.IN     45 280 60 00:   CALIPER FROM DENSITY LOG
 GRD .GAPI   45 310 01 00:   GAMMA RAY FROM DENSITY LOG
 RHOB.G/C3   45 350 01 00:   BULK DENSITY
 CORR.G/C3   45 356 01 00:   DENSITY CORRECTION
 SPR .MV     07 010 01 00:   SPONTANEOUS POTENTIAL
 LL8 .OHMM   07 220 08 00:   LATEROLOG-8 RES.
 ILD .OHMM   07 120 46 00:   DEEP INDUCTION RESISTIVITY
 ILM .OHMM   07 120 44 00:   INDUCTION LOG MEDIUM RESISTIVITY
~PARAMETER INFORMATION
#MNEM.UNIT          VALUE    DESCRIPTION
#----------   ------------   ------------------------------
 EKB .F         5176.0000:   Kelly bushing
 EGL .F         5171.0000:   Ground level
 TD  .F         3138.0000:   Total depth
 DATE.        06-NOV-1977:   Date logged
 CLNT.            A2DTECH:   Client Code
 SL  . 1650' FNL & 750' FWL:   Surface Location
 PD  .                 GL:   Permanent Datum
 EPD .F              5171:   Elevation Permanent Datum
 LMF .                 KB:   Log Measured From
 DMF .                 KB:   Drilling Measured From
 DAPD.F                 5:   Feet Above Permanent Datum
 DD  .F              3138:   Depth driller
 DL  .F              3135:   Depth logger
 BLI .F              3134:   Bottom log interval
 TLI .F               196:   Top log interval
 CS1 .IN            8.625:   Casing size
 CBD1.      8.625" @ 205':   Casing driller 1
 CBL1.F               205:   Casing logger 1
 BS1 .IN            7.875:   Bit size
 BSD1.F              3138:   Depth drilled with bit1
 DFT .            KCL/MUD:   Type fluid in hole
 DFD .                8.8:   Density
 DFV .                 34:   Viscosity
 DFPH.                 11:   pH
 DFL .                  6:   Fluid loss
 MSS .            MUD/PIT:   Source of sample
 RMS .OHMM           0.27:   Rm
 MST .F                48:   Rm Meas. temp.
 RMF .OHMM           0.29:   Rmf
 MFST.F                48:   Rmf Meas. temp.
 RMC .OHMM           0.39:   Rmc
 MCST.F                48:   Rmc Meas. temp.
 MFSS.               MEAS:   Source Rmf.
 MCSS.               CALC:   Source Rmc.
 RMB .OHMM           0.12:   Rm. at BHT
 BHT .F               104:   BHT.
 TCS .HRS            1500:   Time Circ. stopped
 TLAB.HRS            1930:   Time logger at bottom
 MRT .F               104:   Maximum recorded temp.
 LUN .               7711:   Logging unit number
 LUL .               CSPR:   Logging unit location
 ENGI.       CRAIG/SAYLER:   Recorded By
 WITN.         PETTINGILL:   Witnessed by
 ORIG.           5" PRINT:   Origin of data
 UWI .     49025104320000:   Unique Well ID
 DICO. A2D TECHNOLOGIES, INC.:   Digitizing Company
~OTHER INFORMATION
~A   DEPT     CALD        GRD       RHOB       CORR        SPR        LL8        ILD        ILM   
# ...
  767.0000     8.6231    93.1198     2.5261     0.0051   -70.2339     8.1605     9.2817     8.3887
  767.5000     8.6226    94.9142     2.5231     0.0120   -70.2325     8.1612     9.5821     8.4669
  768.0000     8.6220    97.9088     2.5231     0.0150   -70.2311     8.4281     9.6703     8.8658
  768.5000     8.6214    98.8021     2.5281     0.0130   -70.2297     8.9053     9.7602     9.1143
  769.0000     8.6409    99.3950     2.5320     0.0090   -70.2283     9.3696     9.8507     9.3697
  769.5000     8.6403    98.4858     2.5330     0.0119   -70.2270     9.1998     9.9420     9.6322
  770.0000     8.6398    96.9757     2.5330     0.0119   -70.2256     9.8520    10.0343     9.7217
  770.5000     8.6192    97.2682     2.5310     0.0109   -70.2242     9.8526    10.0348     9.8124
  771.0000     8.6386    97.2602     2.5249     0.0068   -70.2228    10.0355    10.2211     9.9035
  771.5000     8.6380    97.2523     2.5149     0.0078   -70.2214    10.1285    10.4109     9.9957
  772.0000     8.6775    98.1457     2.5119     0.0138   -70.2200    10.2224    10.4114     9.9960
  772.5000     8.6368    99.3395     2.5089     0.0078   -70.2183    10.0373    10.5080    10.0890
  773.0000     8.6362   101.7351     2.4969     0.0027   -70.2169    10.0379    10.5087    10.0896
  773.5000     8.6357   104.4312     2.4968     0.0087   -70.2155     9.8159    10.5091    10.0904
  774.0000     8.6351   106.8273     2.4988     0.0107   -70.2141     9.8166    10.5098    10.0908
  774.5000     8.6145   104.7159     2.4988     0.0107   -70.2127     9.7272    10.5106     9.9992
  775.0000     8.6139   100.8021     2.5018     0.0076   -70.2113     9.6389    10.5109     9.9997
  775.5000     8.6134    99.2919     2.5057     0.0086   -70.2099     9.6395    10.3209     9.9085
  776.0000     8.6128    98.6830     2.5167     0.0106   -70.2085     9.5519    10.3215     9.9095
  776.5000     8.6323    98.3746     2.5237     0.0115   -70.2071     9.5522    10.2458     9.8196
  777.0000     8.6117    97.4637     2.5266     0.0125   -70.4063     9.4657    10.1707     9.8199
  777.5000     8.6311    96.8548     2.5266     0.0135   -70.4049     9.2938    10.0961     9.6416
  778.0000     8.6305    96.2459     2.5066     0.0065   -70.4035     9.2944    10.0220     9.4668
  778.5000     8.6300    95.6370     2.4996     0.0064   -70.4021     9.2951     9.9485     9.3808
  779.0000     8.6294    95.0281     2.4956     0.0074   -70.2002     9.2956     9.8630     9.3812
  779.5000     8.6288    94.1186     2.4955     0.0104   -70.1988     9.2962     9.8635     9.3819
  780.0000     8.6884    95.3126     2.4955     0.0153   -70.1974     9.2968     9.8639     9.3826
  780.5000     8.6077    96.8071     2.5005     0.0203   -70.1957     9.2974     9.6855     9.3830
  781.0000     8.6070    98.6020     2.5094     0.0443   -70.1943     9.3839     9.7753     9.3838
  781.5000     8.6064    99.4956     2.5184     0.0552   -70.1929     9.4709     9.9567     9.3841
  782.0000     8.6059   102.1921     2.5244     0.0592   -70.3921     9.3849     9.9571     9.3848
  782.5000     8.6253   103.6867     2.5154     0.0512   -70.1901     9.1303     9.9577     9.3855
  783.0000     8.6248   104.8808     2.5093     0.0192   -70.1887     9.0473     9.9583     9.3861
  783.5000     8.6042   105.4740     2.5083     0.0142   -70.1873     9.0477     9.7381     9.3864
  784.0000     8.6236   105.1656     2.5163     0.0191   -70.1860     9.0483     9.7385     9.3872
  784.5000     8.6230   104.8572     2.5153     0.0171   -70.1846     9.0490     9.7392     9.3876
  785.0000     8.6427   104.8525     2.5112     0.0101   -69.9826     8.9663     9.7398     9.3883
  785.5000     8.6219   105.1404     2.5122     0.0090   -69.9813     8.8851     9.7405     9.3890
  786.0000     8.6614   104.5315     2.5132     0.0080   -69.9790     8.8856     9.7412     9.3895
  786.5000     8.6007   103.6220     2.5172     0.0170   -69.9785     8.8863     9.7418     9.3902
  787.0000     8.6001   100.9094     2.5201     0.0190   -69.9765     8.8869     9.7423     9.3047
  787.5000     8.6196    98.7977     2.5241     0.0239   -69.7752     8.8875     9.7426     9.2204
  788.0000     8.5990    96.9866     2.5251     0.0239   -69.7738     8.9701     9.7435     9.2209
  788.5000     8.5985    97.2792     2.5231     0.0179   -69.9726     8.9708     9.8340     9.2213
  789.0000     8.6179    97.5718     2.5210     0.0128   -70.1717     8.8080     9.8347     9.1377
  789.5000     8.6173    98.1649     2.5240     0.0128   -70.1703     8.8085     9.8351     9.1383
  790.0000     8.6167    99.9602     2.5280     0.0168   -69.9685     8.6487     9.8358     9.1387
  790.5000     8.6161    99.6518     2.5190     0.0108   -69.7666     8.5701     9.8365     9.1393
  791.0000     8.6155    99.6438     2.5039     0.0037   -69.9657     8.6498     9.6981     8.9738
  791.5000     8.6151    99.9364     2.5039     0.0027   -69.9643     8.5712     9.6985     8.9740
  792.0000     8.5944    99.3274     2.5049     0.0007   -69.9629     8.4156     9.6991     8.9747
  792.5000     8.6138    99.6200     2.5029     0.0007   -69.9615     8.7315     9.6998     8.9750
  793.0000     8.6133   100.5138     2.4999     0.0026   -69.9601     8.7317     9.7895     9.2270
  793.5000     8.5927   100.5059     2.5048     0.0026   -69.9587     8.8128     9.7014     9.2273
  794.0000     8.6121   100.7985     2.5138     0.0126   -69.9574     8.8135     9.7015     9.2278
  794.5000     8.6116   101.9913     2.5168     0.0155   -69.9560     8.8952     9.7018     9.2284
  795.0000     8.6312   104.3880     2.5107     0.0135   -69.9546     8.8959     9.7029     9.2284
  795.5000     8.6104   105.5824     2.5037     0.0105   -69.9532     8.8966     9.8832     9.4004
  796.0000     8.6099   106.7768     2.5017     0.0085   -69.9518     8.8969     9.8835     9.4879
  796.5000     8.6093   107.9713     2.5017     0.0114   -70.1506     9.1462    10.0667     9.4883
  797.0000     8.6086   109.4664     2.5007     0.0124   -70.1492     9.2309    10.0674     9.6649
  797.5000     8.6481   110.6609     2.5026     0.0104   -69.9474     9.4026    10.0681     9.7550
  798.0000     8.6279   110.9537     2.5106     0.0114   -69.9460     9.2322    10.0689     9.7556
  798.5000     8.6300   110.3447     2.5186     0.0123   -69.9446     9.1484    10.0693     9.7560
  799.0000     8.6322   108.8339     2.5205     0.0143   -69.9432     9.1491    10.0294     9.7564
  799.5000     8.6344   107.9242     2.5195     0.0163   -70.1422     9.1495    10.0300     9.7570
  800.0000     8.6366   107.3152     2.5335     0.0232   -70.1411     9.1502    10.0710     9.7575
  800.5000     8.6388   105.0129     2.5277     0.0297   -69.8270     9.0191    10.0718     9.6970
  801.0000     8.6222   104.2952     2.5234     0.0242   -70.1369     8.9020    10.0718     9.5859
  801.5000     8.6055   104.2884     2.5224     0.0162   -70.1350     8.9844    10.0721     9.5811
  802.0000     8.6030   102.7783     2.5214     0.0102   -70.1330     9.0677    10.0724     9.5813
  802.5000     8.6225   101.5689     2.5187     0.0112   -70.1310     9.0678    10.0727     9.4941
  803.0000     8.6220   100.0588     2.5159     0.0101   -70.1290     9.1518    10.0729     9.4944
  803.5000     8.6014    98.5486     2.5123     0.0101   -70.1267     9.1522    10.0733     9.4948
  804.0000     8.6008    97.0370     2.5113     0.0091   -69.9243     9.3222    10.0736     9.6711
  804.5000     8.6203    97.0299     2.5263     0.0131   -69.9223     9.4953    10.3546     9.7607
  805.0000     8.5997    97.9249     2.5293     0.0131   -69.9204     9.7609    10.3550     9.8509
  805.5000     8.6193    98.5193     2.5343     0.0170   -69.9184     9.9424    10.3551    10.0340
  806.0000     8.6187    97.9110     2.5372     0.0190   -69.9164     9.9426    10.4507    10.1189
  806.5000     8.6184    98.2046     2.5302     0.0120   -69.7140     9.9427    10.4104    10.1272
  807.0000     8.5981    99.4004     2.5202     0.0050   -69.7121    10.0350    10.4105    10.3562
