~VERSION INFORMATION
 VERS.                2.0:   CWLS LOG ASCII STANDARD - VERSION 2.0
 WRAP.                 NO:   ONE LINE PER DEPTH STEP
~WELL INFORMATION
#MNEM.UNIT      DATA TYPE    INFORMATION
#----------   ------------   ------------------------------
 STRT.F           50.5000:   START DEPTH
 STOP.F         5694.0000:   STOP DEPTH
 STEP.F            0.5000:   STEP LENGTH
 NULL.          -999.2500:   NO VALUE
 COMP. LAWRENCE ALLISON AND ASSOCIATES WEST:   COMPANY
 WELL. LAWRENCE "TX" #57-28:   WELL
 FLD .        TEAPOT DOME:   FIELD
 LOC .      S28 T39N R78W:   LOCATION
 CNTY.            NATRONA:   COUNTY
 STAT.            WYOMING:   STATE
 CTRY. UNITED STATES OF AMERICA:   COUNTRY
 SRVC.       SCHLUMBERGER:   SERVICE COMPANY
 DATE.        26-FEB-1982:   LOGDATE
 API .     49025108850000:   API NUMBER
~CURVE INFORMATION
#MNEM.UNIT       API CODE    CURVE DESCRIPTION
#----------   ------------   ------------------------------
 DEPT.F                  :   
 GRR .GAPI   11 310 01 00:   GAMMA RAY FROM RES.
 CALD.IN     45 280 60 00:   CALIPER FROM DENSITY LOG
 TEND.LBS    45 635 01 00:   TENSION FORM DENSITY LOG
 CORR.G/C3   45 356 01 00:   DENSITY CORRECTION
 RHOB.G/C3   45 350 01 00:   BULK DENSITY
 NPHI.DEC    42 890 03 00:   NEUTRON POROSITY SANDSTONE
 TENR.LBS    06 635 01 00:   TENSION FROM RESISTIVITY
 SPR .MV     11 010 01 00:   SPONTANEOUS POTENTIAL FROM RES.
 LLS .OHMM   11 220 09 00:   LATEROLOG LOG SHALLOW
 LLD .OHMM   11 220 10 00:   LATEROLOG DEEP
 MSFL.OHMM   11 270 04 00:   MICRO SPHERICALLY FOCUSED
~PARAMETER INFORMATION
#MNEM.UNIT          VALUE    DESCRIPTION
#----------   ------------   ------------------------------
 EKB .F         5101.0000:   Kelly bushing
 EGL .F         5091.0000:   Ground level
 EDF .F            0.0000:   Drilling floor
 TD  .F         3248.0000:   Total depth
 CLNT.            A2DTECH:   Client Code
 SL  . 950' FSL & 2100' FEL:   Surface Location
 PD  .                 GL:   Permanent Datum
 EPD .F              5091:   Elevation Permanent Datum
 LMF .                 KB:   Log Measured From
 DMF .                 KB:   Drilling Measured From
 DAPD.F                10:   Feet Above Permanent Datum
 DATE.        26-FEB-1982:   Date Logged [DD-MMM-YYYY]
 DD  .F              3243:   Depth driller
 DL  .F              3248:   Depth logger
 BLI .F              3216:   Bottom log interval
 TLI .F                 0:   Top log interval
 CS1 .IN            9.625:   Casing size
 CBD1.      9.625" @ 401':   Casing driller 1
 CBL1.F               401:   Casing logger 1
 BS1 .IN            7.875:   Bit size
 BSD1.F              3243:   Depth drilled with bit1
 DFT .           CHEM GEL:   Type fluid in hole
 DFD .                8.9:   Density
 DFV .                 55:   Viscosity
 DFPH.                9.5:   pH
 DFL .                 10:   Fluid loss
 MSS .            MUD PIT:   Source of sample
 RMS .OHMM           1.82:   Rm
 MST .F                76:   Rm Meas. temp.
 RMF .OHMM           1.64:   Rmf
 MFST.F                75:   Rmf Meas. temp.
 MFSS.               MEAS:   Source Rmf.
 RMB .OHMM           1.15:   Rm. at BHT
 BHT .F               120:   BHT.
 TCS .HRS            1330:   Time Circ. stopped
 TLAB.HRS            1715:   Time logger at bottom
 MRT .F               120:   Maximum recorded temp.
 LUN .               8043:   Logging unit number
 LUL .               CSPR:   Logging unit location
 ENGI.             TAYLOR:   Recorded By
 WITN.       FIVAS/STRONG:   Witnessed by
 ORIG.      1" 2.5" PRINT:   Origin of data
 UWI .     49025108850000:   Unique Well ID
 DICO. A2D TECHNOLOGIES, INC.:   Digitizing Company
~OTHER INFORMATION
~A   DEPT       GRR      CALD       TEND       CORR       RHOB       NPHI       TENR        SPR        LLS        LLD       MSFL   
# ...
 4930.5000   102.7957    10.0427  1808.9431     0.0003     2.6423     0.1583  1764.3948   -60.8945    21.7758    22.2556    33.9895
 4931.0000   105.2264    10.0424  1808.9431     0.0029     2.6422     0.1571  1764.7115   -60.6956    22.5815    23.4298    34.0417
 4931.5000   105.1042    10.0421  1808.9431     0.0060     2.6452     0.1547  1765.0282   -60.7095    24.1745    24.2317    34.9130
 4932.0000    98.9672    10.0418  1808.9431     0.0082     2.6470     0.1529  1765.3450   -60.5694    24.8491    24.5576    34.1445
 4932.5000    90.3902    10.0415  1808.9431     0.0081     2.6482     0.1535  1765.6616   -60.4281    25.1873    23.8727    32.9820
 4933.0000    87.3374    10.0412  1808.9431     0.0066     2.6481     0.1553  1765.9784   -60.4421    24.4845    22.5699    36.3318
 4933.5000    89.4000    10.0409  1808.9431     0.0050     2.6459     0.1535  1766.2950   -60.4537    23.7493    18.7999    40.5991
 4934.0000   103.2345    10.0406  1808.9431     0.0019     2.6450     0.1511  1766.6118   -60.4653    19.4341    17.2771    38.9164
 4934.5000   107.5056    10.0403  1808.9431    -0.0011     2.6435     0.1574  1766.9286   -60.3724    17.3909    16.5387    28.2305
 4935.0000   109.9363    10.0400  1808.9431     0.0018     2.6465     0.1641  1767.2452   -60.1827    16.4713    15.8317    26.6860
 4935.5000   114.8210    10.0397  1808.9431     0.0037     2.6540     0.1712  1767.5620   -60.1957    15.8944    15.6812    23.8584
 4936.0000   120.3192    10.0394  1808.9431     0.0047     2.6660     0.1865  1767.8787   -60.1022    15.6373    16.0178    20.1437
 4936.5000   118.9211    10.0391  1808.9431     0.0054     2.6612     0.2071  1768.1954   -59.7759    16.0713    17.0286    20.2818
 4937.0000   116.9247    10.0367  1808.9431     0.0046     2.6344     0.2168  1768.5121   -59.5350    16.9857    17.9948    21.2917
 4937.5000   113.2924    10.0026  1808.9431     0.0030     2.6222     0.2180  1768.8289   -59.3272    21.5172    21.2546    25.6435
 4938.0000   106.3301     9.9766  1808.9431    -0.0031     2.6280     0.2119  1769.1456   -59.3395    27.6400    27.2906    31.9592
 4938.5000    95.9865     9.9343  1808.9431    -0.0077     2.6353     0.1942  1769.4623   -59.3517    32.2353    33.3447    41.5148
 4939.0000    83.3579     9.9145  1808.9431    -0.0077     2.6431     0.1564  1769.7791   -59.3640    33.7570    38.2754    43.8711
 4939.5000    81.4941     9.9142  1808.9431    -0.0075     2.6517     0.1256  1770.0957   -59.3761    37.6130    40.0065    47.6713
 4940.0000    80.2438     9.8830  1808.9431    -0.0045     2.6657     0.1173  1770.4125   -59.3884    41.7243    41.8121    61.2284
 4940.5000    78.3801     9.8827  1808.9431    -0.0019     2.6671     0.1144  1770.7291   -59.4006    42.8224    44.0005    58.4344
 4941.0000    73.3986     9.8824  1808.9431     0.0011     2.6641     0.1099  1771.0459   -59.4128    41.2997    41.3024    43.7372
 4941.5000    72.8120     9.8821  1808.9431     0.0033     2.6565     0.1050  1771.3627   -59.4251    43.0415    41.1229    38.5980
 4942.0000    74.1915     9.9126  1808.9431     0.0085     2.6429     0.1062  1771.6793   -59.4395    44.2403    43.6258    44.1131
 4942.5000    74.8469     9.9123  1808.9431     0.0129     2.6478     0.1081  1771.9961   -59.4495    44.8447    43.6056    59.5733
 4943.0000    76.4248     9.9120  1808.9431     0.0099     2.6559     0.1124  1772.3127   -59.4618    43.5934    41.7703    68.8660
 4943.5000    81.9096     9.9425  1808.9431     0.0068     2.6639     0.1163  1772.6295   -59.4740    39.9419    38.6893    67.2336
 4944.0000    91.7022     9.9422  1808.9431     0.0037     2.6518     0.1222  1772.9462   -59.4862    32.0508    33.1393    51.5678
 4944.5000   101.4949     9.9418  1808.9431     0.0007     2.6360     0.1294  1773.2629   -59.4985    25.8712    27.6216    41.8194
 4945.0000   108.8336     9.9415  1808.9431     0.0006     2.6352     0.1406  1773.5797   -59.5107    21.1961    22.0120    29.9166
 4945.5000   116.2917     9.9412  1808.9431     0.0005     2.6366     0.1587  1773.8964   -59.5229    16.9226    16.4788    23.5265
 4946.0000   122.5543     9.9409  1808.9431     0.0020     2.6321     0.1914  1774.2131   -59.5352    15.0809    15.0946    21.8886
 4946.5000   124.7146     9.9406  1808.9431     0.0004     2.6230     0.2084  1774.5298   -59.5498    15.2850    15.0876    20.7899
 4947.0000   124.6871     9.9403  1808.9431    -0.0005     2.6200     0.2212  1774.8466   -59.5614    15.4941    15.5061    21.0014
 4947.5000   123.4760     9.9400  1808.9431    -0.0027     2.6215     0.2200  1775.1632   -59.5730    16.3749    16.8483    23.2033
 4948.0000   118.8482     9.9089  1808.9431    -0.0043     2.6246     0.2093  1775.4800   -59.5846    18.0453    20.7951    27.0431
 4948.5000   108.0454     9.9086  1808.9431    -0.0058     2.6277     0.2004  1775.7968   -59.5963    20.4767    22.5287    32.3963
 4949.0000    90.8441     9.8632  1808.9431    -0.0074     2.6308     0.1889  1776.1134   -59.6086    22.4353    27.0404    42.7852
 4949.5000    84.6859     9.8290  1808.9431    -0.0090     2.6354     0.1721  1776.4302   -59.6208    27.6536    32.7204    52.7030
 4950.0000    79.7546     9.7846  1808.9431    -0.0090     2.6423     0.1498  1776.7468   -59.6330    35.0195    36.8894    63.1355
 4950.5000    78.5031     9.7535  1808.9431    -0.0076     2.6438     0.1319  1777.0636   -59.6453    37.9158    38.1721    69.6655
 4951.0000    78.6088     9.7224  1808.9431    -0.0056     2.6422     0.1192  1777.3802   -59.6575    37.9174    34.6138    70.7054
 4951.5000    80.6875     9.6914  1808.9431    -0.0018     2.6467     0.1183  1777.6970   -59.6697    30.5508    30.1040    68.0379
 4952.0000    84.1230     9.6911  1808.9431     0.0060     2.6587     0.1216  1778.0138   -59.6834    28.4834    27.2978    54.6295
 4952.5000    89.5286     9.7216  1808.9431     0.0163     2.6723     0.1272  1778.3304   -59.6950    26.5560    25.4342    52.1531
 4953.0000    96.1676     9.7212  1808.9431     0.0207     2.6846     0.1323  1778.6472   -59.7064    25.4586    23.9764    50.3448
 4953.5000   104.1197     9.7209  1808.9431     0.0267     2.6918     0.1395  1778.9639   -59.7187    24.0471    22.9180    46.2824
 4954.0000   107.1639     9.7350  1808.9431     0.0266     2.6742     0.1521  1779.2806   -59.7309    22.3170    21.3062    37.5331
 4954.5000   110.8216     9.7818  1808.9431     0.0264     2.6581     0.1625  1779.5973   -59.7431    20.4988    19.4527    33.5562
 4955.0000   113.9458     9.8123  1808.9431     0.0233     2.6555     0.1693  1779.9141   -59.7554    18.9717    17.2844    31.2527
 4955.5000   117.8427     9.8120  1808.9431     0.0197     2.6547     0.1788  1780.3876   -59.7676    16.6598    16.0330    27.5653
 4956.0000   121.1812     9.8425  1808.9431     0.0173     2.6343     0.1952  1780.9196   -59.7821    16.2594    16.0255    23.4140
 4956.5000   120.3026     9.8421  1808.9431     0.0173     2.6268     0.2123  1781.4515   -59.7937    16.9452    16.2425    22.6679
 4957.0000   117.7678     9.8418  1808.9431     0.0149     2.6312     0.2147  1781.9835   -59.8053    17.9093    17.6485    24.9095
 4957.5000   103.9217     9.8415  1808.9431     0.0081     2.6402     0.2041  1782.5155   -59.8169    20.2941    20.4039    28.4387
 4958.0000    93.4690     9.8412  1808.9431    -0.0070     2.6432     0.1802  1783.0474   -59.8407    23.9781    24.4555    37.8886
 4958.5000    87.3107     9.8409  1808.9431    -0.0146     2.6265     0.1639  1783.5793   -60.1468    27.9912    29.5527    51.4530
 4959.0000    85.4469     9.8714  1808.9431    -0.0161     2.6251     0.1545  1784.1113   -60.4648    32.4751    34.9390    65.1711
 4959.5000    84.1963     9.8711  1808.9431    -0.0116     2.6284     0.1434  1784.6433   -60.4771    38.4369    41.4259    74.8754
 4960.0000    83.5583     9.8707  1808.9431    -0.0021     2.6391     0.1272  1785.1753   -60.4893    41.4116    44.0750    76.9506
 4960.5000    82.0139     9.9012  1808.9431     0.0055     2.6574     0.1139  1785.7073   -60.8073    42.6240    44.6718    76.9063
