~VERSION INFORMATION
 VERS.                2.0:   CWLS LOG ASCII STANDARD - VERSION 2.0
 WRAP.                 NO:   ONE LINE PER DEPTH STEP
~WELL INFORMATION
#MNEM.UNIT      DATA TYPE    INFORMATION
#----------   ------------   ------------------------------
 STRT.F          520.0000:   START DEPTH
 STOP.F         3092.0000:   STOP DEPTH
 STEP.F            0.5000:   STEP LENGTH
 NULL.          -999.2500:   NO VALUE
 COMP.    FENIX & SCISSON:   COMPANY
 WELL. FENIX 87 "AX" #3-3:   WELL
 FLD .              N P R:   FIELD
 LOC .       S3 T38N R78W:   LOCATION
 CNTY.            NATRONA:   COUNTY
 STAT.            WYOMING:   STATE
 CTRY. UNITED STATES OF AMERICA:   COUNTRY
 SRVC.              WELEX:   SERVICE COMPANY
 DATE.        30-OCT-1980:   LOGDATE
 API .     49025108510000:   API NUMBER
~CURVE INFORMATION
#MNEM.UNIT       API CODE    CURVE DESCRIPTION
#----------   ------------   ------------------------------
 DEPT.F                  :   
 CALD.IN     45 280 60 00:   CALIPER FROM DENSITY LOG
 GRD .GAPI   45 310 01 00:   GAMMA RAY FROM DENSITY LOG
 RHOB.G/C3   45 350 01 00:   BULK DENSITY
 CORR.G/C3   45 356 01 00:   DENSITY CORRECTION
 SPR .MV     07 010 01 00:   SPONTANEOUS POTENTIAL
 ILD .OHMM   07 120 46 00:   DEEP INDUCTION RESISTIVITY
 ILM .OHMM   07 120 44 00:   INDUCTION LOG MEDIUM RESISTIVITY
 SGRD.OHMM   07 220 05 00:   SHALLOW SHORT GUARD RESISTIVITY
~PARAMETER INFORMATION
#MNEM.UNIT          VALUE    DESCRIPTION
#----------   ------------   ------------------------------
 EKB .F         5131.0000:   Kelly bushing
 EGL .F         5121.0000:   Ground level
 TD  .F         3095.0000:   Total depth
 DATE.        30-OCT-1980:   Date logged
 CLNT.            A2DTECH:   Client Code
 SL  . 910' FWL & 95' FEL:   Surface Location
 PD  .                 GL:   Permanent Datum
 EPD .F              5121:   Elevation Permanent Datum
 LMF .                 KB:   Log Measured From
 DMF .                 KB:   Drilling Measured From
 DD  .F              3095:   Depth driller
 DL  .F              3094:   Depth logger
 BLI .F              3092:   Bottom log interval
 TLI .F               525:   Top log interval
 CS1 .IN            9.625:   Casing size
 CBD1.      9.625" @ 525':   Casing driller 1
 CBL1.F               525:   Casing logger 1
 BS1 .IN            7.875:   Bit size
 DFT .          DISPERSED:   Type fluid in hole
 DFD .                  9:   Density
 DFV .                 40:   Viscosity
 DFPH.                 10:   pH
 DFL .                  8:   Fluid loss
 MSS .             MUDPIT:   Source of sample
 RMS .OHMM           2.40:   Rm
 MST .F                68:   Rm Meas. temp.
 MFST.F                68:   Rmf Meas. temp.
 RMC .OHMM            2.8:   Rmc
 MCST.F                68:   Rmc Meas. temp.
 MFSS.F              MEAS:   Source Rmf.
 RMB .OHMM           1.36:   Rm. at BHT
 BHT .F               120:   BHT.
 TCS .HRS             5.5:   Time Circ. stopped
 MRT .F               120:   Maximum recorded temp.
 LUN .               1891:   Logging unit number
 LUL .             CASPER:   Logging unit location
 ENGI.          PFERIMMER:   Recorded By
 WITN.              FIVAS:   Witnessed by
 ORIG.           5" PRINT:   Origin of data
 UWI .     49025108510000:   Unique Well ID
 DICO. A2D TECHNOLOGIES, INC.:   Digitizing Company
 DAPD.F                10:   Feet Above Permanent Datum
 BSD1.F              3095:   Depth drilled with bit1
 RMF .OHMM           1.92:   Rmf
 MCSS.               MEAS:   Source Rmc.
~OTHER INFORMATION
~A   DEPT     CALD        GRD       RHOB       CORR        SPR          ILD        ILM      SGRD  
# ...
 1694.5000     8.5390   103.2890     2.6100     0.0420   -26.4130     6.3830     9.0710    10.3060
 1695.0000     8.5390   102.8980     2.5950     0.0350   -26.4130     6.2570     8.8230    10.2280
 1695.5000     8.5400   102.5060     2.5800     0.0280   -26.4130     6.1890     8.7420    10.1490
 1696.0000     8.5460   102.1180     2.5650     0.0210   -26.4130     6.1210     8.6400    10.0700
 1696.5000     8.5520   102.0120     2.5540     0.0180   -26.4130     6.0520     8.5870     9.9920
 1697.0000     8.5580   102.4440     2.5540     0.0240   -26.4130     5.9840     8.5330     9.9130
 1697.5000     8.5640   102.8050     2.5530     0.0290   -26.4130     5.9160     8.4800     9.8580
 1698.0000     8.5700   102.6960     2.5470     0.0350   -26.4130     5.8480     8.4240     9.8580
 1698.5000     8.5760   102.0730     2.5320     0.0400   -26.4130     5.7790     8.4240     9.9060
 1699.0000     8.5760   101.6630     2.5170     0.0440   -26.4130     5.7110     8.3470     9.9890
 1699.5000     8.5710   102.4630     2.5030     0.0380   -26.4130     5.6600     8.4100    10.0720
 1700.0000     8.5670   103.1060     2.4980     0.0330   -26.4130     5.7270     8.4860    10.1550
 1700.5000     8.5620   103.7170     2.5180     0.0280   -26.4130     5.7910     8.5610    10.2380
 1701.0000     8.5570   102.8280     2.5350     0.0260   -26.4130     5.8190     8.6370    10.3210
 1701.5000     8.5530   101.8040     2.5320     0.0320   -26.4130     5.8190     8.7130    10.4040
 1702.0000     8.5480   101.0080     2.5290     0.0370   -26.4130     5.7750     8.7890    10.4870
 1702.5000     8.5440   100.8260     2.5270     0.0400   -26.4130     5.7300     8.8640    10.5180
 1703.0000     8.5390   100.7280     2.5310     0.0350   -26.4130     5.6850     8.9050    10.3630
 1703.5000     8.5350   101.2830     2.5360     0.0300   -26.4130     5.6400     8.9050    10.2150
 1704.0000     8.5300   101.8390     2.5490     0.0260   -26.4130     5.5950     8.8060    10.0680
 1704.5000     8.5260   102.3980     2.5670     0.0290   -26.4130     5.5500     8.6690     9.9200
 1705.0000     8.5210   102.9560     2.5700     0.0330   -26.4130     5.5050     8.5310     9.8580
 1705.5000     8.5210   103.5140     2.5690     0.0380   -26.4130     5.4550     8.4240     9.7680
 1706.0000     8.5220   104.0710     2.5700     0.0420   -26.4130     5.4050     8.4520     9.7680
 1706.5000     8.5240   104.6310     2.5760     0.0450   -26.4130     5.4280     8.5640     9.8780
 1707.0000     8.5260   105.1880     2.5790     0.0430   -26.4130     5.5130     8.6760     9.9550
 1707.5000     8.5280   105.7340     2.5770     0.0410   -26.4130     5.5980     8.7870    10.0310
 1708.0000     8.5300   105.4660     2.5740     0.0390   -26.4130     5.6820     8.8990    10.1070
 1708.5000     8.5320   104.3080     2.5710     0.0360   -26.4130     5.7670     8.9880    10.1840
 1709.0000     8.5330   103.1580     2.5680     0.0340   -26.4130     5.8520     8.9190    10.2600
 1709.5000     8.5350   102.0020     2.5660     0.0320   -26.4130     5.9360     8.8630    10.3370
 1710.0000     8.5370   100.8480     2.5680     0.0290   -26.4130     6.0210     8.8060    10.4210
 1710.5000     8.5390    99.6930     2.5720     0.0270   -26.4130     6.0950     8.7500    10.4210
 1711.0000     8.5400    98.5410     2.5760     0.0260   -26.4130     6.0190     8.6930    10.3690
 1711.5000     8.5420    97.3750     2.5740     0.0250   -26.4130     5.9610     8.6370    10.2980
 1712.0000     8.5440    97.2210     2.5680     0.0240   -26.4130     5.9040     8.5820    10.2270
 1712.5000     8.5460    97.7180     2.5610     0.0240   -26.4130     5.8470     8.5810    10.1570
 1713.0000     8.5490    98.2290     2.5610     0.0230   -26.4130     5.7890     8.5810    10.0860
 1713.5000     8.5510    98.7440     2.5700     0.0220   -26.4130     5.7320     8.5810    10.0150
 1714.0000     8.5530    99.2380     2.5760     0.0220   -26.4130     5.6750     8.6290     9.9450
 1714.5000     8.5550    98.8890     2.5710     0.0210   -26.4130     5.6600     8.6810     9.8740
 1715.0000     8.5570    98.4880     2.5660     0.0210   -26.4130     5.6980     8.7340     9.8580
 1715.5000     8.5590    98.0910     2.5640     0.0240   -26.4130     5.7370     8.7860     9.9630
 1716.0000     8.5630    97.6940     2.5720     0.0260   -26.4130     5.7760     8.8380    10.0930
 1716.5000     8.5710    97.2790     2.5790     0.0290   -26.4130     5.8150     8.8910    10.2220
 1717.0000     8.5790    97.5950     2.5840     0.0310   -26.4050     5.9280     8.9430    10.3520
 1717.5000     8.5880    98.1030     2.5860     0.0340   -26.3890     5.9830     8.9980    10.4820
 1718.0000     8.5960    98.6100     2.5820     0.0360   -26.3720     6.0950     9.0720    10.6110
 1718.5000     8.6040    98.8890     2.5740     0.0390   -26.3560     6.1220     9.0710    10.7410
 1719.0000     8.6120    98.5160     2.5730     0.0410   -26.3400     6.1690     9.0710    10.8710
 1719.5000     8.6150    98.1350     2.5800     0.0440   -26.3240     6.2150     9.0710    11.0000
 1720.0000     8.5990    98.5130     2.5890     0.0420   -26.3070     6.2620     9.0710    11.1180
 1720.5000     8.5830    99.1010     2.5970     0.0390   -26.2910     6.3080     9.0330    10.9780
 1721.0000     8.5670    99.7040     2.5970     0.0370   -26.2750     6.3540     8.9600    10.8240
 1721.5000     8.5510   100.3030     2.5930     0.0340   -26.2590     6.3830     8.8870    10.6690
 1722.0000     8.5350   100.9100     2.5900     0.0310   -26.2420     6.1920     8.8140    10.5150
 1722.5000     8.5200   100.7560     2.5910     0.0280   -26.2260     6.0990     8.7410    10.3600
 1723.0000     8.5210   100.0450     2.5940     0.0250   -26.2100     6.0050     8.6670    10.2060
 1723.5000     8.5240    99.3430     2.5960     0.0220   -26.1930     5.9120     8.5940    10.0510
 1724.0000     8.5270    99.2550     2.5980     0.0190   -26.1770     5.8190     8.5210     9.8970
 1724.5000     8.5300    99.5840     2.6010     0.0160   -26.1610     5.7260     8.4650     9.7420
 1725.0000     8.5330   100.0190     2.6030     0.0130   -26.1450     5.6320     8.4240     9.6780
 1725.5000     8.5360   100.4590     2.6020     0.0150   -26.1280     5.5390     8.4240     9.5890
 1726.0000     8.5380   100.9130     2.5960     0.0170   -26.1120     5.5020     8.4240     9.6050
 1726.5000     8.5580   101.3240     2.5900     0.0200   -26.0960     5.4960     8.4240     9.6200
 1727.0000     8.5490   101.5580     2.5830     0.0310   -26.0790     5.4900     8.4240     9.6360
 1727.5000     8.5370   101.2740     2.5780     0.0420   -26.0630     5.4840     8.3460     9.6510
 1728.0000     8.5230   101.0250     2.5650     0.0420   -26.0470     5.4780     8.3450     9.6670
 1728.5000     8.5420   100.7890     2.5520     0.0410   -26.0310     5.4730     8.3470     9.6830
 1729.0000     8.6140    99.9930     2.5250     0.0410   -26.0140     5.4670     8.3470     9.6980
 1729.5000     8.5930    99.1380     2.5000     0.0380   -25.9980     5.4610     8.3470     9.7140
 1730.0000     8.5700    98.2790     2.4750     0.0340   -25.9820     5.4550     8.3470     9.7300
 1730.5000     8.5480    97.4170     2.4500     0.0310   -25.9650     5.3500     8.3470     9.7450
 1731.0000     8.5250    96.6580     2.4230     0.0270   -25.9490     5.2020     8.3470     9.7610
 1731.5000     8.5020    97.3070     2.3760     0.0230   -25.9330     5.0540     8.2700     9.7690
 1732.0000     8.5260    97.9800     2.3680     0.0190   -25.9170     4.9060     7.9850     9.7670
 1732.5000     8.5550    98.6430     2.4600     0.0150   -25.9000     4.7580     7.6970     9.5000
 1733.0000     8.5840    99.3210     2.5250     0.0170   -25.8840     4.6100     7.4100     8.6460
 1733.5000     8.6130    99.0180     2.5220     0.0210   -25.8680     4.4620     7.1220     7.4850
 1734.0000     8.6420    98.1740     2.5300     0.0240   -25.8520     4.3140     6.8730     6.3240
 1734.5000     8.6710    97.3180     2.5390     0.0270   -25.8350     4.1660     7.0060     5.2570
