~VERSION INFORMATION
 VERS.                2.0:   CWLS LOG ASCII STANDARD - VERSION 2.0
 WRAP.                 NO:   ONE LINE PER DEPTH STEP
~WELL INFORMATION
#MNEM.UNIT      DATA TYPE    INFORMATION
#----------   ------------   ------------------------------
 STRT.F          297.0000:   START DEPTH
 STOP.F         2946.0000:   STOP DEPTH
 STEP.F            0.5000:   STEP LENGTH
 NULL.          -999.2500:   NO VALUE
 COMP.    FENIX & SCISSON:   COMPANY
 WELL. FENIX & SCISSON SH "X" #17-10:   WELL
 FLD .             NPR #3:   FIELD
 LOC .      S10 T38N R78W:   LOCATION
 CNTY.            NATRONA:   COUNTY
 STAT.            WYOMING:   STATE
 CTRY. UNITED STATES OF AMERICA:   COUNTRY
 SRVC.       SCHLUMBERGER:   SERVICE COMPANY
 DATE.        05-APR-1977:   LOGDATE
 API .     49025103310000:   API NUMBER
~CURVE INFORMATION
#MNEM.UNIT       API CODE    CURVE DESCRIPTION
#----------   ------------   ------------------------------
 DEPT.F                  :   
 SPR .MV     07 010 01 00:   SPONTANEOUS POTENTIAL
 ILD .OHMM   07 120 46 00:   DEEP INDUCTION RESISTIVITY
 ILM .OHMM   07 120 44 00:   INDUCTION LOG MEDIUM RESISTIVITY
 LL8 .OHMM   07 220 08 00:   LATEROLOG-8 RES.
 CALD.IN     45 280 60 00:   CALIPER FROM DENSITY LOG
 GRD .GAPI   45 310 01 00:   GAMMA RAY FROM DENSITY LOG
 CORR.G/C3   45 356 01 00:   DENSITY CORRECTION
 RHOB.G/C3   45 350 01 00:   BULK DENSITY
~PARAMETER INFORMATION
#MNEM.UNIT          VALUE    DESCRIPTION
#----------   ------------   ------------------------------
 EKB .F         5270.0000:   Kelly bushing
 EGL .F         5260.0000:   Ground level
 TD  .F         2950.0000:   Total depth
 CLNT.            A2DTECH:   Client Code
 SL  . 205' FWL & 1115' FSL:   Surface Location
 DATE.        05-APR-1977:   Date Logged [DD-MMM-YYYY]
 DD  .F              2950:   Depth driller
 DL  .F              2948:   Depth logger
 BLI .F              2946:   Bottom log interval
 TLI .F               310:   Top log interval
 CS1 .              10.75:   Casing size
 CBD1.      10.75" @ 300':   Casing driller 1
 CBL1.IN              310:   Casing logger 1
 BS1 .IN            8.625:   Bit size
 BSD1.F              2950:   Depth drilled with bit1
 DFT .                KCL:   Type fluid in hole
 DFD .                9.0:   Density
 DFV .                 33:   Viscosity
 DFL .                  9:   Fluid loss
 MSS .            MUD PIT:   Source of sample
 RMS .OHMM          0.153:   Rm
 MST .F                60:   Rm Meas. temp.
 RMF .OHMM          0.130:   Rmf
 MFST.F                60:   Rmf Meas. temp.
 MFSS.               MEAS:   Source Rmf.
 RMC .OHMM          0.229:   Rmc
 MCST.F                60:   Rmc Meas. temp.
 MCSS.               CALC:   Source Rmc.
 RMB .OHMM           0.08:   Rm. at BHT
 BHT .F               115:   BHT.
 TCS .HRS               6:   Time Circ. stopped
 MRT .F               115:   Maximum recorded temp.
 LUN .               7689:   Logging unit number
 LUL .               CODY:   Logging unit location
 ENGI.             RASMUS:   Recorded By
 WITN.              LYONS:   Witnessed by
 ORIG.         2.5" PRINT:   Origin of data
 UWI .     49025103310000:   Unique Well ID
 DICO. A2D TECHNOLOGIES, INC.:   Digitizing Company
 PD  .                 GL:   Permanent Datum
 EPD .               5260:   Elevation Permanent Datum
 LMF .                 KB:   Log Measured From
 DMF .                 KB:   Drilling Measured From
 DAPD.                 10:   Feet Above Permanent Datum
~OTHER INFORMATION
~A   DEPT      SPR        ILD        ILM        LL8       CALD        GRD       CORR       RHOB   
# ...
  661.5000   -51.1475     4.0951     4.2118     6.9685    11.1341   100.3505     0.0191     2.4513
  662.0000   -50.8941     4.0954     4.2698     6.9699    11.1349   103.0550     0.0221     2.4596
  662.5000   -50.8824     4.1521     4.2722     6.9713    11.1356   108.5899     0.0236     2.4652
  663.0000   -50.8706     4.1524     4.3323     6.9727    11.1657   107.9073     0.0246     2.4697
  663.5000   -50.8588     4.1527     4.3933     6.9742    11.1664   104.6585     0.0202     2.4713
  664.0000   -50.8470     4.1530     4.4485     6.9756    11.1671   102.3831     0.0202     2.4772
  664.5000   -50.8353     4.1532     4.4485     6.9770    11.1679   102.8229     0.0217     2.4858
  665.0000   -50.8235     4.1535     4.4485     6.9784    11.1686   104.3548     0.0238     2.4979
  665.5000   -51.1076     4.1538     4.4485     6.9799    11.1694   104.8174     0.0262     2.5092
  666.0000   -51.0941     4.1541     4.4485     6.9813    11.1701   102.7175     0.0165     2.5175
  666.5000   -51.0824     4.1544     4.4485     6.9306    11.1708   102.4888     0.0135     2.5178
  667.0000   -51.0706     4.1547     4.4485     6.8894    11.1716   103.8796     0.0128     2.4982
  667.5000   -51.0588     4.1549     4.3881     6.8908    11.1723   102.5733     0.0143     2.4850
  668.0000   -51.3434     4.1552     4.3881     6.8925    11.1730   100.4650     0.0158     2.4821
  668.5000   -51.3294     4.1555     4.3285     6.8939    11.1738   101.0602     0.0143     2.4880
  669.0000   -51.3177     4.0436     4.2510     6.8014    11.1745   101.9487     0.0129     2.4899
  669.5000   -51.3059     3.9347     4.1352     6.7106    11.1752   102.3437     0.0114     2.4778
  670.0000   -51.2941     3.8287     4.0226     6.5312    11.2053   103.7256     0.0173     2.4630
  670.5000   -51.2824     3.7256     3.8925     6.2701    11.2232   106.0804     0.0292     2.4542
  671.0000   -51.2706     3.6736     3.7853     6.1023    11.2655   106.3823     0.0277     2.4541
  671.5000   -51.2588     3.5762     3.6524     5.8584    11.2956   104.0450     0.0232     2.4632
  672.0000   -51.2470     3.5278     3.6240     4.9734    11.3256   101.7077     0.0188     2.4706
  672.5000   -51.2353     3.5281     3.6240     4.7097    11.3264   102.8894     0.0159     2.4558
  673.0000   -51.2235     3.5769     3.6739     4.8412    11.3271   103.4846     0.0114     2.4381
  673.5000   -51.2118     3.6323     3.7001     5.9438    11.2985   102.0270     0.0055     2.4385
  674.0000   -51.2000     3.7857     3.7757     6.6318    11.2992   101.4492     0.0085     2.4462
  674.5000   -50.8941     3.9000     3.8572     6.8169    11.3000   102.3377     0.0159     2.4568
  675.0000   -50.8824     4.0562     3.9653     7.0073    11.3007   103.2262     0.0218     2.4646
  675.5000   -50.5741     4.1700     4.0427     7.0087    11.3014   103.5281     0.0218     2.4790
  676.0000   -50.5624     4.2287     4.1547     7.0101    11.3021   103.5368     0.0172     2.4959
  676.5000   -50.2567     4.2883     4.2118     7.0115    11.3029   102.9590     0.0114     2.5030
  677.0000   -50.2450     4.3944     4.2698     7.0130    11.3036   101.2054     0.0080     2.5081
  677.5000   -50.5274     4.4553     4.2698     6.9191    11.3043    99.7433     0.0024     2.4845
  678.0000   -50.5157     4.5335     4.3285     7.0158    11.3050    99.4661     0.0026     2.4641
  678.5000   -50.5059     4.6427     4.3881     7.2117    11.3058    99.4951     0.0047     2.4609
  679.0000   -50.4941     4.6430     4.4485     7.3124    11.3358    99.8035     0.0106     2.4639
  679.5000   -50.4824     4.6433     4.4485     7.4145    11.3365   100.0792     0.0149     2.4752
  680.0000   -50.4706     4.6436     4.5097     7.4160    11.3373   104.1944     0.0193     2.4849
  680.5000   -50.7534     4.6439     4.5717     7.5196    11.3381   110.0682     0.0219     2.4918
  681.0000   -50.7411     4.6442     4.5717     7.6246    11.3388   109.7837     0.0234     2.4967
  681.5000   -50.7294     4.6445     4.6346     7.6261    11.3396   109.2059     0.0129     2.4982
  682.0000   -50.7177     4.6449     4.6984     7.6277    11.3403   108.0415     0.0041     2.4953
  682.5000   -50.7059     4.6452     4.6984     7.6293    11.3410   106.8772     0.0012     2.4850
  683.0000   -50.6941     4.6455     4.6984     7.6309    11.3417   105.4197     0.0027     2.4761
  683.5000   -50.7329     4.6458     4.6984     7.7374    11.3425   103.6688     0.0042     2.4718
  684.0000   -50.9658     4.6461     4.6984     7.7532    11.3432   104.5573     0.0027     2.4718
  684.5000   -50.9529     4.6464     4.6984     7.8471    11.3439   105.1539     0.0012     2.4748
  685.0000   -50.9411     4.6788     4.6984     7.9567    11.3152   103.0935     0.0019     2.4778
  685.5000   -50.9294     4.7111     4.6984     7.9784    11.3161   101.3352     0.0079     2.4867
  686.0000   -51.2132     4.7115     4.6984     8.0917    11.3168   100.4517     0.0139     2.4942
  686.5000   -51.2000     4.7767     4.6984     8.1822    11.3175    99.6155     0.0198     2.4957
  687.0000   -51.1882     4.7770     4.6984     8.1839    11.3182    99.6246     0.0250     2.4942
  687.5000   -51.1765     4.7774     4.6984     8.1855    11.3190    99.9267     0.0175     2.4913
  688.0000   -51.4606     4.7777     4.6984     8.1872    11.3197   100.2718     0.0146     2.4899
  688.5000   -51.4470     4.7781     4.6984     8.1574    11.3204   101.6080     0.0252     2.4932
  689.0000   -51.4353     4.7784     4.6984     7.9373    11.3211   105.3137     0.0282     2.4963
  689.5000   -51.4235     4.7787     4.6984     7.6184    11.3219   109.8258     0.0207     2.4975
  690.0000   -51.4118     4.7141     4.6984     7.4462    11.3226   110.5278     0.0198     2.4956
  690.5000   -51.4000     4.7144     4.6984     7.4480    11.3233   110.8299     0.0272     2.4946
  691.0000   -51.3883     4.7147     4.6984     7.4495    11.3240   110.4643     0.0369     2.5051
  691.5000   -51.3765     4.7150     4.6984     7.4511    11.3248   109.5870     0.0421     2.5136
  692.0000   -51.4901     4.6512     4.6346     7.4121    11.3255   109.0029     0.0428     2.5197
  692.5000   -51.6470     4.5883     4.6346     7.3114    11.3262   108.4189     0.0324     2.5194
  693.0000   -51.6353     4.5263     4.6346     7.1140    11.3270   108.1281     0.0221     2.5119
  693.5000   -51.7623     4.4651     4.5717     7.0174    11.3277   107.8373     0.0132     2.5029
  694.0000   -51.9059     4.4047     4.5672     6.8280    11.3284   106.6568     0.0103     2.4931
  694.5000   -51.6000     4.2861     4.5097     6.6005    11.3292   105.8728     0.0099     2.4832
  695.0000   -51.5883     4.2281     4.4414     6.2902    11.3299   106.8035     0.0147     2.4788
  695.5000   -51.5765     4.1709     4.3204     5.9953    11.3307   107.1056     0.0177     2.4818
  696.0000   -51.5647     4.0034     4.1368     5.6386    11.3314   107.1144     0.0177     2.4893
  696.5000   -51.5529     3.8426     3.9683     5.4864    11.3321   107.1232     0.0147     2.4982
  697.0000   -51.5412     3.6883     3.7963     5.3067    11.3329   107.1320     0.0133     2.4938
  697.5000   -51.3554     3.4921     3.5428     4.8900    11.3336   106.3562     0.0088     2.4717
  698.0000   -51.2212     3.2170     3.2803     4.3845    11.3343   102.7803     0.0029     2.4451
  698.5000   -51.2096     2.7300     2.7953     4.0402    11.3432   100.1220     0.0000     2.4259
  699.0000   -50.9038     2.2852     2.5403     3.7229    11.3651    98.9560    -0.0030     2.3890
  699.5000   -50.5980     2.0483     2.3086     3.3381    11.3658    99.2596    -0.0030     2.3446
  700.0000   -50.2347     1.6012     1.8015     2.6830    11.3665    98.3946     0.0000     2.2242
  700.5000   -50.0434     1.4347     1.3928     2.1848    11.3673    95.7580     0.0163     2.1696
  701.0000   -49.9735     1.3764     1.3372     1.7625    11.3680    96.9569     0.0474     2.1372
  701.5000   -49.9603     1.3679     1.3376     1.6678    11.3688    99.2976     0.1406     2.0693
