~VERSION INFORMATION
 VERS.                2.0:   CWLS LOG ASCII STANDARD - VERSION 2.0
 WRAP.                 NO:   ONE LINE PER DEPTH STEP
~WELL INFORMATION
#MNEM.UNIT      DATA TYPE    INFORMATION
#----------   ------------   ------------------------------
 STRT.F          200.0000:   START DEPTH
 STOP.F         3058.0000:   STOP DEPTH
 STEP.F            0.5000:   STEP LENGTH
 NULL.          -999.2500:   NO VALUE
 COMP.    FENIX & SCISSON:   COMPANY
 WELL. FENIX & SCISSON "A" #45-34:   WELL
 FLD .              N P R:   FIELD
 LOC .      S34 T39N R78W:   LOCATION
 CNTY.            NATRONA:   COUNTY
 STAT.            WYOMING:   STATE
 CTRY. UNITED STATES OF AMERICA:   COUNTRY
 SRVC.              WELEX:   SERVICE COMPANY
 DATE.        11-MAY-1977:   LOGDATE
 API .     49025103760000:   API NUMBER
~CURVE INFORMATION
#MNEM.UNIT       API CODE    CURVE DESCRIPTION
#----------   ------------   ------------------------------
 DEPT.F                  :   
 GRD .GAPI   45 310 01 00:   GAMMA RAY FROM DENSITY LOG
 CALD.IN     45 280 60 00:   CALIPER FROM DENSITY LOG
 RHOB.G/C3   45 350 01 00:   BULK DENSITY
 CORR.G/C3   45 356 01 00:   DENSITY CORRECTION
 SPR .MV     07 010 01 00:   SPONTANEOUS POTENTIAL
 ILD .OHMM   07 120 46 00:   DEEP INDUCTION RESISTIVITY
 ILM .OHMM   07 120 44 00:   INDUCTION LOG MEDIUM RESISTIVITY
 GURD.OHMM   07 220 05 00:   GUARD LOG RESISTIVITY
~PARAMETER INFORMATION
#MNEM.UNIT          VALUE    DESCRIPTION
#----------   ------------   ------------------------------
 EKB .F         5123.0000:   Kelly bushing
 EGL .F         5113.0000:   Ground level
 EDF .F            0.0000:   Drilling floor
 EPD .F            0.0000:   Permanent datum
 TD  .F         3060.0000:   Total depth
 DATE.        11-MAY-1977:   Date logged
 CLNT.            A2DTECH:   Client Code
 SL  . 2310' FSL & 2310' FWL:   Surface Location
 PD  .                 GL:   Permanent Datum
 DD  .F              3060:   Depth driller
 DL  .F              3060:   Depth logger
 BLI .F              3058:   Bottom log interval
 CS1 .IN            8.625:   Casing size
 CBD1.      8.625" @ 205':   Casing driller 1
 CBL1.F               214:   Casing logger 1
 BS1 .IN            7.875:   Bit size
 DFT .            KCL/MUD:   Type fluid in hole
 DFD .                8.8:   Density
 DFV .                 45:   Viscosity
 MSS .           FLOWLINE:   Source of sample
 RMS .OHMM            3.2:   Rm
 MST .F                85:   Rm Meas. temp.
 RMF .OHMM            2.7:   Rmf
 MFST.F                85:   Rmf Meas. temp.
 RMC .OHMM            3.6:   Rmc
 MCST.F                85:   Rmc Meas. temp.
 MFSS.               CALC:   Source Rmf.
 RMB .OHMM           2.44:   Rm. at BHT
 BHT .F               112:   BHT.
 TCS .HRS             2.5:   Time Circ. stopped
 MRT .F               112:   Maximum recorded temp.
 LUN .               8611:   Logging unit number
 LUL .           GILLETTE:   Logging unit location
 ENGI.            C. DOAK:   Recorded By
 WITN.      B. HARRINGTON:   Witnessed by
 ORIG.           5" PRINT:   Origin of data
 UWI .     49025103760000:   Unique Well ID
 DICO. A2D TECHNOLOGIES, INC.:   Digitizing Company
 DAPD.F                10:   Feet Above Permanent Datum
 BSD1.F              3060:   Depth drilled with bit1
 MCSS.               CALC:   Source Rmc.
 TLI .F               200:   Top log interval
~OTHER INFORMATION
~A   DEPT       GRD      CALD         RHOB      CORR       SPR        ILD        ILM       GURD   
# ...
 1901.0000   127.0760     9.2280     2.3360     0.0160   -42.5890     5.1160     5.5230     7.3410
 1901.5000   126.6400     9.2340     2.3020     0.0190   -43.5210     4.8330     5.2510     7.1920
 1902.0000   125.6030     9.2390     2.2660     0.0220   -44.4270     4.5500     5.0250     7.0140
 1902.5000   124.5520     9.2450     2.2300     0.0260   -45.3720     4.2670     4.7990     6.3720
 1903.0000   123.5160     9.2510     2.1910     0.0270   -46.0150     3.9840     4.5730     5.7290
 1903.5000   122.3160     9.2560     2.1590     0.0280   -45.5750     3.7010     4.3470     4.6280
 1904.0000   122.7330     9.2610     2.1180     0.0200   -43.7310     3.3620     4.1210     3.8940
 1904.5000   124.4380     9.2610     2.1500     0.0060   -41.7470     3.5130     3.8940     5.3440
 1905.0000   125.9840     9.2610     2.2190    -0.0050   -40.1550     3.7010     4.2090     6.5520
 1905.5000   127.5320     9.2610     2.4130     0.0060   -39.3670     3.8890     4.5230     7.5540
 1906.0000   129.0820     9.2610     2.4690     0.0100   -38.6140     4.1150     4.8370     7.9200
 1906.5000   130.7340     9.2560     2.4620     0.0080   -38.1980     4.4010     5.1510     8.0660
 1907.0000   131.1830     9.2490     2.4590     0.0080   -38.2470     4.7570     5.4650     8.2130
 1907.5000   130.6010     9.2430     2.4640     0.0110   -38.2340     5.1140     5.7790     8.3600
 1908.0000   130.1280     9.2360     2.4820     0.0110   -38.2330     5.4700     6.0930     8.5070
 1908.5000   129.6290     9.2300     2.4890     0.0100   -38.2370     5.8270     6.3540     8.6530
 1909.0000   129.1780     9.2230     2.4730     0.0060   -38.2340     6.1840     6.5370     8.8000
 1909.5000   127.5180     9.2200     2.4600     0.0030   -38.2350     6.4020     6.7210     8.9470
 1910.0000   127.0230     9.1980     2.4490    -0.0010   -38.2350     6.4130     6.9040     9.0940
 1910.5000   128.0840     9.1740     2.4480    -0.0040   -38.2350     6.4240     7.0140     9.2410
 1911.0000   128.9680     9.1490     2.4480    -0.0080   -38.2350     6.4350     7.0140     9.2920
 1911.5000   129.8680     9.1420     2.4480    -0.0110   -38.2350     6.4460     7.0140     9.3440
 1912.0000   130.8030     9.1420     2.4480    -0.0120   -38.2350     6.4580     7.0140     9.3960
 1912.5000   131.6680     9.1420     2.4440    -0.0080   -38.2350     6.4690     7.0140     9.4480
 1913.0000   132.9320     9.1420     2.4400    -0.0060   -38.2350     6.4800     7.0140     9.5000
 1913.5000   134.5390     9.1420     2.4360    -0.0030   -38.2350     6.4910     7.0130     9.5520
 1914.0000   136.1750     9.1420     2.4420     0.0000   -38.2350     6.5020     7.0140     9.6040
 1914.5000   137.7280     9.1420     2.4550     0.0030   -38.2350     6.5130     7.0140     9.6550
 1915.0000   139.0560     9.1420     2.4560     0.0060   -38.2350     6.5240     7.0140     9.7070
 1915.5000   137.7690     9.1420     2.4580     0.0060   -38.2350     6.5350     7.0140     9.7590
 1916.0000   136.5390     9.1420     2.4580     0.0040   -38.2350     6.5460     7.0140     9.8110
 1916.5000   135.1850     9.1420     2.4620     0.0030   -38.2350     6.5570     7.0140     9.8630
 1917.0000   133.9180     9.1420     2.4690     0.0020   -38.2350     6.5680     7.0140     9.9460
 1917.5000   132.5790     9.1420     2.4770     0.0000   -38.2350     6.5800     7.0140     9.8840
 1918.0000   131.3340     9.1420     2.4700    -0.0010   -38.2350     6.5900     7.0140     9.7290
 1918.5000   129.9100     9.1420     2.4610    -0.0030   -38.2350     6.6020     7.0140     9.5750
 1919.0000   129.8270     9.1420     2.4510    -0.0040   -38.2350     6.6130     7.0140     9.4200
 1919.5000   129.8120     9.1420     2.4520    -0.0050   -38.2350     6.6230     7.0140     9.2660
 1920.0000   130.6360     9.1420     2.4590    -0.0020   -38.2350     6.6360     7.0140     9.1110
 1920.5000   131.5920     9.1420     2.4650     0.0010   -38.2350     6.6180     7.0140     8.9560
 1921.0000   132.5910     9.1420     2.4710     0.0040   -38.2350     6.5940     7.0140     8.8020
 1921.5000   133.5530     9.1420     2.4780     0.0070   -38.2350     6.5700     7.0140     8.6470
 1922.0000   134.5150     9.1420     2.4840     0.0100   -38.2350     6.5460     7.0140     8.5850
 1922.5000   135.5900     9.1420     2.4840     0.0110   -38.2350     6.5220     7.0140     8.7620
 1923.0000   135.8190     9.1420     2.4840     0.0090   -38.2350     6.4980     7.0140     8.9090
 1923.5000   134.9460     9.1420     2.4850     0.0070   -38.2350     6.4740     7.0140     9.0570
 1924.0000   134.1910     9.1420     2.4910     0.0070   -38.2350     6.4500     7.0140     9.2040
 1924.5000   133.4170     9.1420     2.4970     0.0140   -38.2350     6.4270     7.0130     9.3510
 1925.0000   132.6170     9.1420     2.5030     0.0200   -38.2350     6.3990     7.0140     9.4980
 1925.5000   131.8510     9.1420     2.5090     0.0270   -38.2350     6.3740     7.0140     9.5870
 1926.0000   131.0800     9.1420     2.5130     0.0340   -38.2350     6.3420     7.0150     9.3820
 1926.5000   130.2110     9.1420     2.5110     0.0400   -38.2350     6.3120     7.0150     9.1770
 1927.0000   130.0660     9.1420     2.5060     0.0460   -38.2350     6.2810     6.9680     8.9720
 1927.5000   130.9660     9.1420     2.4970     0.0470   -38.2360     6.2510     6.8890     8.7670
 1928.0000   131.7630     9.1430     2.4830     0.0470   -38.2330     6.2200     6.8110     8.5620
 1928.5000   132.5850     9.1440     2.4700     0.0460   -38.2380     6.1890     6.7320     8.3570
 1929.0000   133.4110     9.1690     2.4570     0.0350   -38.2400     6.1590     6.6530     8.2530
 1929.5000   134.2380     9.1880     2.4480     0.0250   -38.4560     6.1280     6.5740     8.2160
 1930.0000   135.0410     9.2120     2.4390     0.0150   -38.7410     6.0970     6.4960     8.1780
 1930.5000   135.8640     9.2300     2.4310     0.0070   -39.0170     6.0670     6.4180     8.1410
 1931.0000   135.7060     9.2510     2.4220     0.0070   -39.3040     6.0360     6.3390     8.1040
 1931.5000   135.1630     9.2270     2.4150     0.0060   -39.5800     6.0060     6.2610     8.0660
 1932.0000   134.6360     9.2110     2.4100     0.0050   -39.7720     5.9750     6.1670     8.0290
 1932.5000   134.1330     9.1920     2.4040     0.0040   -39.4570     5.9440     6.1830     7.9920
 1933.0000   133.5830     9.1740     2.3990     0.0040   -39.1950     5.9750     6.2240     7.9770
 1933.5000   133.0770     9.1560     2.3960     0.0040   -38.9040     6.0050     6.2650     8.3020
 1934.0000   131.5400     9.1380     2.4240     0.0100   -38.6310     6.0360     6.3060     8.7080
 1934.5000   129.5520     9.1200     2.4480     0.0170   -38.3420     6.0670     6.3460     9.1140
 1935.0000   127.6230     9.1010     2.4750     0.0240   -38.2210     6.0970     6.3870     9.5210
 1935.5000   125.6550     9.0830     2.4810     0.0310   -38.2220     6.1280     6.4280     9.9460
 1936.0000   124.8000     9.0650     2.4700     0.0260   -38.2100     6.1590     6.4690     9.6570
 1936.5000   124.4300     9.0620     2.4600     0.0190   -38.1990     6.1890     6.5100     9.3690
 1937.0000   124.6470     9.0580     2.4490     0.0110   -38.1910     6.2200     6.5510     9.0800
 1937.5000   125.1590     9.0550     2.4440     0.0040   -38.1800     6.2500     6.5920     8.8440
 1938.0000   125.5970     9.0520     2.4390    -0.0020   -38.1710     6.2810     6.6320     8.6860
 1938.5000   126.6360     9.0480     2.4340     0.0000   -38.1610     6.3120     6.6730     8.5280
 1939.0000   128.3310     9.0450     2.4280     0.0020   -38.1510     6.3420     6.7140     8.2760
 1939.5000   129.9420     9.0420     2.4280     0.0040   -38.1410     6.3730     6.7550     8.4110
 1940.0000   131.5450     9.0390     2.4310     0.0070   -38.1310     6.3970     6.7960     8.7490
 1940.5000   133.2330     9.0350     2.4360     0.0070   -38.1220     6.3880     6.8370     9.0880
 1941.0000   133.5030     9.0320     2.4310     0.0060   -38.1120     6.3770     6.8860     9.4260
