~VERSION INFORMATION
 VERS.                2.0:   CWLS LOG ASCII STANDARD - VERSION 2.0
 WRAP.                 NO:   ONE LINE PER DEPTH STEP
~WELL INFORMATION
#MNEM.UNIT      DATA TYPE    INFORMATION
#----------   ------------   ------------------------------
 STRT.F          629.0000:   START DEPTH
 STOP.F         4090.0000:   STOP DEPTH
 STEP.F            0.5000:   STEP LENGTH
 NULL.          -999.2500:   NO VALUE
 COMP. LAWRENCE ALLISON & ASSOCIATES:   COMPANY
 WELL. LAWRENCE NPR 3 "SHX" #36-10:   WELL
 FLD .      NPR - WILDCAT:   FIELD
 LOC .      S10 T38N R78W:   LOCATION
 CNTY.            NATRONA:   COUNTY
 STAT.            WYOMING:   STATE
 CTRY. UNITED STATES OF AMERICA:   COUNTRY
 SRVC.      DRESSER ATLAS:   SERVICE COMPANY
 DATE.        24-DEC-1981:   LOGDATE
 API .     49025108310000:   API NUMBER
~CURVE INFORMATION
#MNEM.UNIT       API CODE    CURVE DESCRIPTION
#----------   ------------   ------------------------------
 DEPT.F                  :   
 DT  .US/F   60 520 00 00:   DELTA TIME
 TENS.LBS    60 635 01 00:   TENSION FROM SONIC
 GRR .GAPI   07 310 01 00:   GAMMA RAY FROM RESISTIVITY
 SPR .MV     07 010 01 00:   SPONTANEOUS POTENTIAL
 RFOC.OHMM   07 220 04 00:   RESISTIVITY FOCUSED LOG RES.
 RILM.OHMM   07 120 44 00:   INDUCTION LOG MEDIUM RESISTIVITY
 RILD.OHMM   07 120 46 00:   DEEP INDUCTION RESISTIVITY
 TENR.LBS    07 635 01 00:   TENSION FROM RESISTIVITY
 NPHI.DEC    42 890 03 00:   NEUTRON POROSITY SANDSTONE
 RHOB.G/C3   45 350 01 00:   BULK DENSITY
 CORR.G/C3   45 356 01 00:   DENSITY CORRECTION
 TEND.LBS    45 635 01 00:   TENSION FROM DENSITY LOG
 CALD.IN     45 280 60 00:   CALIPER FROM DENSITY LOG
~PARAMETER INFORMATION
#MNEM.UNIT          VALUE    DESCRIPTION
#----------   ------------   ------------------------------
 EKB .F         5234.0000:   Kelly bushing
 EGL .F         5224.0000:   Ground level
 EDF .F         5233.0000:   Drilling floor
 EPD .F            0.0000:   Permanent datum
 TD  .F         4100.0000:   Total depth
 DATE.        24-DEC-1981:   Date logged
 CLNT.            A2DTECH:   Client Code
 SL  . 1798' FSL & 1455' FWL:   Surface Location
 PD  .                 GL:   Permanent Datum
 DAPD.F                10:   Feet Above Permanent Datum
 DD  .F              4100:   Depth driller
 DL  .F              4082:   Depth logger
 BLI .F              4074:   Bottom log interval
 TLI .F              2300:   Top log interval
 CS1 .IN            9.625:   Casing size
 CBD1.      9.625" @ 650':   Casing driller 1
 BS1 .IN            7.875:   Bit size
 BSD1.F              4100:   Depth drilled with bit1
 DFT .            KCL/GEL:   Type fluid in hole
 DFD .                9.1:   Density
 DFV .                 60:   Viscosity
 DFPH.                  8:   pH
 DFL .                 12:   Fluid loss
 MSS .           FLOWLINE:   Source of sample
 RMS .OHMM           .536:   Rm
 RMF .OHMM           .402:   Rmf
 RMC .OHMM            067:   Rmc
 MFSS.               CALC:   Source Rmf.
 MCSS.               CALC:   Source Rmc.
 RMB .OHMM            .35:   Rm. at BHT
 BHT .F               135:   BHT.
 TCS .HRS               6:   Time Circ. stopped
 MRT .F               141:   Maximum recorded temp.
 LUL .               GLT1:   Logging unit location
 UWI .     49025108310000:   Unique Well ID
 DICO. A2D TECHNOLOGIES, INC.:   Digitizing Company
~OTHER INFORMATION
~A   DEPT       DT       TENS         GRR       SPR       RFOC       RILM       RILD       TENR       NPHI       RHOB       CORR       TEND       CALD   
# ...
 3827.0000    83.7740   -92.1810   131.8540   -38.5580     8.1030     6.9270     6.2020   -65.3270     0.2620     2.5510     0.0700   -65.3690     8.2470
 3827.5000    84.1740   -92.3510   131.9900   -38.4340     8.2750     6.7660     5.9950   -65.4730     0.2740     2.5510     0.0560   -65.3690     8.2420
 3828.0000    83.7880   -92.5200   131.4210   -38.3110     8.4850     6.5360     5.8070   -65.6190     0.2840     2.5580     0.0770   -65.3690     8.2370
 3828.5000    82.9930   -92.6900   131.0030   -38.1870     8.2750     6.3060     5.6180   -65.7660     0.2830     2.5760     0.1100   -65.3690     8.2320
 3829.0000    83.2800   -92.8600   133.1370   -38.0620     7.8550     6.1450     5.4300   -65.9120     0.2810     2.6260     0.1130   -65.3690     8.2260
 3829.5000    83.5980   -93.0290   135.1810   -37.9330     7.4350     5.9290     5.2420   -66.0580     0.2900     2.6540     0.0740   -65.3690     8.2210
 3830.0000    84.8400   -93.1990   137.2200   -37.9350     7.0560     5.7320     5.1100   -66.2050     0.3000     2.6590     0.0530   -65.3690     8.2160
 3830.5000    86.4780   -93.3690   139.2650   -37.9480     6.9640     5.5350     4.8830   -66.3510     0.2990     2.5950     0.0580   -65.3690     8.2110
 3831.0000    87.6060   -93.5380   141.3090   -37.9610     6.8710     5.3380     4.6770   -66.4970     0.2910     2.5530     0.0630   -65.3690     8.2060
 3831.5000    88.2250   -93.7080   143.3410   -37.9740     6.7780     5.1420     4.4710   -66.6430     0.2900     2.5370     0.0680   -55.5990     8.2010
 3832.0000    88.8430   -93.8780   145.3730   -37.9860     6.6770     4.9250     4.2890   -66.7900     0.2940     2.5320     0.0710   -56.0420     8.2010
 3832.5000    89.4610   -94.0470   145.3770   -37.9980     6.4830     4.8800     4.1340   -66.9360     0.2980     2.5270     0.0490   -56.4840     8.2010
 3833.0000    90.0790   -94.2170   143.3100   -38.0110     6.2670     4.8800     4.1340   -67.0820     0.3020     2.5260     0.0460   -56.9260     8.2010
 3833.5000    90.6980   -94.3870   143.7210   -38.0230     6.0510     5.2700     4.1340   -67.2290     0.3060     2.5290     0.0620   -57.3690     8.2010
 3834.0000    91.3160   -94.5560   144.3640   -38.0360     5.8140     5.8270     4.5160   -67.3750     0.3100     2.5320     0.0910   -57.8110     8.2010
 3834.5000    91.5520   -94.7260   143.9350   -38.0480     6.8930     6.3850     5.0620   -67.5210     0.3120     2.5350     0.0940   -58.2530     8.2010
 3835.0000    91.2160   -94.8450   132.8510   -38.0600     8.3880     6.9420     5.6080   -67.6670     0.2970     2.5400     0.0940   -58.6950     8.2010
 3835.5000    89.8000   -94.8450   122.0140   -38.0730     9.8830     7.5000     6.1540   -67.8140     0.2990     2.5480     0.0790   -59.1380     8.2010
 3836.0000    85.4450   -94.8450   108.9490   -38.0850    11.3780     7.6670     6.3490   -67.9600     0.2760     2.5640     0.0510   -59.5800     8.2010
 3836.5000    80.6070   -94.8450    94.6480   -38.0980    12.8740     7.5130     6.3940   -68.1060     0.2540     2.5880     0.0170   -60.0220     8.2010
 3837.0000    75.7690   -94.8450    86.9560   -38.1090    14.2190     7.2050     6.4940   -68.2530     0.2430     2.6240     0.0310   -60.4650     8.2010
 3837.5000    72.1040   -94.8450    86.9270   -38.1210    11.6820     6.9270     6.2580   -68.3990     0.2390     2.6710     0.0500   -60.9070     8.2010
 3838.0000    71.0810   -94.8450   104.1140   -37.9790     9.3750     6.2350     5.7850   -68.5450     0.2420     2.7210     0.0720   -61.3490     8.2010
 3838.5000    74.7030   -94.8450   119.3040   -37.6840     7.0680     5.6050     5.3130   -68.6920     0.2560     2.6840     0.0880   -61.7910     8.2010
 3839.0000    78.7270   -94.8450   131.4400   -37.3890     6.2670     4.9760     4.8400   -68.8380     0.2680     2.6340     0.0780   -62.2340     8.2010
 3839.5000    82.7510   -94.8450   139.2900   -37.0930     6.1110     4.4090     4.3680   -68.9840     0.2800     2.5850     0.0510   -62.6760     8.2010
 3840.0000    86.7750   -94.8450   143.4630   -36.7970     5.9300     4.2990     3.8950   -69.1300     0.2910     2.5450     0.0500   -63.1180     8.2010
 3840.5000    91.2010   -94.8450   147.6260   -36.5010     5.5520     4.1990     3.4700   -69.2770     0.3030     2.5340     0.0550   -63.5610     8.2010
 3841.0000    91.8320   -94.8450   151.7750   -36.2050     5.5520     4.0980     3.3850   -69.4230     0.3140     2.5330     0.0670   -64.0030     8.2010
 3841.5000    92.5330   -94.8450   156.0440   -35.9090     5.5520     3.9480     3.3080   -69.5690     0.3260     2.5300     0.0660   -64.4450     8.2010
 3842.0000    93.3030   -94.8450   158.2520   -35.6130     5.5520     3.9690     3.1930   -69.7160     0.3370     2.5280     0.0580   -64.8870     8.2010
 3842.5000    93.6470   -94.8450   159.2790   -35.3210     5.4160     4.0120     3.2140   -69.8620     0.3470     2.5260     0.0490   -65.3300     8.2010
 3843.0000    94.0280   -94.8450   153.0050   -35.1600     5.2920     4.0550     3.2550   -70.0080     0.3430     2.5250     0.0460   -65.7720     8.2010
 3843.5000    94.4090   -94.8450   146.6780   -35.3720     5.2050     4.0990     3.2960   -70.1540     0.3370     2.5290     0.0440   -66.2140     8.2010
 3844.0000    94.7910   -94.8450   144.4830   -35.5740     5.1580     4.1420     3.3380   -70.3010     0.3400     2.5380     0.0610   -66.6570     8.2010
 3844.5000    95.0050   -94.8450   142.4300   -35.7750     5.5790     4.1720     3.3750   -70.4470     0.3430     2.5470     0.0860   -67.0990     8.2010
 3845.0000    94.3210   -94.8450   140.3220   -35.9760     5.9030     4.2110     3.3750   -70.5930     0.3300     2.5510     0.0890   -67.5410     8.2010
 3845.5000    93.3440   -94.8450   138.1560   -36.1770     6.2590     4.2110     3.3750   -70.7400     0.3110     2.5510     0.0660   -67.9830     8.2010
 3846.0000    92.3670   -94.8450   139.4370   -36.3790     6.3170     4.1840     3.3750   -70.8860     0.3160     2.5510     0.0530   -68.4260     8.2010
 3846.5000    90.9010   -94.8450   141.0150   -36.5780     5.9470     4.1300     3.3750   -71.0320     0.3220     2.5520     0.0610   -68.8680     8.2010
 3847.0000    91.3060   -94.8450   142.4350   -36.7120     5.6100     4.0760     3.3840   -71.1780     0.3230     2.5540     0.0680   -69.3100     8.2020
 3847.5000    92.1160   -94.8450   142.8160   -36.6650     5.2740     4.0220     3.4140   -71.3250     0.3140     2.5610     0.0740   -69.7530     8.2170
 3848.0000    92.9270   -94.8450   143.1680   -36.6220     4.9710     3.9660     3.4440   -71.4710     0.3210     2.5680     0.0800   -70.1950     8.2220
 3848.5000    93.7370   -94.8450   143.5950   -36.5800     5.1700     3.9480     3.4740   -71.6170     0.3360     2.5670     0.0850   -70.6370     8.2210
 3849.0000    94.1540   -94.8450   140.8130   -36.5370     5.6790     4.1350     3.5040   -71.7640     0.3250     2.5520     0.1060   -71.0790     8.2210
 3849.5000    93.6040   -94.8450   136.8530   -36.4950     6.1880     4.2790     3.5340   -71.9100     0.3100     2.5350     0.1110   -71.5220     8.2210
 3850.0000    91.9920   -94.8450   132.8590   -36.4520     6.6970     4.4090     3.5670   -72.0560     0.2800     2.5190     0.0990   -71.9640     8.2210
 3850.5000    90.2020   -94.8450   129.3470   -36.4100     7.2540     4.3270     3.5670   -72.2030     0.2770     2.5250     0.0480   -72.4060     8.2210
 3851.0000    88.4120   -94.8450   132.1430   -36.3670     7.2540     4.2520     3.6000   -72.3490     0.2800     2.5350     0.0040   -72.8490     8.2210
 3851.5000    87.2970   -94.8450   135.0180   -36.3250     6.4820     4.1770     3.6000   -72.4950     0.2870     2.5450     0.0040   -73.2910     8.2210
 3852.0000    88.9920   -94.8450   137.8900   -36.2820     5.8910     4.0960     3.6000   -72.6410     0.2980     2.5500     0.0250   -73.7330     8.2210
 3852.5000    91.1540   -94.8450   140.0550   -36.2400     5.2990     4.0960     3.6000   -72.7880     0.3080     2.5500     0.0490   -74.1750     8.2220
