~VERSION INFORMATION
 VERS.                2.0:   CWLS LOG ASCII STANDARD - VERSION 2.0
 WRAP.                 NO:   ONE LINE PER DEPTH STEP
~WELL INFORMATION
#MNEM.UNIT      DATA TYPE    INFORMATION
#----------   ------------   ------------------------------
 STRT.F          192.0000:   START DEPTH
 STOP.F         3016.0000:   STOP DEPTH
 STEP.F            0.5000:   STEP LENGTH
 NULL.          -999.2500:   NO VALUE
 COMP. FENIX & SCISSON U.S. NAVY:   COMPANY
 WELL.  FENIX "AX" #81-33:   WELL
 FLD .              NPR-3:   FIELD
 LOC .      S33 T39N R78W:   LOCATION
 CNTY.            NATRONA:   COUNTY
 STAT.            WYOMING:   STATE
 CTRY. UNITED STATES OF AMERICA:   COUNTRY
 SRVC.              WELEX:   SERVICE COMPANY
 DATE.        12-MAY-1977:   LOGDATE
 API .     49025109850000:   API NUMBER
~CURVE INFORMATION
#MNEM.UNIT       API CODE    CURVE DESCRIPTION
#----------   ------------   ------------------------------
 DEPT.F                  :   
 SPR .MV     07 010 01 00:   SPONTANEOUS POTENTIAL
 RILM.OHMM   07 120 44 00:   INDUCTION LOG MEDIUM RESISTIVITY
 RILD.OHMM   07 120 46 00:   DEEP INDUCTION RESISTIVITY
 SGRD.OHMM   07 220 05 00:   SHALLOW GUARD LOG RESISTIVITY
 NPHI.DEC    42 890 03 00:   NEUTRON POROSITY SANDSTONE
 GRD .GAPI   45 310 01 00:   GAMMA RAY FROM DENSITY LOG
 CALD.IN     45 280 60 00:   CALIPER FROM DENSITY LOG
 RHOB.G/C3   45 350 01 00:   BULK DENSITY
 DCOR.G/C3   45 356 01 00:   DENSITY CORRECTION
~PARAMETER INFORMATION
#MNEM.UNIT          VALUE    DESCRIPTION
#----------   ------------   ------------------------------
 EKB .F         5114.0000:   Kelly bushing
 EGL .F         5100.0000:   Ground level
 EDF .F         5112.0000:   Drilling floor
 TD  .F         3014.0000:   Total depth
 DATE.        12-MAY-1977:   Date logged
 CLNT.            A2DTECH:   Client Code
 SL  . 660' FEL & 660' FNL:   Surface Location
 PD  .                 GL:   Permanent Datum
 EPD .F              5100:   Elevation Permanent Datum
 LMF .                 KB:   Log Measured From
 DMF .                 KB:   Drilling Measured From
 DD  .F              3000:   Depth driller
 DL  .F              3014:   Depth logger
 BLI .F              3012:   Bottom log interval
 TLI .F              1500:   Top log interval
 CS1 .IN            8.625:   Casing size
 CBD1.      8.625" @ 217':   Casing driller 1
 CBL1.F               209:   Casing logger 1
 BS1 .IN            7.875:   Bit size
 BSD1.F              3000:   Depth drilled with bit1
 DFT .            KCL MUD:   Type fluid in hole
 DFD .                  9:   Density
 DFV .                 33:   Viscosity
 DFPH.                7.5:   pH
 DFL .                7.8:   Fluid loss
 MSS .           FLOWLINE:   Source of sample
 RMS .OHMM           0.69:   Rm
 MST .F                68:   Rm Meas. temp.
 RMF .OHMM           0.66:   Rmf
 MFST.F                68:   Rmf Meas. temp.
 RMC .OHMM           1.27:   Rmc
 MCST.F                68:   Rmc Meas. temp.
 MFSS.                 BK:   Source Rmf.
 MCSS.                 BK:   Source Rmc.
 RMB .OHMM           0.39:   Rm. at BHT
 BHT .F               118:   BHT.
 TCS .HRS               6:   Time Circ. stopped
 MRT .F               118:   Maximum recorded temp.
 LUN .               9685:   Logging unit number
 LUL .           BRIGHTON:   Logging unit location
 ENGI.          T. JOYNER:   Recorded By
 WITN.            K. JAPP:   Witnessed by
 ORIG.           5" PRINT:   Origin of data
 UWI .     49025109850000:   Unique Well ID
 DICO. A2D TECHNOLOGIES, INC.:   Digitizing Company
~OTHER INFORMATION
~A   DEPT      SPR       RILM       RILD       SGRD       NPHI         GRD        CALD       RHOB     DCOR   
  192.0000  -999.2500  -999.2500  -999.2500  -999.2500  -999.2500    71.1160     8.5600     2.1810  -999.2500
  192.5000  -999.2500  -999.2500  -999.2500  -999.2500  -999.2500    71.1160     8.5600     2.1810  -999.2500
  193.0000  -999.2500  -999.2500  -999.2500  -999.2500  -999.2500    74.7010     8.6590     2.1990    -0.3030
  193.5000  -999.2500  -999.2500  -999.2500  -999.2500  -999.2500    73.0670     8.7760     2.1870    -0.2280
  194.0000  -999.2500  -999.2500  -999.2500  -999.2500  -999.2500    74.1300     8.8260     2.2100    -0.2170
  194.5000  -999.2500  -999.2500  -999.2500  -999.2500  -999.2500    75.0010     8.7480     2.2390    -0.1300
  195.0000  -999.2500  -999.2500  -999.2500  -999.2500  -999.2500    75.5670     8.6720     2.2670     0.0130
  195.5000  -999.2500  -999.2500  -999.2500  -999.2500  -999.2500    76.1200     8.5940     2.2790     0.1120
  196.0000  -999.2500  -999.2500  -999.2500  -999.2500  -999.2500    76.6760     8.6650     2.2510     0.1020
  196.5000  -999.2500  -999.2500  -999.2500  -999.2500  -999.2500    77.3590     8.7760     2.2700     0.0820
  197.0000  -999.2500  -999.2500  -999.2500  -999.2500  -999.2500    78.5080     8.8880     2.2940     0.0790
  197.5000  -999.2500  -999.2500  -999.2500  -999.2500  -999.2500    79.6480     8.9670     2.3150     0.0820
  198.0000  -999.2500  -999.2500  -999.2500  -999.2500  -999.2500    80.7860     8.9960     2.3200     0.0840
  198.5000  -999.2500  -999.2500  -999.2500  -999.2500  -999.2500    81.9240     8.9970     2.3130     0.0720
  199.0000  -999.2500  -999.2500  -999.2500  -999.2500  -999.2500    83.0650     8.8950     2.3040     0.0680
  199.5000  -999.2500  -999.2500  -999.2500  -999.2500  -999.2500    84.2170     8.7760     2.2960     0.0600
  200.0000  -999.2500  -999.2500  -999.2500  -999.2500  -999.2500    85.3990     8.6780     2.2960     0.0470
  200.5000  -999.2500  -999.2500  -999.2500  -999.2500  -999.2500    84.9040     8.6460     2.3080     0.0420
  201.0000  -999.2500  -999.2500  -999.2500  -999.2500  -999.2500    84.2700     8.6160     2.3170     0.0450
  201.5000  -999.2500  -999.2500  -999.2500  -999.2500  -999.2500    83.6420     8.5960     2.3270     0.0480
  202.0000  -999.2500     9.5430  -999.2500    12.5730  -999.2500    83.0110     8.5890     2.3370     0.0410
  202.5000  -999.2500     9.5430     8.0140    12.6890  -999.2500    82.3500     8.5810     2.3490     0.0370
  203.0000  -999.2500     9.4550     8.3120    13.4630  -999.2500    83.2030     8.5740     2.3620     0.0390
  203.5000  -999.2500     9.7610     8.6260    14.4470  -999.2500    84.3220     8.5660     2.3790     0.0400
  204.0000  -999.2500     9.9310    11.1450    14.0700  -999.2500    85.4560     8.5580     2.3970     0.0430
  204.5000  -999.2500    10.2710    15.3910    13.3480  -999.2500    86.5790     8.5510     2.4150     0.0540
  205.0000  -999.2500    10.1770    18.8250    12.6250  -999.2500    87.7090     8.5430     2.4300     0.0640
  205.5000  -999.2500    10.6950    20.4850    12.1190  -999.2500    87.3740     8.5440     2.4440     0.0750
  206.0000    -0.6860    11.7320    22.1450    15.1100  -999.2500    85.7810     8.5530     2.4440     0.0750
  206.5000    -0.6860    12.7230    24.3180    29.2460  -999.2500    84.1830     8.5610     2.4290     0.0760
  207.0000    -0.6860    13.6070    26.4720    42.0970  -999.2500    82.5690     8.5700     2.4130     0.0820
  207.5000    -0.6860    14.4910    32.6110    57.8240  -999.2500    81.1480     8.5780     2.3980     0.0870
  208.0000    -0.6860    15.1100    36.5180    48.6390  -999.2500    82.3070     8.5860     2.3820     0.0930
  208.5000    -0.6840    12.9240    27.4630    34.9510  -999.2500    83.4980     8.5940     2.3660     0.0900
  209.0000    -0.6970    12.3170    15.9670    21.2630  -999.2500    84.6760     8.6090     2.3530     0.0850
  209.5000    -0.9440    11.5750    14.9500    11.1570  -999.2500    85.8510     8.6530     2.3450     0.0790
  210.0000    -1.1830    11.1100    14.3490    11.5380  -999.2500    87.0250     8.6980     2.3400     0.0740
  210.5000    -1.4200    10.5930    13.6980    12.0830  -999.2500    88.2130     8.7420     2.3420     0.0760
  211.0000    -1.6560    10.0760    13.0250    12.5730  -999.2500    89.4850     8.7860     2.3440     0.0790
  211.5000    -1.8940     9.5600    12.3060    12.7880  -999.2500    90.5500     8.8310     2.3450     0.0810
  212.0000    -2.1500     9.0880    11.5400    12.9240  -999.2500    91.0830     8.8750     2.3480     0.0830
  212.5000    -2.4820     8.7190    10.9070    12.0910  -999.2500    89.9100     8.7900     2.3500     0.0830
  213.0000    -2.8120     8.3140    10.4970    11.7480  -999.2500    88.2870     8.6910     2.3520     0.0810
  213.5000    -3.2100     8.2380    10.2710    11.4690  -999.2500    88.4500     8.5890     2.3550     0.0780
  214.0000    -3.9730     8.5430    10.1920    11.8150  -999.2500    89.2850     8.5130     2.3600     0.0810
  214.5000    -5.2450     8.9800    10.1050    12.3090  -999.2500    90.1440     8.5880     2.3640     0.0840
  215.0000    -6.4070     9.3260     9.9920    12.6060  -999.2500    91.0040     8.6540     2.3680     0.0830
  215.5000    -7.3860     9.5800    10.0370    12.9240  -999.2500    91.8640     8.7190     2.3730     0.0830
  216.0000    -8.3180     9.8100    10.1030    12.7640  -999.2500    92.7130     8.7560     2.3770     0.0820
  216.5000    -9.2450     9.9160    10.1680    12.4430  -999.2500    93.3850     8.7390     2.3770     0.0840
  217.0000   -10.3510    10.0130    10.2330    12.1230  -999.2500    92.9670     8.7220     2.3760     0.0850
  217.5000   -11.6370    10.1090    10.2980    11.8330  -999.2500    92.5060     8.7050     2.3720     0.0860
  218.0000   -12.9220    10.1770    10.3640    11.6810  -999.2500    91.6510     8.6880     2.3680     0.0790
  218.5000   -14.0600    10.0480    10.4610    11.8380  -999.2500    90.7920     8.6710     2.3640     0.0700
  219.0000   -14.8640     9.9000    10.4370    11.9080  -999.2500    89.9340     8.6540     2.3600     0.0640
  219.5000   -15.6020     9.9990    10.3880    11.9400  -999.2500    89.0790     8.6370     2.3560     0.0590
  220.0000   -16.0660    10.1770    10.3390    11.9730  -999.2500    88.2230     8.6200     2.3530     0.0540
  220.5000   -16.5020     9.5430    10.2900    12.0080  -999.2500    87.3400     8.6030     2.3500     0.0510
  221.0000   -16.9380     9.3850    10.2410    12.4200  -999.2500    88.1110     8.5860     2.3490     0.0490
  221.5000   -17.2730     9.2410    10.1770    12.9240  -999.2500    89.7270     8.5920     2.3500     0.0470
  222.0000   -17.5060     9.1140    10.2880    12.5050  -999.2500    91.3880     8.6100     2.3520     0.0450
  222.5000   -17.7400     9.0310    10.4460    11.8980  -999.2500    90.1500     8.6290     2.3580     0.0450
  223.0000   -17.9740     9.9670    10.6040    12.2940  -999.2500    87.9970     8.6480     2.3640     0.0470
  223.5000   -18.1980     9.9320    10.7620    12.6890  -999.2500    87.0220     8.6670     2.3700     0.0490
  224.0000   -18.4100     9.9000    10.9200    13.0920  -999.2500    88.6410     8.6860     2.3760     0.0520
  224.5000   -18.6200    10.2490    11.0780    13.8970  -999.2500    90.7310     8.7050     2.3800     0.0570
  225.0000   -18.7240    10.7540    11.2050    14.6990  -999.2500    92.6210     8.7240     2.3810     0.0620
  225.5000   -18.7250    10.4200    11.3030    14.3000  -999.2500    92.1670     8.7430     2.3790     0.0590
  226.0000   -18.7260     9.9920    11.4000    14.6360  -999.2500    91.4930     8.7620     2.3770     0.0520
  226.5000   -18.7250    11.1570    11.5400    14.9720  -999.2500    90.8220     8.7810     2.3710     0.0500
  227.0000   -18.7250    11.1570    11.7780    14.7830  -999.2500    90.1520     8.8000     2.3650     0.0510
  227.5000   -18.7280    11.1570    12.0160    14.4320  -999.2500    89.4810     8.8180     2.3650     0.0520
  228.0000   -18.7820    11.3030    12.2310    14.9910  -999.2500    88.8090     8.7960     2.3650     0.0510
