~VERSION INFORMATION
 VERS.                2.0:   CWLS LOG ASCII STANDARD - VERSION 2.0
 WRAP.                 NO:   ONE LINE PER DEPTH STEP
~WELL INFORMATION
#MNEM.UNIT      DATA TYPE    INFORMATION
#----------   ------------   ------------------------------
 STRT.F         2200.0000:   START DEPTH
 STOP.F         3200.0000:   STOP DEPTH
 STEP.F            0.5000:   STEP LENGTH
 NULL.          -999.2500:   NO VALUE
 COMP.   LAWRENCE ALLISON:   COMPANY
 WELL. LAWRENCE "X" #18-34:   WELL
 FLD .          NPR NO. 3:   FIELD
 LOC .      S34 T39N R78W:   LOCATION
 CNTY.            NATRONA:   COUNTY
 STAT.            WYOMING:   STATE
 CTRY. UNITED STATES OF AMERICA:   COUNTRY
 SRVC.      DRESSER ATLAS:   SERVICE COMPANY
 DATE.        14-MAY-1986:   LOGDATE
 API .     49025110720000:   API NUMBER
~CURVE INFORMATION
#MNEM.UNIT       API CODE    CURVE DESCRIPTION
#----------   ------------   ------------------------------
 DEPT.F                  :   
 CALD.IN     45 280 60 00:   CALIPER FROM DENSITY LOG
 GRD .GAPI   45 310 01 00:   GAMMA RAY FROM DENSITY LOG
 TEND.LBS    45 635 01 00:   TENSION FORM DENSITY LOG
 CORR.G/C3   45 356 01 00:   DENSITY CORRECTION
 DEN .G/C3   45 350 01 00:   BULK DENSITY
 CNC .DEC    42 890 03 00:   NEUTRON POROSITY SANDSTONE
~PARAMETER INFORMATION
#MNEM.UNIT          VALUE    DESCRIPTION
#----------   ------------   ------------------------------
 EKB .F         5192.0000:   Kelly bushing
 EGL .F         5181.0000:   Ground level
 EDF .F         5189.0000:   Drilling floor
 TD  .F         3195.0000:   Total depth
 CLNT.            A2DTECH:   Client Code
 SL  . 722' FWL & 239' FSL:   Surface Location
 PD  .                 GL:   Permanent Datum
 EPD .F              5181:   Elevation Permanent Datum
 LMF .                 KB:   Log Measured From
 DMF .                 KB:   Drilling Measured From
 DAPD.F                11:   Feet Above Permanent Datum
 DATE.        14-MAY-1986:   Date Logged [DD-MMM-YYYY]
 DD  .F              3195:   Depth driller
 DL  .F              3194:   Depth logger
 BLI .F              3192:   Bottom log interval
 TLI .F                 0:   Top log interval
 CS1 .IN            8.625:   Casing size
 CBD1.      8.625" @ 601':   Casing driller 1
 CBL1.F               596:   Casing logger 1
 BS1 .IN            7.875:   Bit size
 BSD1.F              3195:   Depth drilled with bit1
 DFT .        POLYMER-KCL:   Type fluid in hole
 DFD .                  9:   Density
 DFV .                 35:   Viscosity
 DFPH.                9.5:   pH
 DFL .               16.2:   Fluid loss
 MSS .           FLOWLINE:   Source of sample
 RMS .OHMM          0.378:   Rm
 MST .F                65:   Rm Meas. temp.
 RMF .OHMM          0.306:   Rmf
 MFST.F                65:   Rmf Meas. temp.
 MFSS.               MEAS:   Source Rmf.
 RMC .OHMM          0.472:   Rmc
 MCST.F                65:   Rmc Meas. temp.
 MCSS.               CALC:   Source Rmc.
 RMB .OHMM          0.208:   Rm. at BHT
 BHT .F               118:   BHT.
 TCS .HRS               3:   Time Circ. stopped
 MRT .F               118:   Maximum recorded temp.
 LUN .            HL-6274:   Logging unit number
 LUL .           GILLETTE:   Logging unit location
 ENGI.             RAUTIO:   Recorded By
 WITN.             STRONG:   Witnessed by
 ORIG.           5" PRINT:   Origin of data
 UWI .     49025110720000:   Unique Well ID
 DICO. A2D TECHNOLOGIES, INC.:   Digitizing Company
~OTHER INFORMATION
~A  DEPT        CALD      GRD        TEND        CORR        DEN        CNC 
# ...
 2460.0000    10.5942    83.0766   -21.4018     0.0187     2.5929     0.2476
 2460.5000    10.5939    89.7044   -21.2562     0.0308     2.6060     0.2591
 2461.0000    10.5936   100.6986   -21.1278     0.0262     2.5894     0.2655
 2461.5000    10.6084   104.7676   -20.9650     0.0141     2.5796     0.2709
 2462.0000    10.6081   107.4737   -20.8193    -0.0056     2.5698     0.2782
 2462.5000    10.6380   111.3865   -20.6737     0.0185     2.5682     0.2958
 2463.0000    10.6546   116.8076   -20.5263     0.0275     2.5660     0.3136
 2463.5000    10.6724   120.1171   -20.3460     0.0307     2.5569     0.3076
 2464.0000    10.6823   118.2984   -20.2003     0.0229     2.5470     0.2703
 2464.5000    10.6972   113.7574   -20.0547     0.0260     2.5463     0.2634
 2465.0000    10.6968   108.4268   -27.4642     0.0289     2.5636     0.2652
 2465.5000    10.6965   102.5836   -34.8374     0.0182     2.5787     0.2664
 2466.0000    10.6962    97.1450   -42.1805     0.0318     2.5885     0.2661
 2466.5000    10.6959    93.5163   -49.5489     0.0468     2.5923     0.2661
 2467.0000    10.6956    98.9374   -49.3985     0.0392     2.5907     0.2689
 2467.5000    10.7104   103.1518   -56.7748     0.0211     2.5862     0.2770
 2468.0000    10.7252   106.7630   -56.5928     0.0135     2.5877     0.2883
 2468.5000    10.7399   108.2625   -56.4471     0.0165     2.5837     0.2871
 2469.0000    10.7396   107.3484   -63.8203     0.0119     2.5726     0.2789
 2469.5000    10.7696   108.5444   -63.6746    -0.0078     2.5574     0.2613
 2470.0000    10.7844   110.6473   -63.5290    -0.0184     2.5492     0.2553
 2470.5000    10.7991   110.3368   -55.8645     0.0148     2.5590     0.2544
 2471.0000    10.8139   109.7247   -55.7143     0.0283     2.5672     0.2559
 2471.5000    10.8136   109.7160   -63.0556     0.0147     2.5687     0.2607
 2472.0000    10.8132   109.7359   -62.9100     0.0086     2.5649     0.2662
 2472.5000    10.8281   108.1706   -62.7643     0.0282     2.5679     0.2741
 2473.0000    10.8579   106.2749   -62.6187     0.0493     2.5694     0.2756
 2473.5000    10.8727   103.9472   -62.4731     0.0447     2.5604     0.2726
 2474.0000    10.8875   105.1450   -62.3274     0.0265     2.5488     0.2705
 2474.5000    10.9023   107.8512   -62.1805     0.0113     2.5453     0.2687
 2475.0000    10.9020   111.1607   -62.0301     0.0083     2.5505     0.2638
 2475.5000    10.9017   112.6602   -61.8541     0.0128     2.5520     0.2687
 2476.0000    10.9013   112.9776   -61.7085     0.0203     2.5497     0.2911
 2476.5000    10.8859   109.8856   -54.0440     0.0142     2.5482     0.2980
 2477.0000    10.8706   106.4959   -53.8984     0.0081     2.5497     0.2869
 2477.5000    10.8703   103.5731   -53.7527    -0.0025     2.5489     0.2769
 2478.0000    10.9152   101.1511   -53.6071    -0.0071     2.5436     0.2775
 2478.5000    10.9602   100.8428   -45.9399    -0.0026     2.5367     0.2787
 2479.0000    10.9599   105.3568   -45.7606     0.0019     2.5391     0.2693
 2479.5000    10.9143   107.4596   -45.6149     0.0139     2.5474     0.2639
 2480.0000    10.8989   108.6576   -45.4693     0.0275     2.5602     0.2760
 2480.5000    10.8986   109.5537   -45.3237     0.0365     2.5632     0.2836
 2481.0000    10.9135   109.8444   -45.1780     0.0350     2.5594     0.2860
 2481.5000    10.9131   109.5339   -45.0324     0.0228     2.5549     0.2709
 2482.0000    10.9279   109.0676   -52.4060    -0.0029     2.5518     0.2591
 2482.5000    10.9427   104.0858   -51.9660     0.0033     2.5634     0.2572
 2483.0000    10.9575   100.4571   -50.7449     0.0121     2.5691     0.2657
 2483.5000    10.9722    99.2417   -49.5237     0.0136     2.5631     0.2851
 2484.0000    11.0021   100.1379   -48.3026     0.0045     2.5495     0.2930
 2484.5000    11.0168   101.9391   -47.0815    -0.0062     2.5465     0.2885
 2485.0000    11.0165   101.9303   -45.8603    -0.0153     2.5472     0.2827
 2485.5000    11.0163   101.3182   -44.6392    -0.0155     2.5487     0.2960
 2486.0000    11.0160   101.0075   -43.6852     0.0077     2.5494     0.3094
 2486.5000    11.0308   102.8068   -43.5338     0.0500     2.5572     0.3048
 2487.0000    11.0456   103.4035   -43.3575     0.0586     2.5668     0.2945
 2487.5000    11.0452   103.3926   -43.2119     0.0540     2.5705     0.2970
 2488.0000    11.0600   103.0821   -50.6214     0.0404     2.5728     0.3212
 2488.5000    11.0597   104.5817   -50.4394     0.0252     2.5652     0.3179
 2489.0000    11.0594   105.7795   -57.8489     0.0221     2.5576     0.2903
 2489.5000    11.0138   106.9792   -61.1896     0.0312     2.5524     0.2743
 2490.0000    11.0739   108.1752   -65.0400     0.0553     2.5599     0.2688
 2490.5000    11.1038   105.4494   -72.3768     0.0658     2.5659     0.2834
 2491.0000    11.0733   102.4240   -72.2311     0.0733     2.5723     0.2931
 2491.5000    11.0428   100.0020   -72.0855     0.0778     2.5877     0.2988
 2492.0000    11.0262    97.5799   -71.9398     0.0747     2.5904     0.2931
 2492.5000    10.9969    96.6662   -64.2754     0.0610     2.5771     0.2913
 2493.0000    10.9966    98.1657   -71.6541     0.0414     2.5696     0.2955
 2493.5000    10.9963   100.8779   -71.5029     0.0248     2.5643     0.3016
 2494.0000    10.9960   102.5930   -66.5196     0.0187     2.5613     0.2907
 2494.5000    10.9958   106.5836   -59.9452     0.0171     2.5658     0.2883
 2495.0000    10.9955   105.9715   -56.0041     0.0367     2.5751     0.2959
 2495.5000    10.9952   102.0412   -55.8585     0.0533     2.5816     0.3198
 2496.0000    10.9949   101.1296   -55.7128     0.0578     2.5823     0.3225
 2496.5000    10.9946   104.1353   -55.5639     0.0546     2.5770     0.3237
 2497.0000    10.9942   104.7300   -47.8663     0.0471     2.5717     0.3068
 2497.5000    10.9939   103.4834   -47.7207     0.0425     2.5627     0.2944
 2498.0000    10.9936   102.2990   -47.5750     0.0395     2.5468     0.2996
 2498.5000    10.9933   108.3212   -54.9846     0.0379     2.5310     0.3238
 2499.0000    10.9930   114.3456   -54.8026     0.0394     2.5147     0.3292
 2499.5000    10.9777   116.1468   -54.6570     0.0393     2.4940     0.3256
 2500.0000    10.9623   115.5347   -62.0301     0.0408     2.4849     0.3177
 2500.5000    10.9602   113.4143   -61.8797     0.0423     2.5007     0.3229
 2501.0000    10.9192   111.9997   -61.7024     0.0286     2.5158     0.3195
 2501.5000    10.8840   110.9727   -67.5224     0.0146     2.5218     0.3050
 2502.0000    10.8561   110.3606   -62.6896    -0.0033     2.5157     0.2811
 2502.5000    10.8258   113.9689   -57.8567     0.0208     2.5059     0.2860
 2503.0000    10.8106   114.2564   -52.1908     0.0329     2.4983     0.2953
 2503.5000    10.7651   111.2253   -44.3105     0.0343     2.4945     0.2987
 2504.0000    10.7197   111.7398   -43.9488     0.0161     2.4930     0.2981
 2504.5000    10.6743   116.0281   -36.0684     0.0100     2.5208     0.3028
 2505.0000    10.6289   117.5247   -35.7067     0.0145     2.5361     0.3034
 2505.5000    10.5986   115.7031   -27.8196    -0.0052     2.5472     0.3016
 2506.0000    10.5532   112.9766   -27.3743    -0.0007     2.5502     0.3047
 2506.5000    10.5078   110.8533   -27.0127     0.0113     2.5449     0.3167
 2507.0000    10.4775   111.7466   -26.6510     0.0007     2.5388     0.3246
 2507.5000    10.4472   112.0366   -18.7707    -0.0085     2.5357     0.3116
 2508.0000    10.4169   112.0221   -18.4090    -0.0040     2.5365     0.3031
 2508.5000    10.4011   112.6137   -10.5263     0.0201     2.5410     0.3004
 2509.0000    10.3760   113.5071   -10.0765     0.0125     2.5357     0.3056
 2509.5000    10.3509   114.4004    -2.1962    -0.0027     2.5251     0.3128
 2510.0000    10.3258   116.1987    -1.8345    -0.0269     2.5084     0.3104
 2510.5000    10.3106   117.9970    -1.4730    -0.0073     2.5122     0.2808
 2511.0000    10.2953   117.9220    -1.1112     0.0047     2.5250     0.2660
 2511.5000    10.2801   117.7890    -0.7495     0.0077     2.5317     0.2623
