~VERSION INFORMATION
 VERS.                2.0:   CWLS LOG ASCII STANDARD - VERSION 2.0
 WRAP.                 NO:   ONE LINE PER DEPTH STEP
~WELL INFORMATION
#MNEM.UNIT      DATA TYPE    INFORMATION
#----------   ------------   ------------------------------
 STRT.F           35.5000:   START DEPTH
 STOP.F         6235.5000:   STOP DEPTH
 STEP.F            0.5000:   STEP LENGTH
 NULL.          -999.2500:   NO VALUE
 COMP. LAWRENCE-ALLISON ASSOCIATES:   COMPANY
 WELL. LAWRENCE-ALLISON "X" #62-11:   WELL
 FLD .                NPR:   FIELD
 LOC .      S11 T38N R78W:   LOCATION
 CNTY.            NATRONA:   COUNTY
 STAT.            WYOMING:   STATE
 CTRY. UNITED STATES OF AMERICA:   COUNTRY
 SRVC.      DRESSER ATLAS:   SERVICE COMPANY
 DATE.        18-DEC-1982:   LOGDATE
 API .     49025109020000:   API NUMBER
~CURVE INFORMATION
#MNEM.UNIT       API CODE    CURVE DESCRIPTION
#----------   ------------   ------------------------------
 DEPT.F                  :   
 ILM .OHMM   07 120 44 00:   INDUCTION LOG MEDIUM
 ILD .OHMM   07 120 46 00:   DEEP RESISTIVITY
 RFOC.OHMM   07 220 04 00:   RESISTIVITY FOCUSED LOG RES.
 DT  .US/F   60 520 00 00:   DELTA TIME
 TENS.LBS    60 635 01 00:   TENSION FROM SONIC LOG.
 RS  .OHMM   11 220 09 00:   RESISTIVITY SHALLOW
 RD  .OHMM   11 220 10 00:   RESISTIVITY DEEP
 RLL .OHMM   11 220 00 00:   LATEROLOG RESISTIVITY
 SPR .MV     07 010 01 00:   SPONTANEOUS POTENTIAL
 TENR.LBS    07 635 01 00:   TENSION FROM RES. LOG
 CALD.IN     45 280 60 00:   CALIPER FROM DENSITY LOG
 GRD .GAPI   45 310 01 00:   GAMMA RAY FROM DENSITY LOG
 DEN .G/C3   45 350 01 00:   FORMATION FACTOR DENSITY
 DRHO.G/C3   45 356 01 00:   DENSITY CORRECTION
 TEND.LBS    45 635 01 00:   TENSION FROM DENSITY LOG
 CN  .DEC    42 890 00 00:   NEUTRON POROSITY
~PARAMETER INFORMATION
#MNEM.UNIT          VALUE    DESCRIPTION
#----------   ------------   ------------------------------
 EKB .F         5218.0000:   Kelly bushing
 EGL .F         5208.0000:   Ground level
 EDF .F            0.0000:   Drilling floor
 TD  .F         6232.0000:   Total depth
 DATE.        18-DEC-1982:   Date logged
 CLNT.            A2DTECH:   Client Code
 SL  . 971' FNL & 1898' FEL:   Surface Location
 PD  .                 GL:   Permanent Datum
 EPD .F              5208:   Elevation Permanent Datum
 LMF .                 KB:   Log Measured From
 DMF .                 KB:   Drilling Measured From
 DAPD.F                10:   Feet Above Permanent Datum
 DD  .F              6222:   Depth driller
 DL  .F              6232:   Depth logger
 BLI .F              6230:   Bottom log interval
 CS1 .IN            9.625:   Casing size
 CBD1.     9.625" @ 1002':   Casing driller 1
 CBL1.F              1002:   Casing logger 1
 BS1 .IN             8.75:   Bit size
 BSD1.F              6222:   Depth drilled with bit1
 DFT .                KCL:   Type fluid in hole
 DFD .                  9:   Density
 DFV .                 37:   Viscosity
 DFPH.                  8:   pH
 DFL .                8.4:   Fluid loss
 MSS .           FLOWLINE:   Source of sample
 RMS .OHMM            .25:   Rm
 MST .F                60:   Rm Meas. temp.
 RMF .OHMM            .18:   Rmf
 MFST.F                62:   Rmf Meas. temp.
 RMC .OHMM            .32:   Rmc
 MCST.F                60:   Rmc Meas. temp.
 MFSS.               MEAS:   Source Rmf.
 MCSS.               CALC:   Source Rmc.
 RMB .OHMM            .09:   Rm. at BHT
 BHT .F               166:   BHT.
 TCS .HRS               6:   Time Circ. stopped
 MRT .F               166:   Maximum recorded temp.
 LUN .               6274:   Logging unit number
 LUL .               GLTE:   Logging unit location
 ENGI.             RAUTIO:   Recorded By
 WITN.           JENNINGS:   Witnessed by
 ORIG.           5" PRINT:   Origin of data
 UWI .     49025109020000:   Unique Well ID
 DICO. A2D TECHNOLOGIES, INC.:   Digitizing Company
~OTHER INFORMATION
~A  DEPTH      ILM        ILD       RFOC         DT       TENS         RS         RD        RLL        SPR       TENR       CALD        GRD        DEN       DRHO       TEND         CN
# ...
 2099.5000  -999.2500  -999.2500  -999.2500    79.5148   -34.6067     6.4137     7.1514     5.1285   -85.3242   -50.4576    11.1187    71.1740     2.5391     0.0032   -15.6250     0.2655
 2100.0000  -999.2500  -999.2500  -999.2500    73.9086   -34.4175     6.5477     7.2043     5.2706   -85.3396   -50.4926    11.1278    67.2668     2.5356     0.0000   -11.7188     0.2611
 2100.5000  -999.2500  -999.2500  -999.2500    72.8103   -34.1906     6.6340     7.3444     5.4928   -85.3460   -50.6390    11.1263    67.8434     2.5328     0.0093    -6.9742     0.2617
 2101.0000  -999.2500  -999.2500  -999.2500    77.6982   -33.9637     6.6754     7.3972     5.4910   -85.3480   -50.7853    11.1399    70.2194     2.5288     0.0108    -1.8330     0.2658
 2101.5000  -999.2500  -999.2500  -999.2500    85.3386   -33.7368     6.7163     7.3405     5.1922   -85.2965   -50.9316    11.1383    73.1997     2.5226     0.0124     3.5492     0.2745
 2102.0000  -999.2500  -999.2500  -999.2500    87.7561   -33.5098     6.7115     7.1347     5.0483   -85.2266   -51.0780    11.1366    76.7769     2.5124     0.0139     3.4210     0.2752
 2102.5000  -999.2500  -999.2500  -999.2500    88.5905   -33.2829     6.6135     6.9339     4.9768   -85.2104   -51.2243    11.1353    78.5561     2.5030    -0.0095     2.8320     0.2758
 2103.0000  -999.2500  -999.2500  -999.2500    88.6702   -33.0560     6.5178     6.6466     5.0799   -85.2153   -51.3707    11.1335    80.3391     2.4990    -0.0158    -4.6112     0.2717
 2103.5000  -999.2500  -999.2500  -999.2500    88.9767   -32.8290     6.3790     6.4602     5.3313   -85.3706   -51.5170    11.1323    76.7053     2.5076     0.0060    -4.7394     0.2689
 2104.0000  -999.2500  -999.2500  -999.2500    89.5842   -32.6021     6.1564     6.2784     5.1833   -85.3748   -51.6633    11.1307    75.7818     2.5201     0.0262    -8.7555     0.2683
 2104.5000  -999.2500  -999.2500  -999.2500    90.5695   -32.3752     5.9837     6.2022     4.7672   -85.5301   -51.8097    11.1441    78.1577     2.5302     0.0371   -11.2891     0.2708
 2105.0000  -999.2500  -999.2500  -999.2500    91.0262   -32.1483     5.8151     6.1403     4.7654   -85.5343   -51.9560    11.1429    80.2372     2.5356     0.0340   -12.8998     0.2714
 2105.5000  -999.2500  -999.2500  -999.2500    91.0304   -31.9213     5.8110     6.2222     4.8305   -85.5392   -52.1024    11.1413    80.5187     2.5364     0.0370   -13.0096     0.2667
 2106.0000  -999.2500  -999.2500  -999.2500    90.3566   -31.6944     5.8068     6.3926     4.9647   -85.5429   -52.2666    11.1551    78.6867     2.5309     0.0432   -13.1378     0.2601
 2106.5000  -999.2500  -999.2500  -999.2500    89.9083   -31.6249     5.8830     6.4334     5.0676   -85.5477   -48.6430    11.1685    78.3675     2.5215     0.0510   -13.2568     0.2586
 2107.0000  -999.2500  -999.2500  -999.2500    89.5354   -31.8189     5.8788     6.4288     5.2084   -85.4008   -48.7843    11.1820    78.6452     2.5136     0.0587   -13.3758     0.2689
 2107.5000  -999.2500  -999.2500  -999.2500    89.3888   -32.0129     5.9155     6.4243     5.3163   -85.4060   -48.9375    11.1958    76.2126     2.5105     0.0556   -13.4766     0.2820
 2108.0000  -999.2500  -999.2500  -999.2500    89.9222   -32.2069     5.9106     6.3606     5.3146   -85.1106   -48.9753    11.2092    77.3912     2.5104     0.0493   -13.5938     0.2882
 2108.5000  -999.2500  -999.2500  -999.2500    90.5298   -32.4009     5.8649     6.3271     4.8877   -85.1143   -49.0131    11.2226    79.4745     2.5104     0.0446   -13.7109     0.2892
 2109.0000  -999.2500  -999.2500  -999.2500    90.9872   -32.5949     5.8607     6.2351     4.2821   -85.1197   -49.0509    11.2359    76.1410     2.5158     0.0462   -13.8281     0.2842
 2109.5000  -999.2500  -999.2500  -999.2500    91.1422   -32.7889     5.8160     6.2310     3.7774   -84.9721   -49.0887    11.2346    75.2174     2.5228     0.0617   -13.9453     0.2736
 2110.0000  -999.2500  -999.2500  -999.2500    90.6946   -32.9829     5.8118     6.1832     3.6472   -84.8266   -49.1265    11.2276    76.9928     2.5322     0.0695   -14.0717     0.2657
 2110.5000  -999.2500  -999.2500  -999.2500    90.2463   -33.1769     5.8070     6.1794     4.2774   -84.6805   -49.1643    11.2165    79.9732     2.5462     0.0663   -14.1998     0.2664
 2111.0000  -999.2500  -999.2500  -999.2500    89.9488   -33.3709     5.7621     6.1747     4.6801   -84.6861   -49.2021    11.1997    82.3530     2.5415     0.0585   -14.3097     0.2692
 2111.5000  -999.2500  -999.2500  -999.2500    90.1046   -33.5649     5.7579     6.1705     4.7441   -84.6910   -49.2399    11.1833    83.8319     2.5352     0.0585   -10.5133     0.2595
 2112.0000  -999.2500  -999.2500  -999.2500    90.2603   -33.7590     5.7939     6.1665     4.5804   -84.8456   -49.2777    11.1668    82.3040     2.5321     0.0569   -10.6250     0.2561
 2112.5000  -999.2500  -999.2500  -999.2500    88.4545   -33.9530     5.9108     6.2480     4.5472   -85.1513   -49.3155    11.1501    77.4728     2.5320     0.0522    -6.8360     0.2589
 2113.0000  -999.2500  -999.2500  -999.2500    85.8953   -34.1470     5.9065     6.3313     4.6736   -85.1549   -49.3533    11.1310    75.6483     2.5351     0.0475    -6.9550     0.2685
 2113.5000  -999.2500  -999.2500  -999.2500    85.8227   -34.3410     5.9016     6.3712     5.1492   -85.1594   -49.3911    11.1172    75.3254     2.5226     0.0459    -7.0703     0.2707
 2114.0000  -999.2500  -999.2500  -999.2500    86.3562   -34.5350     5.8566     6.2786     5.7924   -85.1639   -49.4290    11.1156    74.9987     2.4976     0.0459    -7.1875     0.2638
 2114.5000  -999.2500  -999.2500  -999.2500    87.9448   -34.7290     5.7718     6.1444     6.0790   -85.3188   -49.4668    11.1442    73.7749     2.4944     0.0458    -7.3212     0.2595
 2115.0000  -999.2500  -999.2500  -999.2500    89.5327   -34.9230     5.6092     6.0138     5.4378   -85.1729   -49.5046    11.1581    74.3528     2.4959     0.0364    -7.4219     0.2579
 2115.5000  -999.2500  -999.2500  -999.2500    90.3672   -34.9683     5.5280     5.9270     4.5376   -85.1774   -49.5424    11.1562    76.1283     2.5022     0.0224    -5.9766     0.2670
 2116.0000  -999.2500  -999.2500  -999.2500    90.4461   -34.7222     5.4852     5.9225     4.1158   -85.1820   -49.5802    11.1065    76.1056     2.5084     0.0177    -3.7354     0.2676
 2116.5000  -999.2500  -999.2500  -999.2500    89.5467   -34.9987     5.5579     6.0292     4.2009   -85.2312   -49.6180    11.0630    73.9809     2.5099     0.0239    -3.8672     0.2685
 2117.0000  -999.2500  -999.2500  -999.2500    89.4748   -35.2725     5.6315     6.1659     4.5964   -85.3414   -49.6558    11.0314    71.8524     2.5060     0.0285    -0.0946     0.2757
 2117.5000  -999.2500  -999.2500  -999.2500    89.6312   -35.5464     5.7851     6.3354     4.9595   -85.3462   -49.6936    11.0148    73.0310     2.5036     0.0051    -0.1953     0.2801
 2118.0000  -999.2500  -999.2500  -999.2500    89.7862   -35.8203     5.9436     6.4648     5.0622   -85.3504   -49.7314    11.0133    74.8064     2.5004    -0.0105    -0.3327     0.2776
 2118.5000  -999.2500  -999.2500  -999.2500    88.5845   -36.0941     6.1064     6.6417     5.1314   -85.3549   -49.7692    11.0271    74.1831     2.5020    -0.0121     0.0390     0.2726
 2119.0000  -999.2500  -999.2500  -999.2500    87.3820   -36.3680     6.2296     6.7772     5.3478   -85.3595   -49.8070    11.0408    73.5599     2.5082     0.0035     3.3813     0.2682
 2119.5000  -999.2500  -999.2500  -999.2500    87.0092   -36.6419     6.2684     6.9636     5.4208   -85.3639   -49.8448    11.0392    74.7347     2.5207     0.0268     7.1686     0.2619
 2120.0000  -999.2500  -999.2500  -999.2500    87.2403   -36.9157     6.3507     7.1543     5.4948   -85.3690   -49.8826    11.0577    76.5177     2.5284     0.0392     7.0312     0.2582
 2120.5000  -999.2500  -999.2500  -999.2500    87.7731   -37.1896     6.3903     7.2497     5.5311   -85.2232   -49.9204    11.0662    73.7885     2.5354     0.0439    14.7247     0.2563
