~VERSION INFORMATION
 VERS.                2.0:   CWLS LOG ASCII STANDARD - VERSION 2.0
 WRAP.                 NO:   ONE LINE PER DEPTH STEP
~WELL INFORMATION
#MNEM.UNIT      DATA TYPE    INFORMATION
#----------   ------------   ------------------------------
 STRT.F           16.0000:   START DEPTH
 STOP.F         4208.0000:   STOP DEPTH
 STEP.F            0.5000:   STEP LENGTH
 NULL.          -999.2500:   NO VALUE
 COMP.    FENIX & SCISSON:   COMPANY
 WELL. FENIX NPR 3 "MX" #41-10:   WELL
 FLD .                NPR:   FIELD
 LOC .      S10 T38N R78W:   LOCATION
 CNTY.            NATRONA:   COUNTY
 STAT.            WYOMING:   STATE
 CTRY. UNITED STATES OF AMERICA:   COUNTRY
 SRVC.       SCHLUMBERGER:   SERVICE COMPANY
 DATE.        04-NOV-1978:   LOGDATE
 API .     49025107260000:   API NUMBER
~CURVE INFORMATION
#MNEM.UNIT       API CODE    CURVE DESCRIPTION
#----------   ------------   ------------------------------
 DEPT.F                  :   
 TENR.LBS    07 635 01 00:   TENSION FROM RESISTIVITY
 SPR .MV     07 010 01 00:   SPONTANEOUS POTENTIAL
 SFL .OHMM   07 220 01 00:   SHALLOW FOCUSED LOG RESISTIVITY
 ILD .OHMM   07 120 46 00:   DEEP INDUCTION RESISTIVITY
 ILM .OHMM   07 120 44 00:   INDUCTION LOG MEDIUM RESISTIVITY
 CALD.IN     45 280 60 00:   CALIPER FROM DENSITY LOG
 GRD .GAPI   45 310 01 00:   GAMMA RAY FROM DENSITY LOG
 TEND.LBS    45 635 01 00:   TENSION FROM DENSITY LOG
 RHOB.G/C3   45 350 01 00:   BULK DENSITY
 CORR.G/C3   45 356 01 00:   DENSITY CORRECTION
 NPHI.DEC    42 890 03 00:   NEUTRON POROSITY SANDSTONE
~PARAMETER INFORMATION
#MNEM.UNIT          VALUE    DESCRIPTION
#----------   ------------   ------------------------------
 EKB .F         5237.0000:   Kelly bushing
 EGL .F         5227.0000:   Ground level
 EDF .F            0.0000:   Drilling floor
 TD  .F         4200.0000:   Total depth
 DATE.        04-NOV-1978:   Date logged
 CLNT.            A2DTECH:   Client Code
 SL  . 70' FNL & 2370' FWL:   Surface Location
 PD  .                 GL:   Permanent Datum
 EPD .F              5227:   Elevation Permanent Datum
 LMF .                 KB:   Log Measured From
 DMF .                 KB:   Drilling Measured From
 DAPD.F                10:   Feet Above Permanent Datum
 DD  .F              4200:   Depth driller
 DL  .F              4191:   Depth logger
 BLI .F              4185:   Bottom log interval
 TLI .F               506:   Top log interval
 CS1 .IN            9.625:   Casing size
 CBD1.      9.625" @ 500':   Casing driller 1
 CBL1.F               506:   Casing logger 1
 BS1 .IN             8.75:   Bit size
 BSD1.F              4200:   Depth drilled with bit1
 DFT .                FGM:   Type fluid in hole
 DFD .                9.3:   Density
 DFV .                 42:   Viscosity
 DFPH.               11.5:   pH
 DFL .                6.4:   Fluid loss
 MSS .               TANK:   Source of sample
 RMS .OHMM           1.08:   Rm
 MST .F                67:   Rm Meas. temp.
 RMF .OHMM           0.83:   Rmf
 MFST.F                67:   Rmf Meas. temp.
 MFSS.               MEAS:   Source Rmf.
 RMB .OHMM           0.58:   Rm. at BHT
 BHT .F               125:   BHT.
 TCS .HRS            0430:   Time Circ. stopped
 TLAB.HRS            0830:   Time logger at bottom
 MRT .F               125:   Maximum recorded temp.
 LUN .               8039:   Logging unit number
 LUL .               CSPR:   Logging unit location
 ENGI.          STADULLIS:   Recorded By
 WITN.              AMEND:   Witnessed by
 ORIG.           5" PRINT:   Origin of data
 UWI .     49025107260000:   Unique Well ID
 DICO. A2D TECHNOLOGIES, INC.:   Digitizing Company
~OTHER INFORMATION
~A   DEPT     TENR        SPR        SFL        ILD        ILM       CALD         GRD      TEND       RHOB       CORR       NPHI   
# ...
 2456.0000   973.2920   -15.1040     9.0610     8.1850     7.6140    12.0530   111.3250  1346.7650     2.5720     0.0420     0.2510
 2456.5000   973.5560   -15.0890     8.6960     8.1740     7.5740    12.0530   113.7850  1346.8900     2.5610     0.0350     0.2530
 2457.0000   973.8200   -15.0750     8.3310     8.1610     7.5120    12.0530   113.9100  1347.0160     2.5500     0.0270     0.2580
 2457.5000   974.0840   -15.0610     8.1560     8.0670     7.4540    12.0530   111.9900  1347.1410     2.5510     0.0190     0.2620
 2458.0000   974.3480   -15.0470     8.1980     7.8960     7.3960    12.0530   108.5640  1347.2670     2.5520     0.0150     0.2540
 2458.5000   974.6120   -15.0320     8.2540     7.7260     7.3370    12.0530   105.0870  1347.3920     2.5540     0.0180     0.2460
 2459.0000   974.8760   -15.0180     8.3080     7.5550     7.2790    12.0530   104.9520  1347.5170     2.5550     0.0210     0.2430
 2459.5000   975.1400   -15.0040     8.2060     7.3840     7.2210    12.0530   107.0910  1347.6429     2.5560     0.0240     0.2470
 2460.0000   975.4040   -14.9880     7.8330     7.1660     7.1620    12.0530   109.9160  1347.7679     2.5580     0.0280     0.2520
 2460.5000   975.6680   -14.9830     7.4590     7.1750     7.1040    12.0530   112.8910  1347.8940     2.5510     0.0300     0.2570
 2461.0000   975.9320   -14.9950     7.2990     7.2030     7.0340    12.0530   114.9420  1348.0190     2.5430     0.0260     0.2620
 2461.5000   976.1960   -15.0060     7.2990     7.2310     7.0420    12.0530   115.4550  1348.1440     2.5340     0.0120     0.2650
 2462.0000   976.4600   -15.0170     7.4360     7.2590     7.0590    12.0530   116.1790  1348.2700     2.5260     0.0000     0.2660
 2462.5000   976.7240   -15.0290     7.7320     7.2870     7.0770    12.0530   116.9410  1348.3950     2.5190     0.0030     0.2640
 2463.0000   976.9880   -15.0400     8.0730     7.3150     7.0950    12.0530   116.8890  1348.5210     2.5240     0.0100     0.2610
 2463.5000   977.2520   -15.0510     8.4140     7.3430     7.1130    12.0530   115.3370  1348.6460     2.5300     0.0170     0.2590
 2464.0000   977.5160   -15.0620     8.6210     7.3710     7.1310    12.0530   113.7360  1348.7710     2.5360     0.0250     0.2630
 2464.5000   977.7800   -15.0730     8.4210     7.3990     7.1490    12.0530   115.0250  1348.8970     2.5420     0.0270     0.2700
 2465.0000   978.0440   -15.0850     8.2220     7.4350     7.1660    12.0530   117.2290  1349.0220     2.5480     0.0240     0.2770
 2465.5000   978.3080   -15.0960     8.0060     7.4300     7.1910    12.0530   118.9350  1349.1479     2.5510     0.0200     0.2800
 2466.0000   978.5720   -15.1070     8.0290     7.4140     7.2140    12.0530   119.0610  1349.2729     2.5470     0.0160     0.2770
 2466.5000   978.8360   -15.1180     8.0720     7.3970     7.2370    12.0530   118.1650  1349.3990     2.5310     0.0110     0.2760
 2467.0000   979.1000   -15.1290     8.1150     7.3800     7.2610    12.0530   117.3720  1349.5240     2.5300     0.0100     0.2760
 2467.5000   979.3640   -15.1400     8.1560     7.3630     7.2940    12.0530   116.5630  1349.6490     2.5310     0.0130     0.2740
 2468.0000   979.6280   -15.1520     8.0220     7.3460     7.2800    12.0530   115.7600  1349.7750     2.5340     0.0150     0.2670
 2468.5000   979.8920   -15.1630     7.8950     7.3300     7.2100    12.0530   114.9720  1349.9000     2.5370     0.0180     0.2600
 2469.0000   980.1560   -15.1740     7.7690     7.3130     7.1400    12.0530   114.0560  1350.0260     2.5390     0.0200     0.2570
 2469.5000   980.4200   -15.1790     7.5740     7.2990     7.0710    12.0530   114.4140  1350.1510     2.5490     0.0210     0.2600
 2470.0000   980.6840   -15.1790     7.6240     7.1870     7.0010    12.0520   116.8230  1350.2760     2.5560     0.0190     0.2630
 2470.5000   980.9480   -15.1790     7.6850     7.0480     6.9320    12.0530   120.9740  1350.4020     2.5530     0.0160     0.2650
 2471.0000   981.2120   -15.1790     7.7160     6.9090     6.8620    12.0530   121.6720  1350.5270     2.5450     0.0140     0.2680
 2471.5000   981.4760   -15.1790     7.7160     6.7700     6.7920    12.0680   121.3630  1350.6530     2.5380     0.0120     0.2710
 2472.0000   981.7400   -15.1790     7.5780     6.6320     6.7230    12.0840   121.3490  1350.7780     2.5310     0.0100     0.2780
 2472.5000   982.0040   -15.1790     7.4360     6.4930     6.6550    12.0990   118.8070  1350.9030     2.5320     0.0080     0.2840
 2473.0000   982.2680   -15.1790     7.1620     6.3540     6.4990    12.1150   114.8930  1351.0291     2.5360     0.0070     0.2900
 2473.5000   982.5320   -15.1790     6.8930     6.2150     6.3470    12.1300   113.9090  1351.1541     2.5430     0.0220     0.2810
 2474.0000   982.7960   -15.1790     6.6250     5.9560     6.1950    12.1460   119.2130  1351.2800     2.5630     0.0430     0.2740
 2474.5000   983.0600   -15.1790     6.3570     6.0000     6.0670    12.1620   125.2240  1351.4050     2.5810     0.0630     0.2810
 2475.0000   983.3240   -15.1790     6.2950     6.0830     6.0900    12.1740   127.4570  1351.5300     2.5890     0.0740     0.3040
 2475.5000   983.5880   -15.1790     6.4210     6.1650     6.1190    12.1780   126.1200  1351.6560     2.5780     0.0690     0.3080
 2476.0000   983.8520   -15.1790     6.8880     6.2470     6.1490    12.1820   124.2480  1351.7810     2.5590     0.0560     0.3110
 2476.5000   984.0600   -15.1790     7.4360     6.3300     6.1780    12.1850   122.5270  1351.9070     2.5460     0.0440     0.3080
 2477.0000   984.2410   -15.1790     7.3900     6.4120     6.2080    12.1880   120.6840  1352.0320     2.5460     0.0320     0.3050
 2477.5000   984.4220   -15.1790     7.3400     6.4940     6.2380    12.1910   118.9010  1352.1580     2.5460     0.0220     0.3040
 2478.0000   984.6030   -15.1790     7.2900     6.5760     6.2670    12.1950   117.1330  1352.2830     2.5440     0.0180     0.3020
 2478.5000   984.7840   -15.1790     7.2400     6.6550     6.2950    12.1980   117.1920  1352.4080     2.5390     0.0180     0.3010
 2479.0000   984.9650   -15.1790     7.1900     6.6330     6.2890    12.2020   119.4590  1352.5341     2.5450     0.0190     0.3000
 2479.5000   985.1470   -15.1790     7.1660     6.6120     6.2790    12.2050   121.1100  1352.6591     2.5530     0.0200     0.2920
 2480.0000   985.3280   -15.1790     7.1310     6.5910     6.2700    12.2080   121.6820  1352.7850     2.5610     0.0210     0.2840
 2480.5000   985.5090   -15.1790     7.1000     6.5700     6.2600    12.2110   121.6000  1352.9100     2.5670     0.0210     0.2760
 2481.0000   985.6900   -15.1790     7.0690     6.5490     6.2500    12.2140   121.1640  1353.0350     2.5550     0.0180     0.2690
 2481.5000   985.8710   -15.1770     7.0340     6.5280     6.2410    12.2070   122.5620  1353.1610     2.5430     0.0150     0.2730
 2482.0000   986.0520   -15.1810     6.9120     6.5070     6.2320    12.2000   123.9120  1353.2860     2.5310     0.0120     0.2830
 2482.5000   986.2340   -15.1790     6.7710     6.4870     6.2220    12.1930   123.8800  1353.4120     2.5200     0.0090     0.2930
 2483.0000   986.4150   -15.1710     6.6550     6.4660     6.2120    12.1860   123.1960  1353.5370     2.5200     0.0060     0.3000
 2483.5000   986.5960   -15.2000     6.5330     6.4450     6.2050    12.1790   122.6120  1353.6620     2.5270     0.0080     0.3010
 2484.0000   986.7770   -15.0160     6.6130     6.4130     6.1930    12.1740   121.9740  1353.7880     2.5350     0.0100     0.3020
 2484.5000   986.9580   -14.9820     6.6930     6.5180     6.1800    12.1740   123.2470  1353.9130     2.5420     0.0130     0.3030
 2485.0000   987.1400   -14.9740     6.7790     6.7440     6.3110    12.1740   124.9430  1354.0389     2.5410     0.0170     0.3030
 2485.5000   987.3210   -14.9830     7.2340     6.9700     6.4980    12.1740   124.9420  1354.1639     2.5500     0.0290     0.3020
 2486.0000   987.5020   -14.9790     7.7260     7.1960     6.6860    12.1740   122.6190  1354.2889     2.5670     0.0400     0.2980
