~VERSION INFORMATION
 VERS.                2.0:   CWLS LOG ASCII STANDARD - VERSION 2.0
 WRAP.                 NO:   ONE LINE PER DEPTH STEP
~WELL INFORMATION
#MNEM.UNIT      DATA TYPE    INFORMATION
#----------   ------------   ------------------------------
 STRT.F          196.5000:   START DEPTH
 STOP.F         3202.0000:   STOP DEPTH
 STEP.F            0.5000:   STEP LENGTH
 NULL.          -999.2500:   NO VALUE
 COMP.    FENIX & SCISSON:   COMPANY
 WELL.   FENIX "AX" #26-3:   WELL
 FLD .              NPR-3:   FIELD
 LOC .       S3 T38N R78W:   LOCATION
 CNTY.            NATRONA:   COUNTY
 STAT.            WYOMING:   STATE
 CTRY. UNITED STATES OF AMERICA:   COUNTRY
 SRVC.              WELEX:   SERVICE COMPANY
 DATE.        19-JUN-1977:   LOGDATE
 API .     49025103800000:   API NUMBER
~CURVE INFORMATION
#MNEM.UNIT       API CODE    CURVE DESCRIPTION
#----------   ------------   ------------------------------
 DEPT.F                  :   
 CALD.IN     45 280 60 00:   CALIPER FROM DENSITY LOG
 GRD .GAPI   45 310 01 00:   GAMMA RAY FROM DENSITY LOG
 RHOB.G/C3   45 350 01 00:   BULK DENSITY
 CORR.G/C3   45 356 01 00:   DENSITY CORRECTION
 SPR .MV     07 010 01 00:   SPONTANEOUS POTENTIAL
 ILD .OHMM   07 120 46 00:   DEEP INDUCTION RESISTIVITY
 ILM .OHMM   07 120 44 00:   INDUCTION LOG MEDIUM RESISTIVITY
 SGRD.OHMM   07 220 05 00:   SHALLOW SHORT GUARD RESISTIVITY
~PARAMETER INFORMATION
#MNEM.UNIT          VALUE    DESCRIPTION
#----------   ------------   ------------------------------
 EKB .F         5231.0000:   Kelly bushing
 EGL .F         5221.0000:   Ground level
 EDF .F            0.0000:   Drilling floor
 TD  .F         3204.0000:   Total depth
 CLNT.            A2DTECH:   Client Code
 SL  . 1320' FSL & 740' FWL:   Surface Location
 PD  .                 GL:   Permanent Datum
 EPD .F              5221:   Elevation Permanent Datum
 LMF .                 KB:   Log Measured From
 DMF .                 KB:   Drilling Measured From
 DAPD.F                10:   Feet Above Permanent Datum
 DATE.        19-JUN-1977:   Date Logged [DD-MMM-YYYY]
 DD  .F              3200:   Depth driller
 DL  .F              3204:   Depth logger
 BLI .F              3202:   Bottom log interval
 TLI .F               220:   Top log interval
 CS1 .IN            8.625:   Casing size
 CBD1.      8.625" @ 220':   Casing driller 1
 CBL1.F               220:   Casing logger 1
 BS1 .IN            7.875:   Bit size
 BSD1.F              3200:   Depth drilled with bit1
 DFT .                KCL:   Type fluid in hole
 DFD .                9.1:   Density
 RMS .OHMM           1.19:   Rm
 MST .F                65:   Rm Meas. temp.
 TCS .HRS               4:   Time Circ. stopped
 MRT .F               115:   Maximum recorded temp.
 LUN .               8766:   Logging unit number
 ENGI.          T. JOYNER:   Recorded By
 WITN.         PETTINGILL:   Witnessed by
 ORIG.           5" PRINT:   Origin of data
 UWI .     49025103800000:   Unique Well ID
 DICO. A2D TECHNOLOGIES, INC.:   Digitizing Company
 DFPH.                7.5:   pH
 DFL .                4.2:   Fluid loss
 MSS .            MUD PIT:   Source of sample
 RMF .OHMM           1.19:   Rmf
 MFST.F                65:   Rmf Meas. temp.
 MFSS.               MEAS:   Source Rmf.
 RMC .OHMM           2.01:   Rmc
 MCST.F                65:   Rmc Meas. temp.
 MCSS.               MEAS:   Source Rmc.
 RMB .OHMM            .67:   Rm. at BHT
 BHT .F               115:   BHT.
~OTHER INFORMATION
~A   DEPT     CALD         GRD      RHOB       CORR        SPR        ILD        ILM       SGRD   
# ...
  237.0000     9.5397    57.7323     2.3688     0.0132   -53.9114     9.1120    11.7149    10.0054
  237.5000     9.5584    63.4325     2.3689     0.0140   -53.8923     9.1193    11.5603     9.8772
  238.0000     9.5745    64.3600     2.3691     0.0149   -53.8732     9.1281    11.4097     9.6858
  238.5000     9.5918    61.4548     2.3692     0.0165   -53.8541     9.0707    11.2629     9.6257
  239.0000     9.5948    61.5046     2.3693     0.0166   -53.8363     8.9552    11.1931     9.5045
  239.5000     9.6122    61.8510     2.3702     0.0167   -53.6680     8.8989    11.1235     9.5130
  240.0000     9.5850    62.4942     2.3726     0.0168   -53.6489     8.7253    11.0546     9.5215
  240.5000     9.5720    62.5440     2.3772     0.0177   -53.4813     8.6125    10.9861     9.5300
  241.0000     9.5900    62.2970     2.3819     0.0185   -53.4580     8.4428    10.9953     9.4730
  241.5000     9.5776    60.2696     2.3879     0.0187   -53.4389     8.3337    11.0788     9.5471
  242.0000     9.4911    65.6606     2.3918     0.0188   -53.2719     8.2756    11.0863     9.4900
  242.5000     9.5826    62.4036     2.3942     0.0181   -53.4055     8.2325    11.0938     9.5006
  243.0000     9.5851    60.7155     2.3958     0.0182   -53.5344     8.1823    11.1780     9.5091
  243.5000     9.5876    63.1516     2.3959     0.0184   -53.6588     8.1903    11.1855     9.5176
  244.0000     9.6049    62.6079     2.3961     0.0185   -53.7968     8.1967    11.1931     9.5261
  244.5000     9.5481    61.1615     2.3954     0.0186   -53.9161     8.2031    11.2006     9.5346
  245.0000     9.5654    63.3008     2.3941     0.0179   -54.0402     8.2095    11.1311     9.5431
  245.5000     9.6124    60.6799     2.3943     0.0181   -54.0211     8.2159    10.9787     9.5516
  246.0000     9.5704    59.8270     2.3951     0.0182   -54.0020     8.1659    10.7703     9.5601
  246.5000     9.5133    66.7017     2.3968     0.0183   -54.1356     8.1739    10.6281     9.3749
  247.0000     9.6050    64.9835     2.3976     0.0184   -53.9639     8.1802    10.4193     9.0654
  247.5000     9.5618    66.5169     2.3993     0.0185   -53.9448     8.1288    10.2836     8.7058
  248.0000     9.5656    69.8183     2.4001     0.0186   -53.9250     8.0793    10.1496     8.3605
  248.5000     9.6126    65.7262     2.4010     0.0187   -53.7539     7.9749    10.0157     8.1386
  249.0000     9.4963    64.1898     2.4011     0.0188   -53.5869     7.8734     9.9535     7.9809
  249.5000     9.5142    67.0126     2.4013     0.0190   -53.4199     7.7714     9.8933     7.9329
  250.0000     9.5194    66.7656     2.4015     0.0191   -53.2528     7.6712     9.9001     8.1622
  250.5000     9.5594    65.6250     2.4018     0.0192   -53.0858     7.5721     9.9070     8.5285
  251.0000     9.5994    67.7486     2.4022     0.0193   -53.0667     7.4742     9.9151     8.9455
  251.5000     9.6269    65.7294     2.4026     0.0186   -52.8994     7.4287     9.9218     9.1406
  252.0000     9.6451    66.9628     2.4027     0.0165   -52.7279     7.4874     9.9971     9.1487
  252.5000     9.6609    70.2732     2.4043     0.0159   -52.5609     7.4932    10.0039     9.2203
  253.0000     9.6482    67.6490     2.4067     0.0168   -52.5418     7.6558    10.0799     9.1630
  253.5000     9.6213    66.7936     2.4100     0.0169   -52.3748     7.7681    10.1564     9.1082
  254.0000     9.6234    69.5222     2.4130     0.0185   -52.3557     7.8821    10.0333     8.9935
  254.5000     9.6404    70.4588     2.4146     0.0193   -52.1887     7.8884    10.1130     9.0906
  255.0000     9.6426    69.9110     2.4162     0.0202   -52.0217     7.8402    10.1212     9.1893
  255.5000     9.6448    69.6614     2.4178     0.0210   -51.8540     7.8479    10.1994     9.2879
  256.0000     9.6320    69.0801     2.4195     0.0219   -51.5825     7.7986    10.2078     9.3238
  256.5000     9.6343    68.5673     2.4226     0.0220   -51.7145     7.7510    10.2163     9.2680
  257.0000     9.6365    69.8122     2.4257     0.0221   -51.6946     7.7586    10.2263     9.2752
  257.5000     9.6391    70.1553     2.4289     0.0215   -51.6787     7.7647    10.2346     9.2183
  258.0000     9.6413    70.2017     2.4312     0.0216   -51.6627     7.8786    10.2428     9.1903
  258.5000     9.6287    69.9398     2.4291     0.0209   -51.7947     7.9943    10.2511     9.0447
  259.0000     9.6457    68.8108     2.4263     0.0211   -51.7781     8.0603    10.2594     8.9876
  259.5000     9.6478    68.5489     2.4241     0.0212   -51.9108     8.2445    10.2677     8.9324
  260.0000     9.6500    69.4971     2.4213     0.0213   -51.8908     8.2984    10.2760     8.9407
  260.5000     9.6521    70.1370     2.4184     0.0207   -51.8749     8.3053    10.2135     8.9474
  261.0000     9.6543    67.7149     2.4148     0.0200   -51.8590     8.2548    10.1517     8.9540
  261.5000     9.6417    69.8120     2.4103     0.0187   -51.9949     8.2631    10.0208     9.0226
  262.0000     9.6290    71.1664     2.4039     0.0188   -51.9750     8.2113    10.0289     9.0918
  262.5000     9.6317    67.9487     2.3996     0.0174   -52.1110     8.2197     9.9681     9.1615
  263.0000     9.6185    70.9740     2.3967     0.0160   -51.9431     8.1698     9.9076     9.1683
  263.5000     9.6361    69.2400     2.3961     0.0161   -51.9272     8.1764     9.7819     9.1751
  264.0000     9.6382    63.3517     2.3947     0.0162   -51.9112     8.1831     9.7898     9.0561
  264.5000     9.6404    70.5197     2.3956     0.0163   -51.7470     8.1318     9.7284     8.9388
  265.0000     9.6272    69.9726     2.3980     0.0142   -51.7308     8.0838     9.6694     8.8245
  265.5000     9.6299    67.6451     2.4011     0.0136   -51.8634     8.0907     9.5466     8.7704
  266.0000     9.6321    70.9556     2.4012     0.0129   -51.9914     8.0416     9.4885     8.7769
  266.5000     9.6194    71.5955     2.3999     0.0123   -51.9755     7.9928     9.3997     8.7215
  267.0000     9.6221    70.0574     2.3978     0.0124   -52.1115     7.9993     9.3096     8.6680
  267.5000     9.6243    71.4032     2.3971     0.0118   -52.0915     7.9508     9.2531     8.5572
  268.0000     9.6264    69.0757     2.3951     0.0119   -52.2275     7.9588     9.1969     8.4463
  268.5000     9.6132    68.5170     2.3937     0.0120   -52.3595     7.9090     9.0802     8.3368
  269.0000     9.6006    71.2456     2.3923     0.0121   -52.3396     7.9170     9.0875     8.2857
  269.5000     9.6031    70.4018     2.3917     0.0122   -52.3236     7.9234     9.0306     8.2349
  270.0000     9.6054    68.9529     2.3888     0.0123   -52.3077     7.8737     8.9776     8.2425
  270.5000     9.5927    71.6815     2.3875     0.0117   -52.2914     7.8260     8.9232     8.2486
  271.0000     9.5950    69.6508     2.3869     0.0118   -52.2751     7.7798     8.8690     8.2547
  271.5000     9.5988    69.4004     2.3863     0.0119   -52.2559     7.7328     8.8150     8.2609
  272.0000     9.6147    70.9634     2.3857     0.0120   -52.2399     7.6332     8.7617     8.2087
  272.5000     9.6168    70.0983     2.3881     0.0121   -52.2240     7.5348     8.7057     8.2163
  273.0000     9.6338    68.3527     2.3904     0.0123   -52.0601     7.4294     8.6221     8.1098
  273.5000     9.6360    73.1585     2.3913     0.0124   -51.8963     7.2427     8.4288     7.9497
  274.0000     9.6382    66.3799     2.3906     0.0125   -51.7324     7.1478     8.3760     7.7927
  274.5000     9.6404    70.2839     2.3886     0.0126   -51.5685     6.9605     8.2697     7.5825
  275.0000     9.6425    72.0991     2.3873     0.0127   -51.2567     6.8693     8.2179     7.3773
  275.5000     9.6447    68.8930     2.3859     0.0128   -51.0929     6.7355     8.1135     7.1900
  276.0000     9.6469    71.0165     2.3852     0.0129   -50.9290     6.6487     8.1201     7.1459
  276.5000     9.6491    71.9842     2.3846     0.0131   -50.6169     6.5630     8.0692     7.1525
  277.0000     9.6369    66.9078     2.3848     0.0124   -50.6006     6.4783     8.0774     7.1578
