~VERSION INFORMATION
 VERS.                2.0:   CWLS LOG ASCII STANDARD - VERSION 2.0
 WRAP.                 NO:   ONE LINE PER DEPTH STEP
~WELL INFORMATION
#MNEM.UNIT      DATA TYPE    INFORMATION
#----------   ------------   ------------------------------
 STRT.F           60.0000:   START DEPTH
 STOP.F         3178.0000:   STOP DEPTH
 STEP.F            0.5000:   STEP LENGTH
 NULL.          -999.2500:   NO VALUE
 COMP. LAWRENCE-ALLISON & ASSOSCIATES:   COMPANY
 WELL. LAWRENCE "AX" #46-21:   WELL
 FLD .             NPR #3:   FIELD
 LOC .      S21 T39N R78W:   LOCATION
 CNTY.            NATRONA:   COUNTY
 STAT.            WYOMING:   STATE
 CTRY. UNITED STATES OF AMERICA:   COUNTRY
 SRVC.       SCHLUMBERGER:   SERVICE COMPANY
 DATE.        03-JUN-1982:   LOGDATE
 API .     49025108890000:   API NUMBER
~CURVE INFORMATION
#MNEM.UNIT       API CODE    CURVE DESCRIPTION
#----------   ------------   ------------------------------
 DEPT.F                  :   
 TEND.LBS    45 635 01 00:   TENSION FORM DENSITY LOG
 CALD.IN     45 280 60 00:   CALIPER FROM DENSITY LOG
 CORR.G/C3   45 356 01 00:   DENSITY CORRECTION
 RHOB.G/C3   45 350 01 00:   BULK DENSITY
 NPHI.DEC    42 890 03 00:   NEUTRON POROSITY SANDSTONE
 GRR .GAPI   07 310 01 00:   GAMMA RAY FROM RESISTIVITY
 SPR .MV     07 010 01 00:   SPONTANEOUS POTENTIAL
 SFL .OHMM   07 220 01 00:   SHALLOW FOCUSED LOG RESISTIVITY
 ILD .OHMM   07 120 46 00:   DEEP INDUCTION RESISTIVITY
 ILM .OHMM   07 120 44 00:   INDUCTION LOG MEDIUM RESISTIVITY
 TENR.LBS    07 635 01 00:   TENSION FROM RESISTIVITY
~PARAMETER INFORMATION
#MNEM.UNIT          VALUE    DESCRIPTION
#----------   ------------   ------------------------------
 EKB .F         5008.0000:   Kelly bushing
 EGL .F         4998.0000:   Ground level
 EDF .F         5007.0000:   Drilling floor
 TD  .F         3230.0000:   Total depth
 CLNT.            A2DTECH:   Client Code
 SL  . 1864' FSL & 2484' FWL:   Surface Location
 PD  .                 GL:   Permanent Datum
 EPD .F              4998:   Elevation Permanent Datum
 LMF .                 KB:   Log Measured From
 DMF .                 KB:   Drilling Measured From
 DAPD.F                10:   Feet Above Permanent Datum
 DATE.        03-JUN-1982:   Date Logged [DD-MMM-YYYY]
 DD  .F              3230:   Depth driller
 DL  .F              3200:   Depth logger
 BLI .F              3190:   Bottom log interval
 TLI .F               475:   Top log interval
 CS1 .IN            9.625:   Casing size
 CBD1.      9.625" @ 465':   Casing driller 1
 CBL1.F               475:   Casing logger 1
 BS1 .IN             8.75:   Bit size
 BSD1.F              3230:   Depth drilled with bit1
 DFT .   FORM WATER / AIR:   Type fluid in hole
 TCS .HRS            1530:   Time Circ. stopped
 TLAB.HRS            1900:   Time logger at bottom
 MRT .F               135:   Maximum recorded temp.
 LUN .               8035:   Logging unit number
 LUL .               CSPR:   Logging unit location
 ENGI.              PENNY:   Recorded By
 WITN.           JENNINGS:   Witnessed by
 ORIG.      2.5" 5" PRINT:   Origin of data
 UWI .     49025108890000:   Unique Well ID
 DICO. A2D TECHNOLOGIES, INC.:   Digitizing Company
~OTHER INFORMATION
~A   DEPT     TEND       CALD       CORR       RHOB       NPHI        GRR        SPR        SFL        ILD        ILM       TENR   
# ...
 2073.0000  1841.0917     9.1009     0.0198     2.4679  -999.2500   148.0864  -999.2500  -999.2500     7.0001     6.9212  1840.3030
 2073.5000  1840.6489     9.1023     0.0153     2.4545  -999.2500   152.3967  -999.2500  -999.2500     7.0001     7.0604  1840.4545
 2074.0000  1840.2063     9.0886     0.0079     2.4500  -999.2500   152.8268  -999.2500  -999.2500     7.0001     7.1598  1840.6060
 2074.5000  1824.7485     9.0904    -0.0025     2.4554  -999.2500   150.7403  -999.2500  -999.2500     6.9028     7.2605  1840.7574
 2075.0000  1824.3059     9.0769     0.0062     2.4712  -999.2500   148.7782  -999.2500  -999.2500     6.8068     7.2605  1810.6061
 2075.5000  1838.8889     9.0932     0.0180     2.4832  -999.2500   146.9383  -999.2500  -999.2500     6.6636     7.1491  1810.7733
 2076.0000  1838.4354     9.1114     0.0279     2.4855  -999.2500   150.3091  -999.2500  -999.2500     6.3467     6.8455  1810.9092
 2076.5000  1853.0077     9.1704     0.0400     2.4841  -999.2500   153.8617  -999.2500  -999.2500     6.0857     6.4352  1811.0605
 2077.0000  1852.5525     9.2310     0.0514     2.4834  -999.2500   159.9591  -999.2500  -999.2500     5.9177     6.1031  1811.2120
 2077.5000  1852.1021     9.2768     0.0665     2.4813  -999.2500   169.0114  -999.2500  -999.2500     5.8355     5.8824  1811.3636
 2078.0000  1851.5688     9.3226     0.0811     2.4769  -999.2500   176.0649  -999.2500  -999.2500     5.7507     5.6456  1822.0227
 2078.5000  1851.1263     9.3388     0.0924     2.4717  -999.2500   175.1623  -999.2500  -999.2500     5.6744     5.5673  1841.9696
 2079.0000  1835.6686     9.2958     0.0774     2.4500  -999.2500   174.7136  -999.2500  -999.2500     5.6744     5.4900  1842.1211
 2079.5000  1835.2258     9.2533     0.0579     2.4239  -999.2500   174.2659  -999.2500  -999.2500     5.5955     5.4900  1842.2952
 2080.0000  1834.7831     9.2247     0.0422     2.4142  -999.2500   174.2727  -999.2500  -999.2500     5.6744     5.5724  1842.4385
 2080.5000  1834.3403     9.2265     0.0483     2.4368  -999.2500   176.6881  -999.2500  -999.2500     5.7201     5.6456  1842.5819
 2081.0000  1833.9340     9.2279     0.0725     2.4787  -999.2500   179.8318  -999.2500  -999.2500     5.8355     5.7251  1842.7273
 2081.5000  1833.4551     9.2442     0.0833     2.4969  -999.2500   181.2476  -999.2500  -999.2500     5.9177     5.8057  1842.8787
 2082.0000  1848.0480     9.2604     0.0847     2.4782  -999.2500   181.5714  -999.2500  -999.2500     5.8355     5.8057  1843.0303
 2082.5000  1847.5846     9.2470     0.0886     2.4715  -999.2500   180.2164  -999.2500  -999.2500     5.7544     5.7251  1843.1818
 2083.0000  1847.1418     9.2336     0.0992     2.4806  -999.2500   178.4059  -999.2500  -999.2500     5.6744     5.7251  1843.3333
 2083.5000  1846.6967     9.2354     0.1196     2.4882  -999.2500   175.2305  -999.2500  -999.2500     5.6905     5.7251  1843.5139
 2084.0000  1844.8433     9.2369     0.1333     2.4875  -999.2500   172.5097  -999.2500  -999.2500     5.7544     5.7251  1843.6573
 2084.5000  1830.7808     9.2383     0.0852     2.4586  -999.2500   170.2435  -999.2500  -999.2500     5.8355     5.8079  1813.4849
 2085.0000  1845.3711     9.2397     0.0582     2.4090  -999.2500   170.7045  -999.2500  -999.2500     5.9608     5.9815  1813.6411
 2085.5000  1844.8179     9.2263     0.0357     2.3888  -999.2500   172.5752  -999.2500  -999.2500     6.0857     6.0748  1813.7878
 2086.0000  1844.3751     9.1982     0.0034     2.3934  -999.2500   173.9909  -999.2500  -999.2500     6.1715     6.1395  1783.6250
 2086.5000  1828.9790     9.2295     0.0193     2.4122  -999.2500   174.4978  -999.2500  -999.2500     6.0857     6.1008  1783.7880
 2087.0000  1828.5284     9.2754     0.0299     2.4168  -999.2500   174.1866  -999.2500  -999.2500     5.9177     6.0072  1783.9395
 2087.5000  1828.0319     9.3064     0.0413     2.4221  -999.2500   169.8277  -999.2500  -999.2500     5.8321     5.8057  1784.0911
 2088.0000  1812.6125     9.3670     0.0505     2.4390  -999.2500   159.3831  -999.2500  -999.2500     5.6744     5.7251  1784.2701
 2088.5000  1812.1316     9.3980     0.0582     2.4672  -999.2500   155.7533  -999.2500  -999.2500     5.5955     5.6456  1814.7166
 2089.0000  1826.8146     9.3994     0.0324     2.4643  -999.2500   155.3045  -999.2500  -999.2500     5.5678     5.5673  1814.8600
 2089.5000  1826.2611     9.3712     0.0123     2.4621  -999.2500   156.2208  -999.2500  -999.2500     5.5177     5.5601  1815.0034
 2090.0000  1825.8184     9.3730     0.0027     2.4659  -999.2500   160.7727  -999.2500  -999.2500     5.5177     5.4900  1845.4545
 2090.5000  1825.3754     9.3744     0.0080     2.4668  -999.2500   164.0066  -999.2500  -999.2500     5.4410     5.4900  1845.6060
 2091.0000  1824.9249     9.3759     0.0081     2.4616  -999.2500   164.6045  -999.2500  -999.2500     5.4410     5.4900  1845.7576
 2091.5000  1839.5054     9.3773     0.0097     2.4617  -999.2500   167.9274  -999.2500  -999.2500     5.4410     5.4900  1833.5876
 2092.0000  1823.9369     9.3787     0.0188     2.4685  -999.2500   175.6182  -999.2500  -999.2500     5.4410     5.4900  1815.7576
 2092.5000  1823.4941     9.3802     0.0391     2.4835  -999.2500   178.0795  -999.2500  -999.2500     5.4340     5.4138  1785.6062
 2093.0000  1838.1771     9.3819     0.0883     2.4956  -999.2500   180.3604  -999.2500  -999.2500     5.3654     5.3387  1755.4545
 2093.5000  1822.6089     9.3834     0.1200     2.4912  -999.2500   182.6396  -999.2500  -999.2500     5.3429     5.2646  1755.6161
 2094.0000  1822.1661     9.3400     0.1043     2.4733  -999.2500   191.2825  -999.2500  -999.2500     5.2908     5.1877  1755.7595
 2094.5000  1836.8491     9.2827     0.0954     2.4589  -999.2500   197.1981  -999.2500  -999.2500     5.2173     5.1081  1786.2122
 2095.0000  1836.2957     9.2841     0.0917     2.4547  -999.2500   199.9318  -999.2500  -999.2500     5.1448     5.0484  1786.3636
 2095.5000  1835.8531     9.3151     0.0857     2.4563  -999.2500   202.3027  -999.2500  -999.2500     5.0732     5.0484  1786.5151
 2096.0000  1835.4104     9.3314     0.0728     2.4533  -999.2500   202.6721  -999.2500  -999.2500     5.0732     5.0484  1799.5822
 2096.5000  1850.0000     9.3331     0.0604     2.4414  -999.2500   200.5884  -999.2500  -999.2500     5.1448     5.0484  1817.1212
 2097.0000  1849.5399     9.3345     0.0958     2.4572  -999.2500   199.1409  -999.2500  -999.2500     5.1448     5.0484  1817.2976
 2097.5000  1849.0972     9.3359     0.1328     2.4685  -999.2500   198.3750  -999.2500  -999.2500     5.0732     5.0484  1817.4242
 2098.0000  1848.6487     9.3965     0.1615     2.4677  -999.2500   200.8831  -999.2500  -999.2500     5.0732     5.0484  1817.5844
 2098.5000  1833.1832     9.4571     0.1300     2.4320  -999.2500   212.2533  -999.2500  -999.2500     5.0732     4.9783  1817.7278
 2099.0000  1832.6433     9.4734     0.1073     2.4208  -999.2500   217.7143  -999.2500  -999.2500     5.0027     4.9783  1817.8788
 2099.5000  1832.2006     9.4304     0.0925     2.4389  -999.2500   219.9935  -999.2500  -999.2500     4.9637     4.9092  1818.0303
 2100.0000  1831.7581     9.4170     0.0956     2.4554  -999.2500   219.0909  -999.2500  -999.2500     4.9332     4.9092  1818.1818
 2100.5000  1832.7423     9.4029     0.0942     2.4593  -999.2500   220.0520  -999.2500  -999.2500     4.8646     4.8411  1818.3334
 2101.0000  1833.9191     9.4184     0.1003     2.4683  -999.2500   220.9227  -999.2500  -999.2500     4.8441     4.8044  1818.4849
 2101.5000  1835.0958     9.4041     0.1742     2.4934  -999.2500   219.9032  -999.2500  -999.2500     4.8210     4.7739  1818.6598
 2102.0000  1836.2726     9.4028     0.2105     2.5033  -999.2500   215.3505  -999.2500  -999.2500     4.7983     4.7739  1818.8031
 2102.5000  1837.4493     9.3757     0.2226     2.4996  -999.2500   210.7727  -999.2500  -999.2500     4.8071     4.7739  1818.9465
 2103.0000  1838.6261     9.3468     0.1941     2.4731  -999.2500   211.2365  -999.2500  -999.2500     4.8815     4.8411  1819.1139
