~VERSION INFORMATION
 VERS.                2.0:   CWLS LOG ASCII STANDARD - VERSION 2.0
 WRAP.                 NO:   ONE LINE PER DEPTH STEP
~WELL INFORMATION
#MNEM.UNIT      DATA TYPE    INFORMATION
#----------   ------------   ------------------------------
 STRT.F          484.0000:   START DEPTH
 STOP.F         4096.0000:   STOP DEPTH
 STEP.F            0.5000:   STEP LENGTH
 NULL.          -999.2500:   NO VALUE
 COMP.    FENIX & SCISSON:   COMPANY
 WELL. FENIX NPR "JX" #58-28:   WELL
 FLD .                NPR:   FIELD
 LOC .      S28 T39N R78W:   LOCATION
 CNTY.            NATRONA:   COUNTY
 STAT.            WYOMING:   STATE
 CTRY. UNITED STATES OF AMERICA:   COUNTRY
 SRVC.              WELEX:   SERVICE COMPANY
 DATE.        02-MAY-1978:   LOGDATE
 API .     49025107810000:   API NUMBER
~CURVE INFORMATION
#MNEM.UNIT       API CODE    CURVE DESCRIPTION
#----------   ------------   ------------------------------
 DEPT.F                  :   
 NPHI.DEC    42 890 03 00:   NEUTRON POROSITY SANDSTONE
 RHOB.G/C3   45 350 01 00:   BULK DENSITY
 CORR.G/C3   45 356 01 00:   DENSITY CORRECTION
 CALD.IN     45 280 60 00:   CALIPER FROM DENSITY LOG
 GRD .GAPI   45 310 01 00:   GAMMA RAY FROM DENSITY LOG
 SPR .MV     07 010 01 00:   SPONTANEOUS POTENTIAL
 ILD .OHMM   07 120 46 00:   DEEP INDUCTION RESISTIVITY
 SGRD.OHMM   07 220 05 00:   SHALLOW SHORT GUARD RESISTIVITY
 ILM .OHMM   07 120 44 00:   INDUCTION LOG MEDIUM RESISTIVITY
~PARAMETER INFORMATION
#MNEM.UNIT          VALUE    DESCRIPTION
#----------   ------------   ------------------------------
 EKB .F         5115.0000:   Kelly bushing
 EGL .F         5101.0000:   Ground level
 EDF .F            0.0000:   Drilling floor
 EPD .F         5101.0000:   Permanent datum
 TD  .F         4100.0000:   Total depth
 DATE.        02-MAY-1978:   Date logged
 CLNT.            A2DTECH:   Client Code
 SL  . 525' FSL & 2406' FEL:   Surface Location
 PD  .                 GL:   Permanent Datum
 DAPD.F                14:   Feet Above Permanent Datum
 DD  .F              4100:   Depth driller
 DL  .F              4098:   Depth logger
 BLI .F              4096:   Bottom log interval
 CS1 .IN            8.625:   Casing size
 CBD1.      8.625" @ 501':   Casing driller 1
 CBL1.F               500:   Casing logger 1
 BS1 .IN            7.875:   Bit size
 BSD1.F              4100:   Depth drilled with bit1
 DFT .            CHM GEL:   Type fluid in hole
 DFD .                9.4:   Density
 DFV .                 48:   Viscosity
 DFPH.                9.3:   pH
 DFL .                8.5:   Fluid loss
 MSS .           FLOWLINE:   Source of sample
 RMS .OHMM           1.24:   Rm
 MST .F                70:   Rm Meas. temp.
 RMF .OHMM            .57:   Rmf
 MFST.F                70:   Rmf Meas. temp.
 RMC .OHMM           1.48:   Rmc
 MCST.F                70:   Rmc Meas. temp.
 MFSS.               MEAS:   Source Rmf.
 MCSS.               MEAS:   Source Rmc.
 RMB .OHMM            .87:   Rm. at BHT
 BHT .F               123:   BHT.
 TCS .HRS               4:   Time Circ. stopped
 MRT .F               123:   Maximum recorded temp.
 LUN .               1892:   Logging unit number
 LUL .             CASPER:   Logging unit location
 ENGI.               REIN:   Recorded By
 WITN.           DINSMORE:   Witnessed by
 ORIG.         2.5" PRINT:   Origin of data
 UWI .     49025107810000:   Unique Well ID
 DICO. A2D TECHNOLOGIES, INC.:   Digitizing Company
 TLI .                500:   Top log interval
~OTHER INFORMATION
~A   DEPT       NPHI     RHOB       CORR       CALD         GRD       SPR        ILD       SGRD        ILM   
# ...
 2382.0000     0.2480     2.6000     0.0500     9.2650    99.7860   -12.7530     6.1560     7.1930     6.5070
 2382.5000     0.2480     2.6010     0.0510     9.2630   102.0490   -12.7540     6.1440     7.3260     6.4940
 2383.0000     0.2480     2.6000     0.0520     9.2620   103.4080   -12.7580     6.1320     7.4360     6.4820
 2383.5000     0.2470     2.5990     0.0520     9.2600   104.1590   -12.6950     6.1200     7.2700     6.4700
 2384.0000     0.2430     2.6010     0.0530     9.2580   104.9710   -12.5810     6.1090     7.1300     6.4570
 2384.5000     0.2410     2.6090     0.0540     9.2570   105.3460   -12.4660     6.0970     6.9900     6.4450
 2385.0000     0.2410     2.6220     0.0550     9.2550   104.9710   -12.3800     6.0850     6.7790     6.4320
 2385.5000     0.2410     2.6280     0.0560     9.2530   104.5000   -11.5180     6.0730     6.9100     6.4200
 2386.0000     0.2410     2.6250     0.0550     9.2520   100.9030   -11.3250     6.0620     7.1760     6.4080
 2386.5000     0.2410     2.6170     0.0550     9.2500    98.2870   -11.8070     6.0500     7.2990     6.3950
 2387.0000     0.2420     2.6090     0.0540     9.2490    97.2230   -11.9600     6.0380     7.1460     6.3830
 2387.5000     0.2430     2.6010     0.0540     9.2470    96.1160   -11.9350     6.0270     6.9050     6.3710
 2388.0000     0.2450     2.6010     0.0530     9.2490    96.2790   -11.9440     6.0150     6.9050     6.3580
 2388.5000     0.2460     2.6000     0.0530     9.2560    96.3040   -11.9440     6.0040     6.9050     6.3460
 2389.0000     0.2460     2.6000     0.0520     9.2630    97.2520   -11.9420     5.9910     6.9050     6.3330
 2389.5000     0.2450     2.5980     0.0520     9.2690    98.5740   -11.9440     5.9800     6.9050     6.3210
 2390.0000     0.2430     2.5940     0.0530     9.2760    98.2970   -11.9440     5.9680     6.8300     6.3080
 2390.5000     0.2410     2.5890     0.0570     9.2830    97.9810   -11.9430     5.9560     6.6800     6.2950
 2391.0000     0.2440     2.5880     0.0610     9.2900    97.5770   -11.9440     5.8510     6.5310     6.1850
 2391.5000     0.2490     2.5910     0.0650     9.2970    98.9660   -11.9440     5.7410     6.3820     6.0680
 2392.0000     0.2510     2.5930     0.0680     9.3040   101.0420   -11.9400     5.6310     6.2330     5.9520
 2392.5000     0.2530     2.5840     0.0720     9.3110   103.0390   -11.9530     5.5200     6.0830     5.8350
 2393.0000     0.2510     2.5720     0.0700     9.3180   105.8670   -11.8350     5.4100     5.9340     5.7180
 2393.5000     0.2470     2.5600     0.0680     9.3230   108.8220   -11.6040     5.2990     5.7390     5.6020
 2394.0000     0.2440     2.5490     0.0650     9.3380   109.4080   -11.5640     5.1370     5.8690     5.4300
 2394.5000     0.2420     2.5390     0.0630     9.3570   108.7590   -11.6330     5.1520     6.2960     5.4460
 2395.0000     0.2410     2.5480     0.0520     9.3670   105.0260   -11.6870     5.1800     6.9050     5.4760
 2395.5000     0.2410     2.5680     0.0410     9.3520   102.3640   -11.7420     5.2090     6.7880     5.5070
 2396.0000     0.2440     2.5830     0.0360     9.3380   101.1710   -11.8000     5.2380     6.5810     5.5370
 2396.5000     0.2460     2.5910     0.0400     9.3230   101.4630   -11.8560     5.2670     6.3750     5.5680
 2397.0000     0.2480     2.5950     0.0430     9.3090   105.3690   -11.9120     5.2960     6.1800     5.5980
 2397.5000     0.2480     2.5940     0.0460     9.2930   105.3510   -11.9690     5.3250     6.1800     5.6290
 2398.0000     0.2480     2.6050     0.0490     9.2910   103.6960   -12.0260     5.3540     6.1800     5.6590
 2398.5000     0.2470     2.6110     0.0520     9.3060   101.9270   -12.0820     5.3820     6.1800     5.6900
 2399.0000     0.2460     2.6110     0.0550     9.3180   101.0140   -12.1390     5.4300     6.1800     5.7390
 2399.5000     0.2440     2.6210     0.0580     9.3310   103.6820   -12.1940     5.4250     6.1800     5.7350
 2400.0000     0.2430     2.6200     0.0610     9.3440   105.6270   -12.2510     5.4140     6.1800     5.7220
 2400.5000     0.2420     2.6310     0.0640     9.3570   106.9950   -12.3090     5.4020     6.1570     5.7100
 2401.0000     0.2400     2.6400     0.0680     9.3700   105.4710   -12.3380     5.3900     6.1030     5.6980
 2401.5000     0.2380     2.6390     0.0650     9.3830   104.8690   -12.2960     5.3790     6.0490     5.6850
 2402.0000     0.2350     2.6260     0.0620     9.3960   105.9790   -12.2570     5.3670     5.9950     5.6730
 2402.5000     0.2330     2.6150     0.0590     9.4070   108.1230   -12.2160     5.3550     5.9410     5.6610
 2403.0000     0.2320     2.6080     0.0560     9.4020   111.0260   -12.1760     5.3430     5.8600     5.6480
 2403.5000     0.2300     2.6030     0.0530     9.3970   109.3220   -12.1360     5.3300     5.9440     5.6340
 2404.0000     0.2260     2.5990     0.0500     9.3920   107.7650   -12.0960     5.4780     6.3430     5.7910
 2404.5000     0.2220     2.5940     0.0470     9.3880   106.6720   -12.0540     5.6510     6.7430     5.9740
 2405.0000     0.2180     2.5920     0.0440     9.3830   105.8690   -12.0150     5.8240     7.1420     6.1570
 2405.5000     0.2140     2.5980     0.0460     9.3780   103.6560   -11.9770     5.9970     7.5420     6.3400
 2406.0000     0.2160     2.5980     0.0480     9.3730   100.7670   -11.8670     6.1710     8.0060     6.5230
 2406.5000     0.2160     2.6110     0.0500     9.3680    97.9020   -11.5850     6.3440     8.0060     6.7050
 2407.0000     0.2180     2.6170     0.0530     9.3640    96.9970   -11.3030     6.5330     8.0060     6.9050
 2407.5000     0.2210     2.6190     0.0550     9.3590    98.3250   -11.0260     6.6570     8.0060     7.0360
 2408.0000     0.2220     2.6200     0.0570     9.3540   100.3750   -10.7480     6.7930     7.8960     7.1810
 2408.5000     0.2260     2.6210     0.0590     9.3490   102.0710   -10.4330     6.9300     7.5900     7.3250
 2409.0000     0.2280     2.6210     0.0590     9.3440    98.6510   -10.5500     7.0660     7.2990     7.4700
 2409.5000     0.2280     2.6210     0.0570     9.3400    98.8220   -11.1140     7.1520     7.6310     7.5600
 2410.0000     0.2250     2.6140     0.0550     9.3350   102.0110   -11.6710     7.1010     7.9480     7.5060
 2410.5000     0.2220     2.6120     0.0530     9.3300   105.0990   -11.9650     7.0500     8.1560     7.4520
 2411.0000     0.2220     2.6080     0.0520     9.3250   107.8630   -11.9360     6.9990     8.1280     7.3980
 2411.5000     0.2240     2.6080     0.0500     9.3210   110.7140   -11.9490     6.9480     8.0980     7.3450
 2412.0000     0.2240     2.6100     0.0480     9.3160   109.2260   -11.9360     6.8970     8.0690     7.2910
 2412.5000     0.2250     2.6110     0.0460     9.3110   106.6090   -11.9370     6.8470     8.0390     7.2370
 2413.0000     0.2250     2.6040     0.0450     9.3060   105.2300   -12.1190     6.7960     8.0100     7.1840
 2413.5000     0.2250     2.6050     0.0440     9.3010   105.3470   -12.0050     6.7450     7.9800     7.1300
 2414.0000     0.2250     2.6090     0.0450     9.2960   104.3700   -11.6800     6.6940     7.9510     7.0760
 2414.5000     0.2250     2.6090     0.0450     9.2920   103.3290   -12.1860     6.6430     7.9210     7.0220
 2415.0000     0.2250     2.6080     0.0460     9.2870   102.2340   -12.5890     6.5930     7.8920     6.9690
 2415.5000     0.2280     2.6080     0.0470     9.2940   101.6180   -13.0330     6.5420     7.8600     6.9150
 2416.0000     0.2290     2.6080     0.0490     9.3030   102.1610   -12.9750     6.4910     7.6630     6.8610
 2416.5000     0.2310     2.6100     0.0540     9.3130   102.8420   -12.6500     6.4400     7.4490     6.8080
 2417.0000     0.2320     2.6210     0.0590     9.3220   103.6200   -12.3200     6.3890     7.2360     6.7540
 2417.5000     0.2320     2.6320     0.0630     9.3320   104.3660   -11.8170     6.3390     7.0340     6.7000
 2418.0000     0.2320     2.6370     0.0670     9.3410   107.3550   -11.1550     6.2880     7.0340     6.6460
