~VERSION INFORMATION
 VERS.                2.0:   CWLS LOG ASCII STANDARD - VERSION 2.0
 WRAP.                 NO:   ONE LINE PER DEPTH STEP
~WELL INFORMATION
#MNEM.UNIT      DATA TYPE    INFORMATION
#----------   ------------   ------------------------------
 STRT.F          629.0000:   START DEPTH
 STOP.F         4090.0000:   STOP DEPTH
 STEP.F            0.5000:   STEP LENGTH
 NULL.          -999.2500:   NO VALUE
 COMP. LAWRENCE ALLISON & ASSOCIATES:   COMPANY
 WELL. LAWRENCE NPR 3 "SHX" #36-10:   WELL
 FLD .      NPR - WILDCAT:   FIELD
 LOC .      S10 T38N R78W:   LOCATION
 CNTY.            NATRONA:   COUNTY
 STAT.            WYOMING:   STATE
 CTRY. UNITED STATES OF AMERICA:   COUNTRY
 SRVC.      DRESSER ATLAS:   SERVICE COMPANY
 DATE.        24-DEC-1981:   LOGDATE
 API .     49025108310000:   API NUMBER
~CURVE INFORMATION
#MNEM.UNIT       API CODE    CURVE DESCRIPTION
#----------   ------------   ------------------------------
 DEPT.F                  :   
 DT  .US/F   60 520 00 00:   DELTA TIME
 TENS.LBS    60 635 01 00:   TENSION FROM SONIC
 GRR .GAPI   07 310 01 00:   GAMMA RAY FROM RESISTIVITY
 SPR .MV     07 010 01 00:   SPONTANEOUS POTENTIAL
 RFOC.OHMM   07 220 04 00:   RESISTIVITY FOCUSED LOG RES.
 RILM.OHMM   07 120 44 00:   INDUCTION LOG MEDIUM RESISTIVITY
 RILD.OHMM   07 120 46 00:   DEEP INDUCTION RESISTIVITY
 TENR.LBS    07 635 01 00:   TENSION FROM RESISTIVITY
 NPHI.DEC    42 890 03 00:   NEUTRON POROSITY SANDSTONE
 RHOB.G/C3   45 350 01 00:   BULK DENSITY
 CORR.G/C3   45 356 01 00:   DENSITY CORRECTION
 TEND.LBS    45 635 01 00:   TENSION FROM DENSITY LOG
 CALD.IN     45 280 60 00:   CALIPER FROM DENSITY LOG
~PARAMETER INFORMATION
#MNEM.UNIT          VALUE    DESCRIPTION
#----------   ------------   ------------------------------
 EKB .F         5234.0000:   Kelly bushing
 EGL .F         5224.0000:   Ground level
 EDF .F         5233.0000:   Drilling floor
 EPD .F            0.0000:   Permanent datum
 TD  .F         4100.0000:   Total depth
 DATE.        24-DEC-1981:   Date logged
 CLNT.            A2DTECH:   Client Code
 SL  . 1798' FSL & 1455' FWL:   Surface Location
 PD  .                 GL:   Permanent Datum
 DAPD.F                10:   Feet Above Permanent Datum
 DD  .F              4100:   Depth driller
 DL  .F              4082:   Depth logger
 BLI .F              4074:   Bottom log interval
 TLI .F              2300:   Top log interval
 CS1 .IN            9.625:   Casing size
 CBD1.      9.625" @ 650':   Casing driller 1
 BS1 .IN            7.875:   Bit size
 BSD1.F              4100:   Depth drilled with bit1
 DFT .            KCL/GEL:   Type fluid in hole
 DFD .                9.1:   Density
 DFV .                 60:   Viscosity
 DFPH.                  8:   pH
 DFL .                 12:   Fluid loss
 MSS .           FLOWLINE:   Source of sample
 RMS .OHMM           .536:   Rm
 RMF .OHMM           .402:   Rmf
 RMC .OHMM            067:   Rmc
 MFSS.               CALC:   Source Rmf.
 MCSS.               CALC:   Source Rmc.
 RMB .OHMM            .35:   Rm. at BHT
 BHT .F               135:   BHT.
 TCS .HRS               6:   Time Circ. stopped
 MRT .F               141:   Maximum recorded temp.
 LUL .               GLT1:   Logging unit location
 UWI .     49025108310000:   Unique Well ID
 DICO. A2D TECHNOLOGIES, INC.:   Digitizing Company
~OTHER INFORMATION
~A   DEPT       DT       TENS         GRR       SPR       RFOC       RILM       RILD       TENR       NPHI       RHOB       CORR       TEND       CALD   
# ...
 2293.0000  -999.2500  -999.2500    92.5840   -29.2060     6.9810     6.4470     6.4920  -100.4850  -999.2500  -999.2500  -999.2500  -999.2500  -999.2500
 2293.5000  -999.2500  -999.2500    94.3050   -29.1900     7.7220     6.2940     6.2320  -100.5400  -999.2500  -999.2500  -999.2500  -999.2500  -999.2500
 2294.0000  -999.2500  -999.2500    94.3520   -29.1750     8.4070     6.2590     5.9720  -100.5950  -999.2500  -999.2500  -999.2500  -999.2500  -999.2500
 2294.5000  -999.2500  -999.2500    94.0430   -29.1600     7.2300     6.3150     5.7610  -100.6490  -999.2500  -999.2500  -999.2500  -999.2500  -999.2500
 2295.0000  -999.2500  -999.2500    95.0860   -29.1440     6.0280     6.6130     5.7080  -100.7040  -999.2500  -999.2500  -999.2500  -999.2500  -999.2500
 2295.5000  -999.2500  -999.2500    98.1500   -29.1290     5.5520     6.9110     6.1960  -100.7590  -999.2500  -999.2500  -999.2500  -999.2500  -999.2500
 2296.0000  -999.2500  -999.2500   101.1940   -29.1140     6.8680     7.2090     6.6030  -100.8130  -999.2500  -999.2500  -999.2500  -999.2500  -999.2500
 2296.5000  -999.2500  -999.2500   104.2480   -29.0980     8.4260     7.3210     7.0110  -100.8680  -999.2500  -999.2500  -999.2500  -999.2500  -999.2500
 2297.0000  -999.2500  -999.2500   107.3060   -29.0820     9.3050     7.3210     7.3210  -100.9230  -999.2500  -999.2500  -999.2500  -999.2500  -999.2500
 2297.5000  -999.2500  -999.2500   110.1140   -28.9790     9.3050     6.8730     7.1030  -100.9770  -999.2500  -999.2500  -999.2500  -999.2500  -999.2500
 2298.0000  -999.2500  -999.2500   109.8790   -28.7690     9.1350     6.4420     6.7630  -101.0320  -999.2500  -999.2500  -999.2500  -999.2500  -999.2500
 2298.5000  -999.2500  -999.2500   106.9020   -28.5590     7.1880     6.0110     6.4240  -101.0860  -999.2500  -999.2500  -999.2500  -999.2500  -999.2500
 2299.0000  -999.2500  -999.2500   104.0110   -28.3500     6.7960     5.5800     6.0840  -101.1410  -999.2500  -999.2500  -999.2500  -999.2500  -999.2500
 2299.5000   100.4100  -105.2290   101.4070   -28.1400     6.4300     5.0170     5.7450  -101.1960  -999.2500  -999.2500  -999.2500  -999.2500  -999.2500
 2300.0000    98.8160  -105.7220   101.0220   -27.9260     5.4300     5.4610     5.5520  -101.2500     0.2990  -999.2500     0.1700  -999.2500     8.9780
 2300.5000    96.8320  -106.2160   100.6960   -27.7740     4.7910     6.1020     5.7630  -101.3050     0.2990  -999.2500     0.1700  -999.2500     8.9870
 2301.0000    92.5160  -106.7090   100.3640   -27.6380     4.7910     6.7430     5.9550  -101.3600     0.2810     2.3850     0.1700  -999.2500     9.0140
 2301.5000    89.2790  -107.0790   100.0340   -27.5040     5.8480     7.1880     6.1460  -101.4140     0.2610     2.4650     0.1700  -999.2500     9.0380
 2302.0000    84.9950  -107.5720    99.6980   -27.3690     7.5850     6.6770     6.2900  -101.4690     0.2510     2.4980     0.1710   -45.4090     9.0260
 2302.5000    85.7020  -108.0650    99.0080   -27.2320     9.4780     6.1870     6.1190  -101.5240     0.2560     2.5240     0.1830   -45.4090     9.0010
 2303.0000    87.3370  -108.5580    95.7780   -27.0930     9.4780     5.6470     5.8420  -101.5780     0.2670     2.5470     0.1680   -45.1390     8.9770
 2303.5000    90.2080  -109.0510    94.0080   -26.7120     8.7760     5.1070     5.5660  -101.6330     0.2790     2.5480     0.1450   -43.8890     8.9580
 2304.0000    94.3520  -109.5450    93.5760   -26.0550     7.4080     4.5680     5.2900  -101.6870     0.2920     2.5160     0.1150   -42.2220     8.9990
 2304.5000    98.4960  -110.0380    93.1870   -25.3980     6.0400     3.9840     5.0130  -101.7420     0.3050     2.4660     0.1390   -40.5560     9.0880
 2305.0000    99.6900  -110.5310    90.6960   -24.7340     4.6710     4.0050     4.7370  -101.7970     0.3030     2.4130     0.1650   -38.8890     9.1810
 2305.5000    97.8050  -111.0240    87.5560   -24.0710     4.2500     4.0290     4.4610  -101.8510     0.3040     2.3670     0.1730   -37.2220     9.2740
 2306.0000    93.9450  -111.5170    86.7960   -23.9570     4.4250     4.0520     4.1840  -101.9060     0.3060     2.3370     0.2020   -35.4290     9.4820
 2306.5000    90.0000  -112.0110    87.9140   -23.8530     4.9670     4.0580     3.9080  -101.9610     0.3010     2.3200     0.2570   -40.2590     9.6880
 2307.0000    89.4090  -112.5040    88.9640   -23.7450     5.5090     4.0580     3.6560  -102.0150     0.3100     2.3820     0.2200   -46.9260     9.7250
 2307.5000    88.7990  -112.9970    86.9300   -23.6350     5.7080     4.0580     3.5670  -102.0700     0.3190     2.4280     0.1680   -53.5930     9.7580
 2308.0000    93.1400  -113.4900    86.0970   -23.5260     5.5980     3.9840     3.4790  -102.1250     0.2890     2.4490     0.1530   -31.9080     9.8010
 2308.5000    99.8460  -113.9830    87.9860   -23.4170     5.2650     3.5870     3.3410  -102.1790     0.3120     2.4520     0.1310     0.2350    10.0650
 2309.0000   106.5520  -114.4770    89.8470   -23.3070     5.0170     3.0490     3.1590  -102.2340     0.3290     2.4210     0.1060    34.4310    10.1980
 2309.5000   113.2570  -115.3210    90.0950   -23.2320     4.6810     3.1080     2.9660  -102.2890     0.3470     2.3800     0.0820    24.0520    10.2420
 2310.0000   119.8300  -117.4630    89.2110   -23.2650     3.4380     3.1870     2.9120  -102.3430     0.3640     2.3310     0.1130    -6.7170    10.2850
 2310.5000   117.3620  -119.6060    89.1530   -24.3380     3.4060     3.3720     2.9120  -102.3980     0.3730     2.2880     0.1450   -37.4870    10.3280
 2311.0000   112.5670  -121.7480    90.5130   -25.4690     3.8110     3.7210     2.9120  -102.4520     0.3620     2.3040     0.1620   -44.5870    10.3720
 2311.5000   107.2950  -123.8910    93.1050   -26.5970     4.1120     4.0700     3.0580  -102.5070     0.3350     2.3470     0.1320   -43.0710    10.4260
 2312.0000   102.0230  -126.0330    96.4960   -27.7240     4.4140     4.4190     3.2130  -102.5620     0.3110     2.4050     0.1140   -41.5560    10.4690
 2312.5000    98.4330  -128.1760    99.7860   -28.8370     4.7160     4.7680     3.4830  -102.6160     0.3010     2.4600     0.1360   -40.0410    10.6110
 2313.0000    96.9230  -130.3190   105.8050   -29.7890     5.0800     5.0170     3.9700  -102.6710     0.2900     2.4870     0.1570   -38.5260    10.7870
 2313.5000    95.7880  -132.4610   112.0470   -30.6360     5.6060     5.2770     4.4570  -102.7260     0.2800     2.5070     0.1640   -37.0110    10.9680
 2314.0000    95.0960  -134.6040   114.3980   -31.4900     6.1310     5.5500     4.9440  -102.7800     0.2690     2.5230     0.1460   -35.4290    11.0470
 2314.5000    93.7940  -136.7460   115.9430   -32.3500     6.3170     5.8230     5.4510  -102.8350     0.2590     2.5340     0.1170   -38.0850    11.0710
 2315.0000    92.3990  -138.8890   114.6080   -32.3830     6.3760     6.0970     5.8110  -102.8900     0.2490     2.5380     0.1190   -40.8630    11.1080
 2315.5000    91.4010  -141.0310   113.3430   -32.2520     6.9970     6.4350     6.2020  -102.9440     0.2420     2.5440     0.1510   -43.6400    11.1490
 2316.0000    92.6950  -143.1740   112.0940   -32.1160     8.1030     6.4030     6.2590  -102.9990     0.2450     2.5500     0.1690   -41.3730    11.1700
 2316.5000    93.7020  -145.3170   110.8180   -31.9810     7.7860     6.3610     6.2590  -103.0530     0.2470     2.5480     0.1640   -30.2620    11.2050
 2317.0000    94.7090  -147.4590   109.4230   -31.8460     7.3720     6.3190     6.1960  -103.1080     0.2500     2.5410     0.1550   -19.1510    11.3230
 2317.5000    95.3880  -149.6020   113.3880   -31.7080     6.9580     6.2770     6.1300  -103.1630     0.2580     2.5380     0.1460    -8.0390    11.4820
 2318.0000    95.4260  -151.7440   118.0780   -31.8770     6.5440     6.2590     6.0890  -103.2170     0.2670     2.5330     0.1410   -15.7620    11.6410
 2318.5000    95.0700  -153.8870   121.7530   -32.1640     6.2020     6.2590     6.0890  -103.2720     0.2680     2.5370     0.1360   -29.0950    11.8010
