~VERSION INFORMATION
 VERS.                2.0:   CWLS LOG ASCII STANDARD - VERSION 2.0
 WRAP.                 NO:   ONE LINE PER DEPTH STEP
~WELL INFORMATION
#MNEM.UNIT      DATA TYPE    INFORMATION
#----------   ------------   ------------------------------
 STRT.F         3288.0000:   START DEPTH
 STOP.F         4421.0000:   STOP DEPTH
 STEP.F            0.5000:   STEP LENGTH
 NULL.          -999.2500:   NO VALUE
 COMP.       FLUOR DANIEL:   COMPANY
 WELL. FLUOR 22 "X" #2-10:   WELL
 FLD . TEA POT DOME NAVAL PETROLEUM DO:   FIELD
 LOC .      S10 T38N R78W:   LOCATION
 CNTY.            NATRONA:   COUNTY
 STAT.            WYOMING:   STATE
 CTRY. UNITED STATES OF AMERICA:   COUNTRY
 SRVC.        HALLIBURTON:   SERVICE COMPANY
 DATE.        13-DEC-1996:   LOGDATE
 API .     49025228330000:   API NUMBER
~CURVE INFORMATION
#MNEM.UNIT       API CODE    CURVE DESCRIPTION
#----------   ------------   ------------------------------
 DEPT.F                  :   
 NPHI.DEC    42 890 03 00:   NEUTRON POROSITY SANDSTONE
 GRD .GAPI   45 310 01 00:   GAMMA RAY FROM DENSITY LOG
 CALD.IN     45 280 60 00:   CALIPER FROM DENSITY LOG
 PE  .B/E    45 358 01 00:   PHOTOELECTRIC FACTOR
 CORR.G/C3   45 356 01 00:   DENSITY CORRECTION
 TEND.LBS    45 635 01 00:   TENSION FORM DENSITY LOG
 RHOB.G/C3   45 350 01 00:   BULK DENSITY
 TENR.LBS    07 635 01 00:   TENSION FROM RESISTIVITY
 ILD .OHMM   07 120 46 00:   DEEP INDUCTION RESISTIVITY
 ILM .OHMM   07 120 44 00:   INDUCTION LOG MEDIUM RESISTIVITY
 SFL .OHMM   07 220 01 00:   SHALLOW FOCUSED LOG RESISTIVITY
~PARAMETER INFORMATION
#MNEM.UNIT          VALUE    DESCRIPTION
#----------   ------------   ------------------------------
 EKB .F         5268.0000:   Kelly bushing
 EGL .F         5258.0000:   Ground level
 EDF .F         5267.0000:   Drilling floor
 TD  .F         4435.0000:   Total depth
 CLNT.            A2DTECH:   Client Code
 SL  . 569' FNL & 1440' FWL:   Surface Location
 PD  .                 GL:   Permanent Datum
 EPD .F              5258:   Elevation Permanent Datum
 LMF .                 KB:   Log Measured From
 DMF .                 KB:   Drilling Measured From
 DAPD.F                10:   Feet Above Permanent Datum
 DATE.        13-DEC-1996:   Date Logged [DD-MMM-YYYY]
 DD  .F              4435:   Depth driller
 DL  .F              4412:   Depth logger
 BLI .F              4403:   Bottom log interval
 TLI .F              3308:   Top log interval
 CS1 .IN            9.625:   Casing size
 CBD1.     9.625" @ 3307':   Casing driller 1
 CBL1.F              3308:   Casing logger 1
 BS1 .IN              8.5:   Bit size
 BSD1.F              4435:   Depth drilled with bit1
 DFT .           POLY-KCL:   Type fluid in hole
 DFD .                  9:   Density
 DFV .                 50:   Viscosity
 DFPH.                  9:   pH
 DFL .                  7:   Fluid loss
 MSS .           MUD TANK:   Source of sample
 RMS .OHMM           0.47:   Rm
 MST .F                56:   Rm Meas. temp.
 RMF .OHMM           0.36:   Rmf
 MFST.F                61:   Rmf Meas. temp.
 MFSS.               MEAS:   Source Rmf.
 RMC .OHMM           0.48:   Rmc
 MCST.F                68:   Rmc Meas. temp.
 MCSS.               MEAS:   Source Rmc.
 RMB .OHMM           0.20:   Rm. at BHT
 BHT .F               138:   BHT.
 TCS .HRS              20:   Time Circ. stopped
 TLAB.HRS            0108:   Time logger at bottom
 MRT .F               138:   Maximum recorded temp.
 LUN .              52546:   Logging unit number
 LUL .              VERNI:   Logging unit location
 ENGI.        JOHN SAVAGE:   Recorded By
 WITN.          STEBBINGS:   Witnessed by
 ORIG.         2.5" PRINT:   Origin of data
 UWI .     49025228330000:   Unique Well ID
 DICO. A2D TECHNOLOGIES, INC.:   Digitizing Company
~OTHER INFORMATION
~A  DEPT        NPHI       GRD      CALD         PE       CORR       TEND       RHOB       TENR        ILD        ILM        SFL   
# ...
 3654.0000     0.2632   154.9119     9.6235     2.8726     0.0446  3139.6067     2.4887  3081.7646     4.1230     4.1587     5.0903
 3654.5000     0.2625   153.6948     9.6230     2.8728     0.0450  2988.2603     2.4883  3056.6167     4.1819     4.2066     5.2270
 3655.0000     0.2617   153.0816     9.6224     2.8731     0.0426  3078.6052     2.4846  2979.4163     4.2664     4.2611     5.2953
 3655.5000     0.2617   153.1782     9.6218     2.8648     0.0417  2928.8840     2.4797  2908.5513     4.3221     4.2807     5.3646
 3656.0000     0.2623   155.1983     9.6211     2.8435     0.0396  2913.5977     2.4797  2938.9409     4.2615     4.2842     5.2895
 3656.5000     0.2653   156.8960     9.6205     2.8438     0.0396  3138.0154     2.4797  2939.9187     4.2022     4.1944     5.2158
 3657.0000     0.2750   157.0030     9.6199     2.8743     0.0396  3047.0918     2.4827  2970.3088     4.2000     4.1917     5.0731
 3657.5000     0.2799   156.3342     9.6193     2.8747     0.0396  2895.7451     2.4858  2941.8750     4.2549     4.2463     4.9281
 3658.0000     0.2779   154.8383     9.6792     2.8750     0.0412  3076.7246     2.4858  2972.3530     4.2588     4.3011     4.8678
 3658.5000     0.2733   153.6212     9.7088     2.8753     0.0427  3076.4351     2.4858  3011.1672     4.3083     4.3566     5.0665
 3659.0000     0.2682   152.4040     9.7081     2.8755     0.0412  3015.7102     2.4828  3033.0444     4.3058     4.3537     5.0633
 3659.5000     0.2670   151.7911     9.7075     2.8758     0.0408  2979.8015     2.4810  2960.8862     4.3034     4.3508     5.0605
 3660.0000     0.2660   150.5740     9.7069     2.8459     0.0392  2954.7212     2.4778  2935.3000     4.3011     4.2895     5.0574
 3660.5000     0.2660   148.7523     9.7091     2.8462     0.0376  3135.7007     2.4732  2977.6443     4.2667     4.2657     5.0548
 3661.0000     0.2660   148.0280     9.7360     2.8465     0.0359  2987.7085     2.4707  3037.4458     4.1255     4.1693     5.0522
 3661.5000     0.2678   148.2961     9.7353     2.8068     0.0328  3018.0220     2.4730  3097.2476     4.0681     4.0556     5.0496
 3662.0000     0.2680   148.9466     9.7347     2.7866     0.0307  3157.6792     2.4737  3186.4609     3.9576     4.0530     4.9792
 3662.5000     0.2666   149.5970     9.7341     2.7568     0.0277  3013.5530     2.4707  3124.9924     3.9556     3.9959     4.8960
 3663.0000     0.2666   148.9791     9.7637     2.7269     0.0262  3073.6865     2.4662  3057.3542     3.9005     3.9397     4.8413
 3663.5000     0.2691   148.0921     9.7933     2.7272     0.0247  3080.3740     2.4632  2983.5127     3.8461     3.9370     4.8387
 3664.0000     0.2709   146.8750     9.7927     2.7275     0.0232  2891.8391     2.4602  2955.2939     3.8440     3.9343     4.7712
 3664.5000     0.2708   146.2621     9.7921     2.7580     0.0217  2770.7039     2.4587  2985.7354     3.8419     3.9069     4.7682
 3665.0000     0.2711   146.2534     9.7915     2.7885     0.0219  3039.2473     2.4587  2986.9360     3.8399     3.8763     4.7657
 3665.5000     0.2737   148.6715     9.7909     2.7888     0.0232  2936.9468     2.4591  3017.3259     3.8616     3.9264     4.7633
 3666.0000     0.2766   151.2509     9.7903     2.7891     0.0247  2990.4771     2.4617  3077.1272     3.8879     3.9234     4.5718
 3666.5000     0.2822   154.8013     9.7897     2.7894     0.0247  3144.5583     2.4639  3078.1052     3.9386     3.9742     4.5082
 3667.0000     0.2870   155.2822     9.7891     2.7897     0.0248  3086.1279     2.4655  3049.6716     3.9900     3.9716     4.6406
 3667.5000     0.2859   153.8369     9.7772     2.7900     0.0248  2919.8806     2.4663  3050.7354     4.0419     3.9690     4.7535
 3668.0000     0.2801   153.4501     9.6993     2.7601     0.0248  3040.4373     2.4648  3043.5427     3.9856     3.9663     4.7506
 3668.5000     0.2776   154.7205     9.6665     2.7604     0.0248  2979.7246     2.4618  3012.0586     3.8774     3.9105     4.7480
 3669.0000     0.2764   156.4517     9.6658     2.7608     0.0248  2919.0125     2.4603  2980.5959     3.8233     3.8900     4.7450
 3669.5000     0.2765   157.6526     9.7256     2.7611     0.0248  3039.5691     2.4588  2907.9919     3.8122     3.8012     4.4932
 3670.0000     0.2771   158.2477     9.7553     2.7614     0.0233  3007.0310     2.4588  2879.4119     3.8331     3.7986     4.3712
 3670.5000     0.2759   156.1919     9.7849     2.7919     0.0218  2887.9331     2.4605  2880.5366     3.9599     3.8995     4.3656
 3671.0000     0.2744   154.5728     9.8145     2.7921     0.0234  3070.3914     2.4636  2881.5149     4.1063     4.0037     4.6153
 3671.5000     0.2713   151.3777     9.7502     2.7924     0.0253  3310.3152     2.4668  2941.3235     4.2216     4.1109     4.8073
 3672.0000     0.2685   148.4228     9.6864     2.7927     0.0290  3123.8401     2.4684  2945.8896     4.2457     4.1639     4.9260
 3672.5000     0.2666   147.9305     9.6616     2.7931     0.0346  3023.4131     2.4723  2979.4141     4.2431     4.2187     4.9230
 3673.0000     0.2656   148.5273     9.7028     2.7934     0.0371  2946.8276     2.4739  3003.2351     4.2409     4.2723     4.9204
 3673.5000     0.2653   149.1208     9.7654     2.8362     0.0371  3037.1099     2.4709  3004.2646     4.2387     4.2693     4.9841
 3674.0000     0.2650   148.1654     9.7807     2.8544     0.0356  3067.0696     2.4694  3005.2939     4.2365     4.2664     4.9815
 3674.5000     0.2644   144.8716     9.8103     2.8371     0.0341  3036.5310     2.4709  2977.0854     4.2343     4.2635     4.9792
 3675.0000     0.2651   143.6545     9.7794     2.8248     0.0326  3006.0303     2.4739  2948.6519     4.2320     4.2035     4.9760
 3675.5000     0.2645   143.0416     9.7486     2.7949     0.0326  3035.9524     2.4770  2949.6296     4.1730     4.2001     4.9734
 3676.0000     0.2614   144.8456     9.7178     2.7952     0.0356  2876.1763     2.4800  2950.6077     4.1513     4.1805     4.9709
 3676.5000     0.2588   148.5067     9.6568     2.7955     0.0373  2933.6768     2.4830  2982.9355     4.0884     4.1950     4.9683
 3677.0000     0.2602   152.8955     9.6562     2.7958     0.0387  3276.7764     2.4792  3011.4705     4.0552     4.1358     4.9658
 3677.5000     0.2648   155.9464     9.6921     2.7961     0.0368  3123.1272     2.4729  3012.5000     3.9982     4.0777     4.8965
 3678.0000     0.2657   157.4998     9.7245     2.7964     0.0342  3047.9302     2.4666  3013.5295     3.9962     4.0705     4.8131
 3678.5000     0.2663   157.2528     9.7753     2.7967     0.0312  3138.8311     2.4611  3014.5588     3.9941     3.9637     4.6970
 3679.0000     0.2669   156.8761     9.7746     2.7667     0.0266  2943.1479     2.4574  2986.3767     3.9920     3.9465     4.6945
 3679.5000     0.2663   156.2628     9.7740     2.7369     0.0191  3063.7043     2.4529  2957.7939     3.8836     3.8858     4.6919
 3680.0000     0.2657   155.6481     9.7733     2.7231     0.0130  3033.2039     2.4589  2958.9214     3.8261     3.8502     4.6261
 3680.5000     0.2652   153.2225     9.7727     2.8282     0.0070  2942.2798     2.4891  2959.8997     3.7762     3.8251     4.6237
 3681.0000     0.2645   147.1716     9.7420     2.9191     0.0100  2972.2019     2.5284  2990.5662     3.9036     3.9499     4.6214
 3681.5000     0.2627   139.9121     9.7112     3.0100     0.0176  3062.5471     2.5410  3020.7354     4.1091     4.0554     4.9417
 3682.0000     0.2637   137.4660     9.6502     3.0405     0.0252  3062.2356     2.5526  3021.7646     4.2001     4.1081     5.2203
 3682.5000     0.2684   137.6279     9.6495     2.9804     0.0315  2994.2043     2.5372  3013.2322     4.1687     4.1053     5.4261
 3683.0000     0.2735   141.7479     9.6489     2.9170     0.0361  2940.7854     2.5084  2981.7634     4.0286     4.0424     5.1485
 3683.5000     0.2757   147.8725     9.6879     2.8601     0.0404  3008.6133     2.4802  2966.0295     3.7636     3.8247     4.6451
 3684.0000     0.2776   152.0725     9.7202     2.8604     0.0394  3075.9170     2.4665  2937.6472     3.7616     3.7274     4.4802
