~VERSION INFORMATION
 VERS.                2.0:   CWLS LOG ASCII STANDARD - VERSION 2.0
 WRAP.                 NO:   ONE LINE PER DEPTH STEP
~WELL INFORMATION
#MNEM.UNIT      DATA TYPE    INFORMATION
#----------   ------------   ------------------------------
 STRT.F          484.0000:   START DEPTH
 STOP.F         4334.0000:   STOP DEPTH
 STEP.F            0.5000:   STEP LENGTH
 NULL.          -999.2500:   NO VALUE
 COMP.    FENIX & SCISSON:   COMPANY
 WELL. FENIX NPR 3 "JX" #46-27:   WELL
 FLD .              N P R:   FIELD
 LOC .      S27 T39N R78W:   LOCATION
 CNTY.            NATRONA:   COUNTY
 STAT.            WYOMING:   STATE
 CTRY. UNITED STATES OF AMERICA:   COUNTRY
 SRVC.       SCHLUMBERGER:   SERVICE COMPANY
 DATE.        01-MAR-1979:   LOGDATE
 API .     49025107660000:   API NUMBER
~CURVE INFORMATION
#MNEM.UNIT       API CODE    CURVE DESCRIPTION
#----------   ------------   ------------------------------
 DEPT.F                  :   
 TENR.LBS    07 635 01 00:   TENSION FROM RESISTIVITY
 SPR .MV     07 010 01 00:   SPONTANEOUS POTENTIAL
 SFL .OHMM   07 220 01 00:   SHALLOW FOCUSED LOG RESISTIVITY
 ILD .OHMM   07 120 46 00:   DEEP INDUCTION RESISTIVITY
 ILM .OHMM   07 120 44 00:   INDUCTION LOG MEDIUM RESISTIVITY
 TEND.LBS    42 635 01 00:   TENSION FROM COMPENSATE NEUTRON
 GRD .GAPI   45 310 01 00:   GAMMA RAY FROM DENSITY LOG
 CALD.IN     45 280 60 00:   CALIPER FROM DENSITY LOG
 RHOB.G/C3   45 350 01 00:   BULK DENSITY
 CORR.G/C3   45 356 01 00:   DENSITY CORRECTION
 NPHI.DEC    42 890 03 00:   NEUTRON POROSITY SANDSTONE
~PARAMETER INFORMATION
#MNEM.UNIT          VALUE    DESCRIPTION
#----------   ------------   ------------------------------
 EKB .F         5059.0000:   Kelly bushing
 EGL .F         5049.0000:   Ground level
 EDF .F            0.0000:   Drilling floor
 TD  .F         4320.0000:   Total depth
 DATE.        01-MAR-1979:   Date logged
 CLNT.            A2DTECH:   Client Code
 SL  . 1625' FSL & 2281' FWL:   Surface Location
 PD  .                 GL:   Permanent Datum
 DD  .F              4320:   Depth driller
 DL  .F              4319:   Depth logger
 BLI .F              4316:   Bottom log interval
 CS1 .IN            8.625:   Casing size
 CBD1.      8.625" @ 505':   Casing driller 1
 CBL1.F               500:   Casing logger 1
 BS1 .IN            7.875:   Bit size
 DFT .                FGM:   Type fluid in hole
 DFD .                9.1:   Density
 DFV .                 40:   Viscosity
 DFPH.               11.7:   pH
 DFL .                6.5:   Fluid loss
 MSS .               TANK:   Source of sample
 RMS .OHMM           .901:   Rm
 MST .F                65:   Rm Meas. temp.
 RMF .OHMM           .852:   Rmf
 MFST.F                65:   Rmf Meas. temp.
 MFSS.               MEAS:   Source Rmf.
 RMB .OHMM            .39:   Rm. at BHT
 BHT .F               151:   BHT.
 TCS .HRS            1200:   Time Circ. stopped
 MRT .F               151:   Maximum recorded temp.
 LUN .               8043:   Logging unit number
 LUL .               CSPR:   Logging unit location
 ENGI.              PFARR:   Recorded By
 WITN.              AMENO:   Witnessed by
 ORIG.         2.5" PRINT:   Origin of data
 UWI .     49025107660000:   Unique Well ID
 DICO. A2D TECHNOLOGIES, INC.:   Digitizing Company
 DAPD.                 10:   Feet Above Permanent Datum
 BSD1.F              4320:   Depth drilled with bit1
 EPD .F              5049:   Elevation Permanent Datum
 LMF .                 KB:   Log Measured From
 DMF .                 KB:   Drilling Measured From
 TLI .F               500:   Top log interval
 TLAB.HRS            1900:   Time logger at bottom
~OTHER INFORMATION
~A   DEPT     TENR        SPR        SFL        ILD        ILM       TEND         GRD      CALD       RHOB       CORR         NPHI 
# ...
 2527.5000   849.7910   -38.6800     4.5100     4.6030     4.6880  1170.6350   121.7110     8.3140     2.5420     0.0660     0.3070
 2528.0000   850.0310   -38.7620     4.8790     4.8210     4.9100  1170.6350   117.2840     8.3110     2.5240     0.0540     0.3200
 2528.5000   850.2700   -38.8510     5.4920     5.0400     5.1330  1170.6350   112.5470     8.3090     2.5090     0.0310     0.3150
 2529.0000   850.5100   -38.9370     6.1060     5.2580     5.3550  1170.6350   107.8510     8.3060     2.4960     0.0070     0.3100
 2529.5000   850.7490   -39.0040     6.7200     5.4760     5.5770  1170.6350   103.0070     8.3030     2.5180     0.0070     0.3050
 2530.0000   850.9880   -39.2810     7.3340     5.6940     5.7990  1170.6350   101.1850     8.3000     2.5440     0.0070     0.2840
 2530.5000   851.2280   -39.4850     7.9480     6.0420     6.1540  1170.6350   101.7960     8.3020     2.5510     0.0080     0.2680
 2531.0000   851.4670   -39.1150     7.6160     6.0420     6.1540  1170.6350   102.2850     8.3080     2.5450     0.0050     0.2660
 2531.5000   851.7070   -38.7650     7.2840     6.0980     6.2100  1170.6350   105.6420     8.3150     2.5310     0.0020     0.2780
 2532.0000   851.9460   -38.4040     6.9520     6.1540     6.2670  1170.6350   107.8800     8.3210     2.5250    -0.0010     0.2890
 2532.5000   852.1860   -38.0330     6.6200     6.1310     6.2440  1170.6350   110.1160     8.3270     2.5200    -0.0040     0.2880
 2533.0000   852.4250   -37.8960     6.6630     6.1030     6.2160  1170.6350   110.4950     8.3330     2.5160    -0.0060     0.2850
 2533.5000   852.6650   -38.0310     6.7350     6.0760     6.1880  1170.6350   109.1700     8.3390     2.5160    -0.0060     0.2810
 2534.0000   852.9040   -38.1310     6.8070     6.0420     6.1540  1170.6350   107.7840     8.3450     2.5180    -0.0060     0.2800
 2534.5000   853.1430   -38.2400     6.8790     6.0570     6.1680  1170.6350   109.6110     8.3510     2.5320     0.0000     0.2820
 2535.0000   853.3830   -38.3480     6.9510     6.0740     6.1850  1170.6350   110.6920     8.3570     2.5420     0.0050     0.2810
 2535.5000   853.6220   -38.4540     7.0230     6.0910     6.2030  1170.6350   109.8740     8.3630     2.5430     0.0060     0.2770
 2536.0000   853.8620   -38.5620     7.0950     6.1080     6.2210  1170.6350   108.5250     8.3690     2.5480     0.0080     0.2730
 2536.5000   854.1010   -38.6690     7.1670     6.1260     6.2390  1170.6350   108.5490     8.3750     2.5550     0.0090     0.2730
 2537.0000   854.3410   -38.7760     7.2540     6.1440     6.2570  1170.6350   110.3700     8.3800     2.5650     0.0130     0.2760
 2537.5000   854.5800   -38.8840     7.3870     6.1540     6.2680  1170.6350   112.2160     8.3800     2.5840     0.0210     0.2820
 2538.0000   854.8190   -38.9910     7.2980     6.1540     6.2670  1170.6350   111.4170     8.3800     2.6000     0.0300     0.2880
 2538.5000   855.0590   -39.0980     7.2080     6.1540     6.2680  1170.6350   110.3270     8.3800     2.6070     0.0340     0.2880
 2539.0000   855.2980   -39.2060     7.1190     6.1540     6.2670  1170.6350   110.8040     8.3800     2.5960     0.0290     0.2880
 2539.5000   855.5380   -39.3120     7.0290     6.1540     6.2670  1170.6350   112.6260     8.3800     2.5700     0.0160     0.2810
 2540.0000   855.7770   -39.4240     6.9390     6.1540     6.2700  1170.6350   113.2380     8.3800     2.5470     0.0070     0.2820
 2540.5000   856.0170   -39.4970     6.8500     6.1540     6.2620  1170.6350   113.2450     8.3800     2.5320     0.0040     0.2840
 2541.0000   856.2560   -39.4020     6.7420     6.2910     6.4070  1170.6350   112.4860     8.3800     2.5270     0.0020     0.2860
 2541.5000   856.4960   -39.2450     6.7420     6.4280     6.5460  1170.6350   111.0640     8.3800     2.5390     0.0030     0.2880
 2542.0000   856.7350   -39.0970     7.1180     6.5650     6.6860  1170.6350   109.7060     8.3800     2.5520     0.0160     0.2890
 2542.5000   856.9740   -38.9490     7.4940     6.7020     6.8260  1170.6350   108.4420     8.3800     2.5540     0.0160     0.2820
 2543.0000   857.2140   -38.7990     7.8690     6.8670     6.9930  1170.6350   106.9070     8.3800     2.5490     0.0100     0.2770
 2543.5000   857.4530   -38.6500     8.2450     6.7420     6.8670  1170.6350   106.1690     8.3800     2.5410     0.0040     0.2710
 2544.0000   857.6930   -38.5050     8.3950     6.6080     6.7300  1170.6350   105.3060     8.3800     2.5330     0.0020     0.2680
 2544.5000   857.9320   -38.3450     8.0010     6.4750     6.5940  1170.6350   104.5190     8.3800     2.5340     0.0030     0.2690
 2545.0000   858.1720   -38.3370     7.5080     6.3410     6.4580  1170.6350   103.6850     8.3800     2.5420     0.0050     0.2800
 2545.5000   858.4110   -38.4420     7.0150     6.2070     6.3220  1170.6350   102.8650     8.3800     2.5490     0.0050     0.2860
 2546.0000   858.6510   -38.5250     6.6200     6.1540     6.2670  1170.6350   102.0720     8.3800     2.5560     0.0100     0.2950
 2546.5000   858.8900   -38.6210     6.7930     6.3540     6.4710  1170.6350   101.1970     8.3800     2.5640     0.0160     0.2950
 2547.0000   859.1290   -38.7120     7.2260     6.5200     6.6400  1170.6350   100.4480     8.3800     2.5710     0.0230     0.2910
 2547.5000   859.3690   -38.9960     7.6580     6.7420     6.8670  1170.6350    99.7730     8.3800     2.5790     0.0260     0.2790
 2548.0000   859.6080   -39.2310     8.0900     6.7420     6.8670  1170.6350   102.0050     8.3800     2.5790     0.0200     0.2690
 2548.5000   859.8480   -39.4820     8.5230     6.7060     6.8290  1170.6350   104.3060     8.3800     2.5700     0.0150     0.2590
 2549.0000   860.0870   -39.7510     8.8690     6.6140     6.7360  1170.6350   106.7380     8.3800     2.5560     0.0090     0.2580
 2549.5000   860.3270   -39.8330     8.4610     6.5230     6.6430  1170.6350   109.0930     8.3800     2.5530     0.0080     0.2570
 2550.0000   860.5660   -39.6430     7.9510     6.4310     6.5500  1170.6350   111.4460     8.3800     2.5460     0.0090     0.2570
 2550.5000   860.8060   -39.4850     7.4410     6.3400     6.4570  1170.6350   113.8660     8.3800     2.5390     0.0100     0.2620
 2551.0000   861.0450   -39.3300     6.9310     6.2480     6.3640  1170.6350   115.1140     8.3800     2.5320     0.0120     0.2690
 2551.5000   861.2840   -39.1310     6.6200     6.1570     6.2700  1170.6350   115.3810     8.3800     2.5260     0.0110     0.2750
 2552.0000   861.5240   -39.2610     6.7290     6.0650     6.1770  1170.6350   116.1980     8.3800     2.5270     0.0100     0.2810
 2552.5000   861.7630   -39.6150     6.9150     5.9740     6.0840  1170.6350   117.6660     8.3800     2.5300     0.0080     0.2810
 2553.0000   862.0030   -39.8560     6.9930     5.8830     5.9910  1170.6350   116.7410     8.3800     2.5320     0.0060     0.2820
 2553.5000   862.2420   -39.6210     6.5680     5.8250     5.9330  1170.6350   114.0330     8.3800     2.5340     0.0050     0.2870
 2554.0000   862.4820   -39.4270     6.2670     5.8250     5.9330  1170.6350   111.5680     8.3800     2.5350     0.0030     0.2900
 2554.5000   862.7210   -39.2050     6.4240     5.8250     5.9330  1170.6350   109.1260     8.3800     2.5310     0.0010     0.2880
 2555.0000   862.9600   -39.0020     6.6290     5.8250     5.9330  1170.6350   106.5580     8.3800     2.5240     0.0010     0.2790
 2555.5000   863.2000   -38.7690     6.8330     5.8250     5.9330  1170.6350   104.1120     8.3800     2.5240     0.0050     0.2700
 2556.0000   863.4390   -38.7820     7.0380     5.8250     5.9330  1170.6350   102.1740     8.3800     2.5340     0.0080     0.2700
 2556.5000   863.6790   -39.0020     7.2540     5.7810     5.8870  1170.6350   103.5300     8.3800     2.5420     0.0110     0.2730
 2557.0000   863.9180   -39.1930     6.9470     5.6530     5.7570  1170.6350   104.7160     8.3800     2.5490     0.0120     0.2750
 2557.5000   864.1580   -39.3980     6.6240     5.5250     5.6270  1170.6350   106.0540     8.3800     2.5470     0.0120     0.2770
