~VERSION INFORMATION
 VERS.                2.0:   CWLS LOG ASCII STANDARD - VERSION 2.0
 WRAP.                 NO:   ONE LINE PER DEPTH STEP
~WELL INFORMATION
#MNEM.UNIT      DATA TYPE    INFORMATION
#----------   ------------   ------------------------------
 STRT.F          204.0000:   START DEPTH
 STOP.F         3040.0000:   STOP DEPTH
 STEP.F            0.5000:   STEP LENGTH
 NULL.          -999.2500:   NO VALUE
 COMP.    FENIX & SCISSON:   COMPANY
 WELL.   FENIX "A" #47-21:   WELL
 FLD .            N P R 3:   FIELD
 LOC .      S21 T39N R78W:   LOCATION
 CNTY.            NATRONA:   COUNTY
 STAT.            WYOMING:   STATE
 CTRY. UNITED STATES OF AMERICA:   COUNTRY
 SRVC.              WELEX:   SERVICE COMPANY
 DATE.        20-JUN-1977:   LOGDATE
 API .     49025103820000:   API NUMBER
~CURVE INFORMATION
#MNEM.UNIT       API CODE    CURVE DESCRIPTION
#----------   ------------   ------------------------------
 DEPT.F                  :   
 SPR .MV     07 010 01 00:   SPONTANEOUS POTENTIAL
 ILM .OHMM   07 120 44 00:   INDUCTION LOG MEDIUM RESISTIVITY
 ILD .OHMM   07 120 46 00:   DEEP INDUCTION RESISTIVITY
 SGRD.OHMM   07 220 05 00:   SHALLOW GUARD LOG RESISTIVITY
 GRD .GAPI   45 310 01 00:   GAMMA RAY FROM DENSITY LOG
 CALD.IN     45 280 60 00:   CALIPER FROM DENSITY LOG
 RHOB.G/C3   45 350 01 00:   BULK DENSITY
 CORR.G/C3   45 356 01 00:   DENSITY CORRECTION
~PARAMETER INFORMATION
#MNEM.UNIT          VALUE    DESCRIPTION
#----------   ------------   ------------------------------
 EKB .F         5010.0000:   Kelly bushing
 EGL .F         5000.0000:   Ground level
 EDF .F            0.0000:   Drilling floor
 TD  .F         3050.0000:   Total depth
 DATE.        20-JUN-1977:   Date logged
 CLNT.            A2DTECH:   Client Code
 SL  . 990' FSL & 2310' FWL:   Surface Location
 PD  .                 GL:   Permanent Datum
 DD  .F              3050:   Depth driller
 DL  .F              3039:   Depth logger
 BLI .F              3037:   Bottom log interval
 CS1 .IN            8.625:   Casing size
 CBD1.      8.625" @ 210':   Casing driller 1
 CBL1.F               215:   Casing logger 1
 BS1 .IN            7.875:   Bit size
 DFT .                KCL:   Type fluid in hole
 DFD .                9.3:   Density
 DFV .                 35:   Viscosity
 DFPH.                7.5:   pH
 DFL .                7.2:   Fluid loss
 MSS .             MUDPIT:   Source of sample
 RMS .OHMM            .22:   Rm
 MST .F                80:   Rm Meas. temp.
 RMF .OHMM            .19:   Rmf
 MFST.F                80:   Rmf Meas. temp.
 RMC .OHMM            .35:   Rmc
 MCST.F                80:   Rmc Meas. temp.
 MFSS.               MEAS:   Source Rmf.
 RMB .OHMM            .15:   Rm. at BHT
 BHT .F               111:   BHT.
 TCS .HRS               4:   Time Circ. stopped
 MRT .F               111:   Maximum recorded temp.
 LUN .               8766:   Logging unit number
 LUL .             CAPSER:   Logging unit location
 ENGI.          T. JOYNER:   Recorded By
 WITN.         PETTINGILL:   Witnessed by
 ORIG.           5" PRINT:   Origin of data
 UWI .     49025103820000:   Unique Well ID
 DICO. A2D TECHNOLOGIES, INC.:   Digitizing Company
 DAPD.                 10:   Feet Above Permanent Datum
 BSD1.               3050:   Depth drilled with bit1
 MCSS.               MEAS:   Source Rmc.
 EPD .               5000:   Elevation Permanent Datum
 LMF .                 KB:   Log Measured From
 DMF .                 KB:   Drilling Measured From
 TLI .                215:   Top log interval
~OTHER INFORMATION
~A   DEPT      SPR        ILM        ILD       SGRD         GRD        CALD       RHOB      CORR  
# ...
 2796.0000   -51.7690     4.7010     4.2700     6.7780   120.5580     8.7120     2.4740     0.0120
 2796.5000   -51.7380     4.3820     3.9880     6.3810   119.8910     8.7140     2.4720     0.0110
 2797.0000   -51.7080     4.0630     3.7050     5.9840   118.2450     8.7160     2.4730     0.0110
 2797.5000   -51.6770     3.8020     3.4230     5.5620   114.0360     8.7170     2.4760     0.0110
 2798.0000   -51.6460     3.6490     3.1210     5.2750   110.0090     8.7190     2.4810     0.0110
 2798.5000   -51.6160     3.5160     3.0640     4.6260   105.9840     8.7210     2.4880     0.0110
 2799.0000   -51.5850     3.3280     3.0930     3.9770   104.3550     8.7220     2.4950     0.0110
 2799.5000   -51.5550     3.5790     3.2170     3.1790   102.9040     8.7240     2.5020     0.0110
 2800.0000   -51.5240     3.8540     3.4060     3.2990   104.3150     8.7260     2.5050     0.0110
 2800.5000   -51.4930     4.1290     3.5940     4.0490   105.7370     8.7270     2.5020     0.0110
 2801.0000   -51.4630     4.4030     3.7830     6.0410   107.2940     8.7290     2.4990     0.0110
 2801.5000   -51.4320     4.6780     3.9710     6.7440   108.7820     8.7310     2.5000     0.0110
 2802.0000   -51.4020     4.9530     4.1600     6.2670   110.2780     8.7320     2.5020     0.0110
 2802.5000   -51.3710     5.2160     4.3690     6.4630   111.7920     8.7340     2.5040     0.0110
 2803.0000   -51.3400     5.2430     4.6450     6.6940   113.3070     8.7360     2.5060     0.0100
 2803.5000   -51.3100     5.2690     4.9210     6.9240   114.7150     8.7330     2.5070     0.0100
 2804.0000   -51.2790     5.2940     5.0750     7.2580   116.6050     8.6920     2.5060     0.0110
 2804.5000   -51.2490     5.3200     5.0610     7.2180   118.9150     8.6550     2.5050     0.0110
 2805.0000   -51.2180     5.3590     5.0440     7.0460   121.1280     8.5230     2.5050     0.0110
 2805.5000   -51.1870     5.3440     5.0270     6.7990   123.0120     8.1210     2.5040     0.0120
 2806.0000   -51.1570     5.2970     5.0110     6.5520   126.7800     8.0280     2.5030     0.0120
 2806.5000   -51.1260     5.2500     4.9940     6.3050   131.7610     8.1320     2.5020     0.0130
 2807.0000   -51.0960     5.2030     4.9670     6.0410   136.5580     7.8160     2.4980     0.0130
 2807.5000   -51.0650     5.1560     4.9230     6.0210   140.3260     7.9590     2.4950     0.0130
 2808.0000   -51.0340     5.1090     4.8780     5.9860   142.7770     8.2780     2.4910     0.0140
 2808.5000   -51.0040     5.0620     4.8050     6.1780   145.1080     8.2670     2.4880     0.0140
 2809.0000   -50.9730     4.9630     4.6620     6.4510   144.3110     8.1800     2.4840     0.0140
 2809.5000   -50.9420     4.7340     4.5200     6.8690   143.4500     8.0960     2.4810     0.0130
 2810.0000   -50.9110     4.5050     4.3780     6.7230   142.7040     8.0360     2.4770     0.0110
 2810.5000   -50.8410     4.2760     4.2350     6.4100   140.0760     8.0650     2.4740     0.0100
 2811.0000   -50.7290     4.0470     4.0930     6.0970   134.7880     8.1060     2.4710     0.0090
 2811.5000   -50.6170     3.8180     3.9510     5.7840   128.6090     8.1450     2.4740     0.0080
 2812.0000   -50.5050     3.5890     3.7700     5.3170   122.4330     8.1450     2.4760     0.0070
 2812.5000   -50.3930     3.2670     3.5810     4.8130   116.1580     8.1350     2.4810     0.0060
 2813.0000   -50.2810     3.4070     3.3890     4.3950   110.0580     8.1220     2.4850     0.0070
 2813.5000   -50.1690     3.6420     3.4910     3.9770   103.7720     8.1100     2.4900     0.0070
 2814.0000   -50.0570     3.8770     3.6210     3.5590   102.0430     8.1050     2.4950     0.0070
 2814.5000   -49.9450     4.1120     3.7510     3.0360   102.4540     8.1000     2.4970     0.0070
 2815.0000   -49.8320     4.3460     3.8800     4.0410   102.7690     8.0950     2.4970     0.0070
 2815.5000   -49.7200     4.5810     4.0100     6.1740   102.5020     8.0900     2.4910     0.0070
 2816.0000   -49.6080     4.8160     4.2010     6.3400   102.0170     8.0860     2.4870     0.0070
 2816.5000   -49.4960     5.0510     4.4470     6.5050   101.4620     8.0810     2.4820     0.0080
 2817.0000   -49.3840     5.3810     4.6930     6.6560   101.2230     8.0760     2.4780     0.0080
 2817.5000   -49.2720     5.7520     4.9400     6.7720   101.4920     8.0710     2.4760     0.0080
 2818.0000   -49.1600     6.0970     5.1860     6.8890   101.6810     8.0660     2.4780     0.0080
 2818.5000   -49.0480     6.1890     5.4320     7.0050   101.8960     8.0610     2.4790     0.0080
 2819.0000   -48.9330     6.2750     5.7170     7.1210   101.3480     8.0570     2.4790     0.0080
 2819.5000   -48.9200     6.3620     5.6750     7.2580   100.4030     8.0520     2.4790     0.0070
 2820.0000   -48.9390     6.4480     5.7820     7.1600    99.5600     8.0470     2.4780     0.0060
 2820.5000   -48.9600     6.5350     5.8540     7.0130    98.9900     8.0420     2.4780     0.0040
 2821.0000   -48.9800     6.6210     5.9250     7.1240   100.8240     8.0370     2.4780     0.0030
 2821.5000   -49.0000     6.7440     5.9970     7.3370   102.4180     8.0330     2.4770     0.0020
 2822.0000   -49.0210     6.7060     6.0440     7.5490   104.1480     8.0280     2.4780     0.0010
 2822.5000   -49.0410     6.6410     6.0600     7.7620   105.7990     8.0270     2.4790    -0.0010
 2823.0000   -49.0610     6.5770     6.0770     8.0280   107.5240     8.0250     2.4810    -0.0010
 2823.5000   -49.0820     6.5120     6.0930     7.8450   109.1150     8.0230     2.4820    -0.0010
 2824.0000   -49.1020     6.4420     6.1090     7.5060   110.9030     8.0220     2.4830     0.0000
 2824.5000   -49.1220     6.5340     6.1250     7.1680   112.5250     8.0200     2.4850     0.0000
 2825.0000   -49.1430     6.6350     6.1420     6.9320   116.2830     8.0180     2.4850     0.0010
 2825.5000   -49.1630     6.7350     6.1580     7.7010   120.0270     8.0170     2.4850     0.0010
 2826.0000   -49.1830     6.8690     6.1740     8.2910   124.4360     8.0150     2.4850     0.0020
 2826.5000   -49.2040     6.7540     6.1910     8.8810   128.5980     8.0130     2.4840     0.0020
 2827.0000   -49.2240     6.5820     6.2100     8.9620   132.7260     8.0120     2.4830     0.0030
 2827.5000   -49.2440     6.4110     5.9410     8.8510   138.3160     8.0100     2.4810     0.0030
 2828.0000   -49.2650     6.2390     5.6240     8.4950   143.4870     8.0080     2.4740     0.0040
 2828.5000   -49.2850     5.9110     5.3130     7.5260   149.5650     8.0060     2.4670     0.0040
 2829.0000   -49.2950     5.5490     5.0090     6.5610   151.2830     8.0050     2.4600     0.0040
 2829.5000   -49.2340     5.1880     4.6960     6.3160   153.1750     8.0030     2.4530     0.0040
 2830.0000   -49.1720     4.8010     4.3820     6.0720   153.6340     8.0010     2.4460     0.0040
 2830.5000   -49.1100     4.3000     4.0710     5.7700   152.4340     8.0000     2.4400     0.0040
 2831.0000   -49.0490     3.7990     3.7650     5.8110   151.3050     7.9980     2.4330     0.0040
 2831.5000   -48.9870     3.2980     3.4590     5.8770   145.4080     7.9960     2.4250     0.0030
 2832.0000   -48.9260     2.7970     3.1520     5.3880   136.9710     7.9950     2.4220     0.0030
 2832.5000   -48.8640     2.4500     2.8210     4.5530   126.9330     7.9930     2.4340     0.0030
 2833.0000   -48.8030     2.4250     2.7390     3.5040   117.3040     7.9910     2.4510     0.0030
 2833.5000   -48.7420     2.3920     2.6700     2.4010   110.6620     7.9900     2.4670     0.0020
 2834.0000   -48.7310     2.8100     2.7430     2.2020   106.0850     7.9880     2.4830     0.0030
 2834.5000   -48.7920     3.4130     2.7950     2.2580   102.3880     7.9880     2.4980     0.0030
 2835.0000   -48.8530     4.0160     2.9910     3.2050   103.6650     7.9880     2.4970     0.0030
 2835.5000   -48.9140     4.5300     3.1730     6.3800   106.2450     7.9880     2.4930     0.0040
 2836.0000   -48.9740     4.9970     3.6010     8.5510   110.5440     7.9880     2.4890     0.0040
