~VERSION INFORMATION
 VERS.                2.0:   CWLS LOG ASCII STANDARD - VERSION 2.0
 WRAP.                 NO:   ONE LINE PER DEPTH STEP
~WELL INFORMATION
#MNEM.UNIT      DATA TYPE    INFORMATION
#----------   ------------   ------------------------------
 STRT.F            0.0000:   START DEPTH
 STOP.F         2775.5000:   STOP DEPTH
 STEP.F            0.5000:   STEP LENGTH
 NULL.          -999.2500:   NO VALUE
 COMP.          U.S. NAVY:   COMPANY
 WELL.   U.S. "A" #107-29:   WELL
 FLD .        TEAPOT DOME:   FIELD
 LOC .      S29 T39N R78W:   LOCATION
 CNTY.            NATRONA:   COUNTY
 STAT.            WYOMING:   STATE
 CTRY. UNITED STATES OF AMERICA:   COUNTRY
 SRVC.         MCCULLOUGH:   SERVICE COMPANY
 DATE.        07-SEP-1966:   LOGDATE
 API .     49025095920000:   API NUMBER
~CURVE INFORMATION
#MNEM.UNIT       API CODE    CURVE DESCRIPTION
#----------   ------------   ------------------------------
 DEPT.F                  :   
 GR  .GAPI   30 310 01 00:   GAMMA RAY
 CALI.IN     70 280 01 00:   CALIPER
~PARAMETER INFORMATION
#MNEM.UNIT          VALUE    DESCRIPTION
#----------   ------------   ------------------------------
 EKB .F            0.0000:   Kelly bushing
 EGL .F            0.0000:   Ground level
 EDF .F            0.0000:   Drilling floor
 EPD .F            0.0000:   Permanent datum
 TD  .F         2777.5000:   Total depth
 DATE.        07-SEP-1966:   Date logged
 CLNT.            A2DTECH:   Client Code
 PD  .                 GL:   Permanent Datum
 LMF .                 GL:   Log Measured From
 DMF .                 GL:   Drilling Measured From
 DL  .F            2777.5:   Depth logger
 BLI .F              2776:   Bottom log interval
 TLI .F              2200:   Top log interval
 CS1 .IN                5:   Casing size
 CBD1.         5" @ 2722':   Casing driller 1
 DFT .              WATER:   Type fluid in hole
 RMB .OHMM           .053:   Rm. at BHT
 TCS .HRS             1.5:   Time Circ. stopped
 LUN .               1460:   Logging unit number
 ENGI.        FITZSIMMONS:   Recorded By
 WITN.             TUTTLE:   Witnessed by
 ORIG.           5" PRINT:   Origin of data
 UWI .     49025095920000:   Unique Well ID
 DICO. A2D TECHNOLOGIES, INC.:   Digitizing Company
~OTHER INFORMATION
~A    DEPT      GR         CALI 
    0.0000  -999.2500     7.5170
    0.5000  -999.2500     7.5170
    1.0000  -999.2500     7.5170
    1.5000  -999.2500     7.5170
    2.0000  -999.2500     7.5170
    2.5000  -999.2500     7.5170
    3.0000  -999.2500     7.5150
    3.5000  -999.2500     7.5100
    4.0000  -999.2500     7.5040
    4.5000  -999.2500     7.4980
    5.0000  -999.2500     7.4930
    5.5000  -999.2500     7.4870
    6.0000  -999.2500     7.4820
    6.5000  -999.2500     7.4800
    7.0000  -999.2500     7.4930
    7.5000  -999.2500     7.5040
    8.0000  -999.2500     7.5490
    8.5000  -999.2500     7.5980
    9.0000  -999.2500     7.6420
    9.5000  -999.2500     7.5900
   10.0000  -999.2500     7.5380
   10.5000  -999.2500     7.5400
   11.0000  -999.2500     7.5450
   11.5000  -999.2500     7.5330
   12.0000  -999.2500     7.5110
   12.5000  -999.2500     7.4890
   13.0000  -999.2500     7.4680
   13.5000  -999.2500     7.4670
   14.0000  -999.2500     7.4670
   14.5000  -999.2500     7.4670
   15.0000  -999.2500     7.4670
   15.5000  -999.2500     7.4670
   16.0000  -999.2500     7.4670
   16.5000  -999.2500     7.4670
   17.0000  -999.2500     7.4670
   17.5000  -999.2500     7.4670
   18.0000  -999.2500     7.4720
   18.5000  -999.2500     7.5010
   19.0000  -999.2500     7.5260
   19.5000  -999.2500     7.5140
   20.0000  -999.2500     7.5020
   20.5000  -999.2500     7.5000
   21.0000  -999.2500     7.5050
   21.5000  -999.2500     7.5100
   22.0000  -999.2500     7.5160
   22.5000  -999.2500     7.5090
   23.0000  -999.2500     7.4980
   23.5000  -999.2500     7.4860
   24.0000  -999.2500     7.4750
   24.5000  -999.2500     7.4730
   25.0000  -999.2500     7.4950
   25.5000  -999.2500     7.5160
   26.0000  -999.2500     7.5210
   26.5000  -999.2500     7.5090
   27.0000  -999.2500     7.4970
   27.5000  -999.2500     7.4860
   28.0000  -999.2500     7.4780
   28.5000  -999.2500     7.4810
   29.0000  -999.2500     7.4850
   29.5000  -999.2500     7.4930
   30.0000  -999.2500     7.5160
   30.5000  -999.2500     7.5400
   31.0000  -999.2500     7.5440
   31.5000  -999.2500     7.5410
   32.0000  -999.2500     7.5380
   32.5000  -999.2500     7.5140
   33.0000  -999.2500     7.4780
   33.5000  -999.2500     7.4420
   34.0000  -999.2500     7.4090
   34.5000  -999.2500     7.4120
   35.0000  -999.2500     7.4160
   35.5000  -999.2500     7.4190
   36.0000  -999.2500     7.4230
   36.5000  -999.2500     7.4270
   37.0000  -999.2500     7.4300
   37.5000  -999.2500     7.4340
   38.0000  -999.2500     7.4370
   38.5000  -999.2500     7.4190
   39.0000  -999.2500     7.4000
   39.5000  -999.2500     7.3960
   40.0000  -999.2500     7.4160
   40.5000  -999.2500     7.4350
   41.0000  -999.2500     7.4470
   41.5000  -999.2500     7.4440
   42.0000  -999.2500     7.4410
   42.5000  -999.2500     7.4370
   43.0000  -999.2500     7.4110
   43.5000  -999.2500     7.3830
   44.0000  -999.2500     7.3580
   44.5000  -999.2500     7.3620
   45.0000  -999.2500     7.3640
   45.5000  -999.2500     7.3670
   46.0000  -999.2500     7.3690
   46.5000  -999.2500     7.3720
   47.0000  -999.2500     7.3740
   47.5000  -999.2500     7.3770
   48.0000  -999.2500     7.3820
   48.5000  -999.2500     7.3960
   49.0000  -999.2500     7.4090
   49.5000  -999.2500     7.4220
   50.0000  -999.2500     7.4350
   50.5000  -999.2500     7.4480
   51.0000  -999.2500     7.4610
   51.5000  -999.2500     7.4740
   52.0000  -999.2500     7.4870
   52.5000  -999.2500     7.5030
   53.0000  -999.2500     7.5350
   53.5000  -999.2500     7.5560
   54.0000  -999.2500     7.5530
   54.5000  -999.2500     7.5510
   55.0000  -999.2500     7.5490
   55.5000  -999.2500     7.5470
   56.0000  -999.2500     7.5250
   56.5000  -999.2500     7.4920
   57.0000  -999.2500     7.4590
   57.5000  -999.2500     7.4490
   58.0000  -999.2500     7.4790
   58.5000  -999.2500     7.4840
   59.0000  -999.2500     7.4780
   59.5000  -999.2500     7.4600
   60.0000  -999.2500     7.4420
   60.5000  -999.2500     7.4280
   61.0000  -999.2500     7.4280
   61.5000  -999.2500     7.4220
   62.0000  -999.2500     7.3920
   62.5000  -999.2500     7.3610
   63.0000  -999.2500     7.3300
   63.5000  -999.2500     7.3350
   64.0000  -999.2500     7.3420
   64.5000  -999.2500     7.3490
   65.0000  -999.2500     7.3560
   65.5000  -999.2500     7.3630
   66.0000  -999.2500     7.3650
   66.5000  -999.2500     7.3480
   67.0000  -999.2500     7.3310
   67.5000  -999.2500     7.3190
   68.0000  -999.2500     7.3180
   68.5000  -999.2500     7.3170
   69.0000  -999.2500     7.3160
   69.5000  -999.2500     7.3140
   70.0000  -999.2500     7.3130
   70.5000  -999.2500     7.3120
   71.0000  -999.2500     7.3110
   71.5000  -999.2500     7.3100
   72.0000  -999.2500     7.3100
   72.5000  -999.2500     7.3120
   73.0000  -999.2500     7.3140
   73.5000  -999.2500     7.3150
   74.0000  -999.2500     7.3170
   74.5000  -999.2500     7.3190
   75.0000  -999.2500     7.3220
   75.5000  -999.2500     7.3250
   76.0000  -999.2500     7.3270
   76.5000  -999.2500     7.3300
   77.0000  -999.2500     7.3330
   77.5000  -999.2500     7.3350
   78.0000  -999.2500     7.3380
   78.5000  -999.2500     7.3150
   79.0000  -999.2500     7.3120
   79.5000  -999.2500     7.3140
   80.0000  -999.2500     7.3170
   80.5000  -999.2500     7.3200
   81.0000  -999.2500     7.3230
   81.5000  -999.2500     7.3260
   82.0000  -999.2500     7.3290
   82.5000  -999.2500     7.3400
   83.0000  -999.2500     7.3530
   83.5000  -999.2500     7.3710
   84.0000  -999.2500     7.3880
   84.5000  -999.2500     7.3820
   85.0000  -999.2500     7.3750
   85.5000  -999.2500     7.3680
   86.0000  -999.2500     7.3610
   86.5000  -999.2500     7.3590
   87.0000  -999.2500     7.3590
   87.5000  -999.2500     7.3590
   88.0000  -999.2500     7.3580
   88.5000  -999.2500     7.3660
   89.0000  -999.2500     7.3740
   89.5000  -999.2500     7.3830
   90.0000  -999.2500     7.3920
   90.5000  -999.2500     7.4000
   91.0000  -999.2500     7.4080
   91.5000  -999.2500     7.4010
   92.0000  -999.2500     7.3940
   92.5000  -999.2500     7.3870
   93.0000  -999.2500     7.3810
   93.5000  -999.2500     7.3740
   94.0000  -999.2500     7.3670
   94.5000  -999.2500     7.3550
   95.0000  -999.2500     7.3440
   95.5000  -999.2500     7.3230
   96.0000  -999.2500     7.2990
   96.5000  -999.2500     7.2990
   97.0000  -999.2500     7.2990
   97.5000  -999.2500     7.2990
   98.0000  -999.2500     7.2990
   98.5000  -999.2500     7.3010
   99.0000  -999.2500     7.3050
   99.5000  -999.2500     7.3080
  100.0000  -999.2500     7.3120
  100.5000  -999.2500     7.3160
  101.0000  -999.2500     7.3200
  101.5000  -999.2500     7.3290
  102.0000  -999.2500     7.3390
  102.5000  -999.2500     7.3480
  103.0000  -999.2500     7.3570
  103.5000  -999.2500     7.3810
  104.0000  -999.2500     7.4070
  104.5000  -999.2500     7.4320
  105.0000  -999.2500     7.4470
  105.5000  -999.2500     7.4450
  106.0000  -999.2500     7.4440
  106.5000  -999.2500     7.4420
  107.0000  -999.2500     7.4410
  107.5000  -999.2500     7.4390
  108.0000  -999.2500     7.4370
  108.5000  -999.2500     7.4360
  109.0000  -999.2500     7.4340
  109.5000  -999.2500     7.4330
  110.0000  -999.2500     7.4310
  110.5000  -999.2500     7.4290
  111.0000  -999.2500     7.4280
  111.5000  -999.2500     7.4260
  112.0000  -999.2500     7.4250
  112.5000  -999.2500     7.4230
  113.0000  -999.2500     7.4210
  113.5000  -999.2500     7.4200
  114.0000  -999.2500     7.4180
  114.5000  -999.2500     7.4180
  115.0000  -999.2500     7.4190
  115.5000  -999.2500     7.4200
  116.0000  -999.2500     7.4200
  116.5000  -999.2500     7.4210
  117.0000  -999.2500     7.4210
  117.5000  -999.2500     7.4220
  118.0000  -999.2500     7.4220
  118.5000  -999.2500     7.4230
  119.0000  -999.2500     7.4240
  119.5000  -999.2500     7.4240
  120.0000  -999.2500     7.4250
  120.5000  -999.2500     7.4250
  121.0000  -999.2500     7.4260
