~VERSION INFORMATION
 VERS.                2.0:   CWLS LOG ASCII STANDARD - VERSION 2.0
 WRAP.                 NO:   ONE LINE PER DEPTH STEP
~WELL INFORMATION
#MNEM.UNIT      DATA TYPE    INFORMATION
#----------   ------------   ------------------------------
 STRT.F            0.0000:   START DEPTH
 STOP.F         3440.0000:   STOP DEPTH
 STEP.F            0.5000:   STEP LENGTH
 NULL.          -999.2500:   NO VALUE
 COMP. FLOOR DANIEL (NPSOR):   COMPANY
 WELL. FLOOR DANIEL "SHX" #48-34:   WELL
 FLD .                NPR:   FIELD
 LOC .      S34 T39N R78W:   LOCATION
 CNTY.            NATRONA:   COUNTY
 STAT.            WYOMING:   STATE
 CTRY. UNITED STATES OF AMERICA:   COUNTRY
 SRVC.      WESTERN ATLAS:   SERVICE COMPANY
 DATE.        06-APR-1995:   LOGDATE
 API .     49025109220000:   API NUMBER
~CURVE INFORMATION
#MNEM.UNIT       API CODE    CURVE DESCRIPTION
#----------   ------------   ------------------------------
 DEPT.F                  :   
 TEND.LBS    45 635 01 00:   TENSION FROM DENSITY LOG
 ZCOR.G/C3   45 356 01 00:   DENSITY CORRECTION
 ZDEN.G/C3   45 350 01 00:   BULK DENSITY
 CALD.IN     45 280 60 00:   CALIPER FROM DENSITY LOG
 CNC .DEC    42 890 03 00:   NEUTRON POROSITY SANDSTONE
 GRR .GAPI   07 310 01 00:   GAMMA RAY FROM RESISTIVITY
 TENR.LBS    07 635 01 00:   TENSION FROM RESISTIVITY
 RFOC.OHMM   07 220 04 00:   RESISTIVITY FOCUSED LOG RES.
 RILD.OHMM   07 120 46 00:   DEEP INDUCTION RESISTIVITY
 RILM.OHMM   07 120 44 00:   INDUCTION LOG MEDIUM RESISTIVITY
~PARAMETER INFORMATION
#MNEM.UNIT          VALUE    DESCRIPTION
#----------   ------------   ------------------------------
 EKB .F         5182.0000:   Kelly bushing
 EGL .F         5172.0000:   Ground level
 EDF .F            0.0000:   Drilling floor
 EPD .F            0.0000:   Permanent datum
 TD  .F         3442.0000:   Total depth
 DATE.        06-APR-1995:   Date logged
 CLNT.            A2DTECH:   Client Code
 SL  . 97' FSL & 2256 FWL:   Surface Location
 PD  .                 GL:   Permanent Datum
 DD  .F              3442:   Depth driller
 DL  .F              3422:   Depth logger
 BLI .F              3420:   Bottom log interval
 CS1 .IN            8.625:   Casing size
 CBD1.      8.625" @ 667':   Casing driller 1
 BS1 .IN            7.875:   Bit size
 BSD1.F               AIR:   Depth drilled with bit1
 ENGI.      PAT RASMUSSEN:   Recorded By
 WITN.        GARY STRONG:   Witnessed by
 ORIG.           5" PRINT:   Origin of data
 UWI .     49025109220000:   Unique Well ID
 DICO. A2D TECHNOLOGIES, INC.:   Digitizing Company
 MRT .F               142:   Maximum recorded temp.
~OTHER INFORMATION
~A    DEPT    TEND       ZCOR       ZDEN       CALD        CNC         GRR      TENR       RFOC       RILD       RILM   
# ...
 3283.0000   -62.2530     0.0240     2.4560     8.2900     0.2680   147.7820    21.4400     3.2570     2.3630     2.4070
 3283.5000   -62.2530     0.0290     2.4550     8.2860     0.2750   155.2640     6.2920     3.1970     2.2640     2.3150
 3284.0000   -62.2530     0.0340     2.4500     8.2810     0.2800   159.6960    -8.8560     3.1360     2.1630     2.2230
 3284.5000   -62.2530     0.0380     2.4370     8.2770     0.2840   166.3500   -23.1760     3.0790     2.0620     2.1300
 3285.0000   -62.2530     0.0270     2.4030     8.2730     0.2870   168.5710   -13.7780     2.9160     2.0000     2.0270
 3285.5000   -62.2530     0.0140     2.3700     8.2680     0.2830   170.6890    -4.8670     2.7170     1.9590     1.9750
 3286.0000   -62.2530     0.0420     2.3450     8.2640     0.2780   170.8180     4.0430     2.4760     1.9180     1.9150
 3286.5000   -62.2530     0.1090     2.3560     8.2600     0.2760   170.5070    12.9540     2.5680     1.8770     1.8180
 3287.0000   -62.2530     0.1220     2.3700     8.2630     0.2930   169.4040    21.8640     2.7110     1.8510     1.8760
 3287.5000   -62.2530     0.1100     2.3880     8.2770     0.3110   171.5540    30.7750     2.8120     1.9560     2.0650
 3288.0000   -62.2530     0.0980     2.3530     8.2880     0.3070   179.8550    29.0270     2.4820     2.2370     2.3860
 3288.5000   -62.2530     0.1140     2.2440     8.2950     0.2770   187.6620    16.2720     2.5330     2.7410     2.7860
 3289.0000   -62.2530     0.1560     2.1710     8.2320     0.2150   195.0280    16.2720     2.9530     3.2460     3.1860
 3289.5000   -59.4030     0.1960     2.2020     8.1760     0.1770   184.1930    16.2720     4.0860     3.7510     3.6260
 3290.0000   -54.1400     0.2310     2.3070     8.1160     0.1420   167.8470    16.2720    10.5810     4.2560     5.1110
 3290.5000   -48.8770     0.1350     2.4210     8.0530     0.1150    99.5810    16.2720    21.1200     5.1310     6.7630
 3291.0000   -43.6130     0.0280     2.4050     8.0170     0.1090    63.4100    16.2720    20.7400     6.7370     7.8600
 3291.5000   -38.3500     0.0340     2.3590     8.0200     0.1050    41.2790    16.2720    16.6680     8.3730     8.5160
 3292.0000   -33.0870     0.0420     2.3140     8.0170     0.1110    36.2660    16.2720    13.1700     9.8480    10.5900
 3292.5000   -27.8240     0.0490     2.2970     8.0160     0.1210    35.1520    16.2720    13.2360     9.7240    10.7840
 3293.0000   -22.7270     0.0590     2.3060     8.0150     0.1320    37.5570    16.2720    13.4110     9.4770    10.0580
 3293.5000   -27.0260     0.0670     2.3660     8.0130     0.1350    41.2280    16.2720    12.9320     9.1780     7.9930
 3294.0000   -31.1920     0.0740     2.4220     8.0120     0.1560    56.6270    16.2720    11.1920     8.8790     6.9480
 3294.5000   -35.3590     0.0660     2.4930     8.0110     0.1820    79.1050    16.2720     9.3540     8.5800     6.1410
 3295.0000   -39.5260     0.0570     2.5300     8.0090     0.1970    97.5480    16.2720     6.7240     8.2810     6.4310
 3295.5000   -40.4290     0.0540     2.5410     8.0080     0.2050   106.5770    16.2720     6.8480     7.9820     6.8230
 3296.0000   -33.2860     0.0630     2.5380     8.0060     0.1940   103.0160    16.2720     7.3640     7.6830     7.3640
 3296.5000   -26.1430     0.0710     2.5350     8.0050     0.1850    94.5100    16.2720     9.5600     7.3840     7.2560
 3297.0000   -24.3580     0.0750     2.5380     8.0040     0.1790    87.5210    16.2720    12.4710     7.1010     6.7800
 3297.5000   -27.4830     0.0710     2.5450     8.0020     0.1780    88.4800    18.1150    11.4050     6.7050     6.3040
 3298.0000   -30.6080     0.0660     2.5540     8.0010     0.1800    93.5950    19.8630    10.2710     6.1820     5.8290
 3298.5000   -33.7330     0.0600     2.5870     8.0000     0.1960   103.3550    21.6100     9.6240     5.6590     5.3530
 3299.0000   -36.8580     0.0550     2.6130     7.9980     0.2100   112.3970    23.3580     8.5410     5.2140     4.8770
 3299.5000   -39.9830     0.0500     2.6220     7.9970     0.2230   121.8080    25.1050     7.0870     4.8500     4.5460
 3300.0000   -42.4900     0.0480     2.6170     7.9960     0.2370   130.9690    26.8520     6.1010     4.5330     4.3120
 3300.5000   -40.9920     0.0590     2.5750     7.9940     0.2560   140.1910    28.6000     5.4480     4.2930     4.1140
 3301.0000   -39.1260     0.0670     2.5410     7.9930     0.2530   146.0390    30.3470     5.0280     4.1620     4.0260
 3301.5000   -37.2590     0.0770     2.5210     7.9920     0.2480   149.0980    32.0950     5.1210     4.0430     3.9990
 3302.0000   -35.3920     0.0800     2.5210     7.9900     0.2430   150.5060    33.8420     5.5720     3.9710     3.9710
 3302.5000   -33.5250     0.0700     2.5300     7.9890     0.2380   145.5600    35.5900     5.9210     3.9710     4.0430
 3303.0000   -31.6580     0.0600     2.5390     7.9870     0.2330   139.5840    32.7420     5.8690     4.0770     4.0940
 3303.5000   -29.7920     0.0500     2.5360     7.9860     0.2360   136.9800    28.5010     5.4070     4.2160     4.2280
 3304.0000   -27.9250     0.0400     2.5310     7.9850     0.2390   138.1180    24.2600     5.3100     4.3550     4.3610
 3304.5000   -26.0580     0.0400     2.5310     7.9830     0.2390   135.4120    20.0200     5.5630     4.5090     4.5090
 3305.0000   -24.1910     0.0390     2.5340     7.9820     0.2280   130.7840    16.2720     5.9410     4.5470     4.5550
 3305.5000   -23.9350     0.0400     2.5380     7.9800     0.2170   130.3930    23.3730     6.4850     4.5900     4.6070
 3306.0000   -29.5340     0.0390     2.5460     7.9870     0.2070   131.8260    29.7340     6.4280     4.6340     4.6580
 3306.5000   -35.1340     0.0400     2.5530     8.0040     0.2120   131.9890    35.9960     6.2680     4.6760     4.7100
 3307.0000   -40.7330     0.0390     2.5540     8.0190     0.2170   128.4610    37.9100     6.0210     4.7210     4.7610
 3307.5000   -46.3330     0.0400     2.5490     8.0340     0.2220   124.6330    39.7950     5.7740     4.7660     4.8130
 3308.0000   -51.9320     0.0400     2.5450     8.0500     0.2270   123.5780    41.6790     5.5060     4.8110     4.8490
 3308.5000   -57.5320     0.0490     2.5410     8.0650     0.2250   125.3280    43.5640     5.6250     4.8490     4.7910
 3309.0000   -62.2530     0.0550     2.5370     8.0800     0.2210   127.4420    45.4490     5.8500     4.8610     4.7270
 3309.5000   -53.2840     0.0520     2.5370     8.0950     0.2170   129.3810    47.3340     6.0300     4.8710     4.6690
 3310.0000   -45.5310     0.0460     2.5400     8.0780     0.2190   133.4760    49.2180     5.9920     4.8820     4.6360
 3310.5000   -37.7770     0.0410     2.5390     8.0460     0.2240   134.4040    51.1030     5.9210     4.8920     4.6030
 3311.0000   -30.0240     0.0360     2.5350     8.0160     0.2240   133.3770    52.9880     6.0300     4.9030     4.5700
 3311.5000   -22.7270     0.0350     2.5290     7.9830     0.2200   132.4340    54.8730     6.0300     4.9130     4.5370
 3312.0000   -42.4900     0.0320     2.5270     7.9930     0.2190   131.5530    51.7190     6.0300     4.9230     4.5090
 3312.5000   -42.4900     0.0300     2.5270     8.0070     0.2190   128.7910    44.4490     5.9660     4.9340     4.7110
 3313.0000   -41.5600     0.0280     2.5210     8.0220     0.2140   124.7290    35.9960     5.7100     4.9610     4.8660
 3313.5000   -38.5960     0.0350     2.5110     8.0360     0.2180   122.7630    35.9960     5.7710     5.0630     5.0200
 3314.0000   -35.6310     0.0430     2.5090     8.0510     0.2150   121.7870    35.9960     6.1580     5.1650     5.1750
 3314.5000   -32.6670     0.0510     2.5120     8.0660     0.2070   118.9830    35.9960     6.6030     5.3100     5.3100
 3315.0000   -29.7020     0.0540     2.5270     8.0800     0.1990   117.4780    35.9960     6.8180     5.2310     5.2560
 3315.5000   -26.7380     0.0490     2.5390     8.0950     0.1970   118.7810    35.9960     6.9730     5.1620     5.1840
 3316.0000   -23.7740     0.0450     2.5470     8.1000     0.2040   120.4820    35.9960     6.7590     5.1210     5.1110
