~VERSION INFORMATION
 VERS.                2.0:   CWLS LOG ASCII STANDARD - VERSION 2.0
 WRAP.                 NO:   ONE LINE PER DEPTH STEP
~WELL INFORMATION
#MNEM.UNIT      DATA TYPE    INFORMATION
#----------   ------------   ------------------------------
 STRT.F           22.5000:   START DEPTH
 STOP.F         4120.0000:   STOP DEPTH
 STEP.F            0.5000:   STEP LENGTH
 NULL.          -999.2500:   NO VALUE
 COMP. LAWRENCE ALLISON & ASSOCIATES:   COMPANY
 WELL. LAWRENCE-ALLISON SHX #37-10:   WELL
 FLD .              N P R:   FIELD
 LOC .      S10 T38N R78W:   LOCATION
 CNTY.            NATRONA:   COUNTY
 STAT.            WYOMING:   STATE
 CTRY. UNITED STATES OF AMERICA:   COUNTRY
 SRVC.      DRESSER ATLAS:   SERVICE COMPANY
 DATE.        29-JUN-1983:   LOGDATE
 API .     49025107370001:   API NUMBER
~CURVE INFORMATION
#MNEM.UNIT       API CODE    CURVE DESCRIPTION
#----------   ------------   ------------------------------
 DEPT.F                  :   
 TEND.LBS    45 635 01 00:   TENSION FROM DENSITY LOG
 CORR.G/C3   45 356 01 00:   DENSITY CORRECTION
 NPHI.DEC    42 890 03 00:   NEUTRON POROSITY SANDSTONE
 CALD.IN     45 280 60 00:   CALIPER FROM DENSITY LOG
 GRR .GAPI   07 310 01 00:   GAMMA RAY FROM RESISTIVITY
 SPR .MV     07 010 01 00:   SPONTANEOUS POTENTIAL
 TENR.LBS    07 635 01 00:   TENSION FROM RESISTIVITY
 RILD.OHMM   07 120 46 00:   DEEP INDUCTION RESISTIVITY
 RILM.OHMM   07 120 44 00:   INDUCTION LOG MEDIUM RESISTIVITY
 RFOC.OHMM   07 220 04 00:   RESISTIVITY FOCUSED LOG RES.
 RHOB.G/C3   45 350 01 00:   BULK DENSITY
~PARAMETER INFORMATION
#MNEM.UNIT          VALUE    DESCRIPTION
#----------   ------------   ------------------------------
 EKB .F         5228.0000:   Kelly bushing
 EGL .F         5218.0000:   Ground level
 EDF .F            0.0000:   Drilling floor
 EPD .F         5218.0000:   Permanent datum
 TD  .F         4125.0000:   Total depth
 DATE.        29-JUN-1983:   Date logged
 CLNT.            A2DTECH:   Client Code
 SL  . 984' FWL & 1620' FEL:   Surface Location
 PD  .                 GL:   Permanent Datum
 DD  .F              4125:   Depth driller
 DL  .F              4107:   Depth logger
 BLI .F              4105:   Bottom log interval
 CS1 .IN              4.5:   Casing size
 CBD1.       4.5" @ 2213':   Casing driller 1
 CBL1.F              2213:   Casing logger 1
 BS1 .IN             6.25:   Bit size
 DFT .                KCL:   Type fluid in hole
 DFD .                8.8:   Density
 DFV .                 45:   Viscosity
 DFPH.                  9:   pH
 DFL .               10.8:   Fluid loss
 MSS .            MUDTANK:   Source of sample
 RMS .OHMM            .44:   Rm
 MST .F               108:   Rm Meas. temp.
 RMF .OHMM            .37:   Rmf
 MFST.F               108:   Rmf Meas. temp.
 RMC .OHMM            .55:   Rmc
 MCST.F               108:   Rmc Meas. temp.
 MFSS.               MEAS:   Source Rmf.
 RMB .OHMM            .36:   Rm. at BHT
 BHT .F               126:   BHT.
 TCS .HRS               2:   Time Circ. stopped
 MRT .F               126:   Maximum recorded temp.
 LUN .               6343:   Logging unit number
 LUL .                 FM:   Logging unit location
 ENGI.          I. GOVETT:   Recorded By
 WITN.          G. STRONG:   Witnessed by
 ORIG.     2.5", 5" PRINT:   Origin of data
 UWI .     49025107370001:   Unique Well ID
 DICO. A2D TECHNOLOGIES, INC.:   Digitizing Company
 DAPD.                 10:   Feet Above Permanent Datum
 BSD1.               4125:   Depth drilled with bit1
 MCSS.               CALC:   Source Rmc.
 TLI .               2213:   Top log interval
~OTHER INFORMATION
~A   DEPT     TEND       CORR       NPHI       CALD         GRR       SPR       TENR       RILD       RILM       RFOC       RHOB   
# ...
 2584.5000     0.0000     0.0200     0.2100     7.1110   106.3390   -26.6740     0.0000     7.2280     7.3280     7.2900     2.5440
 2585.0000     0.0000     0.0180     0.2100     7.1080   107.1000   -26.8270     0.0000     7.2280     7.5020     7.2400     2.5460
 2585.5000     0.0000     0.0230     0.2070     7.1060   107.9700   -26.9740     0.0000     7.2280     7.6770     7.2010     2.5480
 2586.0000     0.0000     0.0270     0.2110     7.1040   108.8250   -27.1200     0.0000     7.2280     7.7100     7.1620     2.5500
 2586.5000     0.0000     0.0310     0.2160     7.1020   109.6870   -27.2670     0.0000     7.7100     7.7100     7.5570     2.5520
 2587.0000     0.0000     0.0370     0.2190     7.1000   110.4870   -27.4140     0.0000     7.6410     7.6100     7.8530     2.5480
 2587.5000     0.0000     0.0480     0.2180     7.0980   111.1980   -27.5610     0.0000     7.4850     7.4540     7.5360     2.5390
 2588.0000     0.0000     0.0500     0.2180     7.0950   115.5420   -27.7080     0.0000     7.3280     7.2970     7.2950     2.5310
 2588.5000     0.0000     0.0410     0.2250     7.0930   120.7890   -27.8550     0.0000     7.1720     7.1410     7.1380     2.5230
 2589.0000     0.0000     0.0340     0.2280     7.0910   120.7060   -28.0020     0.0000     7.0150     6.9840     6.9900     2.5260
 2589.5000     0.0000     0.0260     0.2290     7.0890   120.3560   -28.1500     0.0000     6.8590     6.8280     6.8410     2.5300
 2590.0000     0.0000     0.0200     0.2310     7.0870   120.9860   -28.2950     0.0000     6.7020     6.6710     6.6930     2.5350
 2590.5000     0.0000     0.0130     0.2320     7.0840   123.1600   -28.4060     0.0000     6.5320     6.5290     6.5320     2.5380
 2591.0000     0.0000     0.0070     0.2320     7.0820   125.4160   -28.3200     0.0000     6.6080     6.5030     6.6730     2.5380
 2591.5000     0.0000     0.0000     0.2330     7.0800   123.2710   -28.2390     0.0000     6.7150     6.4780     6.8400     2.5390
 2592.0000     0.0000    -0.0070     0.2390     7.0780   120.6210   -28.1590     0.0000     6.6060     6.4520     6.6790     2.5390
 2592.5000     0.0000    -0.0070     0.2420     7.0760   118.6170   -28.0780     0.0000     6.5170     6.4260     6.5240     2.5390
 2593.0000     0.0000     0.0090     0.2380     7.0740   115.8420   -27.9970     0.0000     6.4280     6.4010     6.4690     2.5400
 2593.5000     0.0000     0.0180     0.2330     7.0710   112.6240   -27.9160     0.0000     6.3540     6.3750     6.4130     2.5410
 2594.0000     0.0000     0.0190     0.2280     7.0690   109.5400   -27.8340     0.0000     6.3940     6.3540     6.4890     2.5430
 2594.5000     0.0000     0.0220     0.2240     7.0670   108.2330   -27.8660     0.0000     6.4360     6.5220     6.5880     2.5430
 2595.0000     0.0000     0.0240     0.2200     7.0680   107.2750   -27.9190     0.0000     6.4770     6.6640     6.6870     2.5410
 2595.5000     0.0000     0.0240     0.2240     7.0700   106.6520   -27.9730     0.0000     6.5190     6.7770     6.7860     2.5360
 2596.0000     0.0000     0.0220     0.2290     7.0710   109.3610   -28.0260     0.0000     6.5600     6.5900     6.9030     2.5310
 2596.5000     0.0000     0.0200     0.2330     7.0730   112.4240   -28.0790     0.0000     6.5920     6.4650     6.7910     2.5260
 2597.0000     0.0000     0.0180     0.2270     7.0740   115.5300   -28.1330     0.0000     6.4560     6.3580     6.6550     2.5210
 2597.5000     0.0000     0.0160     0.2220     7.0760   118.6030   -28.1860     0.0000     6.3450     6.2500     6.5180     2.5190
 2598.0000     0.0000     0.0140     0.2260     7.0770   118.8530   -28.2400     0.0000     6.2330     6.1430     6.3820     2.5230
 2598.5000     0.0000     0.0110     0.2300     7.0790   118.6760   -28.2930     0.0000     6.1220     6.0360     6.2460     2.5260
 2599.0000     0.0000     0.0090     0.2310     7.0800   118.4880   -28.3460     0.0000     6.0110     5.9280     6.1090     2.5290
 2599.5000     0.0000     0.0070     0.2300     7.0810   118.3040   -28.4000     0.0000     5.9000     5.8210     5.9910     2.5300
 2600.0000     0.0000     0.0040     0.2300     7.0830   117.6480   -28.4550     0.0000     5.7890     5.7140     5.9150     2.5310
 2600.5000     0.0000     0.0020     0.2470     7.0840   116.5060   -28.5130     0.0000     5.6770     5.6070     5.8560     2.5320
 2601.0000     0.0000     0.0040     0.2460     7.0860   115.3190   -28.5700     0.0000     5.5660     5.4990     5.9250     2.5330
 2601.5000     0.0000     0.0120     0.2450     7.0870   115.6410   -28.6270     0.0000     5.4550     5.3920     5.9950     2.5310
 2602.0000     0.0000     0.0180     0.2440     7.0890   116.4790   -28.6840     0.0000     5.3440     5.2850     6.0640     2.5220
 2602.5000     0.0000     0.0240     0.2490     7.0900   115.1070   -28.7410     0.0000     5.2330     5.1770     6.1160     2.5130
 2603.0000     0.0000     0.0160     0.2520     7.0920   113.1770   -28.8010     0.0000     5.1210     5.0160     6.0110     2.5060
 2603.5000     0.0000     0.0040     0.2560     7.0930   114.9710   -28.7350     0.0000     5.0940     5.0670     5.9120     2.5020
 2604.0000     0.0000     0.0180     0.2600     7.0940   116.9850   -28.6450     0.0000     5.1540     5.2540     5.7200     2.4990
 2604.5000     0.0000     0.0450     0.2560     7.0960   118.9950   -28.2190     0.0000     5.4180     5.4410     5.3660     2.4930
 2605.0000     0.0000     0.0700     0.2470     7.0970   120.9700   -27.7450     0.0000     5.8220     6.8890     4.8640     2.4860
 2605.5000     0.0000     0.0680     0.2380     7.0990   120.5220   -26.8620     0.0000     6.2260     8.7060     4.8910     2.4790
 2606.0000     0.0000     0.0570     0.2270     7.1000   116.6870   -25.0620     0.0000     7.4470    10.5240     4.9370     2.4630
 2606.5000     0.0000     0.0450     0.2150     7.1020   103.3610   -23.1440     0.0000     9.9300    12.3410     7.9570     2.4420
 2607.0000     0.0000     0.0430     0.2020     7.1030    89.8090   -21.2110     0.0000    12.4130    14.1580    12.9660     2.4190
 2607.5000     0.0000     0.0490     0.1940     7.1040    77.2420   -19.2800     0.0000    14.8970    15.9750    15.3950     2.4010
 2608.0000     0.0000     0.0550     0.1910     7.1060    75.4520   -17.3600     0.0000    17.3800    17.7920    17.1800     2.3890
 2608.5000     0.0000     0.0600     0.1890     7.0970    74.2490   -15.7650     0.0000    19.8630    19.5450    16.7120     2.3840
 2609.0000     0.0000     0.0580     0.1900     7.0840    70.8080   -15.2160     0.1260    22.3460    19.6120    16.7850     2.3860
 2609.5000     0.0000     0.0550     0.1930     7.0720    67.5120   -14.6450     0.3090    24.2940    19.6770    16.9520     2.3950
 2610.0000     0.0000     0.0520     0.1940     7.0600    64.0720   -14.0730     0.4910    25.5830    19.7260    17.1180     2.4070
 2610.5000     0.0000     0.0500     0.1920     7.0470    62.4840   -13.5600     0.6730    26.8730    20.3500    17.2840     2.4190
 2611.0000     0.0000     0.0570     0.1890     7.0350    61.6930   -13.4880     0.8560    28.1620    20.9380    18.4610     2.4260
 2611.5000     0.0000     0.0820     0.1890     7.0230    62.5450   -13.4240     1.0380    29.4520    21.5270    20.1330     2.4280
 2612.0000     0.0000     0.1020     0.1920     7.0100    63.3540   -13.4200     1.2200    30.1650    22.8980    21.8050     2.4300
 2612.5000     0.0000     0.1100     0.1940     6.9980    62.7090   -13.8040     1.4030    30.6150    26.5890    22.6480     2.4340
 2613.0000     0.0000     0.0930     0.1880     6.9900    58.5670   -14.1910     1.5850    31.0650    30.2800    22.6480     2.4310
 2613.5000     0.0000     0.0710     0.1820     7.0030    58.7200   -14.5760     1.7670    31.5520    34.2790    22.6480     2.4220
 2614.0000     0.0000     0.0490     0.1750     7.0130    58.8970   -14.9610     1.9500    30.7430    34.5960    22.6480     2.4150
 2614.5000     0.0000     0.0270     0.1740     7.0250    67.1290   -15.3360     2.1320    29.6170    32.7110    22.6480     2.4110
