~VERSION INFORMATION
 VERS.                2.0:   CWLS LOG ASCII STANDARD - VERSION 2.0
 WRAP.                 NO:   ONE LINE PER DEPTH STEP
~WELL INFORMATION
#MNEM.UNIT      DATA TYPE    INFORMATION
#----------   ------------   ------------------------------
 STRT.F          200.0000:   START DEPTH
 STOP.F         3124.0000:   STOP DEPTH
 STEP.F            0.5000:   STEP LENGTH
 NULL.          -999.2500:   NO VALUE
 COMP.    FENIX & SCISSON:   COMPANY
 WELL. FENIX SCISSON #18-27:   WELL
 FLD .                NPR:   FIELD
 LOC .      S27 T39N R78W:   LOCATION
 CNTY.            NATRONA:   COUNTY
 STAT.            WYOMING:   STATE
 CTRY. UNITED STATES OF AMERICA:   COUNTRY
 SRVC.              WELEX:   SERVICE COMPANY
 DATE.        26-SEP-1977:   LOGDATE
 API .     49025104210000:   API NUMBER
~CURVE INFORMATION
#MNEM.UNIT       API CODE    CURVE DESCRIPTION
#----------   ------------   ------------------------------
 DEPT.F                  :   
 CALD.IN     45 280 60 00:   CALIPER FROM DENSITY LOG
 GRD .GAPI   45 310 01 00:   GAMMA RAY FROM DENSITY LOG
 RHOB.G/C3   45 350 01 00:   BULK DENSITY
 CORR.G/C3   45 356 01 00:   DENSITY CORRECTION
 NPHI.DEC    42 890 03 00:   NEUTRON POROSITY SANDSTONE
 SPR .MV     07 010 01 00:   SPONTANEOUS POTENTIAL
 GURD.OHMM   07 220 05 00:   GUARD LOG RESISTIVITY
 ILD .OHMM   07 120 46 00:   DEEP INDUCTION RESISTIVITY
 ILM .OHMM   07 120 44 00:   INDUCTION LOG MEDIUM RESISTIVITY
 TENR.LBS    07 635 01 00:   TENSION FROM RESISTIVITY
~PARAMETER INFORMATION
#MNEM.UNIT          VALUE    DESCRIPTION
#----------   ------------   ------------------------------
 EKB .F         5080.0000:   Kelly bushing
 EGL .F         5070.0000:   Ground level
 EDF .F            0.0000:   Drilling floor
 EPD .F            0.0000:   Permanent datum
 TD  .F         3117.0000:   Total depth
 DATE.        26-SEP-1977:   Date logged
 CLNT.            A2DTECH:   Client Code
 SL  . 330' FSL & 1650' FWL:   Surface Location
 PD  .                 GL:   Permanent Datum
 DAPD.F                10:   Feet Above Permanent Datum
 DD  .F              3115:   Depth driller
 DL  .F              3117:   Depth logger
 BLI .F              3115:   Bottom log interval
 TLI .F               200:   Top log interval
 CS1 .IN            8.625:   Casing size
 CBD1.      8.625" @ 219':   Casing driller 1
 CBL1.F               220:   Casing logger 1
 BS1 .IN            7.875:   Bit size
 BSD1.F              3115:   Depth drilled with bit1
 DFT .            KCL MUD:   Type fluid in hole
 DFD .                9.1:   Density
 DFV .                 35:   Viscosity
 DFPH.                 11:   pH
 DFL .               17.2:   Fluid loss
 MSS .           FLOWLINE:   Source of sample
 RMS .OHMM            .59:   Rm
 MST .F                98:   Rm Meas. temp.
 RMF .OHMM            .56:   Rmf
 MFST.F                98:   Rmf Meas. temp.
 RMC .OHMM            .24:   Rmc
 MCST.F                98:   Rmc Meas. temp.
 MFSS.               MEAS:   Source Rmf.
 MCSS.               MEAS:   Source Rmc.
 RMB .OHMM            .48:   Rm. at BHT
 BHT .F               116:   BHT.
 TCS .HRS               4:   Time Circ. stopped
 MRT .F               116:   Maximum recorded temp.
 LUN .               8611:   Logging unit number
 LUL .             CASPER:   Logging unit location
 ENGI.            C. DOAK:   Recorded By
 WITN.         PETTINGILL:   Witnessed by
 ORIG.           5" PRINT:   Origin of data
 UWI .     49025104210000:   Unique Well ID
 DICO. A2D TECHNOLOGIES, INC.:   Digitizing Company
~OTHER INFORMATION
~A   DEPT     CALD        GRD       RHOB       CORR         NPHI      SPR       GURD        ILD        ILM        TENR  
# ...
 1741.0000     8.2327   128.3444     2.4845     0.0037     0.3199   -69.5997     8.8835     5.6643     6.0581   656.9851
 1741.5000     8.2319   128.7504     2.4816     0.0037     0.3167   -69.5997     8.8831     5.6642     6.0579   647.0965
 1742.0000     8.2310   127.1698     2.4756     0.0037     0.3231   -69.5997     8.8828     5.6640     6.0577   647.1894
 1742.5000     8.2302   122.6108     2.4886     0.0038     0.3270   -69.5997     8.8013     5.6638     6.2269   647.2823
 1743.0000     8.2294   122.2223     2.4856     0.0058     0.3310   -69.5997     8.8009     5.7158     6.2267   647.3753
 1743.5000     8.2285   124.4184     2.4866     0.0078     0.3350   -69.4015     8.8818     5.7684     6.1694   647.4682
 1744.0000     8.2277   120.2533     2.4886     0.0098     0.3390   -69.4015     8.8815     5.8214     6.1692   657.5419
 1744.5000     8.2269   118.2756     2.5055     0.0118     0.3465   -69.4015     8.9631     5.9291     6.1690   657.6347
 1745.0000     8.2260   119.0790     2.5115     0.0178     0.3493   -69.5997     8.9627     5.9836     6.1688   657.7274
 1745.5000     8.2252   122.6634     2.5254     0.0238     0.3501   -69.5997     9.0451     5.9834     6.2831   647.8397
 1746.0000     8.2243   125.8487     2.5403     0.0278     0.3505   -69.4015     9.3831     5.9832     6.3409   647.9325
 1746.5000     8.2235   130.6247     2.5433     0.0312     0.3497   -69.5997     9.3827     5.9283     6.3406   648.0254
 1747.0000     8.2227   132.4198     2.5453     0.0339     0.3489   -69.5997     9.4689     5.7143     6.3404   638.1380
 1747.5000     8.2218   131.2366     2.5454     0.0339     0.3481   -69.5997     9.3820     5.5080     6.4579   648.2111
 1748.0000     8.2210   130.0500     2.5454     0.0339     0.3457   -69.2033     9.3817     5.2606     6.6995   648.3040
 1748.5000     8.2202   126.2896     2.5424     0.0340     0.3457   -69.5997     9.0430     5.1342     7.0792   648.3968
 1749.0000     8.2193   122.7247     2.5395     0.0320     0.3481   -69.5997     8.8781     5.0108     6.5770   648.4897
 1749.5000     8.2185   120.3499     2.5315     0.0300     0.3517   -69.7980     8.7162     4.7549     6.3393   648.5825
 1750.0000     8.2177   117.5780     2.5286     0.0261     0.3553   -69.5997     8.7159     4.2585     6.2811   648.6754
 1750.5000     8.2168   117.5868     2.5256     0.0241     0.3545   -69.5997     8.8592     4.1931     6.2315   648.7750
 1751.0000     8.2157   119.9790     2.5246     0.0222     0.3533   -69.6030     8.8765     4.1806     6.2229   648.6953
 1751.5000     8.2160   122.7668     2.5266     0.0262     0.3505   -69.6048     8.7949     4.4172     6.2226   648.7019
 1752.0000     8.2165   128.5358     2.5296     0.0282     0.3426   -69.4085     8.8755     4.5821     6.2223   648.7098
 1752.5000     8.2170   122.7843     2.5286     0.0263     0.3362   -69.4103     8.8750     5.9798     6.2218   658.6956
 1753.0000     8.2572   120.8069     2.5287     0.0263     0.3338   -69.6102     8.8746     5.9794     6.2215   658.7025
 1753.5000     8.2775   119.2268     2.5307     0.0283     0.3310   -69.2157     8.8741     5.3315     6.3366   648.7271
 1754.0000     8.2780   124.6019     2.5337     0.0244     0.3235   -69.4156     8.8736     4.9303     6.6956   648.7351
 1754.5000     8.2785   120.8332     2.5327     0.0224     0.3211   -69.6155     8.8731     6.0336     7.0101   648.7417
 1755.0000     8.2990   121.2392     2.5287     0.0205     0.3223   -69.4193     8.9545     6.4339     6.8820   648.7483
 1755.5000     8.2991   126.8089     2.5278     0.0205     0.3267   -69.4211     9.0668     6.4335     6.6331   648.7549
 1756.0000     8.2995   128.8036     2.5347     0.0245     0.3286   -69.4229     9.8482     6.2583     7.2714   648.7615
 1756.5000     8.3002   128.0179     2.5347     0.0260     0.3314   -69.4247     9.0660     6.0879     7.9711   648.7681
 1757.0000     8.3004   130.2115     2.5298     0.0246     0.3338   -69.6244     9.0352     5.9221     8.3454   648.7733
 1757.5000     8.3000   131.4100     2.5199     0.0186     0.3390   -69.4283     9.1181     5.8140     7.7534   648.7799
 1758.0000     8.2996   131.4170     2.5060     0.0087     0.3378   -69.6280     9.2866     5.8673     7.5421   648.7867
 1758.5000     8.2992   127.2584     2.5030     0.0068     0.3358   -69.4318     9.3718     5.8669     7.1369   648.7933
 1759.0000     8.2988   122.8981     2.5030     0.0068     0.3366   -69.4336     9.7219     5.8666     6.8159   648.8038
 1759.5000     8.2984   121.3181     2.5140     0.0088     0.3386   -69.4354    10.0272     5.9204     6.4497   648.8065
 1760.0000     8.2980   121.3269     2.5249     0.0129     0.3418   -69.4372    10.6937     5.9201     6.2165   648.8131
 1760.5000     8.2976   120.5413     2.5319     0.0149     0.3426   -69.2412     9.3155     5.9744     6.1593   648.8197
 1761.0000     8.2973   118.5643     2.5279     0.0189     0.3442   -69.6387     8.9787     5.9740     6.1589   638.8480
 1761.5000     8.2969   118.5731     2.5220     0.0209     0.3454   -69.6405     8.8146     5.8280     6.1586   648.8329
 1762.0000     8.2965   118.9791     2.5230     0.0249     0.3446   -69.4444     8.8956     5.7215     6.3889   648.8395
 1762.5000     8.2961   117.7964     2.5369     0.0289     0.3406   -69.4462     9.2283     5.6688     7.0684   648.8461
 1763.0000     8.2957   119.7909     2.5449     0.0289     0.3322   -69.6458     9.9321     5.5652     8.0390   658.8354
 1763.5000     8.2953   122.1826     2.5400     0.0290     0.3227   -69.4498    14.6128     5.5139     9.3125   648.8594
 1764.0000     8.2949   123.7799     2.5340     0.0250     0.3163   -69.2539    20.8254     5.6157     9.4848   648.8660
 1764.5000     8.2945   127.3629     2.5281     0.0191     0.3115   -69.4534     9.4521     5.6156     7.1321   658.8555
 1765.0000     8.2941   129.1538     2.5241     0.0112     0.3099   -69.4552     9.1107     5.6671     6.2129   658.8622
 1765.5000     8.2937   129.1625     2.5132     0.0033     0.3099   -69.2593     9.3647     5.7720     6.2125   648.8858
 1766.0000     8.2933   122.6235     2.4944    -0.0007     0.3111   -69.4588     9.3642     5.9331     6.3275   638.9093
 1766.5000     8.2929   119.4553     2.4874    -0.0066     0.3131   -69.4606     9.3637     5.9875     6.4446   648.8991
 1767.0000     8.2925   116.4843     2.4815    -0.0046     0.3159   -69.4624     9.7136     6.0983     6.5037   648.9057
 1767.5000     8.2921   115.3018     2.4874    -0.0026     0.3187   -69.4642     9.8932     6.1543     6.5033   658.8958
 1768.0000     8.2915   120.6730     2.4914    -0.0006     0.3243   -69.4659     9.8022     6.1539     6.5030   658.9026
 1768.5000     8.2917   122.2702     2.5034     0.0035     0.3275   -69.4677     9.7120     6.1536     6.5026   658.9093
 1769.0000     8.2918   126.4471     2.5163     0.0015     0.3286   -69.4695     9.3612     6.1532     6.5023   648.9322
 1769.5000     8.3125   127.2482     2.5233     0.0015     0.3286   -69.4713     9.1063     6.1528     6.5018   648.9388
 1770.0000     8.3130   122.6918     2.5253     0.0155     0.3306   -69.6706     8.6970     6.1525     6.4420   648.9454
 1770.5000     8.3135   117.9373     2.5313     0.0215     0.3306   -69.4749     9.0220     6.1521     6.3826   648.9520
 1771.0000     8.3139   115.7606     2.5352     0.0215     0.3306   -69.4767     9.0215     6.0955     6.3239   648.9586
 1771.5000     8.3144   115.7695     2.5343     0.0215     0.3298   -69.6760     9.0210     5.9293     6.3236   648.9639
 1772.0000     8.3546   117.9637     2.5333     0.0196     0.3286   -69.4803     9.0206     5.7676     6.2079   658.9562
 1772.5000     8.3352   122.3385     2.5303     0.0176     0.3267   -69.6795     8.7749     5.6621     6.0385   658.9629
 1773.0000     8.3357   125.5238     2.5323     0.0176     0.3255   -69.6813     8.6942     5.5429     5.9909   658.9698
 1773.5000     8.3362   130.6944     2.5324     0.0197     0.3235   -69.6830     8.6937     5.5426     5.9826   639.0084
 1774.0000     8.3367   136.0619     2.5344     0.0177     0.3207   -69.8822     8.9361     5.5423     5.9275   639.0140
