~VERSION INFORMATION
 VERS.                2.0:   CWLS LOG ASCII STANDARD - VERSION 2.0
 WRAP.                 NO:   ONE LINE PER DEPTH STEP
~WELL INFORMATION
#MNEM.UNIT      DATA TYPE    INFORMATION
#----------   ------------   ------------------------------
 STRT.F          176.5000:   START DEPTH
 STOP.F         3010.0000:   STOP DEPTH
 STEP.F            0.5000:   STEP LENGTH
 NULL.          -999.2500:   NO VALUE
 COMP.    FENIX & SCISSON:   COMPANY
 WELL.   FENIX "A" #36-28:   WELL
 FLD .              NPR 3:   FIELD
 LOC .      S28 T39N R78W:   LOCATION
 CNTY.            NATRONA:   COUNTY
 STAT.            WYOMING:   STATE
 CTRY. UNITED STATES OF AMERICA:   COUNTRY
 SRVC.       SCHLUMBERGER:   SERVICE COMPANY
 DATE.        19-AUG-1977:   LOGDATE
 API .     49025104150000:   API NUMBER
~CURVE INFORMATION
#MNEM.UNIT       API CODE    CURVE DESCRIPTION
#----------   ------------   ------------------------------
 DEPT.F                  :   
 SPR .MV     07 010 01 00:   SPONTANEOUS POTENTIAL
 ILM .OHMM   07 120 44 00:   INDUCTION LOG MEDIUM RESISTIVITY
 ILD .OHMM   07 120 46 00:   INDUCTION LOG DEEP RESISTIVITY
 LL8 .OHMM   07 220 08 00:   LATEROLOG-8 RESISTIVITY
 GRD .GAPI   45 310 01 00:   GAMMA RAY FROM DENSITY LOG
 CALD.IN     45 280 60 00:   CALIPER FROM DENSITY LOG
 RHOB.G/C3   45 350 01 00:   BULK DENSITY
 DCOR.G/C3   45 356 01 00:   DENSITY CORRECTION
~PARAMETER INFORMATION
#MNEM.UNIT          VALUE    DESCRIPTION
#----------   ------------   ------------------------------
 EKB .F         5107.0000:   Kelly bushing
 EGL .F         5097.0000:   Ground level
 EDF .F            0.0000:   Drilling floor
 TD  .F         3012.0000:   Total depth
 DATE.        19-AUG-1977:   Date logged
 CLNT.            A2DTECH:   Client Code
 SL  . 1650' FSL & 1650' FWL:   Surface Location
 PD  .                 GL:   Permanent Datum
 EPD .F              5097:   Elevation Permanent Datum
 LMF .                 KB:   Log Measured From
 DMF .                 KB:   Drilling Measured From
 DAPD.F                10:   Feet Above Permanent Datum
 DD  .F              3010:   Depth driller
 DL  .F              3011:   Depth logger
 BLI .F              3005:   Bottom log interval
 TLI .F               215:   Top log interval
 CS1 .IN            8.625:   Casing size
 CBD1.      8.625" @ 205':   Casing driller 1
 CBL1.F               215:   Casing logger 1
 BS1 .IN            7.875:   Bit size
 BSD1.F              3010:   Depth drilled with bit1
 DFT .                FGM:   Type fluid in hole
 DFD .                8.8:   Density
 DFV .                 33:   Viscosity
 DFPH.               10.5:   pH
 DFL .               10.6:   Fluid loss
 MSS .            MUD PIT:   Source of sample
 RMS .OHMM            .19:   Rm
 MST .F                76:   Rm Meas. temp.
 RMF .OHMM            .17:   Rmf
 MFST.F                78:   Rmf Meas. temp.
 MFSS.               MEAS:   Source Rmf.
 RMB .OHMM            .13:   Rm. at BHT
 BHT .F               112:   BHT.
 TCS .HRS            0700:   Time Circ. stopped
 TLAB.HRS            1400:   Time logger at bottom
 MRT .F               112:   Maximum recorded temp.
 LUN .               5642:   Logging unit number
 ENGI.          CHALUPSKY:   Recorded By
 WITN.     WES PETTINGILL:   Witnessed by
 ORIG.           5" PRINT:   Origin of data
 UWI .     49025104150000:   Unique Well ID
 DICO. A2D TECHNOLOGIES, INC.:   Digitizing Company
 LUL .               CSPR:   Logging unit location
~OTHER INFORMATION
~A   DEPT      SPR        ILM        ILD        LL8        GRD       CALD       RHOB       DCOR   
# ...
 1513.0000   -63.7330     8.3420     8.6640    10.3510   119.4040     8.4980     2.4520     0.0380
 1513.5000   -63.7350     8.4090     8.7560    10.2300   119.7190     8.4930     2.4570     0.0460
 1514.0000   -63.8710     8.4760     8.8490    10.4490   118.0320     8.4880     2.4430     0.0380
 1514.5000   -64.2720     8.5440     8.9420    10.8310   116.9160     8.4830     2.4330     0.0230
 1515.0000   -64.6690     8.6110     9.0350    11.2120   119.0790     8.4770     2.4240     0.0100
 1515.5000   -65.0660     8.6790     9.0770    11.5090   121.2380     8.4720     2.4250     0.0240
 1516.0000   -65.4640     8.7460     9.0880    11.3340   117.1620     8.4670     2.4440     0.0370
 1516.5000   -65.8610     8.8140     9.1000    11.0280   113.8090     8.4620     2.4660     0.0240
 1517.0000   -66.2550     8.9030     9.1110    10.7940   114.8890     8.4560     2.5210     0.0440
 1517.5000   -66.4410     8.8920     9.1220    10.9720   116.0300     8.4510     2.5070     0.0730
 1518.0000   -66.2360     8.8710     9.1340    11.1970   117.1650     8.4460     2.4870     0.0620
 1518.5000   -66.0380     8.8490     9.1450    11.1740   118.2430     8.4420     2.4690     0.0410
 1519.0000   -65.8400     8.8280     9.1530    11.1230   118.9110     8.4510     2.4930     0.0460
 1519.5000   -65.6410     8.8070     9.1160    11.0200   115.8120     8.4600     2.5160     0.0630
 1520.0000   -65.4400     8.7860     9.0870    10.8540   112.6410     8.4680     2.4320     0.0350
 1520.5000   -65.1140     8.7640     9.0570    10.6890   112.8900     8.4780     2.4410     0.0480
 1521.0000   -64.5730     8.7430     9.0270    10.5090   115.7910     8.4730     2.4580     0.0680
 1521.5000   -64.0420     8.7220     8.9980    10.5580   118.9390     8.4610     2.4750     0.0620
 1522.0000   -63.6390     8.7010     8.9680    10.6230   121.4700     8.4500     2.4960     0.0740
 1522.5000   -63.2150     8.6790     8.9390    10.6880   120.3810     8.4390     2.4840     0.0670
 1523.0000   -63.2990     8.6640     8.9090    10.6100   118.8120     8.4300     2.4630     0.0580
 1523.5000   -63.5030     8.7700     9.0240    10.5130   117.6350     8.4210     2.4410     0.0460
 1524.0000   -63.3100     8.8520     9.1580    10.4160   117.8370     8.4130     2.4330     0.0350
 1524.5000   -63.2160     8.9340     9.2920    10.6590   119.7920     8.4040     2.4380     0.0270
 1525.0000   -63.4170     9.0160     9.4260    10.9420   121.1240     8.3950     2.4450     0.0350
 1525.5000   -63.6150     9.0990     9.5600    11.2100   120.4150     8.3860     2.4520     0.0470
 1526.0000   -63.8120     9.1810     9.7600    11.3400   117.9300     8.3770     2.4700     0.0610
 1526.5000   -64.0080     9.2380     9.7160    11.5310   115.4890     8.3680     2.4880     0.0700
 1527.0000   -63.9790     9.1430     9.6300    11.7790   114.2910     8.3610     2.5040     0.0670
 1527.5000   -63.6030     9.0700     9.5430    12.0480   117.2460     8.3560     2.5010     0.0720
 1528.0000   -63.2360     8.9980     9.4570    11.3430   120.1030     8.3510     2.4980     0.0790
 1528.5000   -62.9600     8.9250     9.3710    10.2170   120.1210     8.3460     2.4920     0.0720
 1529.0000   -63.1170     8.8740     9.2850    10.4050   119.5220     8.3410     2.4830     0.0660
 1529.5000   -63.0270     8.8310     9.1990    10.7590   119.3860     8.3360     2.4920     0.0590
 1530.0000   -62.8920     8.7870     9.1130    10.9940   121.9350     8.3310     2.4770     0.0420
 1530.5000   -62.7550     8.7440     9.0270    10.7940   124.0310     8.3260     2.4630     0.0240
 1531.0000   -62.6190     8.7010     8.9830    10.9850   123.0660     8.3330     2.4930     0.0070
 1531.5000   -62.4820     8.6640     8.9760    11.1970   123.6280     8.3500     2.5130     0.0270
 1532.0000   -62.3460     8.6640     8.9690    11.0470   125.3260     8.3660     2.4800     0.0470
 1532.5000   -62.2100     8.6640     8.9620    10.8900   125.1710     8.3840     2.4640     0.0420
 1533.0000   -62.0730     8.6640     8.9550    10.6960   124.9800     8.4010     2.4730     0.0370
 1533.5000   -61.9370     8.6640     8.9470    10.8240   125.7330     8.3910     2.4780     0.0310
 1534.0000   -61.7990     8.6640     8.9400    10.9920   126.2460     8.3780     2.4460     0.0430
 1534.5000   -61.7530     8.6640     8.9330    11.1970   125.0920     8.3650     2.4530     0.0360
 1535.0000   -61.7540     8.6640     8.9260    11.0170   126.1580     8.3520     2.4680     0.0320
 1535.5000   -61.9910     8.6640     8.9180    10.7860   127.5000     8.3450     2.4790     0.0410
 1536.0000   -62.5400     8.6640     8.9110    10.5980   128.1430     8.3540     2.4560     0.0340
 1536.5000   -63.0820     8.6640     8.9060    10.6510   126.4550     8.3630     2.4600     0.0460
 1537.0000   -63.6250     8.6640     9.0250    10.6960   124.8340     8.3710     2.4690     0.0550
 1537.5000   -63.9360     8.7550     9.1260    10.9860   123.2390     8.3800     2.4820     0.0450
 1538.0000   -63.4970     8.8460     9.2270    11.2770   123.3980     8.3880     2.5100     0.0600
 1538.5000   -62.8400     8.9370     9.3280    11.5090   124.6680     8.3970     2.5260     0.0700
 1539.0000   -62.1510     9.0280     9.4290    11.1800   125.9680     8.4090     2.5260     0.0820
 1539.5000   -61.9560     9.1190     9.5300    10.9080   125.0360     8.4250     2.5190     0.0760
 1540.0000   -61.9480     9.2110     9.6300    10.6960   123.7840     8.4400     2.5130     0.0670
 1540.5000   -61.9490     9.3020     9.7310    11.1440   123.2580     8.4190     2.5250     0.0780
 1541.0000   -61.9480     9.4090     9.8490    11.7210   122.7670     8.3960     2.5130     0.0830
 1541.5000   -61.9470     9.3410     9.7700    11.6080   122.2720     8.3740     2.4820     0.0610
 1542.0000   -61.6990     9.2600     9.6740    11.1970   122.1780     8.3520     2.4500     0.0440
 1542.5000   -61.1620     9.1790     9.5780    11.2590   122.0810     8.3450     2.4710     0.0300
 1543.0000   -60.6320     9.0980     9.4820    11.4010   121.5440     8.3480     2.4600     0.0370
 1543.5000   -60.5810     9.0160     9.3860    11.5090   120.9510     8.3510     2.4860     0.0430
 1544.0000   -60.6030     8.9350     9.2900    10.9900   119.0880     8.3550     2.4690     0.0420
 1544.5000   -60.6260     8.8540     9.1940    10.5980   117.7430     8.3580     2.4370     0.0280
 1545.0000   -60.6490     8.7730     9.0980    10.8370   120.3400     8.3620     2.4450     0.0180
 1545.5000   -60.6720     8.6920     9.0020    11.0640   123.3070     8.3710     2.4600     0.0330
 1546.0000   -60.6940     8.6100     8.9060    10.7140   126.3210     8.3810     2.4720     0.0470
 1546.5000   -60.7170     8.5290     8.8100    10.2240   129.1610     8.3910     2.4650     0.0620
 1547.0000   -60.7390     8.4480     8.6640    10.2690   130.8630     8.4010     2.4570     0.0660
 1547.5000   -60.7640     8.3670     8.6740    10.3280   131.2040     8.4120     2.4690     0.0560
 1548.0000   -60.8550     8.2820     8.6950    10.4060   125.8340     8.4220     2.4880     0.0650
 1548.5000   -60.9430     8.3140     8.7160    10.3520   121.1090     8.4320     2.4740     0.0700
 1549.0000   -61.0310     8.3520     8.7370    10.2730   120.0420     8.4400     2.4600     0.0510
 1549.5000   -61.1180     8.5580     8.8770    10.1950   119.1950     8.4270     2.4510     0.0460
 1550.0000   -61.2070     8.7460     9.0700    10.1240   119.7010     8.4150     2.4830     0.0510
 1550.5000   -61.2900     8.9340     9.2620    10.2090   119.6290     8.4020     2.4730     0.0460
 1551.0000   -61.2580     9.1220     9.4550    10.9800   118.5100     8.3900     2.4620     0.0550
 1551.5000   -60.8850     9.3100     9.6480    11.8320   117.3930     8.3770     2.4970     0.0710
 1552.0000   -60.5670     9.4980     9.8400    12.6120   116.2860     8.3650     2.4770     0.0630
 1552.5000   -60.6230     9.6710     9.9680    12.2480   115.6740     8.3530     2.4600     0.0450
 1553.0000   -60.6840     9.7100    10.0250    11.9380   116.7700     8.3440     2.4890     0.0360
