~VERSION INFORMATION
 VERS.                2.0:   CWLS LOG ASCII STANDARD - VERSION 2.0
 WRAP.                 NO:   ONE LINE PER DEPTH STEP
~WELL INFORMATION
#MNEM.UNIT      DATA TYPE    INFORMATION
#----------   ------------   ------------------------------
 STRT.F           30.0000:   START DEPTH
 STOP.F         5698.0000:   STOP DEPTH
 STEP.F            0.5000:   STEP LENGTH
 NULL.          -999.2500:   NO VALUE
 COMP. LAWRRENCE-ALLISON & ASSOCIATES:   COMPANY
 WELL. LAWERNCE "X" #41-3:   WELL
 FLD .           N P R #3:   FIELD
 LOC .       S3 T38N R78W:   LOCATION
 CNTY.            NATRONA:   COUNTY
 STAT.            WYOMING:   STATE
 CTRY. UNITED STATES OF AMERICA:   COUNTRY
 SRVC.      DRESSER ATLAS:   SERVICE COMPANY
 DATE.        04-JUN-1983:   LOGDATE
 API .     49025109200000:   API NUMBER
~CURVE INFORMATION
#MNEM.UNIT       API CODE    CURVE DESCRIPTION
#----------   ------------   ------------------------------
 DEPT.F                  :   
 TENS.LBS    60 635 01 00:   TENSION FROM SONIC
 DT  .US/F   60 520 00 00:   DELTA TIME
 SPR .MV     11 010 01 00:   SPONTANEOUS POTENTIAL FROM RES.
 TENR.LBS    11 635 01 00:   TENSION FROM RES. LOG
 GRR .GAPI   11 310 01 00:   GAMMA RAY FROM RES.
 CALR.IN     11 280 01 00:   CALIPER FROM RES.
 RMLL.OHMM   11 270 04 00:   MICRO LATEROLOG
 RD  .OHMM   11 220 10 00:   RESISTIVITY DEEP
 RS  .OHMM   11 220 09 00:   RESISTIVITY SHALLOW
 TEND.LBS    45 635 01 00:   TENSION FROM DENSITY LOG
 CORR.G/C3   45 356 01 00:   DENSITY CORRECTION
 RHOB.G/C3   45 350 01 00:   BULK DENSITY
 NPHI.DEC    42 890 03 00:   NEUTRON POROSITY SANDSTONE
~PARAMETER INFORMATION
#MNEM.UNIT          VALUE    DESCRIPTION
#----------   ------------   ------------------------------
 EKB .F         5157.5000:   Kelly bushing
 EGL .F         5147.5000:   Ground level
 EDF .F            0.0000:   Drilling floor
 TD  .F         5690.0000:   Total depth
 DATE.        04-JUN-1983:   Date logged
 CLNT.            A2DTECH:   Client Code
 SL  . 2218' FWL & 287' FNL:   Surface Location
 PD  .                 GL:   Permanent Datum
 EPD .F            5147.5:   Elevation Permanent Datum
 LMF .                 KB:   Log Measured From
 DMF .                 KB:   Drilling Measured From
 DD  .F              5690:   Depth driller
 DL  .F              5685:   Depth logger
 BLI .F              5682:   Bottom log interval
 CS1 .IN            9.625:   Casing size
 CBD1.       9.625 @ 568':   Casing driller 1
 CBL1.F               568:   Casing logger 1
 BS1 .IN             8.75:   Bit size
 DFT .        KCL-DRISPAC:   Type fluid in hole
 DFD .                9.1:   Density
 DFV .                 37:   Viscosity
 DFPH.                  8:   pH
 DFL .                3.8:   Fluid loss
 MSS .               TANK:   Source of sample
 RMS .OHMM           0.41:   Rm
 MST .F                75:   Rm Meas. temp.
 RMF .OHMM           0.28:   Rmf
 MFST.F                70:   Rmf Meas. temp.
 RMC .OHMM           0.53:   Rmc
 MCST.F                75:   Rmc Meas. temp.
 MFSS.               MEAS:   Source Rmf.
 RMB .OHMM           0.18:   Rm. at BHT
 BHT .F               160:   BHT.
 TCS .HRS               5:   Time Circ. stopped
 MRT .F               166:   Maximum recorded temp.
 LUN .               6274:   Logging unit number
 LUL .               GLTE:   Logging unit location
 ENGI.             RAUTIO:   Recorded By
 WITN.             STRONG:   Witnessed by
 ORIG.     2.5", 5" PRINT:   Origin of data
 UWI .     49025109200000:   Unique Well ID
 DICO. A2D TECHNOLOGIES, INC.:   Digitizing Company
 MCSS.               CALC:   Source Rmc.
 DAPD.                 10:   Feet Above Permanent Datum
 BSD1.               5690:   Depth drilled with bit1
~OTHER INFORMATION
~A   DEPT     TENS         DT        SPR       TENR         GRR      CALR       RMLL         RD         RS       TEND       CORR       RHOB       NPHI   
# ...
  576.0000  -999.2500  -999.2500   -76.2330   -48.2280    82.3030    10.5750     4.3220  -999.2500    22.4670  -999.2500  -999.2500  -999.2500  -999.2500
  576.5000  -999.2500  -999.2500   -77.0570   -48.2280    83.5760    10.7230     4.3150  -999.2500    22.5010  -999.2500  -999.2500  -999.2500  -999.2500
  577.0000  -999.2500  -999.2500   -77.8230   -48.2280    83.5680    10.8610     4.3070  -999.2500    21.6200  -999.2500  -999.2500  -999.2500  -999.2500
  577.5000  -999.2500  -999.2500   -78.7280   -48.2280    82.8920    11.0260     4.3000  -999.2500    19.8730  -999.2500  -999.2500  -999.2500  -999.2500
  578.0000  -999.2500  -999.2500   -78.7710   -48.2280    80.0100    11.0370     4.2920  -999.2500    17.4040  -999.2500  -999.2500  -999.2500  -999.2500
  578.5000  -999.2500  -999.2500   -78.9640   -48.2280    76.1250    11.0400     4.2850     8.3290    14.9360  -999.2500  -999.2500  -999.2500  -999.2500
  579.0000  -999.2500  -999.2500   -79.2440   -48.2280    74.7240    11.0290     4.2770     9.2550    12.4680  -999.2500  -999.2500  -999.2500  -999.2500
  579.5000  -999.2500  -999.2500   -79.5290   -48.2280    76.2930    11.0250     4.2700     8.3970     9.9990  -999.2500  -999.2500  -999.2500  -999.2500
  580.0000  -999.2500  -999.2500   -79.8080   -48.2280    77.8810    11.0190     4.2620     7.1800     7.5310  -999.2500  -999.2500  -999.2500  -999.2500
  580.5000  -999.2500  -999.2500   -80.0810   -48.2280    76.9890    11.0080     4.2550     6.9550     6.2780  -999.2500  -999.2500  -999.2500  -999.2500
  581.0000  -999.2500  -999.2500   -80.3450   -48.2280    76.5960    11.0120     4.2480     6.7420     5.9880  -999.2500  -999.2500  -999.2500  -999.2500
  581.5000  -999.2500  -999.2500   -80.3400   -48.2280    77.3170    10.9420     4.1760     6.5290     5.6990  -999.2500  -999.2500  -999.2500  -999.2500
  582.0000  -999.2500  -999.2500   -80.3520   -48.2280    78.7610    10.8680     4.0530     6.5530     5.4090  -999.2500  -999.2500  -999.2500  -999.2500
  582.5000  -999.2500  -999.2500   -80.4240   -48.2280    79.9530    10.7280     3.9470     6.2190     5.0400  -999.2500  -999.2500  -999.2500  -999.2500
  583.0000  -999.2500  -999.2500   -80.7860   -48.2280    81.1080    10.6080     3.3620     6.0240     4.6040  -999.2500  -999.2500  -999.2500  -999.2500
  583.5000  -999.2500  -999.2500   -80.6230   -48.2280    82.9640    10.4570     2.8490     5.8290     4.4010  -999.2500  -999.2500  -999.2500  -999.2500
  584.0000  -999.2500  -999.2500   -80.3000   -48.2280    82.7820    10.4100     2.3360     6.0890     4.5430  -999.2500  -999.2500  -999.2500  -999.2500
  584.5000  -999.2500  -999.2500   -79.9210   -48.2280    80.4370    10.3620     2.0450     6.5150     4.7370  -999.2500  -999.2500  -999.2500  -999.2500
  585.0000  -999.2500  -999.2500   -79.5840   -48.2280    78.2830    10.3170     1.9460     6.9420     4.9310  -999.2500  -999.2500  -999.2500  -999.2500
  585.5000  -999.2500  -999.2500   -79.2900   -48.2280    76.0130    10.3020     1.9960     7.3690     5.1250  -999.2500  -999.2500  -999.2500  -999.2500
  586.0000  -999.2500  -999.2500   -79.5990   -48.2280    74.4740    10.4070     2.0550     7.7960     5.3200  -999.2500  -999.2500  -999.2500  -999.2500
  586.5000  -999.2500  -999.2500   -79.7170   -48.2280    75.9840    10.5290     2.1720     8.0060     5.5140  -999.2500  -999.2500  -999.2500  -999.2500
  587.0000  -999.2500  -999.2500   -80.0430   -48.2280    76.7890    10.6520     2.4460     8.1520     5.5710  -999.2500  -999.2500  -999.2500  -999.2500
  587.5000  -999.2500  -999.2500   -80.3090   -48.2280    75.4930    10.7740     2.7470     8.1340     5.5710  -999.2500  -999.2500  -999.2500  -999.2500
  588.0000  -999.2500  -999.2500   -80.5760   -48.2280    74.5480    10.8880     2.9830     8.1130     5.5710  -999.2500  -999.2500  -999.2500  -999.2500
  588.5000  -999.2500  -999.2500   -80.8570   -48.2280    75.6540    10.9090     3.1020     8.0930     5.5710  -999.2500  -999.2500  -999.2500  -999.2500
  589.0000  -999.2500  -999.2500   -81.1270   -48.2280    77.1470    10.8500     3.2340     8.0730     5.5710  -999.2500  -999.2500  -999.2500  -999.2500
  589.5000  -999.2500  -999.2500   -81.4010   -48.2280    78.8560    10.7980     3.5160     8.0530     5.5710  -999.2500  -999.2500  -999.2500  -999.2500
  590.0000  -999.2500  -999.2500   -81.6760   -48.2280    77.1820    10.7440     4.1680     8.0320     5.5710  -999.2500  -999.2500  -999.2500  -999.2500
  590.5000  -999.2500  -999.2500   -81.9460   -48.2280    75.2460    10.7170     4.1680     8.0060     5.5710  -999.2500  -999.2500  -999.2500  -999.2500
  591.0000  -999.2500  -999.2500   -82.2210   -48.2280    73.2600    10.6840     4.0950     8.0340     5.5710  -999.2500  -999.2500  -999.2500  -999.2500
  591.5000  -999.2500  -999.2500   -82.3420   -48.2280    71.2180    10.6470     3.7380     8.1390     5.5710  -999.2500  -999.2500  -999.2500  -999.2500
  592.0000  -999.2500  -999.2500   -82.3960   -48.2280    73.8570    10.5830     3.9380     8.2440     5.5710  -999.2500  -999.2500  -999.2500  -999.2500
  592.5000  -999.2500  -999.2500   -82.4530   -48.2280    77.4770    10.5370     4.2360     8.3500     5.5710  -999.2500  -999.2500  -999.2500  -999.2500
  593.0000  -999.2500  -999.2500   -82.5100   -48.2280    80.4700    10.4870     4.5350     8.4550     5.5700  -999.2500  -999.2500  -999.2500  -999.2500
  593.5000  -999.2500  -999.2500   -82.5690   -48.2280    80.4540    10.4390     4.8190     8.5600     5.4980  -999.2500  -999.2500  -999.2500  -999.2500
  594.0000  -999.2500  -999.2500   -82.6230   -48.2280    80.1380    10.3900     4.8190     8.6650     5.3700  -999.2500  -999.2500  -999.2500  -999.2500
  594.5000  -999.2500  -999.2500   -82.6770   -48.2280    79.5810    10.3770     4.6090     8.7650     5.2730  -999.2500  -999.2500  -999.2500  -999.2500
  595.0000  -999.2500  -999.2500   -82.5780   -48.2280    78.9460    10.3780     4.3220     8.4480     5.0700  -999.2500  -999.2500  -999.2500  -999.2500
  595.5000  -999.2500  -999.2500   -82.4750   -48.2280    78.2830    10.3750     4.0610     8.1450     4.8730  -999.2500  -999.2500  -999.2500  -999.2500
  596.0000  -999.2500  -999.2500   -82.3610   -48.2280    79.1830    10.3820     3.6430     7.8410     4.6760  -999.2500  -999.2500  -999.2500  -999.2500
  596.5000  -999.2500  -999.2500   -82.2690   -48.2280    79.9790    10.3460     3.2250     7.5380     4.4820  -999.2500  -999.2500  -999.2500  -999.2500
  597.0000  -999.2500  -999.2500   -82.5100   -48.2280    80.8590    10.3340     2.9000     7.1800     4.3500  -999.2500  -999.2500  -999.2500  -999.2500
  597.5000  -999.2500  -999.2500   -82.9450   -48.2280    81.7820    10.2790     2.9860     7.0390     4.2220  -999.2500  -999.2500  -999.2500  -999.2500
  598.0000  -999.2500  -999.2500   -83.3540   -48.2280    82.0590    10.2340     3.0890     6.8660     4.0950  -999.2500  -999.2500  -999.2500  -999.2500
  598.5000  -999.2500  -999.2500   -83.7620   -48.2280    82.8610    10.1830     3.2340     6.6940     3.9480  -999.2500  -999.2500  -999.2500  -999.2500
  599.0000  -999.2500  -999.2500   -84.1740   -48.2280    83.6610    10.1350     3.1690     6.4230     3.7740  -999.2500  -999.2500  -999.2500  -999.2500
  599.5000  -999.2500  -999.2500   -84.5920   -48.2280    82.7860    10.0860     3.0620     5.7750     3.4880  -999.2500  -999.2500  -999.2500  -999.2500
  600.0000  -999.2500  -999.2500   -84.9850   -48.2280    82.0390    10.0380     2.6150     5.1280     3.0350  -999.2500  -999.2500  -999.2500  -999.2500
  600.5000  -999.2500  -999.2500   -85.4000   -48.2280    81.1830     9.9890     2.2290     4.4800     2.5830  -999.2500  -999.2500  -999.2500  -999.2500
  601.0000  -999.2500  -999.2500   -85.4040   -48.2280    78.5590     9.9370     1.8430     3.8330     2.1310  -999.2500  -999.2500  -999.2500  -999.2500
  601.5000  -999.2500  -999.2500   -85.7570   -48.2280    76.6370     9.9070     1.4560     3.1860     1.6840  -999.2500  -999.2500  -999.2500  -999.2500
