~VERSION INFORMATION
 VERS.                2.0:   CWLS LOG ASCII STANDARD - VERSION 2.0
 WRAP.                 NO:   ONE LINE PER DEPTH STEP
~WELL INFORMATION
#MNEM.UNIT      DATA TYPE    INFORMATION
#----------   ------------   ------------------------------
 STRT.F          199.0000:   START DEPTH
 STOP.F         2951.0000:   STOP DEPTH
 STEP.F            0.5000:   STEP LENGTH
 NULL.          -999.2500:   NO VALUE
 COMP.    FENIX & SCISSON:   COMPANY
 WELL. FENIX & SCISSON "A" #3-21:   WELL
 FLD .              XPR-3:   FIELD
 LOC .      S21 T39N R78W:   LOCATION
 CNTY.            NATRONA:   COUNTY
 STAT.            WYOMING:   STATE
 CTRY. UNITED STATES OF AMERICA:   COUNTRY
 SRVC.              WELEX:   SERVICE COMPANY
 DATE.        27-JUN-1977:   LOGDATE
 API .     49025103880000:   API NUMBER
~CURVE INFORMATION
#MNEM.UNIT       API CODE    CURVE DESCRIPTION
#----------   ------------   ------------------------------
 DEPT.F                  :   
 CALD.IN     45 280 60 00:   CALIPER FROM DENSITY LOG
 GRD .GAPI   45 310 01 00:   GAMMA RAY FROM DENSITY LOG
 CORR.G/C3   45 356 01 00:   DENSITY CORRECTION
 RHOB.G/C3   45 350 01 00:   BULK DENSITY
 SPR .MV     07 010 01 00:   SPONTANEOUS POTENTIAL
 ILD .OHMM   07 120 46 00:   DEEP INDUCTION RESISTIVITY
 ILM .OHMM   07 120 44 00:   INDUCTION LOG MEDIUM RESISTIVITY
 SGRD.OHMM   07 220 05 00:   SHALLOW SHORT GUARD RESISTIVITY
~PARAMETER INFORMATION
#MNEM.UNIT          VALUE    DESCRIPTION
#----------   ------------   ------------------------------
 EKB .F         4981.0000:   Kelly bushing
 EGL .F         4971.0000:   Ground level
 TD  .F         2953.0000:   Total depth
 CLNT.            A2DTECH:   Client Code
 SL  . 330' FSL & 1650' FWL:   Surface Location
 DATE.        27-JUN-1977:   Date Logged [DD-MMM-YYYY]
 DD  .F              2930:   Depth driller
 DL  .F              2953:   Depth logger
 BLI .F              2951:   Bottom log interval
 TLI .F               200:   Top log interval
 CS1 .              8.625:   Casing size
 CBD1.      8.625" @ 217':   Casing driller 1
 BS1 .IN            7.875:   Bit size
 BSD1.F              2930:   Depth drilled with bit1
 DFT .            KCL MUD:   Type fluid in hole
 DFD .                9.4:   Density
 DFV .                 37:   Viscosity
 DFPH.                9.0:   pH
 DFL .               16.0:   Fluid loss
 MSS .           FLOWLINE:   Source of sample
 RMS .OHMM           1.10:   Rm
 MST .F                92:   Rm Meas. temp.
 RMF .OHMM           0.85:   Rmf
 MFST.F                92:   Rmf Meas. temp.
 MFSS.           FANN KIT:   Source Rmf.
 RMC .OHMM           1.44:   Rmc
 MCST.F                92:   Rmc Meas. temp.
 MCSS.           FANN KIT:   Source Rmc.
 RMB .OHMM           0.93:   Rm. at BHT
 BHT .F               109:   BHT.
 TCS .HRS            0230:   Time Circ. stopped
 MRT .F               109:   Maximum recorded temp.
 LUN .               8611:   Logging unit number
 LUL .             CASPER:   Logging unit location
 ENGI.         G. BENTSEN:   Recorded By
 WITN.  MR. W. PETTINGILL:   Witnessed by
 ORIG.      2.5" 5" PRINT:   Origin of data
 UWI .     49025103880000:   Unique Well ID
 DICO. A2D TECHNOLOGIES, INC.:   Digitizing Company
 PD  .                 GL:   Permanent Datum
 EPD .               4971:   Elevation Permanent Datum
 LMF .                 KB:   Log Measured From
 DMF .                 KB:   Drilling Measured From
 DAPD.                 10:   Feet Above Permanent Datum
~OTHER INFORMATION
~A   DEPT       CALD       GRD       CORR        RHOB      SPR        ILD        ILM       SGRD   
# ...
 1819.0000     8.4901   129.2936    -0.0090     2.4667   -37.8284     7.1475     8.1127    12.6868
 1819.5000     8.4896   129.9102    -0.0090     2.4594   -37.6716     7.2485     8.1711    12.7781
 1820.0000     8.4892   130.5258    -0.0090     2.4663   -37.8111     7.1514     8.2867    12.7816
 1820.5000     8.4741   130.5227    -0.0090     2.4767   -37.8000     7.0556     8.2784    12.6099
 1821.0000     8.4573   130.5196    -0.0091     2.4829   -37.7912     7.0575     8.1150    12.4405
 1821.5000     8.4568   128.6589    -0.0091     2.4855   -37.9303     7.0110     7.9577    12.4439
 1822.0000     8.4564   126.1790    -0.0091     2.4740   -37.9214     7.0130     7.9600    12.3609
 1822.5000     8.4559   123.6992    -0.0092     2.4664   -38.3586     7.0634     7.9626    12.5370
 1823.0000     8.4554   121.8385    -0.0092     2.4590   -38.3475     7.0654     7.9648    12.4533
 1823.5000     8.4550   119.9778    -0.0092     2.4576   -37.8949     7.0187     7.8040    12.2869
 1824.0000     8.4545   119.3555    -0.0093     2.4645   -37.7381     6.9725     7.8061    12.3753
 1824.5000     8.4540   120.5908    -0.0093     2.4735   -37.7293     6.9745     7.8622    12.5507
 1825.0000     8.4536   122.4453    -0.0093     2.4827   -37.7204     6.9285     7.9187    12.7286
 1825.5000     8.4531   123.6806    -0.0094     2.4902   -37.8617     6.8356     7.9757    12.9983
 1826.0000     8.4526   125.5351    -0.0094     2.4875   -37.8507     6.8288     7.9779    13.0126
 1826.5000     8.4522   127.3896    -0.0094     2.4813   -37.8418     6.7924     7.9800    12.8272
 1827.0000     8.4517   128.6249    -0.0095     2.4753   -37.8330     6.7948     7.9269    12.3957
 1827.5000     8.4822   131.0986    -0.0095     2.4713   -37.8241     6.7495     7.7669    12.2292
 1828.0000     8.4817   133.5722    -0.0096     2.4746   -37.8153     6.6595     7.6106    12.6619
 1828.5000     8.4975   136.0459    -0.0096     2.4795   -37.8064     6.6152     7.3549    12.3206
 1829.0000     8.5427   136.6625    -0.0096     2.4838   -37.7976     6.6175     7.1074    10.8790
 1829.5000     8.5896   134.1821    -0.0096     2.4866   -38.3804     6.6193     7.2583     9.7470
 1830.0000     8.6202   131.0831    -0.0097     2.4869   -38.3716     6.6211     7.4631    11.6267
 1830.5000     8.6342   128.6032    -0.0066     2.4881   -38.2148     6.7148     7.6210    12.5056
 1831.0000     8.6028   126.7425    -0.0066     2.4862   -38.2060     6.8097     7.7823    12.3375
 1831.5000     8.5855   125.5010    -0.0066     2.4846   -38.1971     6.9060     7.9470    12.4265
 1832.0000     8.5878   124.2595    -0.0067     2.4830   -38.1883     6.9556     8.0041    12.5159
 1832.5000     8.6184   123.0181    -0.0067     2.4818   -37.7357     6.9575     8.0063    12.7813
 1833.0000     8.6319   121.7766    -0.0036     2.4802   -37.5811     6.9594     8.0085    12.6967
 1833.5000     8.6487   120.5351    -0.0036     2.4783   -37.7202     6.9131     8.0107    12.7890
 1834.0000     8.5653   119.9128    -0.0037     2.4755   -37.7091     6.9155     7.9578    12.7925
 1834.5000     8.4892   119.2905    -0.0037     2.4751   -37.7003     6.9652     7.7972    12.1927
 1835.0000     8.4133   118.0490    -0.0037     2.4720   -37.6914     6.9671     7.9076    11.8633
 1835.5000     8.4128   117.4267    -0.0038     2.4685   -37.6826     6.9212     7.9644    12.1155
 1836.0000     8.4123   115.5660    -0.0038     2.4626   -37.6737     6.9231     7.9666    12.5442
 1836.5000     8.4119   117.4205    -0.0038     2.4579   -37.5170     6.9250     7.9688    12.5476
 1837.0000     8.4114   120.5134    -0.0039     2.4552   -37.6582     6.9269     8.0260    12.6371
 1837.5000     8.4110   122.3679    -0.0039     2.4591   -37.6472     6.9767     8.0282    11.8804
 1838.0000     8.4105   124.8416    -0.0039     2.4656   -37.6383     6.9307     7.9753    12.1322
 1838.5000     8.4100   126.6961    -0.0008     2.4729   -37.7774     6.9326     7.9198    12.5614
 1839.0000     8.4096   126.0738     0.0062     2.4791   -38.2124     6.9345     7.8165    12.4785
 1839.5000     8.4091   124.2131     0.0092     2.4856   -38.2035     6.9364     7.8187    12.1421
 1840.0000     8.4087   122.3524     0.0123     2.4949   -38.0467     6.8435     7.6082    11.8959
 1840.5000     8.4082   122.3493     0.0185     2.5022   -38.0379     6.8453     7.5580    12.2329
 1841.0000     8.4077   125.4422     0.0216     2.5068   -37.7332     6.8472     7.5082    12.4063
 1841.5000     8.4073   127.9159     0.0239     2.5110   -37.7243     6.8491     7.5627    12.0719
 1842.0000     8.4068   129.7704     0.0270     2.5125   -37.5676     6.8510     7.5647    11.5856
 1842.5000     8.4064   132.2441     0.0301     2.5116   -37.2629     6.8529     7.6191    11.9130
 1843.0000     8.4059   129.7642     0.0309     2.5080   -37.4024     6.8548     7.5689    12.4199
 1843.5000     8.4054   127.2843     0.0371     2.5054   -37.5414     6.7165     7.4674    12.5959
 1844.0000     8.4050   125.4236     0.0402     2.5007   -37.3843     6.6718     7.4176    11.9228
 1844.5000     8.4045   125.2146     0.0464     2.4971   -37.3754     6.6741     7.4202    10.9778
 1845.0000     8.4041   127.2750     0.0495     2.4853   -37.9583     6.8152     7.5772    11.8473
 1845.5000     8.4036   127.6852     0.0548     2.4729   -38.0977     6.8171     7.7375    10.9090
 1846.0000     8.4031   123.5537     0.0548     2.4600   -37.9406     6.6796     7.6337    10.9875
 1846.5000     8.4218   121.0738     0.0547     2.4385   -37.9317     6.6814     7.4796    10.6914
 1847.0000     8.5551   119.8323     0.0535     2.4045   -37.9229     6.6370     7.3793    10.1900
 1847.5000     8.8125   119.8292     0.0505     2.3713   -37.9141     6.5031     7.3813    10.5507
 1848.0000     9.1728   119.8261     0.0578     2.3434   -37.9052     6.5053     7.2823    10.4090
 1848.5000     9.5344   121.0614     0.0608     2.3185   -37.8964     6.5071     7.2338     9.9896
 1849.0000     9.8542   122.2967     0.0639     2.2798   -37.8875     6.5089     7.2363     9.7877
 1849.5000    10.1337   124.1512     0.0608     2.2566   -37.8787     6.5107     7.2383     9.9384
 1850.0000     9.7926   122.2905     0.0545     2.2411   -37.5740     6.5570     8.0282     9.9397
 1850.5000    10.0091   119.8106     0.0483     2.3231   -37.5051     6.4443     7.6503    10.2189
 1851.0000    10.1947   117.9499     0.0577     2.3794   -37.4361     6.3391     7.4938    10.7252
 1851.5000    10.3697   119.8044     0.0721     2.4358   -37.2598     6.3408     7.4424    10.8752
 1852.0000    10.0156   121.0397     0.0835     2.4574   -37.6991     6.2986     7.2401    10.8688
 1852.5000     9.8104   122.8942     0.0897     2.4417   -37.6916     6.3008     7.2401    10.5099
 1853.0000     9.9154   124.7487     0.0917     2.4232   -37.4226     6.3026     7.2901    10.2257
 1853.5000    10.0281   125.9840     0.0833     2.4093   -37.2125     6.3043     7.3405    10.1524
 1854.0000     8.6669   127.8385     0.0707     2.4000   -37.2308     6.3060     7.3974    10.2454
 1854.5000     8.3952   129.6930     0.0605     2.3969   -37.0766     6.3514     7.5978     9.9278
 1855.0000     8.3947   132.7859     0.0604     2.4016   -37.0707     6.3531     7.7600    11.6621
 1855.5000     8.3633   135.8788     0.0658     2.4062   -37.2141     6.4875     7.2361    11.9896
 1856.0000     8.3319   138.9716     0.0728     2.3982   -37.2067     6.5341     7.1904    11.5853
 1856.5000     8.3314   142.0645     0.0759     2.3873   -37.3502     6.5810     7.2401    11.3499
 1857.0000     8.3309   143.9190     0.0630     2.3796   -37.3427     6.6741     7.3913    11.1958
 1857.5000     8.3305   144.5356     0.0454     2.3736   -37.6341     6.7221     7.5456    11.1205
 1858.0000     8.3420   144.5320     0.0384     2.3847   -37.7761     6.7704     7.6503    11.5918
 1858.5000     8.3726   143.2905     0.0471     2.3986   -37.7686     6.7722     7.5978    12.2503
 1859.0000     8.4154   142.0490     0.0583     2.4141   -37.7627     6.8209     7.4424    12.5078
