~VERSION INFORMATION
 VERS.                2.0:   CWLS LOG ASCII STANDARD - VERSION 2.0
 WRAP.                 NO:   ONE LINE PER DEPTH STEP
~WELL INFORMATION
#MNEM.UNIT      DATA TYPE    INFORMATION
#----------   ------------   ------------------------------
 STRT.F          620.0000:   START DEPTH
 STOP.F         4350.5000:   STOP DEPTH
 STEP.F            0.5000:   STEP LENGTH
 NULL.          -999.2500:   NO VALUE
 COMP.    FENIX & SCISSON:   COMPANY
 WELL. FENIX NPR 3 "LX" #25-10:   WELL
 FLD .                NPR:   FIELD
 LOC .      S10 T38N R78W:   LOCATION
 CNTY.            NATRONA:   COUNTY
 STAT.            WYOMING:   STATE
 CTRY. UNITED STATES OF AMERICA:   COUNTRY
 SRVC.              WELEX:   SERVICE COMPANY
 DATE.        06-MAR-1980:   LOGDATE
 API .     49025108070000:   API NUMBER
~CURVE INFORMATION
#MNEM.UNIT       API CODE    CURVE DESCRIPTION
#----------   ------------   ------------------------------
 DEPT.F                  :   
 CALD.IN     45 280 60 00:   CALIPER FROM DENSITY LOG
 GRD .GAPI   45 310 01 00:   GAMMA RAY FROM DENSITY LOG
 RHOB.G/C3   45 350 01 00:   BULK DENSITY
 CORR.G/C3   45 356 01 00:   DENSITY CORRECTION
 NPHI.DEC    42 890 03 00:   NEUTRON POROSITY SANDSTONE
 SPR .MV     07 010 01 00:   SPONTANEOUS POTENTIAL
 ILD .OHMM   07 120 46 00:   DEEP INDUCTION RESISTIVITY
 ILM .OHMM   07 120 44 00:   INDUCTION LOG MEDIUM RESISTIVITY
 SGRD.OHMM   07 220 05 00:   SHALLOW SHORT GUARD RESISTIVITY
~PARAMETER INFORMATION
#MNEM.UNIT          VALUE    DESCRIPTION
#----------   ------------   ------------------------------
 EKB .F         5247.0000:   Kelly bushing
 EGL .F         5237.0000:   Ground level
 EDF .F            0.0000:   Drilling floor
 TD  .F         4352.0000:   Total depth
 DATE.        06-MAR-1980:   Date logged
 CLNT.            A2DTECH:   Client Code
 SL  . 1075' FWL & 2450' FSL:   Surface Location
 PD  .                 GL:   Permanent Datum
 EPD .F              5237:   Elevation Permanent Datum
 LMF .                 KB:   Log Measured From
 DMF .                 KB:   Drilling Measured From
 DAPD.F                10:   Feet Above Permanent Datum
 DD  .F              4350:   Depth driller
 DL  .F              4352:   Depth logger
 BLI .F              4350:   Bottom log interval
 TLI .F               630:   Top log interval
 CS1 .IN            8.625:   Casing size
 CBD1.      8.625" @ 600':   Casing driller 1
 CBL1.F               632:   Casing logger 1
 BS1 .IN            7.875:   Bit size
 BSD1.F              4350:   Depth drilled with bit1
 DFT .           CHEM/GEL:   Type fluid in hole
 DFD .                8.9:   Density
 DFV .                 47:   Viscosity
 DFPH.               10.3:   pH
 DFL .                 10:   Fluid loss
 MSS .           FLOWLINE:   Source of sample
 RMS .OHMM            .89:   Rm
 MST .F                90:   Rm Meas. temp.
 RMF .OHMM            .71:   Rmf
 MFST.F                90:   Rmf Meas. temp.
 RMC .OHMM           1.06:   Rmc
 MCST.F                90:   Rmc Meas. temp.
 MFSS.               MEAS:   Source Rmf.
 MCSS.               MEAS:   Source Rmc.
 RMB .OHMM            .60:   Rm. at BHT
 BHT .F               112:   BHT.
 TCS .HRS               1:   Time Circ. stopped
 MRT .F               132:   Maximum recorded temp.
 LUN .               1892:   Logging unit number
 LUL .             CASPER:   Logging unit location
 ENGI.               REIN:   Recorded By
 WITN.           DINSMORE:   Witnessed by
 ORIG.           5" PRINT:   Origin of data
 UWI .     49025108070000:   Unique Well ID
 DICO. A2D TECHNOLOGIES, INC.:   Digitizing Company
~OTHER INFORMATION
~A   DEPT     CALD        GRD       RHOB       CORR       NPHI         SPR       ILD        ILM         SGRD 
# ...
 1605.5000    13.3400    81.8310     2.1580    -0.0400     0.2110   -24.7740     6.1620     6.4680     7.4960
 1606.0000    13.3480    82.0330     2.1560    -0.0440     0.2090   -24.9330     6.1540     6.4130     7.3920
 1606.5000    13.3560    82.6860     2.1540    -0.0480     0.2080   -25.0850     6.1470     6.3580     7.2870
 1607.0000    13.3630    83.3150     2.1460    -0.0520     0.2080   -25.2590     6.1400     6.3030     7.1830
 1607.5000    13.3710    83.9730     2.1390    -0.0550     0.2080   -25.2020     6.0820     6.2480     7.1140
 1608.0000    13.3790    84.5880     2.1400    -0.0520     0.2100   -25.0190     6.0070     6.1940     7.1140
 1608.5000    13.3870    85.2470     2.1420    -0.0500     0.2120   -24.8560     5.9320     6.1390     7.1140
 1609.0000    13.3940    84.7720     2.1430    -0.0400     0.2140   -24.6950     5.8580     6.0840     7.1140
 1609.5000    13.4020    83.8330     2.1430    -0.0260     0.2140   -24.5290     5.7830     6.0290     7.1140
 1610.0000    13.4100    82.3060     2.1440    -0.0130     0.2130   -24.3650     5.7080     5.9750     7.0430
 1610.5000    13.4170    80.4910     2.1370     0.0000     0.2120   -24.2010     5.5970     5.9150     6.9070
 1611.0000    13.4250    80.0330     2.1280     0.0120     0.2110   -24.0380     5.6070     5.9150     6.7700
 1611.5000    13.4330    80.1020     2.1210     0.0230     0.2100   -23.8690     5.6270     5.9270     6.7310
 1612.0000    13.4400    80.9550     2.1180     0.0130     0.2100   -23.7150     5.6470     5.9370     6.8040
 1612.5000    13.4340    82.3180     2.1170     0.0030     0.2090   -23.5290     5.6670     5.9470     6.8840
 1613.0000    13.4280    82.3040     2.1290    -0.0010     0.2110   -23.5910     5.6880     5.9570     6.9640
 1613.5000    13.4220    82.1540     2.1380    -0.0030     0.2140   -23.6860     5.7080     5.9670     7.0450
 1614.0000    13.4150    81.9640     2.1370    -0.0030     0.2160   -23.7890     5.7280     5.9770     7.1250
 1614.5000    13.4100    81.8510     2.1370     0.0000     0.2180   -23.8850     5.7480     5.9880     7.2470
 1615.0000    13.4010    81.8360     2.1400     0.0040     0.2200   -23.9840     5.7680     5.9980     7.1800
 1615.5000    13.4250    81.8870     2.1430     0.0070     0.2210   -24.0830     5.7880     6.0080     7.0410
 1616.0000    13.4720    81.4000     2.1460     0.0130     0.2210   -24.1810     5.8060     6.0180     6.9020
 1616.5000    13.5140    80.3070     2.1470     0.0200     0.2200   -24.2790     5.7930     6.0250     6.8560
 1617.0000    13.5560    79.2950     2.1490     0.0270     0.2190   -24.3790     5.7800     6.0060     6.8560
 1617.5000    13.6000    78.1410     2.1500     0.0340     0.2170   -24.4770     5.7670     5.9850     6.8560
 1618.0000    13.6420    78.0180     2.1510     0.0360     0.2160   -24.5690     5.7540     5.9630     6.8180
 1618.5000    13.6850    79.0850     2.1520     0.0360     0.2170   -24.6870     5.7410     5.9410     6.7350
 1619.0000    13.7330    79.3710     2.1440     0.0300     0.2180   -24.5730     5.7280     5.9190     6.6510
 1619.5000    13.7470    78.9750     2.1350     0.0150     0.2170   -24.3400     5.7140     5.8980     6.5670
 1620.0000    13.6980    78.8720     2.1240     0.0070     0.2160   -24.1330     5.7010     5.8760     6.4870
 1620.5000    13.6560    78.8950     2.1130     0.0000     0.2180   -23.9200     5.6880     5.8540     6.5220
 1621.0000    13.6110    79.3160     2.0990     0.0010     0.2200   -23.7120     5.6750     5.8320     6.5550
 1621.5000    13.5980    79.8930     2.0810     0.0010     0.2250   -23.5310     5.6620     5.8100     6.6080
 1622.0000    13.5990    79.5240     2.0620     0.0020     0.2270   -23.6680     5.6490     5.7890     6.5850
 1622.5000    13.6040    78.3110     2.0440     0.0020     0.2280   -23.8040     5.6360     5.7670     6.5320
 1623.0000    13.6110    77.1320     2.0260     0.0030     0.2300   -23.9540     5.6230     5.7450     6.4790
 1623.5000    13.6180    76.2350     2.0170     0.0030     0.2310   -24.0950     5.6090     5.7230     6.4260
 1624.0000    13.6240    75.7230     2.0100     0.0040     0.2320   -24.2400     5.5960     5.7010     6.3720
 1624.5000    13.6310    75.1480     2.0010     0.0050     0.2310   -24.3840     5.5540     5.6800     6.3190
 1625.0000    13.6390    74.7080     1.9960     0.0230     0.2310   -24.5280     5.5130     5.6580     6.2660
 1625.5000    13.6650    74.7120     1.9830     0.0230     0.2320   -24.6720     5.4710     5.6360     6.2130
 1626.0000    13.6980    74.6870     1.9710     0.0190     0.2290   -24.8160     5.4290     5.6140     6.1590
 1626.5000    13.7330    74.8220     1.9780     0.0140     0.2260   -24.9600     5.3880     5.5970     6.1380
 1627.0000    13.7650    75.1300     1.9940     0.0090     0.2220   -25.1050     5.3460     5.5650     6.1380
 1627.5000    13.7930    75.4300     2.0170     0.0100     0.2190   -25.2470     5.3040     5.5240     6.1380
 1628.0000    13.7450    75.7270     2.0270     0.0160     0.2170   -25.3940     5.2760     5.4830     6.1380
 1628.5000    13.6970    76.0250     2.0540     0.0200     0.2150   -25.5370     5.2500     5.4430     6.1380
 1629.0000    13.6450    76.3520     2.0320     0.0250     0.2130   -25.6760     5.2250     5.4020     6.1380
 1629.5000    13.5960    76.3460     2.0170     0.0300     0.2110   -25.8430     5.2000     5.3620     6.1380
 1630.0000    13.5470    75.9100     2.0050     0.0350     0.2090   -25.7580     5.1750     5.3210     6.1380
 1630.5000    13.4940    75.7510     1.9870     0.0390     0.2090   -25.4390     5.1500     5.2810     6.1380
 1631.0000    13.4900    75.5780     1.9660     0.0430     0.2130   -25.1470     5.1250     5.2400     6.1380
 1631.5000    13.5100    75.4140     1.9290     0.0380     0.2180   -24.8550     5.1030     5.1990     6.1380
 1632.0000    13.5280    75.2460     1.8920     0.0310     0.2230   -24.5540     5.0430     5.1590     5.9660
 1632.5000    13.5450    75.0820     1.8530     0.0230     0.2280   -24.2630     4.9900     5.1180     5.8160
 1633.0000    13.5630    74.9070     1.8150     0.0220     0.2300   -23.9710     4.9370     5.0780     5.5970
 1633.5000    13.5810    74.7440     1.7770     0.0270     0.2310   -23.6500     4.8850     5.0370     5.7210
 1634.0000    13.6000    74.2690     1.7410     0.0320     0.2320   -23.5740     4.8280     5.0100     5.9540
 1634.5000    13.6310    73.6490     1.7000     0.0360     0.2330   -23.7760     4.8840     5.0450     6.2520
 1635.0000    13.6640    73.0740     1.7260     0.0410     0.2330   -23.9470     4.9440     5.1110     6.2250
 1635.5000    13.6970    72.4770     1.7610     0.0460     0.2340   -24.1230     5.0040     5.1770     6.1410
 1636.0000    13.7300    72.9870     1.8760     0.0510     0.2340   -24.3030     5.0650     5.2440     6.0570
 1636.5000    13.7650    73.9250     1.8720     0.0550     0.2330   -24.4780     5.1250     5.3100     5.9730
 1637.0000    13.7960    74.7980     1.8450     0.0590     0.2310   -24.6570     5.1850     5.3760     5.9150
 1637.5000    13.8330    75.8170     1.8190     0.0510     0.2290   -24.8330     5.2450     5.4430     5.9150
 1638.0000    13.7940    76.4330     1.7940     0.0340     0.2230   -25.0090     5.3050     5.5090     6.0400
 1638.5000    13.7410    77.1520     1.7680     0.0140     0.2180   -25.1990     5.3650     5.5750     6.2180
 1639.0000    13.6860    77.8280     1.7480    -0.0060     0.2140   -25.3070     5.4250     5.6410     6.3960
 1639.5000    13.6330    78.5230     1.7960    -0.0260     0.2090   -25.2950     5.4860     5.7080     6.4870
 1640.0000    13.5790    79.2170     1.9300    -0.0310     0.2040   -25.2990     5.5460     5.7740     6.4870
 1640.5000    13.5250    79.6030     2.0380    -0.0250     0.1980   -25.2980     5.6060     5.8400     6.4870
 1641.0000    13.4710    79.8210     2.0870    -0.0150     0.1980   -25.2970     5.6660     5.9150     6.4870
 1641.5000    13.4170    80.0570     2.0810    -0.0050     0.1980   -25.3020     5.7260     6.0250     6.4870
