~VERSION INFORMATION
 VERS.                2.0:   CWLS LOG ASCII STANDARD - VERSION 2.0
 WRAP.                 NO:   ONE LINE PER DEPTH STEP
~WELL INFORMATION
#MNEM.UNIT      DATA TYPE    INFORMATION
#----------   ------------   ------------------------------
 STRT.F           54.0000:   START DEPTH
 STOP.F         5201.0000:   STOP DEPTH
 STEP.F            0.5000:   STEP LENGTH
 NULL.          -999.2500:   NO VALUE
 COMP.   TESORO PETROLEUM:   COMPANY
 WELL. TESORO DX NPR-3 #51-26:   WELL
 FLD .        TEAPOT DOME:   FIELD
 LOC .      S26 T38N R78W:   LOCATION
 CNTY.            NATRONA:   COUNTY
 STAT.            WYOMING:   STATE
 CTRY. UNITED STATES OF AMERICA:   COUNTRY
 SRVC.      DRESSER ATLAS:   SERVICE COMPANY
 DATE.        27-AUG-1976:   LOGDATE
 API .     49025102680000:   API NUMBER
~CURVE INFORMATION
#MNEM.UNIT       API CODE    CURVE DESCRIPTION
#----------   ------------   ------------------------------
 DEPT.F                  :   
 GRD .GAPI   45 310 01 00:   GAMMA RAY FROM DENSITY LOG
 CALD.IN     45 280 60 00:   CALIPER FROM DENSITY LOG
 CORR.G/C3   45 356 01 00:   DENSITY CORRECTION
 RHOB.G/C3   45 350 01 00:   BULK DENSITY
 SPR .MV     07 010 01 00:   SPONTANEOUS POTENTIAL
 ILD .OHMM   07 120 46 00:   DEEP INDUCTION RESISTIVITY
 ILM .OHMM   07 120 44 00:   INDUCTION LOG MEDIUM RESISTIVITY
 RFOC.OHMM   07 220 04 00:   RESISTIVITY FOCUSED LOG RES.
 TEND.LBS    45 635 01 00:   TENSION FORM DENSITY LOG
 NPHI.DEC    42 890 03 00:   NEUTRON POROSITY SANDSTONE
~PARAMETER INFORMATION
#MNEM.UNIT          VALUE    DESCRIPTION
#----------   ------------   ------------------------------
 EKB .F         5453.5000:   Kelly bushing
 EGL .F         5442.0000:   Ground level
 EDF .F         5452.0000:   Drilling floor
 EPD .F            0.0000:   Permanent datum
 TD  .F         5193.0000:   Total depth
 CLNT.            A2DTECH:   Client Code
 SL  . 2000' FEL & 600' FNL:   Surface Location
 PD  .                 GL:   Permanent Datum
 DAPD.F              11.5:   Feet Above Permanent Datum
 DATE.        27-AUG-1976:   Date Logged [DD-MMM-YYYY]
 DD  .F              5193:   Depth driller
 DL  .F              5193:   Depth logger
 BLI .F              5191:   Bottom log interval
 TLI .F              1726:   Top log interval
 CS1 .IN            8.625:   Casing size
 CBD1.     8.625" @ 1724':   Casing driller 1
 CBL1.F              1726:   Casing logger 1
 BS1 .IN            7.875:   Bit size
 BSD1.F              5193:   Depth drilled with bit1
 DFT .           CHEM GEL:   Type fluid in hole
 DFD .                9.2:   Density
 DFV .                 65:   Viscosity
 DFPH.                 10:   pH
 DFL .                5.8:   Fluid loss
 MSS .           FLOWLINE:   Source of sample
 RMS .OHMM           1.70:   Rm
 MST .F                71:   Rm Meas. temp.
 RMF .OHMM              1:   Rmf
 MFST.F                68:   Rmf Meas. temp.
 MFSS.               MEAS:   Source Rmf.
 RMC .OHMM           1.30:   Rmc
 MCST.F                66:   Rmc Meas. temp.
 MCSS.               MEAS:   Source Rmc.
 RMB .OHMM           0.85:   Rm. at BHT
 BHT .F               142:   BHT.
 TCS .HRS               6:   Time Circ. stopped
 MRT .F               142:   Maximum recorded temp.
 LUN .               6145:   Logging unit number
 LUL .              GLTTE:   Logging unit location
 ENGI.        GOULD-HOYER:   Recorded By
 WITN.        WOLF-CARTER:   Witnessed by
 ORIG.           5" PRINT:   Origin of data
 UWI .     49025102680000:   Unique Well ID
 DICO. A2D TECHNOLOGIES, INC.:   Digitizing Company
~OTHER INFORMATION
~A   DEPT      GRD       CALD       CORR       RHOB        SPR         ILD        ILM      RFOC       TEND       NPHI   
# ...
 4275.0000   103.2636     8.3319     0.1162     2.4242   -39.7688     3.3471     3.5848     4.5226    41.0720     0.2088
 4275.5000   102.8404     8.4984     0.1163     2.4235   -39.6449     3.3337     3.4932     4.3122    40.1258     0.2215
 4276.0000   104.7947     8.4407     0.1165     2.4311   -39.5191     3.3363     3.5937     4.0554    39.1797     0.2196
 4276.5000   105.7851     8.3979     0.1122     2.4485   -39.3889     3.3383     3.6711     4.2296    45.9665     0.2130
 4277.0000   108.2024     8.3680     0.0988     2.4576   -39.3970     3.3168     3.7298     4.5661    52.5167     0.2112
 4277.5000   104.7284     8.2979     0.0915     2.4667   -39.1867     3.3193     3.7783     4.7623    43.8375     0.2114
 4278.0000   102.3026     8.2999     0.0871     2.4585   -39.1724     3.3443     3.8331     5.0365    35.3827     0.2081
 4278.5000   103.5405     8.3044     0.0873     2.4549   -39.3114     3.3464     3.8629     5.1804    33.1135     0.2093
 4279.0000   103.8056     8.3489     0.0889     2.4512   -39.2212     3.3787     3.8911     5.0784    25.7698     0.2152
 4279.5000   101.9391     8.4705     0.0921     2.4528   -39.3768     3.4207     3.8142     4.6459    47.3124     0.2242
 4280.0000   102.4519     8.5019     0.0982     2.4543   -39.4484     3.3860     3.7897     4.4298   113.8325     0.2314
 4280.5000   105.1139     8.4741     0.1020     2.4530   -39.5620     3.3319     3.6893     4.4016   105.3901     0.2299
 4281.0000   109.9251     8.4318     0.1061     2.4520   -39.6763     3.2876     3.5905     4.4974    59.4664     0.2278
 4281.5000   111.3931     8.4040     0.1155     2.4163   -39.7902     3.2225     3.4954     4.6584    48.6112     0.2334
 4282.0000   112.2542     8.4060     0.1528     2.4052   -39.9148     3.1364     3.4259     4.4417    87.5591     0.2295
 4282.5000   110.5081     8.4081     0.1694     2.3992   -40.1504     3.0526     3.3343     4.3237    39.6091     0.2316
 4283.0000   109.5871     8.4401     0.1696     2.3916   -39.9958     2.9506     3.2622     4.2969    70.4385     0.2394
 4283.5000   109.6637     8.4592     0.1712     2.3607   -39.9480     2.8719     3.1599     4.3595   129.6982     0.2438
 4284.0000   112.1643     8.6689     0.1714     2.2929   -39.6325     2.8342     3.0546     4.0723    31.0650     0.2471
 4284.5000   113.9920     8.7152     0.1730     2.2705   -39.4275     2.7394     2.9728     3.8829    60.1038     0.2468
 4285.0000   113.7883     8.6725     0.1687     2.2961   -39.3704     2.6663     2.8940     3.8855    96.8748     0.2417
 4285.5000   114.5486     8.6750     0.1658     2.3059   -39.1584     2.6122     2.8754     3.9150    50.7153     0.2425
 4286.0000   113.3897     8.7369     0.1660     2.2775   -39.0465     2.5230     2.8578     3.9177    57.2654     0.2494
 4286.5000   112.2308     8.7982     0.1676     2.2603   -38.7546     2.4586     2.8595     3.8400    78.8080     0.2530
 4287.0000   111.7795     8.7260     0.1694     2.2582   -38.7984     2.4259     2.8416     3.7899    55.1363     0.2527
 4287.5000   113.2563     8.6977     0.1724     2.2725   -38.7955     2.4107     2.8238     3.8497    69.1827     0.2568
 4288.0000   114.7242     8.6852     0.1771     2.2914   -38.9951     2.3955     2.8060     3.9289   128.2065     0.2640
 4288.5000   113.5654     8.7023     0.1847     2.3140   -38.8189     2.3973     2.7884     3.8245   134.9934     0.2769
 4289.0000   111.4512     8.7791     0.1954     2.3316   -39.1100     2.3822     2.7523     3.7223    73.8405     0.2799
 4289.5000   109.8147     8.7961     0.1925     2.3389   -39.4212     2.3347     2.7539     3.7254    42.9093     0.2627
 4290.0000   111.5700     8.7025     0.1777     2.3158   -39.7370     2.3250     2.7366     3.8322    41.9632     0.2519
 4290.5000   112.7522     8.5466     0.1748     2.3054   -39.9791     2.3214     2.6822     3.8880    48.5133     0.2451
 4291.0000   112.7946     8.5182     0.1755     2.3032   -39.7786     2.3068     2.6268     3.7847    40.0300     0.2407
 4291.5000   114.9790     8.4760     0.1766     2.2808   -39.5711     2.3085     2.6123     3.6842    46.3842     0.2410
 4292.0000   113.5813     8.4930     0.1648     2.2411   -39.3690     2.3098     2.6143     3.8431    75.4231     0.2385
 4292.5000   114.0940     8.5249     0.1574     2.2224   -39.3650     2.3113     2.6159     3.9255    97.2024     0.2346
 4293.0000   117.4724     8.6017     0.1637     2.2232   -39.3883     2.3127     2.6356     3.6922   103.7525     0.2288
 4293.5000   117.7376     8.7084     0.1697     2.2714   -39.4577     2.2916     2.6738     3.4963    50.0959     0.2132
 4294.0000   115.3934     8.5012     0.1609     2.2902   -39.3606     2.3095     2.7314     3.5473    56.6469     0.2095
 4294.5000   110.8913     8.3687     0.1505     2.2857   -39.3032     2.3594     2.8095     3.8032   115.6708     0.2144
 4295.0000   107.5831     8.3708     0.1192     2.2836   -39.2194     2.4798     2.9362     4.0217    75.1639     0.2221
 4295.5000   108.0959     8.3579     0.1044     2.2830   -38.7676     2.7035     3.2073     3.7561    38.5792     0.1974
 4296.0000   108.3797     8.2530     0.1015     2.4430   -38.8608     2.9299     3.5104     3.6563    60.3586     0.1850
 4296.5000   109.4183     8.1190     0.1032     2.5159   -38.9639     3.1201     3.8421     4.4699    59.1756     0.1802
 4297.0000   112.9862     8.0506     0.1033     2.4792   -39.0087     3.2544     4.0626     5.8944    58.2295     0.1844
 4297.5000   118.7526     8.0372     0.1005     2.4057   -38.8357     3.4181     4.0093     6.8180    57.2833     0.1898
 4298.0000   128.3400     8.0398     0.0871     2.3615   -39.0454     3.5407     3.8757     6.0258    56.3372     0.1979
 4298.5000   133.1513     8.0418     0.0738     2.3571   -39.4053     3.6677     3.8503     4.8353    55.3910     0.1997
 4299.0000   134.1328     8.0284     0.0801     2.3827   -39.7767     3.8032     4.1679     3.9340    54.4230     0.1874
 4299.5000   124.6245     8.0310     0.0771     2.4646   -40.1277     3.9911     4.5826     3.8975    53.2620     0.1731
 4300.0000   107.4656     8.0331     0.0637     2.5616   -40.4643     4.1342     4.9811     5.8371    52.3158     0.1677
 4300.5000    96.5157     8.0351     0.0534     2.5632   -40.5851     4.3122     5.4143     6.3452    51.3697     0.1640
 4301.0000    92.2523     8.0222     0.0430     2.5690   -40.7887     4.5606     5.6466     6.0501    50.4235     0.1604
 4301.5000    92.0478     7.9794     0.0357     2.5851   -40.7712     4.8903     5.8888     6.4877    49.4774     0.1578
 4302.0000    93.2778     7.9665     0.0298     2.5657   -40.6222     5.1719     6.0991     6.8133    49.9136     0.1639
 4302.5000    97.1477     7.9539     0.0285     2.5455   -40.5813     5.3575     6.0191     6.8650    51.9771     0.1747
 4303.0000    95.6726     7.9558     0.0271     2.5366   -40.3859     5.4735     5.8128     6.6826    54.4114     0.1780
 4303.5000    94.3384     7.9730     0.0273     2.5457   -39.9495     5.5160     5.5103     6.1984    98.5225     0.1744
 4304.0000    99.4159     7.9749     0.0350     2.5435   -39.8405     5.4808     5.4372     5.5162    82.6637     0.1690
 4304.5000    98.6077     7.9771     0.0396     2.5398   -39.7738     5.4853     5.3659     5.4442    51.8123     0.1617
 4305.0000    97.0726     7.9791     0.0396     2.5475   -39.7957     5.4890     5.7535     5.6499    50.9460     0.1574
 4305.5000    98.0716     7.9812     0.0397     2.5466   -39.8733     5.6078     6.0837     6.0053    50.0752     0.1614
 4306.0000    99.7783     7.9639     0.0399     2.5587   -39.9982     5.8090     6.4773     6.4386    48.9964     0.1649
 4306.5000    98.8581     7.9409     0.0370     2.5704   -40.0047     5.9759     6.8964     6.9990    48.1301     0.1525
 4307.0000    97.4603     7.9280     0.0326     2.5596   -39.9639     6.0633     7.0936     7.9298    47.2637     0.1587
 4307.5000    97.0089     7.9301     0.0283     2.5588   -39.8276     6.0683     6.8111    10.1723    38.9011     0.1699
 4308.0000   100.1572     7.9318     0.0269     2.5350   -39.7504     5.9889     6.5841    10.7549    38.0348     0.1834
