~VERSION INFORMATION
 VERS.                2.0:   CWLS LOG ASCII STANDARD - VERSION 2.0
 WRAP.                 NO:   ONE LINE PER DEPTH STEP
~WELL INFORMATION
#MNEM.UNIT      DATA TYPE    INFORMATION
#----------   ------------   ------------------------------
 STRT.F          200.0000:   START DEPTH
 STOP.F         3058.0000:   STOP DEPTH
 STEP.F            0.5000:   STEP LENGTH
 NULL.          -999.2500:   NO VALUE
 COMP.    FENIX & SCISSON:   COMPANY
 WELL. FENIX & SCISSON "A" #45-34:   WELL
 FLD .              N P R:   FIELD
 LOC .      S34 T39N R78W:   LOCATION
 CNTY.            NATRONA:   COUNTY
 STAT.            WYOMING:   STATE
 CTRY. UNITED STATES OF AMERICA:   COUNTRY
 SRVC.              WELEX:   SERVICE COMPANY
 DATE.        11-MAY-1977:   LOGDATE
 API .     49025103760000:   API NUMBER
~CURVE INFORMATION
#MNEM.UNIT       API CODE    CURVE DESCRIPTION
#----------   ------------   ------------------------------
 DEPT.F                  :   
 GRD .GAPI   45 310 01 00:   GAMMA RAY FROM DENSITY LOG
 CALD.IN     45 280 60 00:   CALIPER FROM DENSITY LOG
 RHOB.G/C3   45 350 01 00:   BULK DENSITY
 CORR.G/C3   45 356 01 00:   DENSITY CORRECTION
 SPR .MV     07 010 01 00:   SPONTANEOUS POTENTIAL
 ILD .OHMM   07 120 46 00:   DEEP INDUCTION RESISTIVITY
 ILM .OHMM   07 120 44 00:   INDUCTION LOG MEDIUM RESISTIVITY
 GURD.OHMM   07 220 05 00:   GUARD LOG RESISTIVITY
~PARAMETER INFORMATION
#MNEM.UNIT          VALUE    DESCRIPTION
#----------   ------------   ------------------------------
 EKB .F         5123.0000:   Kelly bushing
 EGL .F         5113.0000:   Ground level
 EDF .F            0.0000:   Drilling floor
 EPD .F            0.0000:   Permanent datum
 TD  .F         3060.0000:   Total depth
 DATE.        11-MAY-1977:   Date logged
 CLNT.            A2DTECH:   Client Code
 SL  . 2310' FSL & 2310' FWL:   Surface Location
 PD  .                 GL:   Permanent Datum
 DD  .F              3060:   Depth driller
 DL  .F              3060:   Depth logger
 BLI .F              3058:   Bottom log interval
 CS1 .IN            8.625:   Casing size
 CBD1.      8.625" @ 205':   Casing driller 1
 CBL1.F               214:   Casing logger 1
 BS1 .IN            7.875:   Bit size
 DFT .            KCL/MUD:   Type fluid in hole
 DFD .                8.8:   Density
 DFV .                 45:   Viscosity
 MSS .           FLOWLINE:   Source of sample
 RMS .OHMM            3.2:   Rm
 MST .F                85:   Rm Meas. temp.
 RMF .OHMM            2.7:   Rmf
 MFST.F                85:   Rmf Meas. temp.
 RMC .OHMM            3.6:   Rmc
 MCST.F                85:   Rmc Meas. temp.
 MFSS.               CALC:   Source Rmf.
 RMB .OHMM           2.44:   Rm. at BHT
 BHT .F               112:   BHT.
 TCS .HRS             2.5:   Time Circ. stopped
 MRT .F               112:   Maximum recorded temp.
 LUN .               8611:   Logging unit number
 LUL .           GILLETTE:   Logging unit location
 ENGI.            C. DOAK:   Recorded By
 WITN.      B. HARRINGTON:   Witnessed by
 ORIG.           5" PRINT:   Origin of data
 UWI .     49025103760000:   Unique Well ID
 DICO. A2D TECHNOLOGIES, INC.:   Digitizing Company
 DAPD.F                10:   Feet Above Permanent Datum
 BSD1.F              3060:   Depth drilled with bit1
 MCSS.               CALC:   Source Rmc.
 TLI .F               200:   Top log interval
~OTHER INFORMATION
~A   DEPT       GRD      CALD         RHOB      CORR       SPR        ILD        ILM       GURD   
# ...
  402.5000   137.2330    11.0610     2.1510     0.1420  -999.2500     3.1950     3.0110     2.2030
  403.0000   138.4790    11.1630     2.1560     0.1120  -999.2500     2.9560     3.0620     2.2940
  403.5000   139.7560    10.9890     2.1680     0.0780  -999.2500     3.3040     3.1470     2.3860
  404.0000   140.8040    10.7700     2.2250     0.0470  -999.2500     3.5940     3.4580     2.4600
  404.5000   141.4380    10.5490     2.3390     0.0130  -999.2500     3.8840     3.9180     2.6930
  405.0000   141.9930    10.3650     2.3480     0.0130  -999.2500     4.1750     4.3790     2.8490
  405.5000   142.5530    10.2640     2.3690     0.0150  -999.2500     4.6150     4.8390     3.3330
  406.0000   143.1100    10.1740     2.3810     0.0180  -999.2500     5.2790     5.2990     3.7360
  406.5000   143.6680    10.0860     2.3920     0.0200  -999.2500     5.9440     5.7600     4.1390
  407.0000   144.2280     9.9960     2.3990     0.0230  -999.2500     6.2360     6.0300     4.5430
  407.5000   144.7800     9.9620     2.4020     0.0250  -999.2500     6.5270     6.1730     4.9460
  408.0000   145.3400     9.9510     2.4060     0.0270  -999.2500     6.7600     6.3160     5.3820
  408.5000   145.5990     9.9390     2.4080     0.0300  -999.2500     6.8000     6.4590     5.8180
  409.0000   145.7330     9.9260     2.4050     0.0320  -999.2500     6.8340     6.5620     6.1670
  409.5000   145.8660     9.9140     2.4050     0.0350  -999.2500     6.8670     6.6380     6.0210
  410.0000   146.0180     9.9000     2.4090     0.0420  -999.2500     6.9000     6.7600     5.9000
  410.5000   146.1470     9.8980     2.4140     0.0470  -999.2500     6.9340     6.7360     5.7780
  411.0000   146.2400     9.9170     2.4170     0.0530  -999.2500     6.9670     6.6750     5.6240
  411.5000   145.8470     9.9340     2.4130     0.0580  -999.2500     7.0140     6.6140     5.4470
  412.0000   145.4880     9.9520     2.4070     0.0640  -999.2500     6.8850     6.5530     5.2710
  412.5000   145.1020     9.9690     2.3930     0.0700  -999.2500     6.6710     6.4390     5.0940
  413.0000   144.7310     9.9870     2.3730     0.0750  -999.2500     6.4570     6.2440     4.9180
  413.5000   144.3550    10.0040     2.3540     0.0810  -999.2500     6.2430     6.0490     4.7410
  414.0000   143.9780    10.0220     2.3350     0.0860  -999.2500     6.0300     5.8550     4.5650
  414.5000   143.6040    10.0390     2.3150     0.0850  -999.2500     5.8160     5.6600     4.3890
  415.0000   143.2270    10.0570     2.3050     0.0660  -999.2500     5.6020     5.4660     4.2120
  415.5000   142.8520    10.0750     2.3150     0.0500  -999.2500     5.3880     5.2710     4.0360
  416.0000   142.4880    10.0900     2.3530     0.0320  -999.2500     5.1310     5.0380     3.8940
  416.5000   142.2030    10.0910     2.3810     0.0310  -999.2500     5.2900     5.1820     3.8240
  417.0000   141.9560    10.0910     2.3850     0.0290  -999.2500     5.4890     5.3610     4.0070
  417.5000   141.7210    10.0910     2.3880     0.0280  -999.2500     5.6870     5.5410     4.1910
  418.0000   141.4850    10.0830     2.4070     0.0270  -999.2500     5.8860     5.7210     4.3750
  418.5000   141.2470    10.0630     2.4240     0.0340  -999.2500     6.0840     5.9010     4.5590
  419.0000   141.0110    10.0450     2.4420     0.0430  -999.2500     6.2830     6.0810     4.7430
  419.5000   140.7740    10.0260     2.4610     0.0470  -999.2500     6.4810     6.2600     4.9270
  420.0000   140.5370    10.0070     2.4630     0.0430  -999.2500     6.6800     6.4400     5.1110
  420.5000   140.3010     9.9890     2.4550     0.0400  -999.2500     6.8780     6.6200     5.2940
  421.0000   140.0620     9.9700     2.4490     0.0360  -999.2500     7.0770     6.8000     5.4780
  421.5000   139.8300     9.9510     2.4430     0.0320  -999.2500     7.2760     6.9800     5.6620
  422.0000   139.5910     9.9320     2.4380     0.0290  -999.2500     7.4740     7.1600     5.8460
  422.5000   139.3410     9.9030     2.4430     0.0260  -999.2500     7.6730     7.4110     6.0300
  423.0000   139.2140     9.8730     2.4500     0.0310  -999.2500     7.8310     7.3800     6.2140
  423.5000   139.1830     9.8440     2.4580     0.0360  -999.2500     7.7520     7.3290     6.3980
  424.0000   139.6480     9.8160     2.4660     0.0400  -999.2500     7.6860     7.2770     6.3170
  424.5000   140.8040     9.8170     2.4730     0.0440  -999.2500     7.6200     7.2260     6.2360
  425.0000   141.8780     9.8210     2.4760     0.0470  -999.2500     7.5540     7.1750     6.1550
  425.5000   142.9120     9.8260     2.4760     0.0470  -999.2500     7.4880     7.1280     6.0740
  426.0000   143.9180     9.8300     2.4750     0.0490  -999.2500     7.4230     7.0870     5.9930
  426.5000   144.8930     9.8350     2.4640     0.0490  -999.2500     7.3570     7.0470     5.8600
  427.0000   145.8590     9.8390     2.4590     0.0500  -999.2500     7.2910     7.0070     5.6510
  427.5000   146.8350     9.8440     2.4460     0.0520  -999.2500     7.2250     6.9660     5.4420
  428.0000   147.3680     9.8480     2.4300     0.0510  -999.2500     7.1590     6.9260     5.2320
  428.5000   147.7570     9.8530     2.4140     0.0430  -999.2500     7.0930     6.8860     5.0230
  429.0000   148.1330     9.8570     2.3980     0.0350  -999.2500     7.0140     6.7260     4.8140
  429.5000   148.5310     9.8620     2.3820     0.0280  -999.2500     6.8250     6.5660     4.6040
  430.0000   148.3290     9.8660     2.3690     0.0200  -999.2500     6.5900     6.4060     4.2690
  430.5000   147.9450     9.8710     2.3740     0.0140  -999.2500     6.3550     6.2460     4.3290
  431.0000   146.9870     9.8750     2.3800     0.0110  -999.2500     6.1670     6.0540     4.4770
  431.5000   145.9120     9.8800     2.3900     0.0130  -999.2500     6.2780     6.2120     4.6250
  432.0000   144.8150     9.8840     2.3980     0.0150  -999.2500     6.5550     6.4080     4.7730
  432.5000   145.4930     9.8890     2.4070     0.0170  -999.2500     6.8330     6.6050     4.9220
  433.0000   146.2580     9.8930     2.4160     0.0190  -999.2500     7.1100     6.8020     5.0700
  433.5000   147.1260     9.8970     2.4260     0.0210  -999.2500     7.3880     6.9980     5.2180
  434.0000   147.9080     9.9020     2.4240     0.0230  -999.2500     7.6650     7.1950     5.3660
  434.5000   148.5570     9.9060     2.4200     0.0210  -999.2500     7.8580     7.3910     5.5150
  435.0000   147.9980     9.9110     2.4200     0.0190  -999.2500     7.9260     7.5490     5.6630
  435.5000   147.4890     9.9150     2.4260     0.0230  -999.2500     7.9930     7.6340     5.8110
  436.0000   146.9230     9.9200     2.4310     0.0280  -999.2500     8.0600     7.7060     5.9590
  436.5000   146.3980     9.9240     2.4370     0.0310  -999.2500     8.1280     7.7770     6.1070
  437.0000   145.8350     9.9290     2.4310     0.0300  -999.2500     8.1950     7.8480     6.1800
  437.5000   145.3210     9.9330     2.4230     0.0290  -999.2500     8.2620     7.9200     6.2020
  438.0000   144.7690     9.9410     2.4120     0.0270  -999.2500     8.3300     7.9770     6.2240
  438.5000   145.1870     9.9480     2.4170     0.0270  -999.2500     8.3970     7.9970     6.2460
  439.0000   145.7060     9.9570     2.4320     0.0320  -999.2500     8.4640     8.0210     6.2810
  439.5000   146.2610     9.9630     2.4440     0.0370  -999.2500     8.5320     8.0460     6.2770
  440.0000   146.7620     9.9710     2.4570     0.0410  -999.2500     8.5850     8.0710     6.2660
  440.5000   147.5440     9.9570     2.4560     0.0460  -999.2500     8.5690     8.0950     6.2550
  441.0000   148.6230     9.9400     2.4500     0.0460  -999.2500     8.5280     8.1240     6.2440
  441.5000   149.6590     9.9230     2.4450     0.0450  -999.2500     8.4870     8.1090     6.2330
  442.0000   150.7120     9.9060     2.4320     0.0430  -999.2500     8.4460     8.0900     6.2220
  442.5000   151.7980     9.8890     2.4150     0.0420  -999.2500     8.4050     8.0710     6.2110
