~VERSION INFORMATION
 VERS.                2.0:   CWLS LOG ASCII STANDARD - VERSION 2.0
 WRAP.                 NO:   ONE LINE PER DEPTH STEP
~WELL INFORMATION
#MNEM.UNIT      DATA TYPE    INFORMATION
#----------   ------------   ------------------------------
 STRT.F            0.0000:   START DEPTH
 STOP.F         3474.0000:   STOP DEPTH
 STEP.F            0.5000:   STEP LENGTH
 NULL.          -999.2500:   NO VALUE
 COMP. LAWRENCE ALLISON & ASSOCIATES:   COMPANY
 WELL. LAWRENCE ALLISON #13-AX-14:   WELL
 FLD .            WILDCAT:   FIELD
 LOC .      S14 T38N R78W:   LOCATION
 CNTY.            NATRONA:   COUNTY
 STAT.            WYOMING:   STATE
 CTRY. UNITED STATES OF AMERICA:   COUNTRY
 SRVC.      DRESSER ATLAS:   SERVICE COMPANY
 DATE.        31-MAR-1986:   LOGDATE
 API .     49025110640000:   API NUMBER
~CURVE INFORMATION
#MNEM.UNIT       API CODE    CURVE DESCRIPTION
#----------   ------------   ------------------------------
 DEPT.F                  :   
 TEND.LBS    45 635 01 00:   TENSION FROM DENSITY LOG
 RHOB.G/C3   45 350 01 00:   BULK DENSITY
 CORR.G/C3   45 356 01 00:   DENSITY CORRECTION
 CALD.IN     45 280 60 00:   CALIPER FROM DENSITY LOG
 NPHI.DEC    42 890 00 00:   NEUTRON POROSITY
 TENR.LBS    07 635 01 00:   TENSION FROM RESISTIVITY
 RFOC.OHMM   07 220 01 00:   RESISTIVITY FOCUSED LOG RES.
 RILD.OHMM   07 120 46 00:   DEEP INDUCTION RESISTIVITY
 RILM.OHMM   07 120 44 00:   INDUCTION LOG MEDIUM RESISTIVITY
 GRR .GAPI   07 310 01 00:   GAMMA RAY FROM RESISTIVITY
 SPR .MV     07 010 01 00:   SPONTANEOUS POTENTIAL
 TENS.LBS    60 635 01 00:   TENSION FROM SONIC LOG
 DT  .US/F   60 520 00 00:   DELTA TIME
~PARAMETER INFORMATION
#MNEM.UNIT          VALUE    DESCRIPTION
#----------   ------------   ------------------------------
 EKB .F         5251.0000:   Kelly bushing
 EGL .F         5239.2000:   Ground level
 EDF .F         5248.1000:   Drilling floor
 TD  .F         3456.0000:   Total depth
 DATE.        31-MAR-1986:   Date logged
 CLNT.            A2DTECH:   Client Code
 SL  . 238' FWL & 1739' FNL:   Surface Location
 PD  .                 GL:   Permanent Datum
 EPD .F            5239.2:   Elevation Permanent Datum
 LMF .                 KB:   Log Measured From
 DMF .                 KB:   Drilling Measured From
 DAPD.F              11.8:   Feet Above Permanent Datum
 DD  .F              3450:   Depth driller
 DL  .F              3456:   Depth logger
 BLI .F              3450:   Bottom log interval
 CS1 .IN            8.625:   Casing size
 CBD1.      8.625" @ 689':   Casing driller 1
 CBL1.F               692:   Casing logger 1
 BS1 .IN            7.875:   Bit size
 BSD1.F              3450:   Depth drilled with bit1
 DFT .        POLYMER/KCL:   Type fluid in hole
 DFD .                9.1:   Density
 DFV .                 38:   Viscosity
 DFPH.                8.5:   pH
 DFL .               11.2:   Fluid loss
 MSS .           FLOWLINE:   Source of sample
 RMS .OHMM            .29:   Rm
 MST .F                65:   Rm Meas. temp.
 RMF .OHMM           .235:   Rmf
 MFST.F                65:   Rmf Meas. temp.
 RMC .OHMM           .378:   Rmc
 MCST.F                65:   Rmc Meas. temp.
 MFSS.               MEAS:   Source Rmf.
 MCSS.               MEAS:   Source Rmc.
 RMB .OHMM           .163:   Rm. at BHT
 BHT .F               115:   BHT.
 TCS .HRS               3:   Time Circ. stopped
 MRT .F               115:   Maximum recorded temp.
 LUN .            HL-6274:   Logging unit number
 LUL .           GILLETTE:   Logging unit location
 ENGI.             RAUTIO:   Recorded By
 WITN.             STRONG:   Witnessed by
 ORIG.           5" PRINT:   Origin of data
 UWI .     49025110640000:   Unique Well ID
 DICO. A2D TECHNOLOGIES, INC.:   Digitizing Company
~OTHER INFORMATION
~A    DEPT    TEND       RHOB       CORR       CALD       NPHI       TENR       RFOC       RILD       RILM          GRR      SPR       TENS         DT   
# ...
 3302.0000   -14.7650     2.5060     0.0170     8.8640     0.2330   -67.4540     5.8260     4.7330     5.2490   101.9730   -16.4440   -29.1200    80.8310
 3302.5000   -17.9480     2.5140     0.0150     8.8630     0.2390   -67.3190     6.2450     4.7800     5.2640    98.2560   -16.6280   -31.2080    80.1430
 3303.0000   -20.9270     2.5110     0.0120     8.8620     0.2440   -67.1840     6.1980     4.8980     5.2780    99.0580   -16.8130   -33.2960    79.5900
 3303.5000   -23.9060     2.5080     0.0130     8.8610     0.2460   -67.0480     6.1170     5.0160     5.3370   100.8920   -16.9980   -35.3840    79.4890
 3304.0000   -26.8850     2.5090     0.0160     8.8600     0.2420   -66.9130     6.0350     5.1340     5.5380   102.8140   -17.1820   -37.4720    79.8680
 3304.5000   -29.8640     2.5140     0.0170     8.8590     0.2380   -66.7780     5.9630     5.2350     5.6410   104.0070   -17.3670   -39.5600    80.1480
 3305.0000   -32.8430     2.5130     0.0090     8.8580     0.2350   -66.6430     5.9630     5.3200     5.7070   103.2250   -17.5520   -41.6480    80.3220
 3305.5000   -35.8220     2.5070     0.0050     8.8580     0.2290   -66.5080     6.0180     5.4050     5.7540   102.0190   -17.7360   -43.7360    80.2900
 3306.0000   -38.8010     2.5000     0.0050     8.8570     0.2190   -66.3730     6.1550     5.4870     5.8000    99.1770   -17.9190   -44.7950    80.0190
 3306.5000   -41.7800     2.4990     0.0080     8.8560     0.2210   -66.2380     6.2840     5.7110     5.9890    96.0030   -18.0280   -44.7950    79.5570
 3307.0000   -44.7950     2.5010     0.0120     8.8550     0.2230   -66.1020     6.5190     5.9190     6.2150    97.3840   -18.0270   -44.7950    78.7350
 3307.5000   -44.7950     2.5080     0.0160     8.8540     0.2250   -65.9670     6.9140     6.1270     6.4420    99.9330   -17.9880   -44.7950    77.8610
 3308.0000   -44.7950     2.5160     0.0220     8.8530     0.2240   -65.8320     7.3080     6.3350     6.6690   102.4640   -17.3950   -44.7950    76.9870
 3308.5000   -44.7950     2.5190     0.0140     8.8560     0.2240   -65.6970     7.6600     6.5420     6.9130   101.5710   -17.1150   -44.7950    76.1750
 3309.0000   -44.7950     2.5160     0.0010     8.8590     0.2240   -65.5620     7.7180     6.6740     7.1090   100.4630   -17.2650   -44.7950    75.6140
 3309.5000   -44.7950     2.5130    -0.0060     8.8620     0.2220   -65.4270     7.7950     6.7750     7.1730    99.3020   -17.4130   -44.7950    75.4380
 3310.0000   -44.7950     2.5070    -0.0050     8.8650     0.2210   -65.2920     7.6570     6.8490     7.2390   100.1850   -17.5620   -44.7950    75.4350
 3310.5000   -44.7950     2.5020     0.0000     8.8680     0.2290   -65.1570     7.3740     6.7360     7.2390   101.7390   -17.7130   -44.7950    75.7870
 3311.0000   -44.7950     2.5040     0.0050     8.8700     0.2320   -65.0210     7.5520     6.5630     6.9210   101.3640   -17.9200   -44.7950    76.0370
 3311.5000   -44.7950     2.5070     0.0080     8.8660     0.2290   -64.8860     7.7230     6.3890     6.6650   100.9570   -18.3490   -44.7950    76.2480
 3312.0000   -44.7950     2.5050     0.0080     8.8370     0.2270   -64.7510     7.7230     6.2160     6.4090   101.0500   -18.7780   -44.7950    76.4580
 3312.5000   -44.7950     2.4930     0.0050     8.8330     0.2330   -64.6160     6.9200     6.0430     6.2120   102.9240   -19.2060   -44.0610    77.4560
 3313.0000   -44.7950     2.4800     0.0030     8.8330     0.2370   -64.4810     6.1870     5.8420     5.9950   102.6710   -19.2220   -43.2140    78.5750
 3313.5000   -44.7950     2.4770     0.0010     8.8330     0.2410   -63.4020     6.1870     5.6190     5.7790   103.2260   -19.1380   -42.3670    79.6950
 3314.0000   -44.7950     2.4800    -0.0020     8.8350     0.2440   -61.9590     6.1720     5.3950     5.5620   105.1300   -18.8230   -41.5190    80.5660
 3314.5000   -44.7950     2.4840    -0.0040     8.8390     0.2490   -60.5170     6.1410     5.1720     5.3460   105.1220   -18.5180   -40.6720    80.4430
 3315.0000   -44.7950     2.4820    -0.0070     8.8430     0.2520   -59.0740     6.1300     4.9480     5.1290   104.6190   -18.2150   -39.8240    80.4840
 3315.5000   -44.7950     2.4710    -0.0040     8.8470     0.2480   -57.6320     5.8540     4.7510     5.0030   102.9840   -17.9110   -38.9770    80.8130
 3316.0000   -44.7950     2.4640     0.0000     8.8510     0.2400   -56.1890     5.5490     4.5690     4.7880   101.4890   -17.6060   -38.1300    81.4520
 3316.5000   -44.7950     2.4650    -0.0020     8.8540     0.2360   -54.7470     5.4370     4.3860     4.5250   102.8420   -17.2920   -37.2820    81.9840
 3317.0000   -44.7950     2.4650    -0.0100     8.8580     0.2510   -53.3040     5.5060     4.2040     4.2610   104.8230   -17.4280   -36.4350    82.2180
 3317.5000   -44.7950     2.4610    -0.0120     8.8620     0.2640   -51.8610     5.5380     4.0220     3.9980   107.8380   -17.6740   -35.5870    82.3080
 3318.0000   -44.7950     2.4520    -0.0060     8.8660     0.2770   -50.4190     4.9930     3.8430     3.7340   111.6200   -17.9250   -34.7850    82.3920
 3318.5000   -44.7950     2.4440     0.0000     8.8700     0.2770   -48.9760     4.6020     3.6640     3.4700   113.6010   -18.1750   -23.9230    83.9450
 3319.0000   -44.7950     2.4350     0.0010     8.8730     0.2740   -47.5340     4.2370     3.4850     3.2720   114.3280   -18.4250   -22.9200    85.3990
 3319.5000   -44.7950     2.4300    -0.0040     8.8740     0.2730   -46.0910     4.0620     3.3060     3.1520   115.0500   -18.6750   -21.9170    86.7810
 3320.0000   -44.7950     2.4250    -0.0110     8.8750     0.2750   -44.6490     3.9350     3.2110     3.2560   116.9210   -18.9310   -20.9140    88.1640
 3320.5000   -44.7950     2.4220    -0.0150     8.8760     0.2770   -40.0950     3.9350     3.1820     3.4210   116.6090   -19.0400   -19.9110    89.6000
 3321.0000   -44.7950     2.4220    -0.0130     8.8770     0.2740   -34.8400     4.0080     3.2710     3.5850   114.3900   -18.7310   -18.9080    89.8000
 3321.5000   -44.7950     2.4260    -0.0070     8.8780     0.2620   -29.5850     4.1590     3.4220     3.7570   109.7630   -18.2110   -17.9050    89.2990
 3322.0000   -44.7950     2.4360    -0.0020     8.8790     0.2580   -24.3300     4.6690     3.6710     4.0740   105.3310   -17.6830   -16.9020    87.5570
 3322.5000   -44.7950     2.4510    -0.0050     8.8800     0.2530   -19.0750     5.2050     3.9200     4.4060   101.8730   -17.4360   -15.8990    85.2700
 3323.0000   -44.7950     2.4600    -0.0150     8.8810     0.2470   -14.2930     5.7400     4.1700     4.7390   101.6940   -17.4450   -14.8960    82.8130
 3323.5000   -44.7950     2.4660    -0.0190     8.8820     0.2420   -34.3530     6.2480     4.4190     4.9620   102.5520   -17.0430   -12.8220    80.3550
 3324.0000   -44.7950     2.4690    -0.0220     8.8830     0.2390   -34.3530     6.6620     4.6680     5.1410   101.6300   -16.4190   -10.5880    79.0120
 3324.5000   -44.7950     2.4680    -0.0200     8.8840     0.2420   -34.3530     6.3920     4.9110     5.1330   102.1300   -16.3460    -8.3540    78.8890
 3325.0000   -44.7950     2.4680    -0.0180     8.8860     0.2520   -34.3530     6.1230     5.0030     5.1160   102.5450   -16.2620    -6.1200    79.3890
 3325.5000   -44.7950     2.4700    -0.0100     8.8870     0.2640   -34.3530     5.8090     4.9380     5.1000   103.4440   -16.1770    -8.3980    80.3980
 3326.0000   -44.7950     2.4710    -0.0040     8.8880     0.2600   -34.3530     5.4950     4.8730     5.0960   104.5470   -16.0950   -24.1670    81.4070
 3326.5000   -44.7950     2.4700     0.0000     8.8890     0.2480   -34.3530     5.1820     4.8080     5.0960   106.6660   -16.1090   -20.5260    82.4160
 3327.0000   -44.7950     2.4710     0.0080     8.8900     0.2350   -34.3530     5.0960     4.7430     5.0960   108.8650   -16.3630   -16.8850    83.3930
 3327.5000   -40.7140     2.4760     0.0210     8.8910     0.2360   -34.3530     5.2390     4.6780     5.1310   108.9270   -16.6070   -13.2450    83.3930
