~VERSION INFORMATION
 VERS.                2.0:   CWLS LOG ASCII STANDARD - VERSION 2.0
 WRAP.                 NO:   ONE LINE PER DEPTH STEP
~WELL INFORMATION
#MNEM.UNIT      DATA TYPE    INFORMATION
#----------   ------------   ------------------------------
 STRT.F          198.5000:   START DEPTH
 STOP.F         3172.0000:   STOP DEPTH
 STEP.F            0.5000:   STEP LENGTH
 NULL.          -999.2500:   NO VALUE
 COMP.    FENIX & SCISSON:   COMPANY
 WELL. FENIX & SCISSON AX #26-11:   WELL
 FLD .              NPR-3:   FIELD
 LOC .      S11 T38N R78W:   LOCATION
 CNTY.            NATRONA:   COUNTY
 STAT.            WYOMING:   STATE
 CTRY. UNITED STATES OF AMERICA:   COUNTRY
 SRVC.              WELEX:   SERVICE COMPANY
 DATE.        11-NOV-1977:   LOGDATE
 API .     49025104420000:   API NUMBER
~CURVE INFORMATION
#MNEM.UNIT       API CODE    CURVE DESCRIPTION
#----------   ------------   ------------------------------
 DEPT.F                  :   
 GRD .GAPI   45 310 01 00:   GAMMA RAY FROM DENSITY LOG
 CALD.IN     45 280 60 00:   CALIPER FROM DENSITY LOG
 CORR.G/C3   45 356 01 00:   DENSITY CORRECTION
 TEND.LBS    45 635 01 00:   TENSION FROM DENSITY LOG
 RHOB.G/C3   45 350 01 00:   BULK DENSITY
 SPR .MV     07 010 01 00:   SPONTANEOUS POTENTIAL
 ILD .OHMM   07 120 46 00:   DEEP INDUCTION RESISTIVITY
 ILM .OHMM   07 120 44 00:   INDUCTION LOG MEDIUM RESISTIVITY
 SGRD.OHMM   07 220 05 00:   SHALLOW SHORT GUARD RESISTIVITY
~PARAMETER INFORMATION
#MNEM.UNIT          VALUE    DESCRIPTION
#----------   ------------   ------------------------------
 EKB .F         5187.0000:   Kelly bushing
 EGL .F         5177.0000:   Ground level
 EDF .F            0.0000:   Drilling floor
 EPD .F         5177.0000:   Permanent datum
 TD  .F         3174.0000:   Total depth
 CLNT.            A2DTECH:   Client Code
 SL  . 1650' FSL & 840' FWL:   Surface Location
 PD  .                 GL:   Permanent Datum
 LMF .                 KB:   Log Measured From
 DMF .                 KB:   Drilling Measured From
 DAPD.F                10:   Feet Above Permanent Datum
 DATE.        11-NOV-1977:   Date Logged [DD-MMM-YYYY]
 DD  .F              3170:   Depth driller
 DL  .F              3174:   Depth logger
 BLI .F              3172:   Bottom log interval
 TLI .F               200:   Top log interval
 CS1 .              8.625:   Casing size
 CBD1.      8.625" @ 220':   Casing driller 1
 CBL1.IN              220:   Casing logger 1
 BS1 .IN            7.875:   Bit size
 BSD1.F              3170:   Depth drilled with bit1
 DFT .            KCL MUD:   Type fluid in hole
 DFD .                8.9:   Density
 DFV .                 37:   Viscosity
 DFPH.               11.0:   pH
 DFL .                6.4:   Fluid loss
 MSS .           FLOWLINE:   Source of sample
 RMS .OHMM           2.79:   Rm
 MST .F                50:   Rm Meas. temp.
 RMF .OHMM           2.16:   Rmf
 MFST.F                50:   Rmf Meas. temp.
 MFSS.               FANN:   Source Rmf.
 MCSS.               TEST:   Source Rmc.
 RMB .OHMM           1.22:   Rm. at BHT
 BHT .F               114:   BHT.
 TCS .HRS               3:   Time Circ. stopped
 MRT .F               114:   Maximum recorded temp.
 LUN .               8611:   Logging unit number
 LUL .             CASPER:   Logging unit location
 ENGI.            C. DOAK:   Recorded By
 WITN.         HARRINGTON:   Witnessed by
 ORIG.      2.5" 5" PRINT:   Origin of data
 UWI .     49025104420000:   Unique Well ID
 DICO. A2D TECHNOLOGIES, INC.:   Digitizing Company
~OTHER INFORMATION
~A   DEPT       GRD      CALD       CORR       TEND       RHOB        SPR        ILD        ILM       SGRD   
# ...
 1403.0000   111.5683     9.2161     0.0106  1388.3077     2.5084   -77.1538     6.2380     7.8763     9.7013
 1403.5000   110.9594     9.2464     0.0136  1388.9338     2.5170   -77.3118     6.1942     7.8223     9.8372
 1404.0000   109.1565     9.2458     0.0198  1389.5508     2.5203   -77.3193     6.2363     7.7688     9.8372
 1404.5000   106.7565     9.2452     0.0162  1390.1677     2.5203   -77.3268     6.2354     7.7691     9.7690
 1405.0000   108.5356     9.2755     0.0192  1421.5540     2.5260   -77.3357     6.1914     7.7694     9.7013
 1405.5000   110.9118     9.2749     0.0192  1422.1708     2.5354   -77.3430     6.1056     7.7696     9.6341
 1406.0000   111.4985     9.2743     0.0222  1422.7877     2.5386   -77.5010     6.1048     7.7699     9.7690
 1406.5000   111.4850     9.2737     0.0221  1423.4047     2.5447   -77.5084     6.1040     7.6637     9.7690
 1407.0000   111.4731     9.2996     0.0158  1424.0216     2.5462   -77.3651     6.1032     7.5068     9.8372
 1407.5000   110.8641     9.2986     0.0096  1455.4076     2.5446   -77.3725     6.1024     7.4041     9.7690
 1408.0000   110.8522     9.3287     0.0065  1456.0247     2.5384   -77.3798     6.1015     7.2526     9.5673
 1408.5000   110.2433     9.3277    -0.0028  1456.6416     2.5430   -77.3872     6.1007     7.1533     9.4351
 1409.0000   109.6344     9.3268    -0.0029  1457.2585     2.5383   -77.2440     6.0999     7.0070     9.2402
 1409.5000   107.8314     9.3259    -0.0030  1427.1063     2.5321   -77.2515     6.0991     6.9589     9.1762
 1410.0000   104.2374     9.3250     0.0000  1427.7231     2.5229   -77.1081     6.1403     6.9113     9.1677
 1410.5000   104.0907     9.3240     0.0091  1428.3401     2.5305   -76.9648     6.1820     6.9116     9.0494
 1411.0000   106.6017     9.2921     0.0214  1398.1538     2.5428   -76.9740     6.2243     6.9118     8.9867
 1411.5000   107.7838     9.2912     0.0275  1398.8047     2.5504   -76.8289     6.2232     6.9120     9.0494
 1412.0000   107.7719     9.3214     0.0305  1399.4215     2.5534   -76.8381     6.2657     6.9123     9.1762
 1412.5000   108.3582     9.3203     0.0242  1369.2307     2.5472   -76.5424     6.2647     6.8157     9.2402
 1413.0000   108.9421     9.3194     0.0211  1369.8864     2.5410   -76.3992     6.2638     6.7244     9.4351
 1413.5000   110.1242     9.3185     0.0148  1401.2725     2.5349   -76.4084     6.2199     6.5868     9.7013
 1414.0000   111.3075     9.3175     0.0117  1401.8893     2.5317   -76.4158     6.1761     6.4077     9.2402
 1414.5000   113.6825     9.3166     0.0085  1402.5062     2.5378   -76.4232     6.0906     6.2333     9.0494
 1415.0000   116.0586     9.3157     0.0115  1403.1232     2.5409   -76.4307     6.0062     6.1481     8.9867
 1415.5000   117.2407     9.3148     0.0084  1403.7401     2.5377   -76.1385     5.9640     6.1059     9.0494
 1416.0000   118.4228     9.3138     0.0083  1435.1262     2.5285   -75.8428     5.9632     6.1062     8.9867
 1416.5000   119.0079     9.3129     0.0021  1435.7432     2.5254   -75.6995     5.9624     6.1064     8.9867
 1417.0000   119.5940     9.3120    -0.0011  1436.3601     2.5222   -75.7087     5.9616     6.1066     8.9244
 1417.5000   119.5811     9.3110    -0.0012  1436.9772     2.5191   -75.7161     5.9606     6.1491     8.9244
 1418.0000   118.9722     9.3101    -0.0043  1437.5941     2.5145   -75.7235     6.0011     6.2348     8.8625
 1418.5000   118.3633     9.3092    -0.0044  1438.2109     2.5067   -75.7308     6.0003     6.2782     8.9244
 1419.0000   118.3514     9.3083    -0.0050  1438.8279     2.4990   -75.7382     5.9995     6.4098     8.9867
 1419.5000   117.7425     9.3073     0.0016  1439.4448     2.5128   -75.7455     5.9987     6.4545     8.9244
 1420.0000   116.5365     9.3064     0.0077  1440.0618     2.5204   -75.7530     5.9978     6.5898     8.9244
 1420.5000   115.9276     9.3055     0.0107  1471.4478     2.5281   -75.7605     5.9970     6.6816     8.8625
 1421.0000   115.3187     9.3046     0.0168  1472.0647     2.5372   -75.7694     5.9962     6.7748     8.9244
 1421.5000   115.3068     9.3036     0.0228  1441.8461     2.5373   -75.7768     5.9954     6.8220     8.9867
 1422.0000   115.2948     9.2717     0.0166  1442.5295     2.5310   -75.7842     5.9946     6.8222     9.0494
 1422.5000   115.8806     9.2399     0.0158  1443.1462     2.5310   -75.7915     5.9936     6.8224     9.1126
 1423.0000   117.0621     9.2389     0.0195  1443.7633     2.5401   -75.9495     5.9928     6.7757     9.0494
 1423.5000   117.6478     9.2070     0.0225  1444.3802     2.5478   -75.9568     6.0337     6.7760     8.9867
 1424.0000   117.0382     9.2061     0.0225  1444.9972     2.5492   -75.9642     6.0747     6.7296     8.7400
 1424.5000   115.8323     9.1742     0.0224  1445.6140     2.5492   -75.9716     6.1584     6.6828     8.6795
 1425.0000   115.2234     9.1733     0.0254  1446.2310     2.5476   -75.9789     6.2431     6.6377     8.6795
 1425.5000   115.2115     9.1724     0.0222  1446.8479     2.5430   -75.9863     6.2422     6.6909     8.7400
 1426.0000   117.5876     9.1714     0.0160  1447.4648     2.5337   -75.8430     6.1984     6.9669     8.9244
 1426.5000   119.3668     9.1705     0.0067  1448.0818     2.5244   -75.8522     6.1549     7.0640     8.9867
 1427.0000   118.1608     9.2006     0.0066  1448.6986     2.5152   -75.8596     6.0696     7.1132     9.1126
 1427.5000   116.3579     9.1996     0.0065  1449.3157     2.5105   -75.8669     6.0688     7.1628     9.1762
 1428.0000   114.5549     9.1987     0.0003  1449.9326     2.5059   -75.8743     6.0678     7.1630     9.1762
 1428.5000   112.7520     9.1978     0.0064  1450.5496     2.5012   -75.8817     6.0670     7.0650     9.2402
 1429.0000   112.1430     9.1968     0.0125  1451.0769     2.4950   -75.8890     6.0661     7.0652     9.2402
 1429.5000   112.7284     9.1959     0.0062  1451.7833     2.5011   -75.8964     6.0653     7.2134     9.3697
 1430.0000   112.7162     9.1950    -0.0031  1452.4003     2.5057   -75.9037     6.0645     7.5708     9.2402
 1430.5000   112.7043     9.1941    -0.0062  1453.0172     2.5041   -75.9111     6.0637     7.7831     9.1762
 1431.0000   113.2896     9.1931    -0.0002  1453.6340     2.5041   -75.9006     6.0629     7.8915     9.0494
 1431.5000   113.2775     9.1922     0.0059  1454.2510     2.5132   -75.7752     6.0620     7.9465     9.1764
 1432.0000   113.8626     9.1913     0.0058  1454.8679     2.5285   -75.7844     6.0612     8.0573     9.5010
 1432.5000   113.2537     9.1903     0.0058  1455.4850     2.5408   -75.7918     6.0604     8.0575     9.2402
 1433.0000   112.6448     9.1894     0.0057  1456.1018     2.5484   -75.7991     6.0596     8.0578     9.1762
 1433.5000   110.2421     9.1885     0.0056  1456.7188     2.5530   -75.8065     6.0586     8.0581     9.3047
 1434.0000   108.4377     9.1876     0.0117  1457.3357     2.5529   -75.6614     6.0999     8.0584     9.5673
 1434.5000   107.2358     9.1866     0.0208  1457.9526     2.5590   -75.6706     6.0991     8.0032     9.8372
 1435.0000   106.6269     9.1548     0.0280  1458.5696     2.5667   -75.6780     6.0980     8.0035    10.2565
 1435.5000   106.6151     9.1538     0.0207  1459.1864     2.5666   -75.6853     6.0972     7.9487    10.6937
 1436.0000   107.8444     9.1529     0.0329  1459.8033     2.5604   -75.6928     6.0964     7.9490     9.9751
 1436.5000   110.8271     9.1520     0.0340  1460.4203     2.5435   -75.8509     6.0536     7.9493     9.5010
 1437.0000   113.1901     9.1201     0.0266  1461.0374     2.5311   -75.8598     6.0528     7.9495     9.1762
 1437.5000   114.9502     9.1192     0.0204  1461.6541     2.5234   -75.8672     6.0519     7.9498     9.0494
 1438.0000   116.1077     9.0873     0.0203  1462.2711     2.5157   -75.8745     6.0511     7.9501     9.1236
 1438.5000   115.4985     9.0554     0.0171  1462.8881     2.5095   -75.8819     6.0087     7.9503     9.2402
 1439.0000   113.6619     9.0545     0.0171  1463.5050     2.5033   -75.8893     6.0078     7.9506     9.3047
