~VERSION INFORMATION
 VERS.                2.0:   CWLS LOG ASCII STANDARD - VERSION 2.0
 WRAP.                 NO:   ONE LINE PER DEPTH STEP
~WELL INFORMATION
#MNEM.UNIT      DATA TYPE    INFORMATION
#----------   ------------   ------------------------------
 STRT.F           60.0000:   START DEPTH
 STOP.F         3178.0000:   STOP DEPTH
 STEP.F            0.5000:   STEP LENGTH
 NULL.          -999.2500:   NO VALUE
 COMP. LAWRENCE-ALLISON & ASSOSCIATES:   COMPANY
 WELL. LAWRENCE "AX" #46-21:   WELL
 FLD .             NPR #3:   FIELD
 LOC .      S21 T39N R78W:   LOCATION
 CNTY.            NATRONA:   COUNTY
 STAT.            WYOMING:   STATE
 CTRY. UNITED STATES OF AMERICA:   COUNTRY
 SRVC.       SCHLUMBERGER:   SERVICE COMPANY
 DATE.        03-JUN-1982:   LOGDATE
 API .     49025108890000:   API NUMBER
~CURVE INFORMATION
#MNEM.UNIT       API CODE    CURVE DESCRIPTION
#----------   ------------   ------------------------------
 DEPT.F                  :   
 TEND.LBS    45 635 01 00:   TENSION FORM DENSITY LOG
 CALD.IN     45 280 60 00:   CALIPER FROM DENSITY LOG
 CORR.G/C3   45 356 01 00:   DENSITY CORRECTION
 RHOB.G/C3   45 350 01 00:   BULK DENSITY
 NPHI.DEC    42 890 03 00:   NEUTRON POROSITY SANDSTONE
 GRR .GAPI   07 310 01 00:   GAMMA RAY FROM RESISTIVITY
 SPR .MV     07 010 01 00:   SPONTANEOUS POTENTIAL
 SFL .OHMM   07 220 01 00:   SHALLOW FOCUSED LOG RESISTIVITY
 ILD .OHMM   07 120 46 00:   DEEP INDUCTION RESISTIVITY
 ILM .OHMM   07 120 44 00:   INDUCTION LOG MEDIUM RESISTIVITY
 TENR.LBS    07 635 01 00:   TENSION FROM RESISTIVITY
~PARAMETER INFORMATION
#MNEM.UNIT          VALUE    DESCRIPTION
#----------   ------------   ------------------------------
 EKB .F         5008.0000:   Kelly bushing
 EGL .F         4998.0000:   Ground level
 EDF .F         5007.0000:   Drilling floor
 TD  .F         3230.0000:   Total depth
 CLNT.            A2DTECH:   Client Code
 SL  . 1864' FSL & 2484' FWL:   Surface Location
 PD  .                 GL:   Permanent Datum
 EPD .F              4998:   Elevation Permanent Datum
 LMF .                 KB:   Log Measured From
 DMF .                 KB:   Drilling Measured From
 DAPD.F                10:   Feet Above Permanent Datum
 DATE.        03-JUN-1982:   Date Logged [DD-MMM-YYYY]
 DD  .F              3230:   Depth driller
 DL  .F              3200:   Depth logger
 BLI .F              3190:   Bottom log interval
 TLI .F               475:   Top log interval
 CS1 .IN            9.625:   Casing size
 CBD1.      9.625" @ 465':   Casing driller 1
 CBL1.F               475:   Casing logger 1
 BS1 .IN             8.75:   Bit size
 BSD1.F              3230:   Depth drilled with bit1
 DFT .   FORM WATER / AIR:   Type fluid in hole
 TCS .HRS            1530:   Time Circ. stopped
 TLAB.HRS            1900:   Time logger at bottom
 MRT .F               135:   Maximum recorded temp.
 LUN .               8035:   Logging unit number
 LUL .               CSPR:   Logging unit location
 ENGI.              PENNY:   Recorded By
 WITN.           JENNINGS:   Witnessed by
 ORIG.      2.5" 5" PRINT:   Origin of data
 UWI .     49025108890000:   Unique Well ID
 DICO. A2D TECHNOLOGIES, INC.:   Digitizing Company
~OTHER INFORMATION
~A   DEPT     TEND       CALD       CORR       RHOB       NPHI        GRR        SPR        SFL        ILD        ILM       TENR   
# ...
 3140.5000  2250.9456     8.3620     0.0312     2.5239  -999.2500   186.8693  -129.4109     5.2054     5.0027     5.0677  2217.5701
 3141.0000  2263.5654     8.3630     0.0381     2.5488  -999.2500   186.8681  -129.2599     5.8154     5.1448     5.2113  2187.7087
 3141.5000  2262.0117     8.3492     0.0449     2.5519  -999.2500   186.8669  -129.1188     6.8734     5.2908     5.3589  2188.3711
 3142.0000  2245.1416     8.3354     0.0472     2.5565  -999.2500   186.8657  -129.1246     7.5562     5.4410     5.5107  2189.0242
 3142.5000  2228.0837     8.3219     0.0504     2.5634  -999.2500   186.8645  -129.1294     8.0234     5.5955     5.6668  2159.1003
 3143.0000  2211.1189     8.3078     0.0564     2.5680  -999.2500   186.8633  -129.1342     8.1354     5.5985     5.6699  2159.8433
 3143.5000  2190.2874     8.2940     0.0632     2.5651  -999.2500   186.8621  -129.1390     8.1341     5.6744     5.7465  2160.4963
 3144.0000  2177.6550     8.2509     0.0565     2.5367  -999.2500   186.8609  -129.1240     7.5841     5.6744     5.7465  2130.6619
 3144.5000  2160.7944     8.2223     0.0445     2.5112  -999.2500   186.8597  -128.8465     7.0686     5.6511     5.7230  2131.4316
 3145.0000  2143.5703     8.1937     0.0340     2.5023  -999.2500   186.8585  -128.8520     6.6674     5.5955     5.6668  2132.0579
 3145.5000  2141.7078     8.1355     0.0311     2.5040  -999.2500   186.8573  -128.5541     6.3935     5.5955     5.6668  2132.6846
 3146.0000  2125.1333     8.0774     0.0402     2.5266  -999.2500   186.8561  -128.5599     6.2086     5.5955     5.6668  2133.3108
 3146.5000  2123.0361     8.1526     0.0500     2.5462  -999.2500   186.8549  -128.5650     6.1455     5.5955     5.6668  2133.9375
 3147.0000  2121.1746     8.1683     0.0594     2.5538  -999.2500   186.8537  -128.5709     6.3597     5.5955     5.6668  2134.5818
 3147.5000  2134.3157     8.1672     0.0720     2.5479  -999.2500   186.8525  -128.5757     6.5983     5.5177     5.5882  2135.2351
 3148.0000  2132.3936     8.0818     0.0856     2.5300  -999.2500   186.8513  -128.5806     6.4058     5.4410     5.5107  2135.8884
 3148.5000  2145.4836  -999.2500  -999.2500  -999.2500  -999.2500   186.8501  -128.5854     6.0567     5.4410     5.5107  2136.5417
 3149.0000  2158.5696  -999.2500  -999.2500  -999.2500  -999.2500   186.8489  -128.5902     5.9718     5.4410     5.5107  2137.1951
 3149.5000  2171.6548  -999.2500  -999.2500  -999.2500  -999.2500   186.8477  -128.5952     6.0551     5.4527     5.5225  2137.8481
 3150.0000  2169.3279  -999.2500  -999.2500  -999.2500  -999.2500   186.8465  -128.6002     6.4925     5.5177     5.5882  2138.5017
 3150.5000  2182.8784  -999.2500  -999.2500  -999.2500  -999.2500   186.8453  -128.6052     6.5830     5.5177     5.5882  2139.2622
 3151.0000  2165.6038  -999.2500  -999.2500  -999.2500  -999.2500   186.8441  -128.6103     6.3846     5.5955     5.6668  2139.8889
 3151.5000  2163.7415  -999.2500  -999.2500  -999.2500  -999.2500   186.8429  -128.9174     6.2234     5.5955     5.6668  2140.5154
 3152.0000  2146.9143  -999.2500  -999.2500  -999.2500  -999.2500   186.8417  -128.9225     6.4641     5.5955     5.6668  2141.1416
 3152.5000  2144.9927  -999.2500  -999.2500  -999.2500  -999.2500   186.8405  -129.2305     6.8087     5.5955     5.6668  2141.7683
 3153.0000  2134.4927  -999.2500  -999.2500  -999.2500  -999.2500   186.8393  -129.2353     6.9566     5.5177     5.5882  2111.9070
 3153.5000  2125.9326  -999.2500  -999.2500  -999.2500  -999.2500   186.8382  -129.2401     6.7637     5.5177     5.5882  2112.5872
 3154.0000  2124.0710  -999.2500  -999.2500  -999.2500  -999.2500   186.8369  -129.2450     6.1325     5.4410     5.5107  2113.2407
 3154.5000  2122.3577  -999.2500  -999.2500  -999.2500  -999.2500   186.8358  -129.2498     5.6385     5.4403     5.5099  2083.2986
 3155.0000  2120.4353  -999.2500  -999.2500  -999.2500  -999.2500   186.8345  -129.2548     5.4062     5.3583     5.4271  2084.0591
 3155.5000  2118.5137  -999.2500  -999.2500  -999.2500  -999.2500   186.8333  -129.2598     5.3305     5.2775     5.3454  2084.7124
 3156.0000  2116.5920  -999.2500  -999.2500  -999.2500  -999.2500   186.8322  -129.2649     5.4932     5.1979     5.2650  2085.4912
 3156.5000  2114.2952  -999.2500  -999.2500  -999.2500  -999.2500   186.8309  -129.2699     5.9196     5.1448     5.2113  2086.1174
 3157.0000  2112.4338  -999.2500  -999.2500  -999.2500  -999.2500   186.8298  -129.2749     6.3475     5.0424     5.1078  2086.7441
 3157.5000  2125.5188  -999.2500  -999.2500  -999.2500  -999.2500   186.8286  -129.2800     6.4790     4.8973     4.9611  2087.3704
 3158.0000  2123.8523  -999.2500  -999.2500  -999.2500  -999.2500   186.8274  -129.2859     5.5553     4.7303     4.7923  2087.9971
 3158.5000  2121.9302  -999.2500  -999.2500  -999.2500  -999.2500   186.8262  -129.2907     4.8939     4.5997     4.6603  2088.6323
 3159.0000  2119.9331  -999.2500  -999.2500  -999.2500  -999.2500   186.8250  -129.2955     4.6305     4.4727     4.5319  2089.2854
 3159.5000  2117.7607  -999.2500  -999.2500  -999.2500  -999.2500   186.8238  -129.3003     4.6951     4.3493     4.4071  2089.9390
 3160.0000  2116.1648  -999.2500  -999.2500  -999.2500  -999.2500   186.8226  -129.6073     4.7606     4.2888     4.3460  2090.5923
 3160.5000  2114.2432  -999.2500  -999.2500  -999.2500  -999.2500   186.8214  -129.6123     4.6287     4.1682     4.2240  2091.2456
 3161.0000  2112.3208  -999.2500  -999.2500  -999.2500  -999.2500   186.8202  -129.6173     4.5638     4.0483     4.1028  2091.8989
 3161.5000  2110.1572  -999.2500  -999.2500  -999.2500  -999.2500   186.8190  -129.6223     4.6971     3.9318     3.9850  2092.5522
 3162.0000  2116.2798  -999.2500  -999.2500  -999.2500  -999.2500   186.8178  -129.6274     4.8250     3.8187     3.8706  2123.8098
 3162.5000  2121.5032  -999.2500  -999.2500  -999.2500  -999.2500   186.8166  -129.6324     4.7573     3.7611     3.8123  2124.4363
 3163.0000  2119.5815  -999.2500  -999.2500  -999.2500  -999.2500   186.8154  -129.8038     4.7566     3.6768     3.7270  2125.0625
 3163.5000  2117.6570  -999.2500  -999.2500  -999.2500  -999.2500   186.8142  -129.9455     4.7276     3.5978     3.6472  2125.6892
 3164.0000  2130.7432  -999.2500  -999.2500  -999.2500  -999.2500   186.8130  -129.9503     4.4627     3.5753     3.6243  2095.8279
 3164.5000  2143.3633  -999.2500  -999.2500  -999.2500  -999.2500   186.8118  -130.2572     3.9646     3.5256     3.5741  2096.4719
 3165.0000  2141.7898  -999.2500  -999.2500  -999.2500  -999.2500   186.8106  -130.5641     3.5447     3.5256     3.5741  2097.1255
 3165.5000  2140.1045  -999.2500  -999.2500  -999.2500  -999.2500   186.8094  -131.1732     3.3050     3.5753     3.6243  2097.7788
 3166.0000  2152.8931  -999.2500  -999.2500  -999.2500  -999.2500   186.8082  -131.2085     3.3511     3.6768     3.7270  2098.4319
 3166.5000  2150.9714  -999.2500  -999.2500  -999.2500  -999.2500   186.8070  -131.4854     5.3141     3.8921     3.9448  2099.0852
 3167.0000  2149.0012  -999.2500  -999.2500  -999.2500  -999.2500   186.8058  -131.5759     6.8569     4.0075     4.0615  2099.7385
 3167.5000  2162.0864  -999.2500  -999.2500  -999.2500  -999.2500   186.8046  -131.7976     7.4615     4.1263     4.1816  2100.3921
 3168.0000  2160.1536  -999.2500  -999.2500  -999.2500  -999.2500   186.8034  -131.8026     7.7471     4.1704     4.2262  2101.1526
 3168.5000  2142.9492  -999.2500  -999.2500  -999.2500  -999.2500   186.8022  -131.8077     6.9642     4.1467     4.2022  2101.7793
 3169.0000  2141.3625  -999.2500  -999.2500  -999.2500  -999.2500   186.8052  -131.8135     5.8186     4.1124     4.1676  2102.4055
 3169.5000  2139.2253  -999.2500  -999.2500  -999.2500  -999.2500   186.8117  -131.8183     4.9165     4.0792     4.1340  2103.0322
 3170.0000  2137.5186  -999.2500  -999.2500  -999.2500  -999.2500   187.2727  -132.1253     4.3047     3.9989     4.0528  2103.6584
 3170.5000  2135.5969  -999.2500  -999.2500  -999.2500  -999.2500   187.2792  -132.1301     4.0701     3.9989     4.0528  2104.3118
