~VERSION INFORMATION
 VERS.                2.0:   CWLS LOG ASCII STANDARD - VERSION 2.0
 WRAP.                 NO:   ONE LINE PER DEPTH STEP
~WELL INFORMATION
#MNEM.UNIT      DATA TYPE    INFORMATION
#----------   ------------   ------------------------------
 STRT.F            0.0000:   START DEPTH
 STOP.F         4134.5000:   STOP DEPTH
 STEP.F            0.5000:   STEP LENGTH
 NULL.          -999.2500:   NO VALUE
 COMP. LAWRENCE ALLISON & ASSOCIATES:   COMPANY
 WELL. LAWRENCE NPR 3 "X" #72-10:   WELL
 FLD .            WILDCAT:   FIELD
 LOC .      S10 T38N R78W:   LOCATION
 CNTY.            NATRONA:   COUNTY
 STAT.            WYOMING:   STATE
 CTRY. UNITED STATES OF AMERICA:   COUNTRY
 SRVC.      DRESSER ATLAS:   SERVICE COMPANY
 DATE.        29-JUL-1983:   LOGDATE
 API .     49025109390000:   API NUMBER
~CURVE INFORMATION
#MNEM.UNIT       API CODE    CURVE DESCRIPTION
#----------   ------------   ------------------------------
 DEPT.F                  :   
 CALD.IN     45 280 60 00:   CALIPER FROM DENSITY LOG
 DEN .G/C3   45 350 01 00:   BULK DENSITY
 CORR.G/C3   45 356 01 00:   DENSITY CORRECTION
 TEND.LBS    45 635 01 00:   TENSION FROM DENSITY LOG
 NPHI.DEC    42 890 03 00:   NEUTRON POROSITY SANDSTONE
 GRD .GAPI   45 310 01 00:   GAMMA RAY FROM DENSITY LOG
 SPR .MV     07 010 01 00:   SPONTANEOUS POTENTIAL
 RILD.OHMM   07 120 46 00:   DEEP INDUCTION RESISTIVITY
 RILM.OHMM   07 120 44 00:   INDUCTION LOG MEDIUM RESISTIVITY
 RFOC.OHMM   07 220 04 00:   RESISTIVITY FOCUSED LOG RES.
 TENR.LBS    07 635 01 00:   TENSION FROM RESISTIVITY
 AC  .US/F   60 250 00 00:   ACCOUSTIC
 TENS.LBS    60 635 01 00:   TENSION FROM SONIC
 GRR .GAPI   07 310 01 00:   GAMMA RAY FROM RESISTIVITY
~PARAMETER INFORMATION
#MNEM.UNIT          VALUE    DESCRIPTION
#----------   ------------   ------------------------------
 EKB .F         5182.0000:   Kelly bushing
 EGL .F         5172.0000:   Ground level
 EDF .F            0.0000:   Drilling floor
 TD  .F         4139.0000:   Total depth
 DATE.        29-JUL-1983:   Date logged
 CLNT.            A2DTECH:   Client Code
 SL  . 900' FNL & 900' FEL:   Surface Location
 PD  .                 GL:   Permanent Datum
 EPD .F              5172:   Elevation Permanent Datum
 LMF .                 KB:   Log Measured From
 DMF .                 KB:   Drilling Measured From
 DAPD.F                10:   Feet Above Permanent Datum
 DD  .F              4139:   Depth driller
 DL  .F              4134:   Depth logger
 BLI .F              4132:   Bottom log interval
 CS1 .IN            9.625:   Casing size
 CBD1.      9.625" @ 476':   Casing driller 1
 BS1 .IN            7.875:   Bit size
 BSD1.F              4139:   Depth drilled with bit1
 DFT .               LSND:   Type fluid in hole
 DFD .                6.6:   Density
 DFV .                 41:   Viscosity
 DFPH.                8.5:   pH
 DFL .                 10:   Fluid loss
 MSS .           FLOWLINE:   Source of sample
 RMS .OHMM            .27:   Rm
 MST .F                91:   Rm Meas. temp.
 RMF .OHMM            .19:   Rmf
 MFST.F                87:   Rmf Meas. temp.
 RMC .OHMM            .34:   Rmc
 MCST.F                87:   Rmc Meas. temp.
 MFSS.               MEAS:   Source Rmf.
 MCSS.               CALC:   Source Rmc.
 RMB .OHMM            .19:   Rm. at BHT
 BHT .F               130:   BHT.
 TCS .HRS               3:   Time Circ. stopped
 MRT .F               130:   Maximum recorded temp.
 LUN .               6274:   Logging unit number
 LUL .               GLTF:   Logging unit location
 ENGI.             RAUTIC:   Recorded By
 WITN.             STRONG:   Witnessed by
 ORIG.           5" PRINT:   Origin of data
 UWI .     49025109390000:   Unique Well ID
 DICO. A2D TECHNOLOGIES, INC.:   Digitizing Company
~OTHER INFORMATION
~A    DEPT    CALD        DEN       CORR       TEND       NPHI        GRD        SPR       RILD       RILM       RFOC       TENR         AC       TENS         GRR  
# ...
 3136.0000     8.7270     2.5200     0.0850   -30.9600     0.1800    93.8600   -38.2500     9.4960     9.7120    11.3640   -45.7700    75.2920   -57.6920    79.0120
 3136.5000     8.7310     2.5050     0.0840   -34.8220     0.1890   112.8150   -38.7760     7.8680     8.3370    12.4580   -44.5610    75.4180   -57.6920    82.8470
 3137.0000     8.7440     2.4890     0.0830   -38.6830     0.2070   131.6810   -39.3340     6.2400     6.9620    11.2000   -43.3510    76.3540   -57.6920    97.7660
 3137.5000     8.7570     2.4790     0.0740   -42.5440     0.2440   150.5290   -39.7950     5.6090     6.0750     8.7700   -43.1850    80.5140   -53.1480   112.6150
 3138.0000     8.7700     2.4740     0.0650   -46.4060     0.2650   158.5200   -40.2650     5.2280     5.8040     6.3400   -44.2900    85.0230   -53.8490   125.3850
 3138.5000     8.7830     2.4780     0.0560   -50.2670     0.2610   160.0660   -40.6500     4.8780     5.5320     5.3790   -45.3940    89.5320   -54.5500   125.1830
 3139.0000     8.7960     2.4830     0.0410   -54.1280     0.2570   158.5740   -40.5950     4.5320     5.2610     5.1080   -46.4980    92.1980   -55.2500   124.0470
 3139.5000     8.8080     2.4890     0.0240   -57.9900     0.2530   151.6910   -40.4380     4.3290     4.9690     5.2510   -47.6030    92.3980   -55.9510   122.0680
 3140.0000     8.8100     2.4950     0.0080   -61.8510     0.2440   144.1050   -40.4300     4.2500     4.9930     5.6580   -48.7070    91.3560   -56.6520   120.5890
 3140.5000     8.8120     2.5000    -0.0090   -32.0050     0.2270   136.4940   -40.4310     4.3290     5.0610     6.0820   -49.8110    89.5290   -57.3520   119.3580
 3141.0000     8.8130     2.5050    -0.0140   -54.2080     0.2090   128.8940   -40.4190     4.5810     5.1360     6.1380   -50.9160    87.7020   -56.9970   113.2620
 3141.5000     8.8150     2.5080    -0.0160   -57.6920     0.1930   123.9210   -40.2770     4.8230     5.2980     6.1620   -52.0200    85.8760   -54.8040   106.0740
 3142.0000     8.8170     2.5100    -0.0080   -46.7140     0.1950   121.5610   -39.9920     5.0660     5.4600     6.2520   -50.2500    84.0490   -52.6100   102.8330
 3142.5000     8.8190     2.5130     0.0050   -36.0300     0.2000   120.8660   -39.6090     5.3090     5.6230     6.5730   -37.5500    82.2220   -50.4170   104.6290
 3143.0000     8.8210     2.5200     0.0350   -25.3460     0.2050   121.9920   -39.2290     5.4130     5.7920     6.9580   -24.8500    80.5690   -48.2240   106.7870
 3143.5000     8.8230     2.5260     0.0490   -17.7320     0.2100   124.2360   -38.5850     5.4470     5.6630     7.2430   -27.5370    79.3410   -42.7070   107.7070
 3144.0000     8.8250     2.5210     0.0380   -18.7900     0.2100   130.1870   -37.8100     5.3970     5.4920     7.2430   -32.9250    78.6110   -44.5180   107.0750
 3144.5000     8.8270     2.5110     0.0240   -20.9040     0.2090   135.0970   -36.8840     5.2810     5.3200     7.0740   -38.3130    78.5290   -47.6710   106.4850
 3145.0000     8.8240     2.5030     0.0030   -24.7040     0.2080   135.5140   -36.1340     5.2550     5.2020     6.8120   -43.7000    78.8780   -50.8240   106.8740
 3145.5000     8.8200     2.5050     0.0080   -39.0460     0.2070   134.2220   -35.4880     5.3970     5.3690     6.4810   -49.0880    79.7190   -52.6970   110.0070
 3146.0000     8.8160     2.5170     0.0250   -53.3880     0.2070   130.0180   -34.8380     5.5090     5.4960     6.1490   -54.4760    80.5590   -57.6920   113.0460
 3146.5000     8.8120     2.5280     0.0460   -67.7300     0.2030   127.5060   -34.7820     5.5990     5.6510     5.8090   -54.5450    81.5940   -47.7020   113.6370
 3147.0000     8.8080     2.5380     0.0830   -82.0720     0.1990   130.1810   -34.5460     5.5400     5.5890     5.8090   -35.0070    81.1690   -35.4650   110.0210
 3147.5000     8.8040     2.5320     0.0710   -87.9860     0.1960   132.7290   -34.3090     5.4970     5.5090     7.4450   -15.4690    80.3170   -26.0050   107.2810
 3148.0000     8.8000     2.5250     0.0410   -89.4780     0.1960   134.1010   -34.0720     5.4470     5.4470     7.3170    -8.8050    79.4660   -22.7270   105.5590
 3148.5000     8.7960     2.5180     0.0250   -90.9710     0.2010   130.6460   -33.8380     5.5430     5.4470     7.0120   -10.7590    79.2790   -22.7270   105.3510
 3149.0000     8.7910     2.5150     0.0440   -92.4630     0.2010   124.6930   -33.6040     5.6940     5.5330     6.7070   -12.7130    79.8560   -22.7270   105.2010
 3149.5000     8.7880     2.5130     0.0390   -92.6570     0.1960   119.1100   -33.6740     5.8450     5.7220     6.5460   -17.9640    80.4320   -22.7270   106.7080
 3150.0000     8.7960     2.5150     0.0280   -92.6570     0.1860   120.3960   -34.0880     5.9450     5.9110     6.8270   -25.9570    80.7090   -34.8930   108.8780
 3150.5000     8.8040     2.5190     0.0160   -79.7670     0.1770   122.7370   -34.5010     6.0380     6.0990     7.0600   -34.9980    80.2100   -48.5460   110.7460
 3151.0000     8.8110     2.5240     0.0150   -68.0310     0.1780   125.1120   -34.9150     6.1950     6.2880     7.2920   -44.0400    79.6020   -57.6920   108.8920
 3151.5000     8.8190     2.5280     0.0160   -56.2960     0.1780   125.3750   -35.3300     6.3680     6.4770     7.5840   -53.0810    78.9110   -57.0750   103.7150
 3152.0000     8.8270     2.5290     0.0240   -44.5600     0.1720   123.5960   -35.7450     6.5410     6.6650     8.0620   -62.1220    77.9840   -56.2410   100.2390
 3152.5000     8.8350     2.5260     0.0400   -32.8250     0.1670   121.8030   -36.1580     6.6950     6.8540     8.7850   -67.1540    77.0130   -55.4080   101.1260
 3153.0000     8.8420     2.5240     0.0380   -25.1820     0.1690   119.9770   -36.5530     6.7920     7.0460     8.7000   -65.2080    76.3100   -54.5740   102.9250
 3153.5000     8.8500     2.5200     0.0310   -39.6250     0.1760   121.3940   -37.3390     6.7920     6.9540     8.4740   -63.2620    76.1520   -53.7410   103.8120
 3154.0000     8.8580     2.5130     0.0240   -35.4780     0.1830   126.6520   -38.1340     6.6140     6.7200     8.2490   -61.3160    76.5350   -52.9070   104.6980
 3154.5000     8.8660     2.5060     0.0280   -26.2870     0.1880   131.9610   -38.7320     6.4270     6.4860     8.0230   -59.3700    77.0130   -52.0730   107.8690
 3155.0000     8.8730     2.4980     0.0370   -22.7270     0.1920   137.0440   -39.1690     6.1320     6.2520     7.6540   -57.4240    77.7320   -51.2400   110.7690
 3155.5000     8.8810     2.4940     0.0290   -25.3050     0.1970   138.2360   -39.6000     5.8670     6.0180     7.2210   -55.4780    78.8260   -50.4060   111.1650
 3156.0000     8.8890     2.5010     0.0220   -27.8320     0.2030   136.4570   -40.0260     5.6030     5.7840     6.7660   -53.5310    79.9760   -49.5730   110.5670
 3156.5000     8.8960     2.5090     0.0330   -30.3600     0.2090   134.6840   -40.4530     5.2020     5.5500     6.3110   -51.5850    81.1260   -48.7390   111.4020
 3157.0000     8.9040     2.5090     0.0430   -32.8870     0.2080   136.6950   -40.8800     5.2500     5.3160     5.8560   -49.6390    82.2750   -47.9050   112.1310
 3157.5000     8.9120     2.5020     0.0300   -35.4150     0.2060   140.9830   -41.3070     4.9690     5.1080     5.5480   -48.5380    83.3150   -52.6970   111.1360
 3158.0000     8.9200     2.4960     0.0170   -37.7120     0.2070   146.7840   -41.7340     4.7770     4.9570     5.7560   -54.3760    83.9490   -54.7540   110.2080
 3158.5000     8.9260     2.4900     0.0110   -43.5170     0.2170   151.2540   -42.1620     4.6360     4.8120     5.8630   -60.2140    84.4260   -56.8720   110.1240
 3159.0000     8.9200     2.4930     0.0280   -48.8380     0.2260   148.7720   -42.5910     4.4940     4.6680     5.5190   -57.3650    84.5610   -57.6920   111.6230
 3159.5000     8.9130     2.4960     0.0430   -54.1590     0.2250   143.6160   -43.0000     4.3520     4.5230     5.2170   -47.2460    85.0960   -57.6920   113.0860
 3160.0000     8.9070     2.4960     0.0590   -58.5540     0.2220   138.4930   -43.1010     4.2110     4.3780     4.8780   -49.3460    85.8400   -56.2990   113.8560
