~VERSION INFORMATION
 VERS.                2.0:   CWLS LOG ASCII STANDARD - VERSION 2.0
 WRAP.                 NO:   ONE LINE PER DEPTH STEP
~WELL INFORMATION
#MNEM.UNIT      DATA TYPE    INFORMATION
#----------   ------------   ------------------------------
 STRT.F          637.0000:   START DEPTH
 STOP.F         3158.0000:   STOP DEPTH
 STEP.F            0.5000:   STEP LENGTH
 NULL.          -999.2500:   NO VALUE
 COMP.    FENIX & SCISSON:   COMPANY
 WELL.  FENIX "AX" #34-33:   WELL
 FLD .             NPR #3:   FIELD
 LOC .      S33 T39N R78W:   LOCATION
 CNTY.            NATRONA:   COUNTY
 STAT.            WYOMING:   STATE
 CTRY. UNITED STATES OF AMERICA:   COUNTRY
 SRVC.       SCHLUMBERGER:   SERVICE COMPANY
 DATE.        15-APR-1977:   LOGDATE
 API .     49025103450000:   API NUMBER
~CURVE INFORMATION
#MNEM.UNIT       API CODE    CURVE DESCRIPTION
#----------   ------------   ------------------------------
 DEPT.F                  :   
 CALD.IN     45 280 60 00:   CALIPER FROM DENSITY LOG
 GRD .GAPI   45 310 01 00:   GAMMA RAY FROM DENSITY LOG
 RHOB.G/C3   45 350 01 00:   BULK DENSITY
 CORR.G/C3   45 356 01 00:   DENSITY CORRECTION
 SPR .MV     07 010 01 00:   SPONTANEOUS POTENTIAL
 SFLU.OHMM   07 220 01 00:   SPHERICALLY FOCUSED LOG UNAVERAGED RESISTIVITY
 ILD .OHMM   07 120 46 00:   INDUCTION LOG DEEP RESISTIVITY
 ILM .OHMM   07 120 44 00:   INDUCTION LOG MEDIUM RESISTIVITY
~PARAMETER INFORMATION
#MNEM.UNIT          VALUE    DESCRIPTION
#----------   ------------   ------------------------------
 EKB .F         5196.0000:   Kelly bushing
 EGL .F         5185.0000:   Ground level
 EDF .F            0.0000:   Drilling floor
 TD  .F         3159.0000:   Total depth
 DATE.        15-APR-1977:   Date logged
 CLNT.            A2DTECH:   Client Code
 SL  . 2132' FNL & 1750' FWL:   Surface Location
 PD  .                 GL:   Permanent Datum
 EPD .F              5185:   Elevation Permanent Datum
 LMF .                 KB:   Log Measured From
 DMF .                 KB:   Drilling Measured From
 DAPD.F                11:   Feet Above Permanent Datum
 DD  .F              3156:   Depth driller
 DL  .F              3159:   Depth logger
 BLI .F              3153:   Bottom log interval
 TLI .F               637:   Top log interval
 CS1 .IN            8.625:   Casing size
 CBD1.      8.625" @ 637':   Casing driller 1
 CBL1.F               637:   Casing logger 1
 BS1 .IN            7.875:   Bit size
 BSD1.F              3156:   Depth drilled with bit1
 DFT .                FGM:   Type fluid in hole
 DFD .                7.5:   Density
 DFV .                 35:   Viscosity
 DFPH.                8.5:   pH
 DFL .                  9:   Fluid loss
 MSS .                PIT:   Source of sample
 RMS .OHMM            .48:   Rm
 MST .F                60:   Rm Meas. temp.
 RMF .OHMM            .28:   Rmf
 MFST.F                60:   Rmf Meas. temp.
 MFSS.               MEAS:   Source Rmf.
 RMB .OHMM            .24:   Rm. at BHT
 BHT .F               120:   BHT.
 TCS .HRS            0200:   Time Circ. stopped
 MRT .F               120:   Maximum recorded temp.
 LUN .               7680:   Logging unit number
 LUL .               CSPR:   Logging unit location
 ENGI.             TAYLOR:   Recorded By
 WITN.         PETTINGILL:   Witnessed by
 ORIG.           5" PRINT:   Origin of data
 UWI .     49025103450000:   Unique Well ID
 DICO. A2D TECHNOLOGIES, INC.:   Digitizing Company
 TLAB.               0530:   Time logger at bottom
~OTHER INFORMATION
~A   DEPT       CALD      GRD       RHOB       CORR        SPR         SFLU        ILD        ILM 
# ...
 2783.5000     7.8351   118.0360     2.6562     0.1000   -37.7093     7.8397     7.7447     7.1034
 2784.0000     7.8349   109.2890     2.6782     0.1050   -38.1058     7.5547     7.7190     6.9739
 2784.5000     7.8348   105.5131     2.6812     0.1040   -38.1055     9.3702     7.7909     6.9100
 2785.0000     7.8346   105.5104     2.6732     0.1040   -37.9066    11.1509     7.7912     7.0392
 2785.5000     7.8344   100.3429     2.6662     0.1000   -37.9062    11.4805     7.9367     7.1047
 2786.0000     7.8342    98.7498     2.6473     0.0890   -37.9059    10.0711     7.9372     7.2374
 2786.5000     7.8340   100.3399     2.6343     0.0831   -37.7070     9.8866     8.0111     7.3049
 2787.0000     7.8339   101.3306     2.6333     0.0861   -37.7066     9.9791     8.1608     7.3051
 2787.5000     7.8337    99.1441     2.6343     0.0901   -37.7063     9.9796     8.1610     7.5106
 2788.0000     7.8335    98.1488     2.6473     0.0901   -37.5074    10.1667     8.2372     7.5109
 2788.5000     7.8333    95.1660     2.6543     0.0881   -37.5071    10.1672     8.3910     7.5810
 2789.0000     7.8331    93.9719     2.6543     0.0881   -37.3082    10.7491     8.3453     7.6515
 2789.5000     7.8330    92.5775     2.6423     0.0721   -37.1094    11.3643     8.3000     7.7229
 2790.0000     7.8526    96.7515     2.6423     0.0631   -37.1091    11.4707     8.2548     7.7949
 2790.5000     7.8525   101.3218     2.6443     0.0851   -37.1087    11.9044     8.2099     7.7235
 2791.0000     7.8523   102.7117     2.6373     0.0911   -36.9099    11.5785     8.1638     7.7956
 2791.5000     7.8521   101.1198     2.6293     0.0791   -36.7111    11.2615     8.1640     7.7959
 2792.0000     7.8519   101.9137     2.5994     0.0701   -36.7107    11.2621     8.0893     7.8685
 2792.5000     7.8517   103.7012     2.5834     0.0422   -36.9087    11.0557     8.0484     7.7967
 2793.0000     7.7920   103.5010     2.5714     0.0510   -37.3052    10.3617     8.0160     7.7254
 2793.5000     7.7918   102.1078     2.5894     0.0531   -37.5033    10.1719     8.0905     7.6548
 2794.0000     7.7916   101.3112     2.6024     0.0621   -37.3045    10.0785     8.1660     7.5849
 2794.5000     7.7914    97.1341     2.5984     0.0532   -37.3041     9.3587     8.1664     7.5155
 2795.0000     7.7912    99.9168     2.6054     0.0552   -37.3037     9.5342     8.1667     7.5857
 2795.5000     7.7910   102.2995     2.6204     0.0661   -37.3034    10.1737     8.2022     7.5858
 2796.0000     7.8107   102.6954     2.6543     0.0951   -37.5014    10.5585     8.2433     7.5165
 2796.5000     7.8106    99.5148     2.6373     0.0811   -37.5011    10.2694     8.3201     7.4478
 2797.0000     7.8104    97.7227     2.6264     0.0662   -37.5007    10.0813     8.3976     7.5172
 2797.5000     7.7903    99.7106     2.6204     0.0522   -37.3019    10.1756     8.3980     7.6576
 2798.0000     7.7901   101.2995     2.6004     0.0522   -37.1031    10.5604     8.4762     7.8731
 2798.5000     7.7899   100.5016     2.5804     0.0252   -37.1027    10.8587     8.6781     7.8733
 2799.0000     7.7899    99.9037     2.6044     0.0492   -37.1024    10.9603     8.8849     7.9467
 2799.5000     7.7896    99.3058     2.6044     0.0582   -36.9036    11.1660     9.0967     8.1702
 2800.0000     7.7894    99.3055     2.6044     0.0632   -36.3080    11.5881     9.2974     8.2463
 2800.5000     7.7923    95.9262     2.6044     0.0402   -36.6846    11.6787     9.6466     8.4582
 2801.0000     7.7954    95.1312     2.6064     0.0546   -36.5059    11.6947     9.8257     8.5555
 2801.5000     7.7984    92.5472     2.6104     0.0562   -36.7040    11.3733    10.0082     8.7144
 2802.0000     7.8015    88.9689     2.6284     0.0582   -36.7038    10.9588    10.1940     8.9586
 2802.5000     7.8046    87.9752     2.6344     0.0632   -36.9019    11.2672    10.3833     9.2095
 2803.0000     7.8077    89.1685     2.6573     0.0752   -36.7033    13.0673    10.4789     9.4674
 2803.5000     7.8108    90.9583     2.6573     0.0811   -36.5046    14.6034    10.4783     9.8229
 2804.0000     7.8138    93.1457     2.6563     0.0861   -36.5043    15.1539    10.3816    10.0980
 2804.5000     7.8169    92.3509     2.6683     0.0871   -36.9009    14.8746    10.2855    10.3809
 2805.0000     7.8200    90.5618     2.6633     0.0671   -36.9006    14.7363    10.2850    10.3802
 2805.5000     7.8231    89.1704     2.6443     0.0631   -37.0988    14.7353    10.1899    10.3796
 2806.0000     7.8262    90.7615     2.6563     0.0891   -36.9001    14.3304    10.0956    10.2837
 2806.5000     7.8293    92.1537     2.6383     0.0731   -36.8999    13.1830     9.8191    10.0950
 2807.0000     7.8323    92.1541     2.6183     0.0432   -36.8996    12.1275     9.6393     9.9100
 2807.5000     7.8354    90.9615     2.6153     0.0451   -37.0978    11.7943     9.3755     9.7281
 2808.0000     7.8385    89.9677     2.6083     0.0578   -37.0976    12.7010     9.0353     9.3750
 2808.5000     7.8416    90.5646     2.6083     0.0651   -37.0973    13.8047     8.5482     9.1185
 2809.0000     7.8447    92.1558     2.6173     0.0701   -36.8986    13.9323     8.2381     8.8691
 2809.5000     7.8477    94.5423     2.6083     0.0661   -36.8983    13.0565     7.8662     8.7872
 2810.0000     7.8494    96.5312     2.6043     0.0561   -36.6996    12.2359     7.5112     8.3135
 2810.5000     7.8494    96.9294     2.6093     0.0551   -36.8978    10.4520     7.1063     7.8654
 2811.0000     7.7699    95.9356     2.6203     0.0771   -36.6991    10.0711     6.7233     7.6504
 2811.5000     7.7898    96.7315     2.6243     0.0781   -36.6988     9.9777     6.3609     7.3051
 2812.0000     7.7898   101.5045     2.6283     0.0831   -36.6986     9.9771     6.1301     7.1710
 2812.5000     7.7898   104.2889     2.6363     0.0931   -36.3013     9.2638     5.8324     6.7845
 2813.0000     7.7898   110.4541     2.6283     0.0970   -36.1025     8.7625     5.5487     6.3599
 2813.5000     7.7899   118.0113     2.5903     0.0799   -36.1022     8.2118     5.2788     5.9071
 2814.0000     7.7899   128.7507     2.5694     0.0621   -35.9034     8.1356     4.8665     5.5888
 2814.5000     7.7899   128.9503     2.5674     0.0551   -35.9032     7.5538     4.7335     5.2390
 2815.0000     7.7899   121.9907     2.5683     0.0471   -35.7044     6.2761     4.5618     5.0027
 2815.5000     7.7899   120.9970     2.5594     0.0411   -35.7041     5.9917     4.1658     4.8659
 2816.0000     7.7899   124.3786     2.5434     0.0261   -35.7038     6.2176     3.8394     4.6463
 2816.5000     7.7900   130.5444     2.5344     0.0401   -35.7035     6.6337     3.4585     4.4778
 2817.0000     7.7900   133.7271     2.5204     0.0461   -35.9018     6.1596     3.0676     4.2758
 2817.5000     7.7900   137.7055     2.5034     0.0411   -35.9015     5.6144     2.8757     3.9714
 2818.0000     7.7900   139.8940     2.4964     0.0710   -35.7027     4.9312     2.5537     3.7229
 2818.5000     7.7900   152.1877     2.4924     0.0700   -35.5038     4.4533     2.2147     3.4262
 2819.0000     7.7900   170.3009     2.4684     0.0770   -35.3049     4.1351     1.9207     2.7712
 2819.5000     7.7901   182.8158     2.4425     0.0690   -35.1061     4.0589     1.7473     2.5037
 2820.0000     7.7901   191.9651     2.4425     0.1060   -34.5101     3.9112     1.6685     2.1601
 2820.5000     7.7901   185.5410     2.3915     0.0650   -34.1126     2.3717     1.5727     1.7962
 2821.0000     7.7901   178.2424     2.3825     0.0450   -33.7152     2.0640     1.5074     1.6838
 2821.5000     7.7901   178.0437     2.3845     0.0640   -33.5163     1.9889     1.5213     1.6079
 2822.0000     7.7902   183.2310     2.3925     0.1739   -33.3174     2.2642     1.5931     1.5640
 2822.5000     7.7902   186.5968     2.3676     0.2178   -32.7213     3.1309     1.6837     1.5073
 2823.0000     7.7902   162.1328     2.3296     0.1948   -32.1252     2.9891     1.9243     1.5072
 2823.5000     7.7902   140.1027     2.3186     0.0550   -31.7277     1.9703     2.1992     1.5495
