~VERSION INFORMATION
 VERS.                2.0:   CWLS LOG ASCII STANDARD - VERSION 2.0
 WRAP.                 NO:   ONE LINE PER DEPTH STEP
~WELL INFORMATION
#MNEM.UNIT      DATA TYPE    INFORMATION
#----------   ------------   ------------------------------
 STRT.F            0.0000:   START DEPTH
 STOP.F         3440.0000:   STOP DEPTH
 STEP.F            0.5000:   STEP LENGTH
 NULL.          -999.2500:   NO VALUE
 COMP. FLOOR DANIEL (NPSOR):   COMPANY
 WELL. FLOOR DANIEL "SHX" #48-34:   WELL
 FLD .                NPR:   FIELD
 LOC .      S34 T39N R78W:   LOCATION
 CNTY.            NATRONA:   COUNTY
 STAT.            WYOMING:   STATE
 CTRY. UNITED STATES OF AMERICA:   COUNTRY
 SRVC.      WESTERN ATLAS:   SERVICE COMPANY
 DATE.        06-APR-1995:   LOGDATE
 API .     49025109220000:   API NUMBER
~CURVE INFORMATION
#MNEM.UNIT       API CODE    CURVE DESCRIPTION
#----------   ------------   ------------------------------
 DEPT.F                  :   
 TEND.LBS    45 635 01 00:   TENSION FROM DENSITY LOG
 ZCOR.G/C3   45 356 01 00:   DENSITY CORRECTION
 ZDEN.G/C3   45 350 01 00:   BULK DENSITY
 CALD.IN     45 280 60 00:   CALIPER FROM DENSITY LOG
 CNC .DEC    42 890 03 00:   NEUTRON POROSITY SANDSTONE
 GRR .GAPI   07 310 01 00:   GAMMA RAY FROM RESISTIVITY
 TENR.LBS    07 635 01 00:   TENSION FROM RESISTIVITY
 RFOC.OHMM   07 220 04 00:   RESISTIVITY FOCUSED LOG RES.
 RILD.OHMM   07 120 46 00:   DEEP INDUCTION RESISTIVITY
 RILM.OHMM   07 120 44 00:   INDUCTION LOG MEDIUM RESISTIVITY
~PARAMETER INFORMATION
#MNEM.UNIT          VALUE    DESCRIPTION
#----------   ------------   ------------------------------
 EKB .F         5182.0000:   Kelly bushing
 EGL .F         5172.0000:   Ground level
 EDF .F            0.0000:   Drilling floor
 EPD .F            0.0000:   Permanent datum
 TD  .F         3442.0000:   Total depth
 DATE.        06-APR-1995:   Date logged
 CLNT.            A2DTECH:   Client Code
 SL  . 97' FSL & 2256 FWL:   Surface Location
 PD  .                 GL:   Permanent Datum
 DD  .F              3442:   Depth driller
 DL  .F              3422:   Depth logger
 BLI .F              3420:   Bottom log interval
 CS1 .IN            8.625:   Casing size
 CBD1.      8.625" @ 667':   Casing driller 1
 BS1 .IN            7.875:   Bit size
 BSD1.F               AIR:   Depth drilled with bit1
 ENGI.      PAT RASMUSSEN:   Recorded By
 WITN.        GARY STRONG:   Witnessed by
 ORIG.           5" PRINT:   Origin of data
 UWI .     49025109220000:   Unique Well ID
 DICO. A2D TECHNOLOGIES, INC.:   Digitizing Company
 MRT .F               142:   Maximum recorded temp.
~OTHER INFORMATION
~A    DEPT    TEND       ZCOR       ZDEN       CALD        CNC         GRR      TENR       RFOC       RILD       RILM   
# ...
 2479.0000    47.8700     0.0250     2.5750     8.8620     0.2360   122.1080   -51.0600     5.9210     5.5560     5.7220
 2479.5000    42.8210     0.0210     2.5780     8.8590     0.2380   124.1720   -50.0000     5.9210     5.5130     5.6900
 2480.0000    37.7710     0.0170     2.5800     8.8560     0.2410   123.3310   -48.9400     5.9210     5.4700     5.6190
 2480.5000    35.9960     0.0130     2.5820     8.8530     0.2430   119.4120   -47.8800     5.8460     5.4280     5.5480
 2481.0000    35.9960     0.0090     2.5760     8.8490     0.2430   116.2160   -46.8200     5.6250     5.3850     5.4770
 2481.5000    35.9960     0.0130     2.5690     8.8530     0.2420   116.8960   -45.7590     5.4070     5.3210     5.4070
 2482.0000    35.9960     0.0170     2.5610     8.8610     0.2410   120.4360   -44.6990     5.5890     5.3240     5.5060
 2482.5000    35.9960     0.0200     2.5540     8.8680     0.2390   123.3250   -43.6390     5.7680     5.3830     5.5060
 2483.0000    35.9960     0.0240     2.5520     8.8750     0.2350   121.2800   -42.8990     5.9470     5.4420     5.6180
 2483.5000    35.9960     0.0230     2.5530     8.8820     0.2320   119.7350   -42.8990     6.1260     5.5010     5.7220
 2484.0000    35.9960     0.0210     2.5560     8.8890     0.2280   117.8330   -42.8990     6.3040     5.5600     5.8260
 2484.5000    35.9960     0.0190     2.5590     8.8960     0.2280   118.3610   -42.8990     6.4830     5.7100     5.9300
 2485.0000    35.9960     0.0170     2.5620     8.9030     0.2290   120.9120   -42.8990     6.7240     5.7030     6.0300
 2485.5000    43.0970     0.0270     2.5620     8.9100     0.2290   123.3920   -42.8990     6.5900     5.6870     5.9880
 2486.0000    57.5230     0.0300     2.5590     8.9170     0.2350   123.5280   -42.8990     6.3440     5.6700     5.9480
 2486.5000    71.9500     0.0210     2.5560     8.9240     0.2420   119.9160   -42.8990     6.0560     5.6530     5.8920
 2487.0000    75.4440     0.0130     2.5540     8.9290     0.2400   115.7680   -42.8990     5.7100     5.6370     5.8010
 2487.5000    75.4440     0.0050     2.5520     8.9280     0.2340   115.5440   -42.8990     5.7950     5.6120     5.7100
 2488.0000    75.4440    -0.0020     2.5580     8.9280     0.2270   116.4100   -42.8990     6.0130     5.6220     5.7100
 2488.5000    75.4440     0.0020     2.5630     8.9280     0.2210   115.7810   -42.8990     6.2310     5.6890     5.7510
 2489.0000    75.4440     0.0060     2.5700     8.9280     0.2210   114.0520   -42.8990     6.4490     5.7560     5.8430
 2489.5000    75.4440     0.0110     2.5680     8.9280     0.2210   114.2070   -42.8990     6.6670     5.8150     5.9350
 2490.0000    75.4440     0.0150     2.5620     8.9280     0.2250   115.0250   -42.8990     6.8480     5.8150     6.0300
 2490.5000    75.4440     0.0160     2.5580     8.9280     0.2300   118.8330   -42.8990     6.6310     5.7930     5.9760
 2491.0000    84.7800     0.0150     2.5530     8.9280     0.2350   122.6550   -42.8990     6.4050     5.7540     5.9210
 2491.5000    93.6810     0.0130     2.5540     8.9280     0.2400   125.7070   -42.8990     6.1790     5.7100     5.8310
 2492.0000    89.7970     0.0140     2.5570     8.9280     0.2450   125.7550   -42.8990     5.9530     5.6010     5.7430
 2492.5000    85.9130     0.0170     2.5590     8.9280     0.2480   123.0930   -42.8990     5.7100     5.4740     5.6540
 2493.0000    82.0290     0.0200     2.5560     8.9280     0.2470   119.8470   -42.8990     5.7100     5.3480     5.5660
 2493.5000    78.1440     0.0230     2.5530     8.9280     0.2450   117.4150   -42.8990     5.7990     5.2210     5.4770
 2494.0000    77.6420     0.0240     2.5500     8.9280     0.2440   121.3430   -42.8990     5.7830     5.1210     5.4070
 2494.5000    84.8550     0.0220     2.5480     8.9280     0.2430   124.8460   -42.8990     5.6330     5.1810     5.4070
 2495.0000    92.0680     0.0200     2.5440     8.9280     0.2420   122.8780   -42.8990     5.4070     5.2550     5.4070
 2495.5000    99.2810     0.0170     2.5460     8.9280     0.2390   121.9980   -42.8990     5.4500     5.3290     5.4070
 2496.0000   106.4950     0.0150     2.5520     8.9280     0.3000   121.3990   -42.8990     5.5710     5.4070     5.4070
 2496.5000   114.8920     0.0130     2.5610     8.9280     0.3900   120.5140   -42.8990     5.7640     5.3440     5.4070
 2497.0000   107.2170     0.0100     2.5620     8.9280     0.4970   118.2130   -42.8990     5.9570     5.2760     5.4070
 2497.5000    98.0370     0.0120     2.5660     8.9280     0.6050   115.1060   -42.8990     6.0300     5.2090     5.4070
 2498.0000    88.8560     0.0220     2.5730     8.9280     0.6380   115.7670   -42.8990     5.8880     5.1420     5.3410
 2498.5000    79.6750     0.0330     2.5860     8.9280     0.6410   119.6030   -42.8990     5.5790     5.0750     5.2620
 2499.0000    75.4440     0.0320     2.5870     8.9280     0.6440   121.3950   -42.8990     5.3100     5.0070     5.1830
 2499.5000    75.4440     0.0230     2.5890     8.9280     0.6450   119.7500   -42.8990     5.1900     4.9380     5.1040
 2500.0000    75.4440     0.0140     2.5910     8.9280     0.6450   117.4040   -42.8990     5.0840     4.8620     5.0250
 2500.5000    75.4440     0.0150     2.5920     8.9280     0.6450   120.2380   -42.8990     4.9380     4.7840     4.9460
 2501.0000    75.4440     0.0200     2.5930     8.9290     0.6460   123.0130   -42.8990     4.9800     4.7050     4.8670
 2501.5000    75.4440     0.0250     2.5940     8.9280     0.6460   124.5350   -42.8990     5.0460     4.6270     4.7880
 2502.0000    75.4440     0.0280     2.5960     8.9280     0.6470   123.6630   -42.8990     5.1210     4.5490     4.6570
 2502.5000    75.4440     0.0300     2.5970     8.9300     0.6470   121.2930   -42.8990     5.0380     4.4150     4.5000
 2503.0000    75.4440     0.0340     2.5810     8.9490     0.6480   121.7320   -44.7400     4.9380     4.2220     4.3430
 2503.5000    75.4440     0.0360     2.5380     8.9660     0.6500   124.1710   -46.4170     4.8490     4.0290     4.1860
 2504.0000    75.4440     0.0910     2.4950     8.9820     0.6520   127.7360   -48.0930     4.4950     3.8290     4.0290
 2504.5000    75.4440     0.1760     2.4530     9.0050     0.6540   129.8370   -49.7700     4.1850     3.7080     3.8990
 2505.0000    75.4440     0.2230     2.4090     8.9640     0.6550   128.3200   -51.4460     3.9730     3.5820     3.7530
 2505.5000    68.6500     0.2210     2.4140     8.8580     0.6540   127.0660   -53.1230     3.8290     3.4340     3.5580
 2506.0000    57.4730     0.2190     2.4270     8.8200     0.6530   125.7170   -54.7990     3.8290     3.4120     3.3720
 2506.5000    46.2960     0.1920     2.5110     8.8200     0.6510   124.5980   -56.4760     4.0270     3.3720     3.4340
 2507.0000    35.9960     0.1360     2.5670     8.8200     0.6500   124.5340   -58.1530     4.2180     3.4100     3.4970
 2507.5000    35.9960     0.0630     2.5840     8.8200     0.6510   127.8740   -59.8290     4.4280     3.4900     3.6260
 2508.0000    35.9960     0.1150     2.5820     8.8200     0.6510   130.4220   -61.5060     4.1930     3.5700     3.7200
 2508.5000    35.9960     0.0670     2.5810     8.8200     0.6500   131.1180   -61.8250     4.0430     3.6510     3.8150
 2509.0000    35.9960     0.1680     2.5850     8.8180     0.6470   128.8270   -59.4300     4.1180     3.7310     3.9100
 2509.5000  -220.4140     0.0600     2.5960     8.8200     0.6430   126.7210   -57.0350     4.4770     3.8110     4.0040
 2510.0000  -220.4140     0.0340     2.5940     8.8200     0.6400   126.6100   -54.6400     4.9380     3.8920     4.1180
 2510.5000   -22.7270     0.0280     2.5560     8.8200     0.2580   127.9600   -52.2450     4.9050     3.9710     4.1520
 2511.0000    -2.9640     0.0250     2.5540     8.8200     0.2630   128.4000   -49.8500     4.8250     4.0320     4.1950
 2511.5000     4.2490     0.0300     2.5490     8.8200     0.2680   127.3160   -47.4550     4.7440     4.0920     4.2390
 2512.0000    12.6150     0.0350     2.5460     8.8200     0.2630   126.1170   -45.0600     4.6640     4.1520     4.2990
