~VERSION INFORMATION
 VERS.                2.0:   CWLS LOG ASCII STANDARD - VERSION 2.0
 WRAP.                 NO:   ONE LINE PER DEPTH STEP
~WELL INFORMATION
#MNEM.UNIT      DATA TYPE    INFORMATION
#----------   ------------   ------------------------------
 STRT.F          204.0000:   START DEPTH
 STOP.F         3024.0000:   STOP DEPTH
 STEP.F            0.5000:   STEP LENGTH
 NULL.          -999.2500:   NO VALUE
 COMP.    FENIX & SCISSON:   COMPANY
 WELL. FENIX NPR 3 "AX" #87-33:   WELL
 FLD .      NPR - WILDCAT:   FIELD
 LOC .      S33 T39N R78W:   LOCATION
 CNTY.            NATRONA:   COUNTY
 STAT.            WYOMING:   STATE
 CTRY. UNITED STATES OF AMERICA:   COUNTRY
 SRVC.              WELEX:   SERVICE COMPANY
 DATE.        20-JUN-1977:   LOGDATE
 API .     49025103840000:   API NUMBER
~CURVE INFORMATION
#MNEM.UNIT       API CODE    CURVE DESCRIPTION
#----------   ------------   ------------------------------
 DEPT.F                  :   
 SPR .MV     07 010 01 00:   SPONTANEOUS POTENTIAL
 ILD .OHMM   07 120 46 00:   DEEP INDUCTION RESISTIVITY
 ILM .OHMM   07 120 44 00:   INDUCTION LOG MEDIUM RESISTIVITY
 SGRD.OHMM   07 220 05 00:   SHALLOW SHORT GUARD RESISTIVITY
 CALD.IN     45 280 60 00:   CALIPER FROM DENSITY LOG
 GRD .GAPI   45 310 01 00:   GAMMA RAY FROM DENSITY LOG
 RHOB.G/C3   45 350 01 00:   BULK DENSITY
 CORR.G/C3   45 356 01 00:   DENSITY CORRECTION
~PARAMETER INFORMATION
#MNEM.UNIT          VALUE    DESCRIPTION
#----------   ------------   ------------------------------
 EKB .F         5170.0000:   Kelly bushing
 EGL .F         5160.0000:   Ground level
 TD  .F         3040.0000:   Total depth
 DATE.        20-JUN-1977:   Date logged
 CLNT.            A2DTECH:   Client Code
 SL  . 800' FSL & 100' FEL:   Surface Location
 PD  .                 GL:   Permanent Datum
 EPD .F              5160:   Elevation Permanent Datum
 LMF .                 KB:   Log Measured From
 DMF .                 KB:   Drilling Measured From
 DD  .F              3040:   Depth driller
 DL  .F              3027:   Depth logger
 BLI .F              3025:   Bottom log interval
 TLI .F               200:   Top log interval
 CS1 .IN            8.625:   Casing size
 CBD1.      8.625" @ 230':   Casing driller 1
 CBL1.F               210:   Casing logger 1
 BS1 .IN            7.875:   Bit size
 BSD1.F              3040:   Depth drilled with bit1
 DFT .                KCL:   Type fluid in hole
 DFD .                9.2:   Density
 DFV .                 38:   Viscosity
 DFPH.                7.5:   pH
 DFL .                5.4:   Fluid loss
 MSS .           FLOWLINE:   Source of sample
 RMS .OHMM            .60:   Rm
 MST .F                92:   Rm Meas. temp.
 RMF .OHMM            .29:   Rmf
 MFST.F                92:   Rmf Meas. temp.
 RMC .OHMM            .76:   Rmc
 MCST.F                92:   Rmc Meas. temp.
 MFSS.               MEAS:   Source Rmf.
 MCSS.               MEAS:   Source Rmc.
 RMB .OHMM            .49:   Rm. at BHT
 BHT .F               112:   BHT.
 TCS .HRS               2:   Time Circ. stopped
 MRT .F               112:   Maximum recorded temp.
 LUN .               8611:   Logging unit number
 LUL .           GILLETTE:   Logging unit location
 ENGI.            C. DOAK:   Recorded By
 WITN.      B. HARRINGTON:   Witnessed by
 ORIG.     2.5", 5" PRINT:   Origin of data
 UWI .     49025103840000:   Unique Well ID
 DICO. A2D TECHNOLOGIES, INC.:   Digitizing Company
~OTHER INFORMATION
~A   DEPT      SPR        ILD        ILM       SGRD         CALD       GRD        RHOB      CORR  
# ...
 1864.5000   -59.0960     6.3070     7.6650     7.1390     9.3000   127.3100     2.4590    -0.0110
 1865.0000   -59.0530     6.3680     7.8890     8.7000     9.3050   126.0770     2.4780    -0.0140
 1865.5000   -59.0090     6.4760     8.0900     9.8750     9.3090   124.8410     2.4880    -0.0140
 1866.0000   -58.9660     6.6280     8.2900     9.8510     9.3100   123.5990     2.4920    -0.0110
 1866.5000   -58.9230     6.7800     8.4910     9.7770     9.3100   122.3750     2.4920    -0.0090
 1867.0000   -58.8780     6.9320     8.5760     9.6980     9.3060   122.3320     2.4930    -0.0060
 1867.5000   -58.8360     7.0110     8.6200     9.4790     9.2780   122.9080     2.4960    -0.0040
 1868.0000   -58.7930     7.0270     8.6630     9.2440     9.2500   124.4900     2.5010    -0.0030
 1868.5000   -58.8190     7.0430     8.7000     9.0100     9.2220   126.0650     2.5060    -0.0020
 1869.0000   -58.8500     7.0590     8.7090     8.7760     9.1940   127.0800     2.5030    -0.0050
 1869.5000   -58.8830     7.0750     8.7340     8.5410     9.1700   127.7250     2.4940    -0.0110
 1870.0000   -58.9140     7.0910     8.7590     8.3910     9.1620   128.5190     2.4830    -0.0170
 1870.5000   -58.9450     7.1070     8.7840     8.3910     9.1530   129.3370     2.4750    -0.0210
 1871.0000   -58.9770     7.1230     8.8090     8.5410     9.1450   128.8080     2.4690    -0.0230
 1871.5000   -59.0090     7.1380     8.8340     8.9520     9.1360   128.0410     2.4640    -0.0250
 1872.0000   -59.0400     7.1510     8.8590     9.3620     9.1270   126.9330     2.4600    -0.0250
 1872.5000   -59.0720     7.1650     8.8820     9.6980     9.1190   124.6280     2.4570    -0.0250
 1873.0000   -59.1040     7.1790     8.9060     9.5240     9.1120   122.3550     2.4580    -0.0250
 1873.5000   -59.1350     7.1920     8.9300     8.3910     9.1140   120.3670     2.4640    -0.0250
 1874.0000   -59.1670     7.2050     8.9540     8.3910     9.1170   118.6980     2.4700    -0.0250
 1874.5000   -59.1980     7.2190     8.9790    11.2090     9.1200   117.2110     2.4760    -0.0240
 1875.0000   -59.2300     7.2330     9.0020    11.2090     9.1230   117.2810     2.4810    -0.0220
 1875.5000   -59.2620     7.2470     9.0210    10.5730     9.1250   119.3950     2.4850    -0.0200
 1876.0000   -59.2930     7.2600     8.9670     9.5240     9.1280   122.9900     2.4830    -0.0170
 1876.5000   -59.3250     7.1890     8.9220     9.1660     9.1310   125.9410     2.4820    -0.0150
 1877.0000   -59.3570     7.1180     8.8760     8.8100     9.1370   127.0520     2.4830    -0.0150
 1877.5000   -59.3880     7.0480     8.8410     8.3910     9.1510   127.0580     2.4860    -0.0140
 1878.0000   -59.4200     6.9770     8.7570     8.3470     9.1660   125.6070     2.4810    -0.0130
 1878.5000   -59.4520     6.9060     8.6740     8.2930     9.1710   122.9470     2.4790    -0.0130
 1879.0000   -59.4830     6.8360     8.5900     8.2410     9.1650   121.1530     2.4800    -0.0130
 1879.5000   -59.5150     6.7530     8.5060     8.3980     9.1580   119.6250     2.4800    -0.0130
 1880.0000   -59.5470     6.7810     8.4230     8.5440     9.1520   119.5650     2.4780    -0.0130
 1880.5000   -59.5700     6.8130     8.3390     9.2390     9.1530   120.8920     2.4770    -0.0120
 1881.0000   -59.5700     6.8460     8.2550     9.8750     9.1550   123.1040     2.4760    -0.0110
 1881.5000   -59.5710     6.8780     8.1720     9.8750     9.1560   125.3240     2.4840    -0.0100
 1882.0000   -59.5700     6.9110     8.0930     9.6470     9.1580   127.4260     2.4850    -0.0090
 1882.5000   -59.5700     6.9440     8.0460     9.3790     9.1590   126.8190     2.4800    -0.0080
 1883.0000   -59.5700     6.9760     7.9740     9.1100     9.1610   126.3790     2.4790    -0.0080
 1883.5000   -59.5700     7.0090     7.9030     8.7000     9.1630   127.3820     2.4800    -0.0080
 1884.0000   -59.5700     7.0410     7.8310     8.8080     9.1640   129.0040     2.4710    -0.0090
 1884.5000   -59.5700     7.0740     7.7600     9.0380     9.1660   130.0880     2.4580    -0.0100
 1885.0000   -59.5700     7.1230     7.6880     9.2680     9.1670   129.2440     2.4440    -0.0120
 1885.5000   -59.5700     7.1100     7.6540     9.5240     9.1690   128.5580     2.4460    -0.0130
 1886.0000   -59.5700     7.0390     7.6160     9.5240     9.1700   128.2350     2.4510    -0.0100
 1886.5000   -59.5700     6.9690     7.5780     9.5240     9.1720   127.9040     2.4550    -0.0060
 1887.0000   -59.5700     6.8980     7.5390     9.5240     9.1820   127.5780     2.4620    -0.0010
 1887.5000   -59.5700     6.6530     7.5280     9.2380     9.1910   126.6590     2.4680     0.0050
 1888.0000   -59.5700     6.3170     7.3440     8.8290     9.2010   125.5090     2.4720     0.0110
 1888.5000   -59.5710     5.9500     7.1400     8.5440     9.2100   124.6910     2.4760     0.0170
 1889.0000   -59.5690     5.6560     6.9350     8.5440     9.2190   124.9760     2.4760     0.0210
 1889.5000   -59.5710     5.3320     6.4490     8.5440     9.2290   125.4590     2.4680     0.0240
 1890.0000   -59.5790     5.0080     5.8490     7.5280     9.2470   124.3850     2.4600     0.0220
 1890.5000   -59.7050     4.7690     5.2490     5.6350     9.2680   123.1730     2.4530     0.0190
 1891.0000   -59.8180     4.7080     4.9650     3.8540     9.2900   121.9980     2.4470     0.0150
 1891.5000   -59.9380     4.6180     4.9650     4.9080     9.3110   122.8690     2.4460     0.0110
 1892.0000   -60.0550     4.6570     5.0950     7.6650     9.3320   123.3310     2.4570     0.0070
 1892.5000   -60.1720     4.7290     5.2420     7.9480     9.3510   122.7920     2.4490     0.0030
 1893.0000   -60.2900     4.8000     5.1980     7.7250     9.3600   122.2740     2.4340    -0.0020
 1893.5000   -60.4090     4.8760     5.1480     7.3150     9.3690   122.6990     2.4250    -0.0070
 1894.0000   -60.5240     4.9260     5.1800     4.7890     9.3800   124.7110     2.4220    -0.0130
 1894.5000   -60.6450     4.9780     5.2140     5.4080     9.3890   126.5070     2.4380    -0.0190
 1895.0000   -60.7520     5.0310     5.2420     6.8770     9.3800   128.3380     2.4580    -0.0190
 1895.5000   -60.9150     5.0830     5.3510     8.5440     9.3690   128.6480     2.4740    -0.0180
 1896.0000   -61.0580     5.1360     5.4460     8.2930     9.3580   128.7120     2.4770    -0.0150
 1896.5000   -61.2080     5.2260     5.5400     7.8500     9.3450   129.9210     2.4740    -0.0150
 1897.0000   -61.3540     5.3280     5.6340     7.4060     9.3240   131.9250     2.4700    -0.0140
 1897.5000   -61.5000     5.4300     5.7290     7.1300     9.3040   133.7880     2.4680    -0.0140
 1898.0000   -61.6490     5.5320     5.8230     7.1300     9.2830   134.5000     2.4690    -0.0130
 1898.5000   -61.7960     5.6350     5.8430     7.8050     9.2620   135.1900     2.4710    -0.0100
 1899.0000   -61.9080     5.5850     5.8430     7.8050     9.2420   135.0970     2.4730    -0.0070
 1899.5000   -61.8670     5.5340     5.8430     7.8050     9.2260   134.7270     2.4750    -0.0030
 1900.0000   -61.8330     5.4910     5.8430     8.0740     9.2160   133.1230     2.4790     0.0000
 1900.5000   -61.7930     5.4170     5.8430     8.7000     9.2070   131.0340     2.4850     0.0020
 1901.0000   -61.7560     5.3440     5.6960     8.3360     9.1970   128.9380     2.4870     0.0040
 1901.5000   -61.7190     5.2700     5.5490     7.7330     9.1930   126.8390     2.4790     0.0050
 1902.0000   -61.6810     5.1360     5.4020     7.2080     9.1970   124.6870     2.4710     0.0070
 1902.5000   -61.6420     4.9640     5.2550     6.8770     9.2000   122.4680     2.4770     0.0080
 1903.0000   -61.6070     4.7910     5.1080     6.9050     9.2030   122.4330     2.4820     0.0090
 1903.5000   -61.5650     4.6190     4.9650     6.9500     9.2060   123.0670     2.4720     0.0100
 1904.0000   -61.5230     4.4470     4.8190     7.0020     9.2090   123.4820     2.4630     0.0090
 1904.5000   -61.3930     4.2740     4.6760     6.5800     9.2100   123.2240     2.4530     0.0060
