~VERSION INFORMATION
 VERS.                2.0:   CWLS LOG ASCII STANDARD - VERSION 2.0
 WRAP.                 NO:   ONE LINE PER DEPTH STEP
~WELL INFORMATION
#MNEM.UNIT      DATA TYPE    INFORMATION
#----------   ------------   ------------------------------
 STRT.F          470.0000:   START DEPTH
 STOP.F         3791.5000:   STOP DEPTH
 STEP.F            0.5000:   STEP LENGTH
 NULL.          -999.2500:   NO VALUE
 COMP.    FENIX & SCISSON:   COMPANY
 WELL.   FENIX MDX #44-10:   WELL
 FLD .                NPR:   FIELD
 LOC .      S10 T38N R78W:   LOCATION
 CNTY.            NATRONA:   COUNTY
 STAT.            WYOMING:   STATE
 CTRY. UNITED STATES OF AMERICA:   COUNTRY
 SRVC.       SCHLUMBERGER:   SERVICE COMPANY
 DATE.        25-OCT-1977:   LOGDATE
 API .     49025104310000:   API NUMBER
~CURVE INFORMATION
#MNEM.UNIT       API CODE    CURVE DESCRIPTION
#----------   ------------   ------------------------------
 DEPT.F                  :   
 DT  .US/F   60 520 00 00:   DELTA TIME
 SPR .MV     11 010 01 00:   SPONTANEOUS POTENTIAL FROM RES.
 LLS .OHMM   11 220 09 00:   LATEROLOG LOG SHALLOW
 LLD .OHMM   11 220 10 00:   LATEROLOG LOG DEEP
 MSFL.OHMM   11 270 04 00:   MICRO SPHERICALLY FOCUSED
 NPOR.DEC    42 890 03 00:   ALPHA PROCESSED NEUTRON POROSITY
 RHOB.G/C3   45 350 01 00:   BULK DENSITY
 CORR.G/C3   45 356 01 00:   DENSITY CORRECTION
 GRD .GAPI   45 310 01 00:   GAMMA RAY FROM DENSITY LOG
 CALD.IN     45 280 60 00:   CALIPER FROM DENSITY LOG
~PARAMETER INFORMATION
#MNEM.UNIT          VALUE    DESCRIPTION
#----------   ------------   ------------------------------
 EKB .F         5239.0000:   Kelly bushing
 EGL .F         5229.0000:   Ground level
 EDF .F            0.0000:   Drilling floor
 EPD .F           10.0000:   Permanent datum
 TD  .F         3802.0000:   Total depth
 DATE.        25-OCT-1977:   Date logged
 CLNT.            A2DTECH:   Client Code
 SL  . 2640' FNL & 2640' FEL:   Surface Location
 PD  .                 GL:   Permanent Datum
 DD  .F              3802:   Depth driller
 DL  .F              3791:   Depth logger
 BLI .F              3789:   Bottom log interval
 TLI .F               505:   Top log interval
 CS1 .IN            8.625:   Casing size
 CBD1.       8.625 @ 505':   Casing driller 1
 CBL1.F               505:   Casing logger 1
 BS1 .IN            7.875:   Bit size
 DFT .            KCL MUD:   Type fluid in hole
 DFD .                9.1:   Density
 DFV .                 45:   Viscosity
 DFPH.               10.5:   pH
 DFL .                  8:   Fluid loss
 MSS .             MUDPIT:   Source of sample
 RMS .OHMM           .209:   Rm
 MST .F                72:   Rm Meas. temp.
 RMF .OHMM           .179:   Rmf
 MFST.F                72:   Rmf Meas. temp.
 RMC .OHMM           .314:   Rmc
 MCST.F                72:   Rmc Meas. temp.
 MFSS.               MEAS:   Source Rmf.
 RMB .OHMM           .122:   Rm. at BHT
 BHT .F               123:   BHT.
 TCS .HRS            1400:   Time Circ. stopped
 MRT .F               123:   Maximum recorded temp.
 LUN .               5642:   Logging unit number
 LUL .               CSPR:   Logging unit location
 ENGI.             SAYLER:   Recorded By
 WITN.         PETTINGILL:   Witnessed by
 ORIG.           5" PRINT:   Origin of data
 UWI .     49025104310000:   Unique Well ID
 DICO. A2D TECHNOLOGIES, INC.:   Digitizing Company
 DAPD.                 10:   Feet Above Permanent Datum
 BSD1.               3802:   Depth drilled with bit1
 MCSS.               CALC:   Source Rmc.
~OTHER INFORMATION
~A   DEPT        DT       SPR        LLS        LLD       MSFL       NPOR       RHOB       CORR        GRD       CALD   
# ...
  704.5000   105.8890   -26.4800     6.7060     6.2980     7.0810     0.4040     2.4690     0.0080   109.7860    10.7320
  705.0000   105.9770   -26.4690     6.8100     6.2940     7.1880     0.3940     2.4930     0.0000   109.0480    10.7320
  705.5000   106.0650   -26.4580     6.9140     6.4450     7.2950     0.3790     2.4710    -0.0030   107.9440    10.7380
  706.0000   106.1500   -26.4480     7.0180     6.5630     7.4020     0.3660     2.4860     0.0010   106.8490    10.7530
  706.5000   106.0900   -26.4380     7.1220     6.6810     7.5100     0.3860     2.4950     0.0240   106.1390    10.7680
  707.0000   106.0310   -26.3930     7.2260     6.7990     7.6710     0.3820     2.4880    -0.0050   106.2630    10.7830
  707.5000   105.9730   -26.3430     7.3300     6.9170     7.8990     0.3650     2.4810    -0.0010   106.4050    10.7990
  708.0000   105.6680   -26.2930     7.4310     7.0960     8.0730     0.3700     2.4740    -0.0100   106.5480    10.8140
  708.5000   105.2040   -26.2430     7.3680     7.0370     7.9850     0.3780     2.4660     0.0030   106.6920    10.8290
  709.0000   104.7400   -26.1930     7.3080     6.9440     7.9150     0.3880     2.4580    -0.0150   106.8350    10.8440
  709.5000   104.3020   -26.1420     7.2480     6.8510     7.8440     0.3890     2.4550    -0.0090   106.9790    10.8510
  710.0000   103.8820   -26.0920     7.1870     6.7580     7.7730     0.3840     2.4710    -0.0080   107.1310    10.8670
  710.5000   103.4500   -26.0420     7.1270     6.6650     7.7020     0.3750     2.4790     0.0130   107.2810    10.8840
  711.0000   103.4900   -25.9920     7.0670     6.5920     7.6320     0.3790     2.4750    -0.0040   108.6710    10.9000
  711.5000   103.5320   -25.9420     7.0310     6.5930     7.5610     0.3870     2.4860     0.0110   111.4020    10.9170
  712.0000   103.4460   -25.8920     7.0310     6.5980     7.4900     0.3870     2.4920    -0.0040   112.2840    10.9340
  712.5000   103.2500   -25.8420     7.0310     6.6030     7.4190     0.3780     2.4740     0.0010   110.9980    10.9510
  713.0000   103.7220   -25.8200     7.0310     6.6070     7.3630     0.3860     2.4820     0.0180   109.7250    10.9630
  713.5000   104.2190   -25.7990     7.0310     6.6120     7.3630     0.3820     2.4930     0.0100   108.4390    10.9750
  714.0000   104.5840   -25.7770     7.0310     6.6170     7.3630     0.3730     2.4970     0.0210   107.1530    10.9870
  714.5000   104.0870   -25.7560     7.0310     6.6220     7.3630     0.3640     2.4880     0.0140   105.8590    10.9990
  715.0000   104.0300   -25.7340     7.0310     6.6260     7.3630     0.3530     2.4780    -0.0020   105.1520    11.0110
  715.5000   104.1500   -25.7130     7.0310     6.6310     7.3630     0.3500     2.4680    -0.0200   104.8010    11.0220
  716.0000   103.7460   -25.6920     7.0310     6.6360     7.3630     0.3640     2.4640    -0.0090   104.4530    11.0310
  716.5000   103.3500   -25.6700     7.0320     6.6410     7.3630     0.3630     2.4650    -0.0030   104.1070    11.0340
  717.0000   103.4530   -25.6490     7.0320     6.6450     7.3630     0.3610     2.4710    -0.0090   103.7610    11.0380
  717.5000   103.5680   -25.6270     6.9640     6.6500     7.3630     0.3540     2.4770     0.0080   103.4140    11.0410
  718.0000   103.6220   -25.6060     6.8940     6.6530     7.3630     0.3490     2.4820     0.0080   103.0600    11.0450
  718.5000   103.5220   -25.5840     6.8250     6.5340     7.3630     0.3580     2.4810    -0.0030   102.9430    11.0480
  719.0000   103.5650   -25.5630     6.7550     6.4460     7.3630     0.3690     2.4710     0.0090   102.8920    11.0410
  719.5000   103.9860   -25.5410     6.6530     6.3540     7.3630     0.3770     2.4780     0.0000   102.8450    11.0250
  720.0000   104.4060   -25.5200     6.6840     6.3890     7.3630     0.3820     2.4920     0.0290   102.7970    11.0080
  720.5000   104.5230   -25.4990     6.7410     6.4260     7.3630     0.3950     2.4870     0.0010   102.7490    10.9920
  721.0000   104.4650   -25.4770     6.7980     6.4630     7.3630     0.3980     2.4820     0.0200   102.7020    10.9760
  721.5000   104.4060   -25.4550     6.8550     6.5000     7.3630     0.3910     2.4790     0.0010   102.6510    10.9590
  722.0000   104.3500   -25.5040     6.9120     6.5370     7.3630     0.3940     2.4740     0.0130   102.6000    10.9430
  722.5000   104.4790   -25.6130     6.9690     6.5740     7.3630     0.3970     2.4690     0.0030   102.0270    10.9260
  723.0000   104.5500   -25.7220     7.0310     6.5920     7.3630     0.3950     2.4640    -0.0040   100.8060    10.9110
  723.5000   104.6860   -25.8320     7.0140     6.6480     7.3630     0.3840     2.4640    -0.0120    99.5880    10.8960
  724.0000   104.8520   -25.9410     6.9950     6.7150     7.3630     0.3800     2.4750     0.0120    98.3960    10.8820
  724.5000   105.0180   -26.0510     6.9670     6.7400     7.2560     0.3790     2.4870     0.0010    97.9060    10.8680
  725.0000   104.8000   -26.1610     6.9940     6.7750     7.1380     0.3750     2.4780     0.0160   100.5530    10.8540
  725.5000   104.6230   -26.2780     7.0490     6.8100     7.0310     0.3660     2.4890     0.0160   103.1380    10.8400
  726.0000   104.9950   -26.4370     7.1040     6.8460     6.2570     0.3590     2.4710    -0.0130   105.6900    10.8260
  726.5000   105.1080   -26.5910     7.1590     6.8810     5.5510     0.3620     2.4750    -0.0070   105.9870    10.8120
  727.0000   105.0370   -26.7440     7.2140     6.9160     5.1880     0.3680     2.4860     0.0110   102.1430    10.7980
  727.5000   104.9660   -26.8980     7.2690     6.9520     6.8570     0.3750     2.4840    -0.0030    98.2600    10.7960
  728.0000   104.8950   -27.0520     7.3240     6.9870     8.2230     0.3810     2.4750     0.0090    98.6050    10.8230
  728.5000   104.7960   -27.2050     7.3790     7.0230     8.1900     0.3880     2.4680    -0.0090   100.1090    10.8500
  729.0000   104.6470   -27.3590     7.4310     7.0580     8.1520     0.3820     2.4600     0.0060   101.6570    10.8770
  729.5000   104.6370   -27.5130     7.4310     7.0930     8.1150     0.3840     2.4730    -0.0050   103.2090    10.8880
  730.0000   104.8850   -27.6660     7.4310     7.1290     8.0770     0.3860     2.4670     0.0050   104.7690    10.8770
  730.5000   104.7810   -27.8200     7.4310     7.1620     8.0400     0.3750     2.4600     0.0050   106.0540    10.8670
  731.0000   104.5510   -27.9740     7.4310     7.1290     8.0020     0.3750     2.4630    -0.0070   104.5400    10.8560
  731.5000   104.3670   -28.1280     7.4310     7.0970     7.9640     0.3780     2.4630     0.0040   103.5860    10.8460
  732.0000   104.5020   -28.2810     7.4310     7.0660     7.9270     0.3700     2.4530    -0.0070   102.6490    10.8350
  732.5000   104.6500   -28.4350     7.4320     7.0340     7.8890     0.3630     2.4660     0.0080   101.6970    10.8330
  733.0000   104.2340   -28.5890     7.3680     7.0030     7.8530     0.3620     2.4630    -0.0080   102.0920    10.8350
  733.5000   104.5110   -28.6600     7.3180     6.9710     7.7860     0.3670     2.4640     0.0160   103.1550    10.8370
  734.0000   104.5680   -28.7150     7.2680     6.9400     7.7060     0.3540     2.4770    -0.0070   104.2280    10.8400
  734.5000   104.4020   -28.7690     7.2180     6.9080     7.6250     0.3540     2.4780     0.0070   105.2850    10.8420
  735.0000   104.4630   -28.8240     7.1680     6.8590     7.5450     0.3730     2.4760     0.0020   105.9240    10.8440
  735.5000   104.6290   -28.8790     7.1180     6.8060     7.4650     0.3550     2.4730    -0.0100   104.5510    10.8470
  736.0000   104.6730   -28.9340     7.0680     6.7530     7.3850     0.3550     2.4660    -0.0080   103.2130    10.8490
  736.5000   104.3890   -28.9880     7.0180     6.7000     7.3040     0.3670     2.4660     0.0090   101.8830    10.8510
  737.0000   104.5500   -29.0430     6.9680     6.6470     7.2240     0.3740     2.4710    -0.0010   100.5570    10.8680
  737.5000   104.7820   -29.0980     6.9180     6.5940     7.1440     0.3810     2.4870     0.0100    99.2220    10.8860
