~VERSION INFORMATION
 VERS.                2.0:   CWLS LOG ASCII STANDARD - VERSION 2.0
 WRAP.                 NO:   ONE LINE PER DEPTH STEP
~WELL INFORMATION
#MNEM.UNIT      DATA TYPE    INFORMATION
#----------   ------------   ------------------------------
 STRT.F          514.0000:   START DEPTH
 STOP.F         4154.0000:   STOP DEPTH
 STEP.F            0.5000:   STEP LENGTH
 NULL.          -999.2500:   NO VALUE
 COMP.    FENIX & SCISSON:   COMPANY
 WELL.  FENIX "MX" #86-10:   WELL
 FLD .        TEAPOT DOME:   FIELD
 LOC .      S10 T38N R78W:   LOCATION
 CNTY.            NATRONA:   COUNTY
 STAT.            WYOMING:   STATE
 CTRY. UNITED STATES OF AMERICA:   COUNTRY
 SRVC.       SCHLUMBERGER:   SERVICE COMPANY
 DATE.        30-SEP-1978:   LOGDATE
 API .     49025107290000:   API NUMBER
~CURVE INFORMATION
#MNEM.UNIT       API CODE    CURVE DESCRIPTION
#----------   ------------   ------------------------------
 DEPT.F                  :   
 SPR .MV     07 010 01 00:   SPONTANEOUS POTENTIAL
 TENR.LBS    07 635 01 00:   TENSION FROM RESISTIVITY
 SFL .OHMM   07 220 01 00:   SHALLOW FOCUSED LOG RESISTIVITY
 ILM .OHMM   07 120 44 00:   INDUCTION LOG MEDIUM RESISTIVITY
 ILD .OHMM   07 120 46 00:   INDUCTION LOG DEEP RESISTIVITY
 CALD.IN     45 280 60 00:   CALIPER FROM DENSITY LOG
 GRD .GAPI   45 310 01 00:   GAMMA RAY FROM DENSITY LOG
 TEND.LBS    45 635 01 00:   TENSION FROM DENSITY LOG
 CORR.G/C3   45 356 01 00:   DENSITY CORRECTION
 RHOB.G/C3   45 350 01 00:   BULK DENSITY
 NPHI.DEC    42 890 03 00:   NEUTRON POROSITY SANDSTONE
~PARAMETER INFORMATION
#MNEM.UNIT          VALUE    DESCRIPTION
#----------   ------------   ------------------------------
 EKB .F         5233.0000:   Kelly bushing
 EGL .F         5222.0000:   Ground level
 EDF .F            0.0000:   Drilling floor
 TD  .F         4150.0000:   Total depth
 DATE.        30-SEP-1978:   Date logged
 CLNT.            A2DTECH:   Client Code
 SL  . 1450' FSL & 600' FEL:   Surface Location
 PD  .                 GL:   Permanent Datum
 LMF .                 KB:   Log Measured From
 DMF .                 KB:   Drilling Measured From
 DAPD.F                11:   Feet Above Permanent Datum
 DD  .F              4150:   Depth driller
 DL  .F              4141:   Depth logger
 BLI .F              4135:   Bottom log interval
 TLI .F               520:   Top log interval
 CS1 .IN            9.625:   Casing size
 CBD1.      9.625" @ 529':   Casing driller 1
 CBL1.F               529:   Casing logger 1
 BS1 .IN             8.75:   Bit size
 BSD1.F              4150:   Depth drilled with bit1
 DFT .                FGM:   Type fluid in hole
 DFD .                9.5:   Density
 DFV .                 36:   Viscosity
 DFPH.                 11:   pH
 DFL .                 60:   Fluid loss
 MSS .           MUD TANK:   Source of sample
 RMS .OHMM            .57:   Rm
 MST .F                68:   Rm Meas. temp.
 RMF .OHMM           .449:   Rmf
 MFST.F                68:   Rmf Meas. temp.
 MFSS.               MEAS:   Source Rmf.
 RMB .OHMM            .27:   Rm. at BHT
 BHT .F               142:   BHT.
 TCS .HRS            1500:   Time Circ. stopped
 TLAB.HRS            0700:   Time logger at bottom
 MRT .F               142:   Maximum recorded temp.
 LUN .               8043:   Logging unit number
 LUL .               CSPR:   Logging unit location
 ENGI.             LARSON:   Recorded By
 WITN.           DINSMORE:   Witnessed by
 ORIG.           5" PRINT:   Origin of data
 UWI .     49025107290000:   Unique Well ID
 DICO. A2D TECHNOLOGIES, INC.:   Digitizing Company
 EPD .               5222:   Elevation Permanent Datum
~OTHER INFORMATION
~A   DEPT      SPR       TENR        SFL        ILM        ILD       CALD         GRD      TEND       CORR       RHOB         NPHI 
# ...
 4113.0000   -42.8310  1289.5400     7.2760     4.8560     5.3230     9.1590    99.5360  1589.8190     0.0120     2.5800     0.2060
 4113.5000   -42.8280  1289.6580     7.0040     4.8340     5.2020     9.1450    99.2270  1590.2271     0.0140     2.5810     0.1910
 4114.0000   -42.8290  1289.7750     6.4840     4.7510     5.0180     9.1310   103.7260  1590.6340     0.0160     2.5810     0.1960
 4114.5000   -42.8400  1289.8929     5.9650     4.6690     4.8330     9.1180   110.6410  1591.0420     0.0170     2.5830     0.2100
 4115.0000   -42.7200  1290.0100     5.4450     4.5870     4.6480     9.1050   113.8200  1591.4500     0.0190     2.5840     0.2240
 4115.5000   -42.5000  1290.1281     4.9460     4.5050     4.4630     9.0930   114.5090  1591.8571     0.0220     2.5860     0.2380
 4116.0000   -42.2960  1290.2450     5.2130     4.4230     4.2790     9.0810   114.4530  1592.2650     0.0250     2.5870     0.2500
 4116.5000   -42.0880  1290.3630     5.4700     4.3400     4.1150     9.0680   114.4690  1592.6730     0.0270     2.5890     0.2540
 4117.0000   -42.1040  1290.4800     5.8360     4.2580     4.0720     9.0560  -999.2500  1593.0800     0.0230     2.5890     0.2500
 4117.5000   -42.2150  1290.5980     5.6670     4.1920     4.0400     9.0450  -999.2500  1593.4880     0.0160     2.5830     0.2430
 4118.0000   -42.3250  1290.7150     5.3730     4.2280     4.0400     9.0410  -999.2500  1593.8960     0.0100     2.5730     0.2330
 4118.5000   -42.4300  1290.8320     5.0800     4.2740     4.0620     9.0370  -999.2500  1594.3030     0.0030     2.5630     0.2360
 4119.0000   -42.5380  1290.9500     4.7870     4.3190     4.1400     9.0340  -999.2500  1594.7111     0.0010     2.5550     0.2420
 4119.5000   -42.6460  1291.0670     4.5950     4.5540     4.3070     9.0310  -999.2500  1595.1190     0.0030     2.5530     0.2470
 4120.0000   -42.7530  1291.1851     5.1100     5.1460     4.6400     9.0280  -999.2500  1595.5270     0.0050     2.5510     0.2530
 4120.5000   -42.8610  1291.3020     5.6250     5.7390     4.9730     9.0240  -999.2500  1595.9340     0.0050     2.5540     0.2520
 4121.0000   -42.9680  1291.4200     7.1800     6.3320     5.3070     9.0210  -999.2500  1596.3420     0.0020     2.5650     0.2470
 4121.5000   -43.0750  1291.5370     9.1200     6.9240     5.6400     9.0180  -999.2500  1596.7500     0.0000     2.5820     0.2140
 4122.0000   -43.1850  1291.6550    11.9530     7.5170     6.4000     9.0140  -999.2500  1597.1570     0.0010     2.5970     0.1630
 4122.5000   -43.2310  1291.7720    11.9170     8.1090     7.3180     9.0110  -999.2500  1597.5649     0.0030     2.6130     0.1400
 4123.0000   -43.2050  1291.8900    11.8540     8.7020     8.2360     9.0080  -999.2500  1597.9730     0.0040     2.6130     0.1450
 4123.5000   -43.1770  1292.0070    11.7910     9.2410     8.7450     9.0040  -999.2500  1598.3800     0.0040     2.6140     0.1500
 4124.0000   -43.1490  1292.1250    11.7350     9.2410     8.6760     9.0010  -999.2500  1598.7880     0.0030     2.6110  -999.2500
 4124.5000   -43.1210  1292.2469    11.5220     9.1440     8.5360     8.9960  -999.2500  1599.1960     0.0020     2.6030  -999.2500
 4125.0000   -43.0930  1299.8929    11.5220     8.8650     8.3920     8.9920  -999.2500  1599.6030     0.0020     2.5940  -999.2500
 4125.5000   -43.0650  1307.8450    10.6640     8.5870     8.2480     8.9880  -999.2500  1600.0110     0.0010     2.5850  -999.2500
 4126.0000   -43.0370  1315.7980     9.0720     8.2760     8.1040     8.9840  -999.2500  1600.4189     0.0010     2.5760  -999.2500
 4126.5000   -43.0090  1323.7500     9.3370     8.3770     7.9770     8.9800  -999.2500  1600.8260     0.0000     2.5750  -999.2500
 4127.0000   -42.9810  1332.0081     9.8660     8.4920     7.6490     8.9760  -999.2500  1601.2340     0.0000     2.5870  -999.2500
 4127.5000   -42.9540  1303.6071    10.3950     8.5850     7.4110     8.9720  -999.2500  1601.6420     0.0000     2.6050  -999.2500
 4128.0000   -42.9250  1274.0699    10.9030     8.0780     7.0110     8.9680  -999.2500  1602.0490     0.0040     2.6230  -999.2500
 4128.5000   -42.8960  1252.4850    10.3340     7.6530     6.6370     8.9640  -999.2500  1602.4570     0.0320     2.6510  -999.2500
 4129.0000   -42.8730  1282.9690     8.9560     7.2760     6.2750     8.9620  -999.2500  1602.8650     0.0530     2.6700  -999.2500
 4129.5000   -42.8360  1317.4290     7.6220     6.8160     5.8640     8.9590  -999.2500  1603.2720     0.0530     2.6570  -999.2500
 4130.0000   -42.8080  1332.0081     6.3050     6.1870     5.4540     8.9570  -999.2500  1603.6801     0.0470     2.6370  -999.2500
 4130.5000   -42.5450  1325.7600     5.0380     5.5580     5.0440     8.9550  -999.2500  1604.0880     0.0410     2.6140  -999.2500
 4131.0000   -42.3310  1310.9910     5.0070     4.8560     4.6340     8.9530  -999.2500  1604.4950     0.0360     2.6010  -999.2500
 4131.5000   -42.0950  1296.2230     4.9770     4.5920     4.3880     8.9510  -999.2500  1604.9030     0.0360     2.5950  -999.2500
 4132.0000   -42.1630  1280.3180     4.9460     4.5120     4.4041     8.9480  -999.2500  1605.3110     0.0360     2.5970  -999.2500
 4132.5000   -42.3500  1252.4850     5.3420     4.5120     4.3411     8.9460  -999.2500  1605.7180     0.0320     2.6030  -999.2500
 4133.0000   -42.5590  1305.3110     5.7530     4.7640     4.2858     8.9440  -999.2500  1606.1260     0.0250     2.6060  -999.2500
 4133.5000   -42.7330  1349.6169     6.0540     5.0770     4.3180     8.9420  -999.2500  1606.5341     0.0210     2.6140  -999.2500
 4134.0000   -42.7670  1352.9730     6.0540     5.3900     4.3467     8.9400  -999.2500  1606.9410     0.0230     2.6210  -999.2500
 4134.5000   -42.3930  1315.3800     6.0540     5.7030     4.3753     8.9370  -999.2500  1607.3490     0.0250     2.6200  -999.2500
 4135.0000   -42.2630  1277.7880     6.0540     5.8360     4.4040     8.9350  -999.2500  1607.7570     0.0270     2.6110  -999.2500
 4135.5000   -42.0430  1240.1949     6.0540     5.9440  -999.2500     8.9477  -999.2500  1608.1639     0.0270     2.5970  -999.2500
 4136.0000   -42.7970  1232.2070  -999.2500  -999.2500  -999.2500     8.9405  -999.2500  1608.5720     0.0270     2.6040  -999.2500
 4136.5000  -999.2500  1304.5730  -999.2500  -999.2500  -999.2500     8.9333  -999.2500  1608.9800     0.0320     2.6290  -999.2500
 4137.0000  -999.2500  1376.9380  -999.2500  -999.2500  -999.2500     8.9261  -999.2500  1609.3870     0.0370     2.6530  -999.2500
 4137.5000  -999.2500  1449.3040  -999.2500  -999.2500  -999.2500     8.9189  -999.2500  1609.7950     0.0440     2.6730  -999.2500
 4138.0000  -999.2500  1432.7371  -999.2500  -999.2500  -999.2500     8.9117  -999.2500  1610.2030     0.0620     2.6870  -999.2500
 4138.5000  -999.2500  1294.8970  -999.2500  -999.2500  -999.2500     8.9045  -999.2500  1610.6100     0.1850     2.7000  -999.2500
 4139.0000  -999.2500  1157.0580  -999.2500  -999.2500  -999.2500     8.8973  -999.2500  1611.0179  -999.2500     2.7120  -999.2500
 4139.5000  -999.2500  1013.9170  -999.2500  -999.2500  -999.2500     8.8901  -999.2500  1611.4260  -999.2500     2.7220  -999.2500
 4140.0000  -999.2500  1013.9170  -999.2500  -999.2500  -999.2500     8.8829  -999.2500  1611.8330  -999.2500  -999.2500  -999.2500
 4140.5000  -999.2500  1008.0470  -999.2500  -999.2500  -999.2500  -999.2500  -999.2500  1612.2410  -999.2500  -999.2500  -999.2500
 4141.0000  -999.2500  1003.1240  -999.2500  -999.2500  -999.2500  -999.2500  -999.2500  1612.6490  -999.2500  -999.2500  -999.2500
 4141.5000  -999.2500   998.2010  -999.2500  -999.2500  -999.2500  -999.2500  -999.2500  1613.0560  -999.2500  -999.2500  -999.2500
 4142.0000  -999.2500   993.2780  -999.2500  -999.2500  -999.2500  -999.2500  -999.2500  1613.4640  -999.2500  -999.2500  -999.2500
 4142.5000  -999.2500   988.3560  -999.2500  -999.2500  -999.2500  -999.2500  -999.2500  1609.6520  -999.2500  -999.2500  -999.2500
 4143.0000  -999.2500   983.4330  -999.2500  -999.2500  -999.2500  -999.2500  -999.2500  1604.7810  -999.2500  -999.2500  -999.2500
