~VERSION INFORMATION
 VERS.                2.0:   CWLS LOG ASCII STANDARD - VERSION 2.0
 WRAP.                 NO:   ONE LINE PER DEPTH STEP
~WELL INFORMATION
#MNEM.UNIT      DATA TYPE    INFORMATION
#----------   ------------   ------------------------------
 STRT.F           32.0000:   START DEPTH
 STOP.F         2998.0000:   STOP DEPTH
 STEP.F            0.5000:   STEP LENGTH
 NULL.          -999.2500:   NO VALUE
 COMP.   TESORO PETROLEUM:   COMPANY
 WELL. TESORO N.P.R. #3-34:   WELL
 FLD .        TEAPOT DOME:   FIELD
 LOC .      S34 T39N R78W:   LOCATION
 CNTY.            NATRONA:   COUNTY
 STAT.            WYOMING:   STATE
 CTRY. UNITED STATES OF AMERICA:   COUNTRY
 SRVC.       SCHLUMBERGER:   SERVICE COMPANY
 DATE.        08-AUG-1969:   LOGDATE
 API .     49025100250000:   API NUMBER
~CURVE INFORMATION
#MNEM.UNIT       API CODE    CURVE DESCRIPTION
#----------   ------------   ------------------------------
 DEPT.F                  :   
 SPR .MV     05 010 01 00:   SPONTANEOUS POTENTIAL FROM RES.
 ASN .OHMM   05 040 16 00:   AMPLIFIED SHORT NORMAL 16"
 ILD .OHMM   05 120 46 00:   INDUCTION LOG DEEP
 CORR.G/C3   45 356 01 00:   DENSITY CORRECTION
 GRD .GAPI   45 310 01 00:   GAMMA RAY FROM DENSITY LOG
 CALD.IN     45 280 60 00:   CALIPER FROM DENSITY LOG
 RHOB.G/C3   45 350 01 00:   BULK DENSITY
~PARAMETER INFORMATION
#MNEM.UNIT          VALUE    DESCRIPTION
#----------   ------------   ------------------------------
 EKB .F         5185.0000:   Kelly bushing
 EGL .F         5172.0000:   Ground level
 TD  .F         2999.0000:   Total depth
 CLNT.            A2DTECH:   Client Code
 SL  . 465' FWL & 1075' FSL':   Surface Location
 DATE.        08-AUG-1969:   Date Logged [DD-MMM-YYYY]
 DD  .F              2998:   Depth driller
 DL  .F              2999:   Depth logger
 BLI .F              2998:   Bottom log interval
 TLI .F               615:   Top log interval
 CS1 .              10.75:   Casing size
 CBD1.      10.75" @ 615':   Casing driller 1
 CBL1.IN              615:   Casing logger 1
 BS1 .IN                9:   Bit size
 BSD1.F              2998:   Depth drilled with bit1
 DFT .      FRESH GEL MUD:   Type fluid in hole
 DFD .                9.6:   Density
 DFV .                 55:   Viscosity
 DFPH.                9.5:   pH
 DFL .                7.0:   Fluid loss
 MSS .           FLOWLINE:   Source of sample
 RMS .OHMM           0.75:   Rm
 MST .F                87:   Rm Meas. temp.
 RMF .OHMM           1.09:   Rmf
 MFST.F                87:   Rmf Meas. temp.
 MFSS.               MEAS:   Source Rmf.
 RMB .OHMM           0.59:   Rm. at BHT
 BHT .F               111:   BHT.
 TCS .HRS               3:   Time Circ. stopped
 MRT .F               111:   Maximum recorded temp.
 LUN .               4507:   Logging unit number
 LUL .               CSPR:   Logging unit location
 ENGI.            ED MIXA:   Recorded By
 WITN.                MAY:   Witnessed by
 ORIG.   1" 2.5" 5" PRINT:   Origin of data
 UWI .     49025100250000:   Unique Well ID
 DICO. A2D TECHNOLOGIES, INC.:   Digitizing Company
~OTHER INFORMATION
~A   DEPT      SPR        ASN        ILD       CORR        GRD       CALD       RHOB   
# ...
 1852.0000   -30.3742     9.0140     8.3610     0.0052    98.7235     9.4251     2.5430
 1852.5000   -30.3647     9.0739     8.3645     0.0029    96.9166     9.4251     2.5515
 1853.0000   -30.2118     9.1191     8.3680    -0.0006    96.3485     9.4251     2.5515
 1853.5000   -30.0588     9.1034     8.4562    -0.0058    97.6886     9.4251     2.5456
 1854.0000   -30.0488     9.0176     8.3860    -0.0122    99.4129     9.4251     2.5545
 1854.5000   -30.0375     8.9097     8.1706    -0.0063    99.4159     9.4251     2.5544
 1855.0000   -30.1715     8.7572     8.0290    -0.0011    99.5005     9.4251     2.5515
 1855.5000   -30.1620     8.6048     7.8123     0.0032   100.7348     9.4251     2.5633
 1856.0000   -30.2960     8.4737     7.6695     0.0072   103.9996     9.4190     2.5603
 1856.5000   -30.2841     8.3721     7.5266     0.0122   106.9798     9.3945     2.5677
 1857.0000   -30.2746     8.3138     7.3851     0.0220   108.7198     9.3945     2.5809
 1857.5000   -30.1217     8.2851     7.3149     0.0318   109.8318     9.4022     2.5838
 1858.0000   -29.9684     8.2564     7.2459     0.0390   109.0927     9.4251     2.5632
 1858.5000   -30.1003     8.2427     7.2520     0.0439   107.8643     9.4251     2.5514
 1859.0000   -30.0909     8.2436     7.2570     0.0485   106.6361     9.4251     2.5396
 1859.5000   -30.0814     8.2148     7.2630     0.0151   105.4076     9.4251     2.5454
 1860.0000   -30.0717     8.1714     7.2679     0.0039   104.0166     9.4251     2.5513
 1860.5000   -29.9166     8.0970     7.3467     0.0055   101.8987     9.4251     2.5557
 1861.0000   -29.9071     8.0403     7.3516     0.0161   104.5281     9.4251     2.5601
 1861.5000   -29.8976     8.0116     7.3577     0.0230   105.5750     9.4251     2.5660
 1862.0000   -30.0316     7.9975     7.2875     0.0272   104.7706     9.4129     2.5557
 1862.5000   -30.1656     7.9985     7.2936     0.0304   102.7268     9.3945     2.5527
 1863.0000   -30.4407     8.0291     7.0769     0.0325   101.3022     9.3945     2.5661
 1863.5000   -30.5770     8.0890     6.8516     0.0287   101.3058     9.3945     2.5748
 1864.0000   -30.7088     8.1046     6.5710     0.0185    99.8574     9.3945     2.5673
 1864.5000   -30.6968     8.0316     6.1327     0.0119    96.0840     9.3945     2.5613
 1865.0000   -30.6873     7.9714     5.8422     0.0130    93.1194     9.4098     2.5571
 1865.5000   -30.6778     7.6347     5.6236     0.0168    92.7553     9.4251     2.5498
 1866.0000   -30.6684     7.1038     5.4827     0.0234    92.4976     9.4251     2.5276
 1866.5000   -30.5151     6.6172     5.3399     0.0322    92.1499     9.4251     2.5290
 1867.0000   -30.0731     6.3799     5.2709     0.0423    93.0418     9.4251     2.5216
 1867.5000   -29.7767     6.2055     5.5725     0.0531    95.1731     9.4430     2.4705
 1868.0000   -29.6238     6.0143     5.9479     0.0633    97.6390     9.4251     2.4507
 1868.5000   -29.6141     6.1628     6.3220     0.0706   100.4073     9.3945     2.5452
 1869.0000   -29.6024     6.5773     6.6223     0.0752   104.1034     9.3333     2.5208
 1869.5000   -29.8823     7.1544     6.9226     0.0787   106.5536     9.3028     2.5328
 1870.0000   -30.0162     7.6279     7.2280     0.0419   105.2598     9.2722     2.5575
 1870.5000   -30.2964     7.9242     7.3768     0.0307   102.7920     9.2416     2.5628
 1871.0000   -30.5688     8.1170     7.3817     0.0313   103.6028     9.2416     2.5465
 1871.5000   -30.5569     8.2532     7.1650     0.0326   104.4129     9.2416     2.5318
 1872.0000   -30.5475     8.3405     6.8006     0.0263   102.4749     9.2722     2.5418
 1872.5000   -30.5380     8.3263     6.4375     0.0164   100.1382     9.2722     2.5585
 1873.0000   -30.3827     8.2240     6.1469     0.0091   100.1413     9.3028     2.5689
 1873.5000   -30.3732     7.9146     5.9290     0.0102   101.3675     9.3028     2.5775
 1874.0000   -30.2202     7.4282     5.8613     0.0235   101.9822     9.3028     2.5627
 1874.5000   -30.2107     7.1189     5.9402     0.0477   103.2085     9.3028     2.5759
 1875.0000   -30.1989     6.8981     5.9462     0.0802   101.9883     9.3333     2.5583
 1875.5000   -30.0459     6.8399     5.9511     0.1011    98.9332     9.3333     2.5273
 1876.0000   -29.8930     6.8809     5.9559     0.1131    97.1014     9.3333     2.5365
 1876.5000   -29.7400     7.3735     6.1096     0.1031    95.2696     9.3639     2.5589
 1877.0000   -29.7305     7.6698     6.5578     0.0693    93.4377     9.3639     2.5676
 1877.5000   -30.2926     7.9070     6.8581     0.0254    92.8287     9.3639     2.5762
 1878.0000   -30.5700     8.1450     7.1584     0.0359    93.4438     9.3945     2.5871
 1878.5000   -30.8475     8.3372     7.3849     0.0461    94.6701     9.3945     2.5923
 1879.0000   -30.9815     8.3972     7.4638     0.0512    96.5080     9.3945     2.5802
 1879.5000   -30.9696     8.4128     7.4697     0.0465    97.1227     9.3945     2.5658
 1880.0000   -31.1036     8.3988     7.3996     0.0269    98.3489     9.4251     2.5559
 1880.5000   -31.3811     8.3849     7.2580     0.0183    98.3520     9.4251     2.5523
 1881.0000   -31.5151     8.3859     7.1890     0.0144    98.9666     9.4251     2.5493
 1881.5000   -31.5032     8.3570     7.1200     0.0132    99.5813     9.4251     2.5448
 1882.0000   -31.4937     8.3285     7.1262     0.0143   101.4192     9.4251     2.5425
 1882.5000   -31.4843     8.2998     7.0560     0.0178   103.8687     9.4251     2.5418
 1883.0000   -31.6190     8.3009     7.0621     0.0208   104.4834     9.3945     2.5465
 1883.5000   -31.4645     8.3017     7.0682     0.0238   103.8748     9.3945     2.5657
 1884.0000   -31.4534     8.3026     7.0731     0.0274   100.8197     9.3945     2.5531
 1884.5000   -31.4432     8.3034     7.1518     0.0307    99.5995     9.3639     2.5534
 1885.0000   -31.4347     8.3192     7.2306     0.0329    99.6025     9.3639     2.5668
 1885.5000   -31.4242     8.3644     7.2356     0.0207    99.6056     9.3639     2.5432
 1886.0000   -31.4131     8.4095     7.3893     0.0122   100.8319     9.3639     2.5314
 1886.5000   -31.4037     8.4399     7.5419     0.0063   102.0581     9.3639     2.5358
 1887.0000   -31.3942     8.4867     7.6207     0.0083   103.8960     9.3639     2.5491
 1887.5000   -31.3831     8.5895     7.7733     0.0188   102.6758     9.3639     2.5505
 1888.0000   -31.3729     8.7085     7.8532     0.0268   100.8278     9.3639     2.5461
 1888.5000   -31.3626     8.8423     8.0058     0.0301    99.0122     9.3639     2.5564
 1889.0000   -31.3539     8.9617     8.1584     0.0255    99.0396     9.3639     2.5571
 1889.5000   -31.3443     9.1248     8.1633     0.0180   100.2741     9.3639     2.5598
 1890.0000   -31.3326     9.2291     8.1684     0.0123   101.4679     9.3639     2.5643
 1890.5000   -31.4689     9.2592     8.1743     0.0085   102.0826     9.3639     2.5672
 1891.0000   -31.4571     8.9649     8.1054     0.0049   103.3660     9.3639     2.5607
 1891.5000   -31.4476     8.7863     8.0352     0.0039   104.5352     9.3639     2.5501
 1892.0000   -31.1488     8.6270     7.8936     0.0088   104.4648     9.3639     2.5398
 1892.5000   -30.8524     8.4949     7.8246     0.0196   103.2363     9.3639     2.5347
 1893.0000   -30.6994     8.3628     7.6830     0.0330   102.0976     9.3639     2.5454
 1893.5000   -30.6899     8.2004     7.5402     0.0403   101.2934     9.3639     2.5560
 1894.0000   -30.5346     8.0545     7.2497     0.0477    99.5514     9.3639     2.5651
 1894.5000   -30.5251     7.9372     6.7388     0.0523    97.7115     9.3639     2.5628
 1895.0000   -30.5156     7.7755     6.3006     0.0479    96.9723     9.3639     2.5480
 1895.5000   -30.6374     7.5844     5.7885     0.0296    95.9966     9.3639     2.5476
 1896.0000   -30.6272     7.3195     5.2764     0.0282    96.7503     9.3639     2.5539
 1896.5000   -30.6191     6.9954     4.9801     0.0487    97.3732     9.3807     2.5613
 1897.0000   -30.6110     6.5236     4.6966     0.0688    99.2191     9.3945     2.5657
