~VERSION INFORMATION
 VERS.                2.0:   CWLS LOG ASCII STANDARD - VERSION 2.0
 WRAP.                 NO:   ONE LINE PER DEPTH STEP
~WELL INFORMATION
#MNEM.UNIT      DATA TYPE    INFORMATION
#----------   ------------   ------------------------------
 STRT.F          190.0000:   START DEPTH
 STOP.F         3050.0000:   STOP DEPTH
 STEP.F            0.5000:   STEP LENGTH
 NULL.          -999.2500:   NO VALUE
 COMP.    FENIX & SCISSON:   COMPANY
 WELL. FENIX NPR 3 "AX" #86-29:   WELL
 FLD .      NPR - WILDCAT:   FIELD
 LOC .      S29 T39N R78W:   LOCATION
 CNTY.            NATRONA:   COUNTY
 STAT.            WYOMING:   STATE
 CTRY. UNITED STATES OF AMERICA:   COUNTRY
 SRVC.              WELEX:   SERVICE COMPANY
 DATE.        24-JUN-1977:   LOGDATE
 API .     49025103830000:   API NUMBER
~CURVE INFORMATION
#MNEM.UNIT       API CODE    CURVE DESCRIPTION
#----------   ------------   ------------------------------
 DEPT.F                  :   
 SPR .MV     07 010 01 00:   SPONTANEOUS POTENTIAL
 ILD .OHMM   07 120 46 00:   DEEP INDUCTION RESISTIVITY
 ILM .OHMM   07 120 44 00:   INDUCTION LOG MEDIUM RESISTIVITY
 SGRD.OHMM   07 220 05 00:   SHALLOW SHORT GUARD RESISTIVITY
 GRD .GAPI   45 310 01 00:   GAMMA RAY FROM DENSITY LOG
 CALD.IN     45 280 60 00:   CALIPER FROM DENSITY LOG
 RHOB.G/C3   45 350 01 00:   BULK DENSITY
 CORR.G/C3   45 356 01 00:   DENSITY CORRECTION
~PARAMETER INFORMATION
#MNEM.UNIT          VALUE    DESCRIPTION
#----------   ------------   ------------------------------
 EKB .F         5056.0000:   Kelly bushing
 EGL .F         5046.0000:   Ground level
 EDF .F            0.0000:   Drilling floor
 TD  .F         3051.0000:   Total depth
 DATE.        24-JUN-1977:   Date logged
 CLNT.            A2DTECH:   Client Code
 SL  . 1746' FSL & 534' FEL:   Surface Location
 PD  .                 GL:   Permanent Datum
 EPD .F              5046:   Elevation Permanent Datum
 LMF .                 KB:   Log Measured From
 DMF .                 KB:   Drilling Measured From
 DAPD.F                10:   Feet Above Permanent Datum
 DD  .F              3038:   Depth driller
 DL  .F              3051:   Depth logger
 BLI .F              3049:   Bottom log interval
 TLI .F               200:   Top log interval
 CS1 .IN            8.625:   Casing size
 CBD1.      8.625" @ 217':   Casing driller 1
 CBL1.F               213:   Casing logger 1
 BS1 .IN            7.875:   Bit size
 BSD1.F              3038:   Depth drilled with bit1
 DFT .            KCL/MUD:   Type fluid in hole
 DFD .                8.7:   Density
 DFV .                134:   Viscosity
 DFPH.                7.5:   pH
 DFL .                7.2:   Fluid loss
 MSS .           FLOWLINE:   Source of sample
 RMS .OHMM            .62:   Rm
 MST .F                82:   Rm Meas. temp.
 RMF .OHMM            .28:   Rmf
 MFST.F                82:   Rmf Meas. temp.
 RMC .OHMM            .78:   Rmc
 MCST.F                82:   Rmc Meas. temp.
 MFSS.               MEAS:   Source Rmf.
 MCSS.               MEAS:   Source Rmc.
 RMB .OHMM            .45:   Rm. at BHT
 BHT .F               111:   BHT.
 TCS .HRS               2:   Time Circ. stopped
 MRT .F               111:   Maximum recorded temp.
 LUN .               8766:   Logging unit number
 LUL .             CASPER:   Logging unit location
 ENGI.          D. LAWSON:   Recorded By
 WITN.      B. HARRINGTON:   Witnessed by
 ORIG.           5" PRINT:   Origin of data
 UWI .     49025103830000:   Unique Well ID
 DICO. A2D TECHNOLOGIES, INC.:   Digitizing Company
~OTHER INFORMATION
~A   DEPT      SPR        ILD        ILM       SGRD        GRD       CALD         RHOB      CORR  
# ...
 1891.0000   -61.9770     9.0120    10.7730    15.7360    91.6670     8.1920     2.4680     0.0280
 1891.5000   -61.9850     9.0780    10.8820    15.5340    91.1310     8.1910     2.4640     0.0270
 1892.0000   -61.9930     9.1440    10.9900    15.1920    91.1430     8.1900     2.4600     0.0270
 1892.5000   -62.0010     9.2100    11.0990    15.5590    91.1460     8.1890     2.4560     0.0260
 1893.0000   -62.0090     9.2620    11.2280    15.9160    91.1310     8.1880     2.4510     0.0240
 1893.5000   -62.0170     9.2160    11.0740    16.1990    90.4150     8.1880     2.4490     0.0210
 1894.0000   -62.0250     9.1780    10.8430    16.0520    89.6270     8.1870     2.4490     0.0190
 1894.5000   -62.0320     9.1400    10.6430    15.9310    88.8330     8.1860     2.4500     0.0170
 1895.0000   -62.0400     9.1020    10.4440    15.6730    88.0200     8.1850     2.4520     0.0150
 1895.5000   -62.0480     9.0430    10.2440    15.3790    88.0020     8.1840     2.4530     0.0120
 1896.0000   -62.0560     8.9780    10.0440    15.0810    89.3110     8.1830     2.4540     0.0100
 1896.5000   -62.0640     8.9130     9.8760    14.3800    90.7670     8.1820     2.4530     0.0080
 1897.0000   -62.0720     8.8480     9.8760    13.2070    92.2560     8.1810     2.4520     0.0080
 1897.5000   -62.0800     8.7830     9.8760    12.6480    92.4420     8.1810     2.4510     0.0070
 1898.0000   -62.0870     8.7660     9.8760    14.7090    92.5810     8.1800     2.4500     0.0070
 1898.5000   -62.0950     8.7660     9.8760    15.9720    92.7230     8.1790     2.4490     0.0090
 1899.0000   -62.1030     8.7660     9.9080    15.3380    93.5160     8.1780     2.4480     0.0100
 1899.5000   -62.1110     8.7660    10.0100    14.6460    94.4020     8.1770     2.4480     0.0120
 1900.0000   -62.1190     8.7660    10.1130    14.7800    95.2950     8.1760     2.4470     0.0120
 1900.5000   -62.1270     8.8000    10.2150    15.7600    96.2210     8.1750     2.4470     0.0120
 1901.0000   -62.1350     8.8660    10.3170    15.5290    96.5200     8.1740     2.4460     0.0120
 1901.5000   -62.1420     8.9320    10.4190    15.3320    96.7950     8.1730     2.4470     0.0120
 1902.0000   -62.1500     8.9980    10.5300    16.2960    97.0750     8.1710     2.4490     0.0140
 1902.5000   -62.1540     9.0650    10.7140    16.6510    97.3660     8.1700     2.4540     0.0180
 1903.0000   -62.1540     9.1310    10.9150    16.6190    97.5160     8.1680     2.4610     0.0220
 1903.5000   -62.1540     9.1970    11.1160    16.5950    97.6760     8.1670     2.4680     0.0260
 1904.0000   -62.1540     9.2640    11.3310    16.5710    97.8160     8.1650     2.4720     0.0290
 1904.5000   -62.1540     9.3300    11.3310    16.5480    96.5860     8.1640     2.4760     0.0310
 1905.0000   -62.1540     9.3860    11.1080    16.5240    95.2000     8.1630     2.4810     0.0330
 1905.5000   -62.1540     9.4380    10.9120    16.4990    93.8150     8.1610     2.4850     0.0350
 1906.0000   -62.1540     9.4900    10.8230    16.5270    93.2130     8.1600     2.4870     0.0370
 1906.5000   -62.1540     9.5430    10.8230    16.5630    93.5800     8.1580     2.4840     0.0370
 1907.0000   -62.1540     9.6080    10.8230    16.6030    93.9340     8.1570     2.4800     0.0340
 1907.5000   -62.1540     9.5940    10.6770    16.6510    94.2910     8.1550     2.4770     0.0320
 1908.0000   -62.1540     9.5760    10.5240    15.9830    94.6480     8.1550     2.4730     0.0280
 1908.5000   -62.1540     9.5590    10.3710    15.1060    95.0070     8.1540     2.4630     0.0250
 1909.0000   -62.1540     9.5410    10.2440    14.3800    95.3810     8.1540     2.4560     0.0210
 1909.5000   -62.1540     9.5230    10.2750    15.6430    95.2180     8.1530     2.4460     0.0150
 1910.0000   -62.1540     9.5050    10.3010    16.7220    94.8700     8.1530     2.4360     0.0070
 1910.5000   -62.1540     9.4870    10.3280    16.9590    94.8050     8.1520     2.4340     0.0020
 1911.0000   -62.1540     9.4690    10.3510    16.7760    95.2550     8.1520     2.4350     0.0020
 1911.5000   -62.1540     9.4510    10.3720    16.5850    95.6920     8.1510     2.4390     0.0030
 1912.0000   -62.1540     9.4330    10.3920    16.2410    96.1280     8.1510     2.4440     0.0070
 1912.5000   -62.1540     9.4220    10.4130    15.7600    96.5660     8.1500     2.4470     0.0110
 1913.0000   -62.1540     9.3930    10.4340    16.0140    97.0040     8.1490     2.4500     0.0150
 1913.5000   -62.1540     9.3640    10.4020    16.6470    97.4410     8.1490     2.4530     0.0200
 1914.0000   -62.1540     9.3350    10.3700    17.2720    97.8350     8.1480     2.4560     0.0220
 1914.5000   -62.1540     9.3060    10.3390    17.2190    97.9260     8.1480     2.4570     0.0200
 1915.0000   -62.1540     9.2770    10.3870    17.1660    98.0070     8.1470     2.4540     0.0180
 1915.5000   -62.1540     9.2480    10.4340    17.1150    98.0890     8.1470     2.4440     0.0140
 1916.0000   -62.1540     9.2200    10.4810    16.8980    98.1690     8.1460     2.4380     0.0100
 1916.5000   -62.1540     9.1910    10.5280    16.6860    98.1630     8.1460     2.4320     0.0060
 1917.0000   -62.1540     9.1620    10.5760    16.1550    97.9080     8.1450     2.4320     0.0060
 1917.5000   -62.1540     9.1330    10.6230    15.3730    97.6620     8.1440     2.4320     0.0080
 1918.0000   -62.1540     9.0970    10.6700    14.7800    97.4160     8.1440     2.4330     0.0100
 1918.5000   -62.1540     9.1530    10.7170    15.5900    97.1700     8.1430     2.4340     0.0100
 1919.0000   -62.1540     9.2450    10.7420    16.4990    96.9230     8.1430     2.4340     0.0100
 1919.5000   -62.1540     9.3380    10.7630    16.6410    96.6610     8.1420     2.4330     0.0090
 1920.0000   -62.1540     9.4300    10.7830    16.7770    96.2720     8.1420     2.4290     0.0070
 1920.5000   -62.1540     9.5220    10.8040    16.9590    95.8520     8.1410     2.4250     0.0060
 1921.0000   -62.1540     9.6080    10.8230    16.9460    95.4670     8.1410     2.4220     0.0040
 1921.5000   -62.1540     9.6240    10.6690    16.9190    95.8870     8.1400     2.4180     0.0030
 1922.0000   -62.1540     9.6380    10.5250    16.8920    96.4760     8.1400     2.4170     0.0020
 1922.5000   -62.1540     9.6530    10.3810    16.8660    97.0670     8.1390     2.4180     0.0020
 1923.0000   -62.1540     9.6680    10.2370    16.8390    97.6570     8.1380     2.4190     0.0010
 1923.5000   -62.1550     9.6830    10.0930    16.8120    98.2480     8.1380     2.4200     0.0010
 1924.0000   -62.1490     9.6960     9.9490    16.6870    98.8550     8.1370     2.4210     0.0000
 1924.5000   -61.9470     9.5690     9.8760    16.4480    98.9550     8.1370     2.4250    -0.0030
 1925.0000   -61.7370     9.4530     9.8760    16.2100    98.7470     8.1360     2.4300    -0.0050
 1925.5000   -61.5320     9.3370     9.8760    15.9710    98.5420     8.1360     2.4320    -0.0030
 1926.0000   -61.4450     9.2200     9.8750    15.6160    98.3360     8.1370     2.4340     0.0000
 1926.5000   -61.9070     9.0940     9.8750    15.6830    98.6020     8.1380     2.4370     0.0030
 1927.0000   -62.3410     9.0940     9.8850    15.8150    99.3380     8.1390     2.4430     0.0060
 1927.5000   -62.3540     9.0940     9.9650    15.9050   100.0720     8.1400     2.4520     0.0100
 1928.0000   -62.3520     9.0940    10.0450    15.5030   100.8110     8.1420     2.4600     0.0140
 1928.5000   -62.3520     9.0940    10.1250    15.3320   101.5790     8.1430     2.4660     0.0180
 1929.0000   -62.3520     9.1080    10.2050    15.6720   101.4740     8.1440     2.4660     0.0230
 1929.5000   -62.3520     9.1270    10.2850    15.9280   101.0690     8.1450     2.4640     0.0230
 1930.0000   -62.3520     9.1460    10.3650    16.1990   100.6520     8.1460     2.4620     0.0210
 1930.5000   -62.3520     9.1650    10.4340    16.1990   100.2110     8.1470     2.4610     0.0190
 1931.0000   -62.3520     9.1970    10.4340    16.1140    99.6040     8.1480     2.4630     0.0190
