~VERSION INFORMATION
 VERS.                2.0:   CWLS LOG ASCII STANDARD - VERSION 2.0
 WRAP.                 NO:   ONE LINE PER DEPTH STEP
~WELL INFORMATION
#MNEM.UNIT      DATA TYPE    INFORMATION
#----------   ------------   ------------------------------
 STRT.F          200.0000:   START DEPTH
 STOP.F         3000.0000:   STOP DEPTH
 STEP.F            0.5000:   STEP LENGTH
 NULL.          -999.2500:   NO VALUE
 COMP.    FENIX & SCISSON:   COMPANY
 WELL.   FENIX "A" #65-28:   WELL
 FLD .              NPR 3:   FIELD
 LOC .      S28 T39N R78W:   LOCATION
 CNTY.            NATRONA:   COUNTY
 STAT.            WYOMING:   STATE
 CTRY. UNITED STATES OF AMERICA:   COUNTRY
 SRVC.              WELEX:   SERVICE COMPANY
 DATE.        25-JUL-1977:   LOGDATE
 API .     49025104010000:   API NUMBER
~CURVE INFORMATION
#MNEM.UNIT       API CODE    CURVE DESCRIPTION
#----------   ------------   ------------------------------
 DEPT.F                  :   
 GRD .GAPI   45 310 01 00:   GAMMA RAY FROM DENSITY LOG
 CALD.IN     45 280 60 00:   CALIPER FROM DENSITY LOG
 RHOB.G/C3   45 350 01 00:   BULK DENSITY
 DCOR.G/C3   45 356 01 00:   DENSITY CORRECTION
 SPR .MV     07 010 01 00:   SPONTANEOUS POTENTIAL
 RILM.OHMM   07 120 44 00:   INDUCTION LOG MEDIUM RESISTIVITY
 RILD.OHMM   07 120 46 00:   DEEP INDUCTION RESISTIVITY
 SGRD.OHMM   07 220 05 00:   SHALLOW GUARD
~PARAMETER INFORMATION
#MNEM.UNIT          VALUE    DESCRIPTION
#----------   ------------   ------------------------------
 EKB .F         5069.0000:   Kelly bushing
 EGL .F         5059.0000:   Ground level
 EDF .F            0.0000:   Drilling floor
 TD  .F         3006.0000:   Total depth
 DATE.        25-JUL-1977:   Date logged
 CLNT.            A2DTECH:   Client Code
 SL  . 2310' FSL & 1650' FEL:   Surface Location
 PD  .                 GL:   Permanent Datum
 EPD .F              5059:   Elevation Permanent Datum
 LMF .                 KB:   Log Measured From
 DMF .                 KB:   Drilling Measured From
 DAPD.F                10:   Feet Above Permanent Datum
 DD  .F              3006:   Depth driller
 DL  .F              3006:   Depth logger
 BLI .F              3004:   Bottom log interval
 TLI .F               200:   Top log interval
 CS1 .IN            8.625:   Casing size
 CBD1.      8.625" @ 205':   Casing driller 1
 CBL1.F               220:   Casing logger 1
 BS1 .IN            7.875:   Bit size
 BSD1.F              3006:   Depth drilled with bit1
 DFT .            KCL MUD:   Type fluid in hole
 DFD .                8.9:   Density
 DFV .                 39:   Viscosity
 DFPH.                7.5:   pH
 DFL .                7.2:   Fluid loss
 MSS .           FLOWLINE:   Source of sample
 RMS .OHMM           0.29:   Rm
 MST .F                78:   Rm Meas. temp.
 RMF .OHMM           0.19:   Rmf
 MFST.F                78:   Rmf Meas. temp.
 RMC .OHMM           0.80:   Rmc
 MCST.F                78:   Rmc Meas. temp.
 MFSS.               FANN:   Source Rmf.
 MCSS.                KIT:   Source Rmc.
 RMB .OHMM           0.20:   Rm. at BHT
 BHT .F               113:   BHT.
 TCS .HRS               3:   Time Circ. stopped
 MRT .F               113:   Maximum recorded temp.
 LUN .               8766:   Logging unit number
 LUL .             CASPER:   Logging unit location
 ENGI.         G. BENTSEN:   Recorded By
 WITN.      B. HARRINGTON:   Witnessed by
 ORIG.           5" PRINT:   Origin of data
 UWI .     49025104010000:   Unique Well ID
 DICO. A2D TECHNOLOGIES, INC.:   Digitizing Company
~OTHER INFORMATION
~A   DEPT       GRD        CALD       RHOB      DCOR       SPR       RILM         RILD       SGRD 
# ...
  767.0000    88.8380    10.0080     2.5160     0.0510   -36.1300     7.7830     7.4450     9.6490
  767.5000    88.2780    10.0090     2.5090     0.0480   -36.1550     7.7740     7.4620     9.6740
  768.0000    88.4780    10.0100     2.5040     0.0530   -36.1800     7.7650     7.4750     9.7000
  768.5000    88.1240    10.0120     2.5010     0.0490   -36.2040     7.7540     7.4400     9.7250
  769.0000    88.5210    10.0130     2.4980     0.0440   -36.2290     7.7730     7.4120     9.7510
  769.5000    89.4760    10.0140     2.4950     0.0400   -36.2540     7.7960     7.3840     9.7760
  770.0000    89.6870    10.0160     2.4920     0.0370   -36.2780     7.8200     7.3560     9.8020
  770.5000    88.8810    10.0170     2.4880     0.0360   -36.3030     7.8430     7.3240     9.8370
  771.0000    88.5690    10.0170     2.4870     0.0380   -36.3270     7.8670     7.2890     9.7840
  771.5000    88.2270    10.0130     2.4890     0.0400   -36.3520     7.8900     7.2550     9.6970
  772.0000    89.4460    10.0080     2.4910     0.0380   -36.3770     7.9130     7.2200     9.6110
  772.5000    90.9860    10.0030     2.4930     0.0370   -36.4010     7.9370     7.1850     9.5240
  773.0000    89.7340     9.9980     2.4940     0.0370   -36.4260     7.9690     7.1500     9.4370
  773.5000    88.3780     9.9930     2.4920     0.0370   -36.4510     7.9390     7.1150     9.3510
  774.0000    90.0790     9.9890     2.4890     0.0350   -36.4240     7.8900     7.0800     9.2640
  774.5000    90.9100     9.9840     2.4850     0.0330   -36.3480     7.8410     7.0450     9.1770
  775.0000    89.8700     9.9790     2.4820     0.0290   -36.2720     7.7910     7.0100     9.1430
  775.5000    88.8560     9.9610     2.4790     0.0320   -36.1970     7.7420     6.9750     9.1430
  776.0000    88.7540     9.9400     2.4800     0.0260   -36.1210     7.6920     6.9470     9.1430
  776.5000    89.2770     9.9180     2.4840     0.0320   -36.0450     7.6430     6.9910     9.1650
  777.0000    89.5000     9.8980     2.4890     0.0370   -35.9700     7.6130     7.0280     9.2810
  777.5000    88.5500     9.8950     2.4940     0.0420   -35.8940     7.6480     7.0650     9.3970
  778.0000    87.4540     9.8930     2.4850     0.0400   -35.8180     7.6730     7.1030     9.5650
  778.5000    87.8970     9.8910     2.4720     0.0330   -35.7430     7.7000     7.1400     9.7350
  779.0000    89.3860     9.8890     2.4600     0.0280   -35.6710     7.7290     7.2170     9.9050
  779.5000    87.9240     9.8860     2.4650     0.0280   -35.6220     7.7700     7.2940    10.0740
  780.0000    89.5440     9.8840     2.4730     0.0400   -35.5750     7.8610     7.3720    10.2090
  780.5000    87.4380     9.8820     2.4810     0.0420   -35.5280     7.9520     7.4500    10.3330
  781.0000    88.8020     9.8790     2.4860     0.0500   -35.4810     8.0430     7.5270    10.4570
  781.5000    87.9440     9.8770     2.4900     0.0480   -35.4340     8.1350     7.6050    10.5850
  782.0000    87.3260     9.8750     2.4910     0.0550   -35.3880     8.2260     7.6830    10.7940
  782.5000    88.7740     9.8730     2.4890     0.0520   -35.3410     8.3170     7.7600    10.8730
  783.0000    90.0220     9.8700     2.4860     0.0480   -35.2930     8.4080     7.8380    10.9520
  783.5000    89.3150     9.8680     2.4830     0.0430   -35.3090     8.4990     7.9160    11.0310
  784.0000    90.0250     9.8660     2.4790     0.0360   -35.3570     8.5750     7.9930    11.0810
  784.5000    91.1940     9.8630     2.4720     0.0340   -35.4060     8.5110     8.0430    10.9520
  785.0000    89.7410     9.8610     2.4580     0.0230   -35.4560     8.4570     7.9770    10.8570
  785.5000    91.1280     9.8590     2.4590     0.0200   -35.5050     8.4020     7.9280    10.7620
  786.0000    89.4610     9.8570     2.4630     0.0230   -35.5540     8.3470     7.8800    10.6750
  786.5000    88.1040     9.8540     2.4670     0.0230   -35.6030     8.2930     7.8310    10.6310
  787.0000    89.4530     9.8520     2.4680     0.0270   -35.6530     8.2380     7.7820    10.5850
  787.5000    90.8890     9.8500     2.4650     0.0260   -35.6720     8.1910     7.7340    10.6270
  788.0000    90.6880     9.8470     2.4610     0.0260   -35.6720     8.2280     7.6830    10.6720
  788.5000    90.3650     9.8450     2.4580     0.0230   -35.6720     8.2590     7.7080    10.7160
  789.0000    91.9480     9.8430     2.4550     0.0240   -35.6730     8.2910     7.7340    10.7810
  789.5000    93.5400     9.8410     2.4500     0.0240   -35.6940     8.3220     7.7600    10.7280
  790.0000    92.7910     9.8380     2.4510     0.0320   -35.7170     8.3430     7.7860    10.6310
  790.5000    92.3520     9.8310     2.4530     0.0350   -35.7400     8.2810     7.8250    10.5350
  791.0000    92.8010     9.8210     2.4540     0.0330   -35.7630     8.2340     7.7910    10.4380
  791.5000    93.2520     9.8120     2.4550     0.0330   -35.7860     8.1880     7.7290    10.3410
  792.0000    92.5880     9.8020     2.4540     0.0340   -35.8090     8.1420     7.6670    10.2450
  792.5000    91.8420     9.7920     2.4530     0.0320   -35.8320     8.0950     7.6050    10.1480
  793.0000    91.7010     9.7830     2.4520     0.0290   -35.8540     8.0490     7.5430    10.0510
  793.5000    91.9130     9.7730     2.4510     0.0260   -35.8360     8.0020     7.4810     9.9280
  794.0000    93.4550     9.7630     2.4530     0.0300   -35.7360     7.9560     7.4190     9.9900
  794.5000    94.2480     9.7540     2.4590     0.0300   -35.6380     7.8970     7.3390    10.0770
  795.0000    93.5400     9.7440     2.4650     0.0310   -35.5410     7.9400     7.3810    10.1630
  795.5000    94.5830     9.7350     2.4710     0.0330   -35.5270     8.0220     7.4390    10.2490
  796.0000    94.0590     9.7250     2.4670     0.0320   -35.6960     8.1040     7.4970    10.3360
  796.5000    93.0150     9.7170     2.4590     0.0260   -35.8600     8.1860     7.5550    10.4220
  797.0000    93.9440     9.7130     2.4500     0.0230   -35.7570     8.2680     7.6130    10.5080
  797.5000    95.8540     9.7090     2.4420     0.0230   -35.6330     8.3500     7.6710    10.5910
  798.0000    97.0110     9.7060     2.4360     0.0220   -35.5040     8.4320     7.7290    10.6420
  798.5000    95.6710     9.7020     2.4390     0.0260   -35.4940     8.5150     7.7870    10.6930
  799.0000    97.2930     9.6980     2.4480     0.0280   -35.5210     8.5970     7.8450    10.7450
  799.5000    99.0960     9.6950     2.4490     0.0270   -35.5490     8.6540     7.8970    10.7960
  800.0000    99.9060     9.6910     2.4440     0.0270   -35.5760     8.5910     7.8730    10.8480
  800.5000    98.2490     9.6870     2.4470     0.0260   -35.6030     8.5420     7.8510    10.8990
  801.0000    99.2450     9.6840     2.4510     0.0280   -35.6310     8.4940     7.8300    10.9500
  801.5000   100.2070     9.6800     2.4540     0.0300   -35.6590     8.4450     7.8080    11.0020
  802.0000    99.7680     9.6760     2.4530     0.0300   -35.6960     8.3970     7.7860    11.0530
  802.5000   100.2360     9.6730     2.4530     0.0330   -35.7460     8.3430     7.7650    11.1050
  803.0000   100.2770     9.6690     2.4590     0.0340   -35.7950     8.3640     7.7540    11.1560
  803.5000   101.3730     9.6650     2.4660     0.0350   -35.8460     8.3880     7.7920    11.2080
  804.0000   101.2190     9.6620     2.4720     0.0370   -35.9470     8.4130     7.8170    11.2590
  804.5000   101.0920     9.6580     2.4790     0.0420   -36.1040     8.4370     7.8430    11.2860
  805.0000   102.6520     9.6540     2.4860     0.0470   -36.2600     8.4610     7.8690    11.2140
  805.5000   104.7910     9.6510     2.4930     0.0520   -36.4230     8.4850     7.8940    11.1650
  806.0000   104.1330     9.6470     2.4990     0.0620   -36.4620     8.5090     7.9200    11.1170
  806.5000   103.8130     9.6430     2.5050     0.0500   -36.4630     8.5330     7.9460    11.0680
  807.0000   104.8440     9.6400     2.5100     0.0530   -36.4600     8.5570     7.9690    11.0200
