~VERSION INFORMATION
 VERS.                2.0:   CWLS LOG ASCII STANDARD - VERSION 2.0
 WRAP.                 NO:   ONE LINE PER DEPTH STEP
~WELL INFORMATION
#MNEM.UNIT      DATA TYPE    INFORMATION
#----------   ------------   ------------------------------
 STRT.F          200.5000:   START DEPTH
 STOP.F         3012.5000:   STOP DEPTH
 STEP.F            0.5000:   STEP LENGTH
 NULL.          -999.2500:   NO VALUE
 COMP.    FENIX & SCISSON:   COMPANY
 WELL.  FENIX "AX" #75-29:   WELL
 FLD .              NPR-3:   FIELD
 LOC .      S29 T39N R78W:   LOCATION
 CNTY.            NATRONA:   COUNTY
 STAT.            WYOMING:   STATE
 CTRY. UNITED STATES OF AMERICA:   COUNTRY
 SRVC.           BIRDWELL:   SERVICE COMPANY
 DATE.        15-FEB-1978:   LOGDATE
 API .     49025105830000:   API NUMBER
~CURVE INFORMATION
#MNEM.UNIT       API CODE    CURVE DESCRIPTION
#----------   ------------   ------------------------------
 DEPT.F                  :   
 GRD .GAPI   45 310 01 00:   GAMMA RAY FROM DENSITY LOG
 CALD.IN     45 280 60 00:   CALIPER FROM DENSITY LOG
 DEN .G/C3   45 350 01 00:   BULK DENSITY
 DCOR.G/C3   45 356 01 00:   DENSITY CORRECTION
 SPR .MV     05 010 01 00:   SPONTANEOUS POTENTIAL
 SN  .OHMM   05 040 16 00:   SHORT NORMAL 16"
 RILD.OHMM   05 120 46 00:   DEEP INDUCTION RESISTIVITY
~PARAMETER INFORMATION
#MNEM.UNIT          VALUE    DESCRIPTION
#----------   ------------   ------------------------------
 EKB .F         5042.0000:   Kelly bushing
 EGL .F         5032.0000:   Ground level
 EDF .F            0.0000:   Drilling floor
 TD  .F         3010.0000:   Total depth
 DATE.        15-FEB-1978:   Date logged
 CLNT.            A2DTECH:   Client Code
 SL  . 2550' FSL & 950' FEL:   Surface Location
 PD  .                 GL:   Permanent Datum
 EPD .F              5032:   Elevation Permanent Datum
 LMF .                 KB:   Log Measured From
 DMF .                 KB:   Drilling Measured From
 DAPD.F                10:   Feet Above Permanent Datum
 DD  .F              3010:   Depth driller
 DL  .F              3010:   Depth logger
 BLI .F              3002:   Bottom log interval
 TLI .F               200:   Top log interval
 CS1 .IN            8.625:   Casing size
 CBD1.      8.625" @ 222':   Casing driller 1
 CBL1.F               222:   Casing logger 1
 BS1 .IN            7.875:   Bit size
 BSD1.F              3010:   Depth drilled with bit1
 DFT .         LIGNO/SULF:   Type fluid in hole
 DFD .                9.1:   Density
 DFV .                 33:   Viscosity
 DFPH.                 10:   pH
 DFL .                4.9:   Fluid loss
 MSS .           FLOWLINE:   Source of sample
 RMS .OHMM              2:   Rm
 MST .F                66:   Rm Meas. temp.
 RMF .OHMM            2.2:   Rmf
 MFST.F                58:   Rmf Meas. temp.
 RMC .OHMM            1.8:   Rmc
 MCST.F                60:   Rmc Meas. temp.
 MFSS.               MEAS:   Source Rmf.
 RMB .OHMM            1.7:   Rm. at BHT
 BHT .F               118:   BHT.
 TCS .HRS               5:   Time Circ. stopped
 MRT .F               118:   Maximum recorded temp.
 LUN .               2958:   Logging unit number
 LUL .               CASP:   Logging unit location
 ENGI.            POINTER:   Recorded By
 WITN.           MCGINLEY:   Witnessed by
 ORIG.           5" PRINT:   Origin of data
 UWI .     49025105830000:   Unique Well ID
 DICO. A2D TECHNOLOGIES, INC.:   Digitizing Company
~OTHER INFORMATION
~A   DEPT       GRD      CALD        DEN       DCOR        SPR         SN       RILD   
# ...
  746.5000    74.9040     9.5380     2.5150     0.0970   -62.2250    10.0920     9.4590
  747.0000    73.4800     9.5360     2.5240     0.0960   -62.2160     9.9870     9.3510
  747.5000    72.7770     9.5350     2.5290     0.0870   -62.2070     9.8820     9.2420
  748.0000    73.4870     9.5330     2.5150     0.0850   -62.1970     9.7690     9.1330
  748.5000    69.8850     9.5310     2.5050     0.0840   -62.1880     9.6500     9.0250
  749.0000    70.4630     9.5290     2.5030     0.0850   -62.1790     9.5310     8.9160
  749.5000    68.3040     9.5270     2.5030     0.0860   -62.1700     9.4120     8.8240
  750.0000    70.8570     9.5250     2.5020     0.0870   -62.1600     9.3050     8.7390
  750.5000    72.1260     9.5250     2.5140     0.0880   -62.1510     9.2750     8.6440
  751.0000    72.7160     9.5250     2.5180     0.0900   -62.1420     9.2430     8.6520
  751.5000    72.5640     9.5250     2.5100     0.0910   -62.1330     9.2100     8.6630
  752.0000    73.3820     9.5250     2.5070     0.0920   -62.1230     9.1770     8.6730
  752.5000    73.1180     9.5110     2.5290     0.0930   -62.1140     9.1450     8.6840
  753.0000    71.8180     9.4950     2.5110     0.0950   -62.1050     9.1120     8.6940
  753.5000    70.6100     9.4800     2.5110     0.0960   -62.0960     9.0790     8.7050
  754.0000    71.2910     9.4640     2.5130     0.1020   -62.0870     9.0510     8.7150
  754.5000    75.0110     9.4480     2.5170     0.1060   -62.0770     9.0550     8.7260
  755.0000    75.7610     9.4460     2.5290     0.1080   -62.0680     9.0600     8.7360
  755.5000    75.5590     9.4460     2.5380     0.1060   -62.0590     9.0640     8.7470
  756.0000    71.9380     9.4460     2.5360     0.1050   -62.0470     9.0690     8.7570
  756.5000    69.3560     9.4470     2.5310     0.1010   -62.0290     9.0730     8.7680
  757.0000    69.3630     9.4520     2.5380     0.0890   -62.0100     9.0780     8.7780
  757.5000    71.8240     9.4580     2.5070     0.0700   -61.9910     9.0830     8.7890
  758.0000    72.5480     9.4630     2.4900     0.0750   -61.9720     9.0870     8.7990
  758.5000    71.0980     9.4680     2.4900     0.0870   -61.9540     9.0920     8.8040
  759.0000    67.0900     9.4740     2.5070     0.0870   -61.9350     9.0960     8.8040
  759.5000    63.4220     9.4790     2.5240     0.0830   -61.9160     9.1010     8.8040
  760.0000    63.2440     9.4850     2.5230     0.0810   -61.8970     9.1060     8.8040
  760.5000    64.6600     9.5080     2.5100     0.0810   -61.8790     9.1100     8.8040
  761.0000    65.8800     9.5330     2.5110     0.0810   -61.8600     9.1150     8.8040
  761.5000    69.0490     9.5720     2.5160     0.0810   -61.8800     9.1200     8.8040
  762.0000    69.6740     9.6770     2.5020     0.0810   -62.0240     9.1240     8.8040
  762.5000    69.4630     9.7020     2.5160     0.0820   -62.1680     9.1290     8.8040
  763.0000    69.6590     9.7080     2.5050     0.0820   -62.3110     9.1330     8.8040
  763.5000    70.0080     9.7140     2.5020     0.0830   -62.4540     9.1390     8.8040
  764.0000    70.0850     9.7200     2.5030     0.0830   -62.5970     9.1460     8.8040
  764.5000    69.8520     9.7260     2.5130     0.0830   -62.7390     9.1530     8.8040
  765.0000    69.6170     9.7320     2.5100     0.0850   -62.8450     9.1590     8.8040
  765.5000    69.4610     9.7380     2.5030     0.0930   -62.8110     9.1660     8.8040
  766.0000    70.7510     9.7440     2.5000     0.0950   -62.7800     9.1730     8.8040
  766.5000    72.0530     9.7500     2.5210     0.0980   -62.7500     9.1790     8.8040
  767.0000    73.3510     9.7550     2.5170     0.1040   -62.7190     9.1860     8.8040
  767.5000    73.5380     9.7610     2.5320     0.1030   -62.6890     9.1930     8.8030
  768.0000    72.7940     9.7650     2.5420     0.0990   -62.6610     9.1990     8.8090
  768.5000    70.8130     9.7680     2.5310     0.0960   -62.4770     9.2060     8.6870
  769.0000    71.3080     9.7710     2.5240     0.0920   -62.2360     9.2120     8.4510
  769.5000    69.0250     9.7740     2.5170     0.0890   -61.9950     9.2190     8.1780
  770.0000    67.7940     9.7770     2.5200     0.0930   -61.8920     9.1040     8.3140
  770.5000    67.4010     9.7800     2.5130     0.0900   -61.9810     8.9940     8.4850
  771.0000    68.1550     9.7820     2.5050     0.0930   -62.0680     8.8840     8.3490
  771.5000    69.0550     9.7810     2.5040     0.0970   -62.1570     8.7230     8.2540
  772.0000    69.9760     9.7790     2.5220     0.0970   -62.2450     8.7700     8.3540
  772.5000    69.7540     9.7780     2.5260     0.0950   -62.1060     8.8550     8.4850
  773.0000    68.7840     9.7760     2.5330     0.0830   -61.9480     8.9680     8.4300
  773.5000    68.7180     9.7750     2.5020     0.0730   -61.7900     8.8960     8.3200
  774.0000    69.4160     9.7740     2.4960     0.0740   -61.6340     8.7900     8.2100
  774.5000    74.6220     9.7720     2.4850     0.0780   -61.4770     8.6840     8.1030
  775.0000    75.8900     9.7710     2.4880     0.0830   -61.3200     8.5960     8.1030
  775.5000    75.9950     9.7690     2.4970     0.0830   -61.3570     8.5180     8.1030
  776.0000    70.3710     9.7680     2.5040     0.0830   -61.6240     8.4850     8.1030
  776.5000    66.6500     9.7670     2.4990     0.0830   -61.8890     8.4850     8.1030
  777.0000    66.4650     9.7650     2.4940     0.0840   -62.1550     8.4850     8.1030
  777.5000    64.8040     9.7640     2.4960     0.0930   -62.4190     8.4850     8.1030
  778.0000    64.6200     9.7620     2.5070     0.0950   -62.4000     8.4850     8.1030
  778.5000    66.9370     9.7610     2.5180     0.0930   -62.3280     8.4850     8.1030
  779.0000    69.6590     9.7610     2.5100     0.0900   -62.2550     8.4850     8.1030
  779.5000    72.0550     9.7600     2.5020     0.0910   -62.1820     8.4850     8.1030
  780.0000    73.7620     9.7590     2.5020     0.0980   -62.1100     8.4850     8.1030
  780.5000    72.4550     9.7580     2.5190     0.1000   -62.0370     8.4850     8.1030
  781.0000    71.2070     9.7570     2.5280     0.0950   -61.9640     8.4850     8.1140
  781.5000    71.3940     9.7560     2.5350     0.0910   -61.8920     8.4850     8.1250
  782.0000    68.4500     9.7550     2.5200     0.0900   -61.8190     8.4850     8.1360
  782.5000    67.6040     9.7550     2.5100     0.0930   -61.7460     8.4850     8.1480
  783.0000    67.8570     9.7540     2.5150     0.0960   -61.6740     8.4850     8.1590
  783.5000    68.5300     9.7530     2.5220     0.0990   -61.6010     8.4850     8.1700
  784.0000    68.7610     9.7520     2.5270     0.1020   -61.5270     8.4850     8.1820
  784.5000    68.0150     9.7510     2.5350     0.1030   -61.4600     8.4850     8.1930
  785.0000    67.6340     9.7500     2.5310     0.1030   -61.5680     8.4850     8.2040
  785.5000    67.9010     9.7490     2.5280     0.1010   -61.6860     8.4850     8.2160
  786.0000    70.4030     9.7480     2.5290     0.0980   -61.8030     8.4850     8.2270
  786.5000    70.6650     9.7480     2.5240     0.0980   -61.9200     8.4850     8.2380
  787.0000    70.8990     9.7470     2.5180     0.0980   -62.0360     8.4850     8.2530
  787.5000    71.8650     9.7460     2.5150     0.0990   -62.0520     8.4880     8.1920
  788.0000    72.4190     9.7450     2.5150     0.0990   -62.0520     8.3680     8.1000
  788.5000    70.9500     9.7440     2.5220     0.0960   -62.0520     8.2560     8.0070
  789.0000    69.9660     9.7430     2.5260     0.0950   -62.0520     8.1440     7.9140
  789.5000    70.4830     9.7440     2.5310     0.0930   -62.0500     8.0280     7.8220
  790.0000    76.7410     9.7510     2.5170     0.0930   -62.0500     8.0150     7.7290
  790.5000    75.9900     9.7590     2.5110     0.0960   -61.8590     8.0020     7.6670
  791.0000    75.7470     9.7660     2.5100     0.0990   -61.5020     7.9880     7.6720
  791.5000    77.3680     9.7730     2.5120     0.0970   -61.1450     7.9750     7.6770
