~VERSION INFORMATION
 VERS.                2.0:   CWLS LOG ASCII STANDARD - VERSION 2.0
 WRAP.                 NO:   ONE LINE PER DEPTH STEP
~WELL INFORMATION
#MNEM.UNIT      DATA TYPE    INFORMATION
#----------   ------------   ------------------------------
 STRT.F          206.0000:   START DEPTH
 STOP.F         3218.0000:   STOP DEPTH
 STEP.F            0.5000:   STEP LENGTH
 NULL.          -999.2500:   NO VALUE
 COMP.    FENIX & SCISSON:   COMPANY
 WELL.     FENIX AX #16-2:   WELL
 FLD .              NPR 3:   FIELD
 LOC .       S2 T38N R78W:   LOCATION
 CNTY.            NATRONA:   COUNTY
 STAT.            WYOMING:   STATE
 CTRY. UNITED STATES OF AMERICA:   COUNTRY
 SRVC.       SCHLUMBERGER:   SERVICE COMPANY
 DATE.        10-OCT-1977:   LOGDATE
 API .     49025105780000:   API NUMBER
~CURVE INFORMATION
#MNEM.UNIT       API CODE    CURVE DESCRIPTION
#----------   ------------   ------------------------------
 DEPT.F                  :   
 GRD .GAPI   45 310 01 00:   GAMMA RAY FROM DENSITY LOG
 CALD.IN     45 280 60 00:   CALIPER FROM DENSITY LOG
 RHOB.G/C3   45 350 01 00:   BULK DENSITY
 CORR.G/C3   45 356 01 00:   DENSITY CORRECTION
 SPR .MV     07 010 01 00:   SPONTANEOUS POTENTIAL FROM RES.
 RILD.OHMM   07 120 46 00:   DEEP INDUCTION RESISTIVITY
 RILM.OHMM   07 120 44 00:   INDUCTION LOG MEDIUM RESISTIVITY
 RLL8.OHMM   07 220 08 00:   LATEROLOG-8 RES.
~PARAMETER INFORMATION
#MNEM.UNIT          VALUE    DESCRIPTION
#----------   ------------   ------------------------------
 EKB .F         5123.0000:   Kelly bushing
 EGL .F         5113.0000:   Ground level
 EDF .F            0.0000:   Drilling floor
 TD  .F         3220.0000:   Total depth
 CLNT.            A2DTECH:   Client Code
 SL  . 1772' FSL & 576' FWL:   Surface Location
 PD  .                 GL:   Permanent Datum
 EPD .F              5113:   Elevation Permanent Datum
 LMF .                 KB:   Log Measured From
 DMF .                 KB:   Drilling Measured From
 DAPD.F                10:   Feet Above Permanent Datum
 DATE.        10-OCT-1977:   Date Logged [DD-MMM-YYYY]
 DD  .F              3220:   Depth driller
 DL  .F              3218:   Depth logger
 BLI .F              3212:   Bottom log interval
 TLI .F               223:   Top log interval
 CS1 .IN            8.625:   Casing size
 CBD1.      8.625" @ 222':   Casing driller 1
 CBL1.F               223:   Casing logger 1
 BS1 .IN            7.875:   Bit size
 BSD1.F              3220:   Depth drilled with bit1
 DFT .                KCL:   Type fluid in hole
 DFD .                8.6:   Density
 DFV .                 32:   Viscosity
 DFPH.                 11:   pH
 MSS .            MUD PIT:   Source of sample
 RMS .OHMM           0.29:   Rm
 MST .F                82:   Rm Meas. temp.
 RMF .OHMM          0.228:   Rmf
 MFST.F                81:   Rmf Meas. temp.
 MFSS.               MEAS:   Source Rmf.
 RMB .OHMM           0.21:   Rm. at BHT
 BHT .F               122:   BHT.
 TCS .HRS            0600:   Time Circ. stopped
 MRT .F               122:   Maximum recorded temp.
 LUN .               5642:   Logging unit number
 ENGI. CHALUPSKY PETERSON:   Recorded By
 WITN.     WES PETTINGILL:   Witnessed by
 ORIG.           5" PRINT:   Origin of data
 UWI .     49025105780000:   Unique Well ID
 DICO. A2D TECHNOLOGIES, INC.:   Digitizing Company
 TLAB.HRS            1000:   Time logger at bottom
 LUL .               CSPR:   Logging unit location
~OTHER INFORMATION
~A   DEPT       GRD      CALD       RHOB       CORR        SPR       RILD       RILM       RLL8   
# ...
 1583.0000   117.4089    10.4918     2.5308     0.0104   -30.9562     7.4118     6.6250     7.8815
 1583.5000   116.9719    10.4933     2.5421     0.0135   -31.3150     7.3894     6.6336     8.0628
 1584.0000   119.5308    10.4948     2.5323     0.0134   -31.5042     7.3750     6.5933     8.1313
 1584.5000   119.3911    10.4965     2.5301     0.0045   -31.3624     7.3310     6.6004     7.9695
 1585.0000   118.2018    10.4980     2.5271     0.0084   -30.8301     7.3393     6.6088     7.8670
 1585.5000   113.5652    10.4994     2.5232    -0.0059   -30.3536     7.2950     6.6157     7.7631
 1586.0000   113.1230    10.5009     2.5174    -0.0104   -29.4473     7.3051     6.6226     7.7206
 1586.5000   115.8344    10.5023     2.5099    -0.0133   -27.9500     7.3132     6.6295     7.6758
 1587.0000   118.3933    10.5188     2.5271    -0.0133   -26.5702     7.3739     6.6364     7.6314
 1587.5000   119.6029    10.5202     2.5346     0.0041   -25.3164     7.3990     6.6433     7.5871
 1588.0000   116.2666    10.5217     2.5272     0.0065   -24.5104     7.4428     6.6502     7.5431
 1588.5000   111.6777    10.5385     2.5242    -0.0002   -22.9802     7.4515     6.6573     7.5540
 1589.0000   112.8877    10.5400     2.5288    -0.0130   -21.6046     7.5672     6.6727     7.5643
 1589.5000   114.1204    10.5564     2.5324    -0.0084   -21.8891     7.5759     6.7206     7.6307
 1590.0000   113.0605    10.5729     2.5347    -0.0016   -22.2077     7.5861     6.7759     7.6956
 1590.5000   113.5205    10.5893     2.5354     0.0075   -22.5256     7.5945     6.8316     7.8273
 1591.0000   114.2803    10.5908     2.5287     0.0083   -22.8270     7.6574     6.8878     8.0537
 1591.5000   115.0401    10.5922     2.5212    -0.0037   -23.5614     7.6660     6.9444     8.3575
 1592.0000   110.8524    10.5937     2.5204    -0.0074   -24.2010     7.6745     7.0517     8.4889
 1592.5000   106.5139    10.5954     2.5280     0.0055   -25.1606     7.6830     7.0590     8.5001
 1593.0000   108.6255    10.5968     2.5373     0.0146   -26.1304     7.6367     7.0161     8.3905
 1593.5000   109.0855    10.6133     2.5302     0.0117   -26.9642     7.6455     6.9734     8.2238
 1594.0000   110.2951    10.6147     2.5347     0.0004   -27.5254     7.6559     6.9310     8.1179
 1594.5000   111.6546    10.6162     2.5370     0.0208   -27.3215     7.6644     6.8888     8.0708
 1595.0000   112.7142    10.6026     2.5273     0.0216   -27.2940     7.6729     6.8487     8.0842
 1595.5000   113.4740    10.5891     2.5250     0.0142   -27.0056     7.7365     6.8558     8.0373
 1596.0000   113.1785    10.5909     2.5333     0.0044   -26.5583     7.8006     6.9122     8.0480
 1596.5000   109.9038    10.5924     2.5310     0.0030   -25.7077     7.8093     6.9194     7.9986
 1597.0000   104.2109    10.5785     2.5273    -0.0007   -24.3626     7.8740     6.9763     8.0119
 1597.5000   103.9187    10.5650     2.5266    -0.0052   -22.7090     7.8829     7.0338     8.0800
 1598.0000   108.5791    10.5668     2.5296     0.0077   -21.5984     7.9503     7.0933     8.1487
 1598.5000   108.7392    10.5682     2.5363     0.0062   -21.1497     7.9003     7.1516     8.3382
 1599.0000   108.4368    10.5697     2.5453     0.0108   -20.6420     7.9112     7.1591     8.6676
 1599.5000   106.5133    10.5715     2.5498     0.0125   -20.6615     7.9200     7.0648     8.9159
 1600.0000   103.8248    10.5730     2.5498     0.0026   -20.6467     7.8702     7.1230     9.0541
 1600.5000   104.7345    10.5744     2.5466     0.0004   -21.1198     7.9358     6.9797     8.9944
 1601.0000   106.0940    10.5759     2.5371    -0.0025   -21.6277     7.9430     6.8393     8.8820
 1601.5000   107.4535    10.5773     2.5387    -0.0138   -22.3019     7.8932     6.7981     8.7060
 1602.0000   108.9630    10.5788     2.5267     0.0014   -23.1007     7.8134     6.7572     8.4703
 1602.5000   110.6223    10.5795     2.5238     0.0097   -23.9580     7.7402     6.6688     8.3001
 1603.0000   113.9313    10.5811     2.5253     0.0007   -24.7257     7.5846     6.6287     8.0180
 1603.5000   114.3913    10.5824     2.5283     0.0046   -25.4760     7.4837     6.5437     7.8568
 1604.0000   114.5517    10.5837     2.5389     0.0220   -26.1462     7.3825     6.4581     7.6990
 1604.5000   113.9646    10.5850     2.5397     0.0182   -27.1160     7.3366     6.4174     7.5962
 1605.0000   110.3740    10.5714     2.5389     0.0146   -27.3572     7.2909     6.4264     7.5524
 1605.5000   110.5368    10.5727     2.5300     0.0207   -27.5566     7.2470     6.3875     7.7802
 1606.0000   111.8963    10.5587     2.5075     0.0109   -27.3172     7.2538     6.4407     8.1346
 1606.5000   114.7560    10.5453     2.5218     0.0129   -27.0800     7.2086     6.4480     8.3151
 1607.0000   112.8172    10.5467     2.5248     0.0037   -26.1560     7.2167     6.4554     8.0347
 1607.5000   112.0753    10.5330     2.5281     0.0129   -25.1189     7.1702     6.4641     7.8150
 1608.0000   113.8872    10.5343     2.5376     0.0099   -23.4343     7.2298     6.4234     7.6580
 1608.5000   113.5976    10.5359     2.5384     0.0001   -22.1769     7.2363     6.4785     7.6687
 1609.0000   111.3590    10.5223     2.5272    -0.0006   -21.6639     7.1913     6.4857     7.7323
 1609.5000   109.5701    10.5236     2.5242     0.0070   -21.1751     7.1975     6.5395     7.7964
 1610.0000   108.0811    10.5096     2.5332     0.0146   -20.7778     7.2043     6.5937     7.8051
 1610.5000   108.0960    10.5112     2.5348     0.0138   -21.3491     7.2109     6.6961     7.7583
 1611.0000   108.5707    10.4972     2.5355     0.0056   -21.8264     7.1662     6.7042     7.7670
 1611.5000   112.3123    10.5139     2.5498     0.0162   -22.4902     7.1214     6.7651     7.8875
 1612.0000   110.9733    10.5001     2.5649     0.0162   -23.1585     7.1294     6.8171     8.1881
 1612.5000   111.1334    10.5015     2.5649     0.0094   -23.8204     7.0842     6.7742     8.4302
 1613.0000   112.4930    10.5028     2.5626     0.0143   -24.4857     7.0409     6.7836     8.3219
 1613.5000   111.3038    10.5056     2.5515     0.0208   -25.5304     7.0469     6.7410     8.1524
 1614.0000   111.0117    10.5205     2.5327     0.0005   -26.1445     7.0537     6.7504     7.9317
 1614.5000   112.9735    10.5068     2.5133    -0.0070   -27.1373     7.0601     6.7079     7.7723
 1615.0000   114.7829    10.5085     2.5088    -0.0078   -27.7194     7.0665     6.6692     7.6182
 1615.5000   116.2924    10.5098     2.5103     0.0073   -27.9097     7.1251     6.6768     7.6814
 1616.0000   117.2022    10.5111     2.5208    -0.0002   -27.7862     7.1316     6.6844     7.8565
 1616.5000   116.4653    10.5086     2.5269     0.0036   -28.1465     7.1892     6.6441     8.2095
 1617.0000   115.2762    10.5042     2.5229     0.0052   -27.6967     7.1957     6.6533     8.2217
 1617.5000   111.8373    10.5000     2.5247    -0.0023   -26.9649     7.2022     6.6589     8.1094
 1618.0000   111.9975    10.4863     2.5142    -0.0114   -25.8206     7.1558     6.6188     7.8786
 1618.5000   112.0077    10.4879     2.5172    -0.0076   -24.7933     7.1417     6.6281     7.5713
 1619.0000   111.4172    10.4892     2.5188    -0.0014   -23.3149     7.1192     6.6355     7.4171
 1619.5000   109.4334    10.4906     2.5248     0.0153   -22.7117     7.0246     6.6428     7.7526
 1620.0000   107.8406    10.4919     2.5338     0.0197   -22.2477     6.9809     6.6502     8.0433
 1620.5000   108.4531    10.5082     2.5241     0.0076   -21.7051     6.9375     6.5614     8.2267
 1621.0000   109.0630    10.5095     2.5316     0.0016   -21.5988     6.9453     6.4708     8.1750
 1621.5000   110.2727    10.5108     2.5384     0.0017   -22.1509     6.9005     6.3035     7.9559
 1622.0000   111.0300    10.5122     2.5257     0.0168   -22.6050     6.9083     6.2639     7.6855
 1622.5000   110.8903    10.5135     2.5475     0.0191   -23.3765     6.9642     6.3176     7.3190
 1623.0000   110.9031    10.4998     2.5468     0.0048   -23.9761     7.0204     6.5080     7.0702
