~VERSION INFORMATION
 VERS.                2.0:   CWLS LOG ASCII STANDARD - VERSION 2.0
 WRAP.                 NO:   ONE LINE PER DEPTH STEP
~WELL INFORMATION
#MNEM.UNIT      DATA TYPE    INFORMATION
#----------   ------------   ------------------------------
 STRT.F            5.5000:   START DEPTH
 STOP.F         3261.0000:   STOP DEPTH
 STEP.F            0.5000:   STEP LENGTH
 NULL.          -999.2500:   NO VALUE
 COMP. LAWRENCE ALLISON & ASSOCIATES:   COMPANY
 WELL. LAWRENCE "X" #12-14:   WELL
 FLD .              NPR 3:   FIELD
 LOC .      S14 T38N R78W:   LOCATION
 CNTY.            NATRONA:   COUNTY
 STAT.            WYOMING:   STATE
 CTRY. UNITED STATES OF AMERICA:   COUNTRY
 SRVC.      DRESSER ATLAS:   SERVICE COMPANY
 DATE.        18-AUG-1986:   LOGDATE
 API .     49025111080000:   API NUMBER
~CURVE INFORMATION
#MNEM.UNIT       API CODE    CURVE DESCRIPTION
#----------   ------------   ------------------------------
 DEPT.F                  :   
 RILM.OHMM   07 120 44 00:   INDUCTION LOG MEDIUM RESISTIVITY
 GRR .GAPI   07 310 01 00:   GAMMA RAY FROM RESISTIVITY
 SPR .MV     07 010 01 00:   SPONTANEOUS POTENTIAL
 NPHI.DEC    42 890 03 00:   NEUTRON POROSITY SANDSTONE
 CALD.IN     45 280 60 00:   CALIPER FROM DENSITY LOG
 TEND.LBS    45 635 01 00:   TENSION FORM DENSITY LOG
 DRHO.G/C3   45 356 01 00:   DENSITY CORRECTION
 DEN .G/C3   45 350 01 00:   BULK DENSITY
 RILD.OHMM   07 120 46 00:   DEEP INDUCTION RESISTIVITY
 RFOC.OHMM   07 220 04 00:   RESISTIVITY FOCUSED LOG RES.
~PARAMETER INFORMATION
#MNEM.UNIT          VALUE    DESCRIPTION
#----------   ------------   ------------------------------
 EKB .F         5245.0000:   Kelly bushing
 EGL .F         5234.0000:   Ground level
 TD  .F         3250.0000:   Total depth
 CLNT.            A2DTECH:   Client Code
 SL  . 901' FNL & 485' FWL:   Surface Location
 PD  .                 GL:   Permanent Datum
 EPD .F              5234:   Elevation Permanent Datum
 LMF .                 KB:   Log Measured From
 DMF .                 KB:   Drilling Measured From
 DAPD.F                11:   Feet Above Permanent Datum
 DATE.        18-AUG-1986:   Date Logged [DD-MMM-YYYY]
 DD  .F              3250:   Depth driller
 DL  .F              3246:   Depth logger
 BLI .F              3244:   Bottom log interval
 TLI .F                 0:   Top log interval
 CS1 .IN            8.625:   Casing size
 CBD1.      8.625" @ 733':   Casing driller 1
 CBL1.F               735:   Casing logger 1
 BS1 .IN            7.875:   Bit size
 BSD1.F              3250:   Depth drilled with bit1
 DFT .            KCL-GEL:   Type fluid in hole
 DFD .                8.8:   Density
 DFV .                 36:   Viscosity
 DFPH.                8.5:   pH
 DFL .               12.8:   Fluid loss
 MSS .           FLOWLINE:   Source of sample
 RMS .OHMM          0.292:   Rm
 MST .F                73:   Rm Meas. temp.
 RMF .OHMM          0.224:   Rmf
 MFST.F                73:   Rmf Meas. temp.
 MFSS.               MEAS:   Source Rmf.
 RMC .OHMM          0.365:   Rmc
 MCST.F                73:   Rmc Meas. temp.
 MCSS.               CALC:   Source Rmc.
 RMB .OHMM          0.154:   Rm. at BHT
 BHT .F               138:   BHT.
 TCS .HRS               5:   Time Circ. stopped
 MRT .F               138:   Maximum recorded temp.
 LUN .            HL-6214:   Logging unit number
 LUL .           GILLETTE:   Logging unit location
 ENGI.             RAUTIO:   Recorded By
 WITN.             STRONG:   Witnessed by
 ORIG.        2" 5" PRINT:   Origin of data
 UWI .     49025111080000:   Unique Well ID
 DICO. A2D TECHNOLOGIES, INC.:   Digitizing Company
~OTHER INFORMATION
~A    DEPT    RILM         GRR       SPR       NPHI       CALD       TEND       DRHO        DEN       RILD       RFOC   
# ...
 3054.0000     5.4522   128.6516   -41.6680     0.2546     8.8485   -30.7301     0.0146     2.5262     5.4689     5.4037
 3054.5000     5.2300   129.2730   -41.5116     0.2571     8.8430   -23.0657     0.0179     2.5218     5.2462     5.2192
 3055.0000     4.9133   128.9880   -41.2046     0.2519     8.8424   -22.9202     0.0087     2.5217     4.6616     5.3303
 3055.5000     4.5519   128.7037   -40.7470     0.2440     8.8417   -22.7747    -0.0018     2.5217     4.2296     5.3683
 3056.0000     4.0167   129.8222   -40.4386     0.2413     8.8411   -22.6292    -0.0003     2.5225     3.7582     5.3317
 3056.5000     3.4713   134.6369   -40.1316     0.2636     8.8405   -22.9815     0.0088     2.5210     3.3842     5.1750
 3057.0000     2.7650   153.0696   -39.6739     0.2971     8.8400   -37.3757     0.0224     2.5119     2.7861     4.5437
 3057.5000     2.6106   174.4962   -38.9151     0.3389     8.8394   -19.9248     0.0300     2.4378     2.5466     3.7389
 3058.0000     2.7604   208.2900   -37.8551     0.3374     8.8388   -19.5713     0.0496     2.3834     2.6190     2.4964
 3058.5000     2.8387   208.3187   -37.0963     0.3035     8.8382   -34.3214     0.1126     2.3713     2.7696     2.2805
 3059.0000     2.9808   186.5888   -37.0904     0.2821     8.8375   -34.0338     0.1095     2.3970     2.6754     2.3948
 3059.5000     3.2364   170.0063   -37.3859     0.2552     8.8217   -33.7462     0.0632     2.4229     2.7134     2.9519
 3060.0000     3.7198   144.9774   -37.9811     0.2131     8.7757   -25.9398     0.0098     2.5208     3.1194     4.6649
 3060.5000     4.3752   120.6542   -38.4271     0.2089     8.7448    -3.0240     0.0278     2.5450     3.8248     6.3543
 3061.0000     5.2679   111.2091   -38.7225     0.2086     8.7139    -2.7364     0.0232     2.5503     4.4822     6.3552
 3061.5000     5.8885   110.9162   -39.1685     0.2076     8.7132     5.0700     0.0156     2.5442     4.8737     6.3560
 3062.0000     6.0551   110.3238   -39.4639     0.2079     8.7126    12.8764     0.0335     2.5441     5.2995     6.4013
 3062.5000     6.0134   109.4254   -39.7841     0.2170     8.7120     5.6391     0.0502     2.5473     5.8026     6.4469
 3063.0000     6.0139   107.9280   -40.2038     0.2271     8.6812    -1.5862     0.0455     2.5502     5.8852     6.3144
 3063.5000     5.9312   107.0318   -40.6498     0.2376     8.6654   -23.7830     0.0349     2.5479     5.8455     6.1369
 3064.0000     5.6891   106.7389   -40.9452     0.2394     8.6648   -31.0862     0.0303     2.5389     5.7659     5.9325
 3064.5000     5.4951   111.2747   -41.0915     0.2345     8.6491   -30.7268     0.0302     2.5328     5.5658     5.7301
 3065.0000     5.3447   114.3001   -41.2349     0.2294     8.6637   -38.0298     0.0302     2.5328     5.4182     5.5347
 3065.5000     5.1984   117.6271   -41.2289     0.2327     8.6630   -30.1504     0.0316     2.5328     5.2704     5.3833
 3066.0000     5.0210   120.3508   -40.9206     0.2421     8.6624   -29.7920     0.0300     2.5327     5.1267     5.2727
 3066.5000     4.8835   121.8679   -40.4630     0.2430     8.6466   -29.5046     0.0299     2.5327     4.9180     5.2368
 3067.0000     4.6195   124.2899   -40.3066     0.2411     8.6461   -29.2170     0.0301     2.5305     4.6850     5.0903
 3067.5000     4.3578   128.2202   -40.3008     0.2405     8.6152   -36.5201     0.0418     2.5267     4.3405     4.9200
 3068.0000     3.9646   133.5184   -40.2950     0.2472     8.6144   -36.1606     0.0674     2.5205     3.7760     4.7854
 3068.5000     3.5472   142.1162   -40.2892     0.2647     8.6139   -28.3458     0.0462     2.5085     3.3697     4.6869
 3069.0000     3.1959   148.4598   -40.2831     0.2825     8.5830   -27.9948     0.0400     2.4972     2.9005     4.4336
 3069.5000     2.5583   155.1051   -39.9749     0.2945     8.5521   -27.7072     0.0463     2.4768     2.4376     4.2231
 3070.0000     2.2417   166.5769   -39.6679     0.3170     8.5061   -42.5291     0.0475     2.4571     2.2427     3.6488
 3070.5000     2.2419   200.3722   -39.6621     0.3291     8.4902   -57.2072     0.0474     2.4322     2.1967     2.8925
 3071.0000     2.2602   217.2731   -39.6563     0.3297     8.4896   -56.9173     0.0458     2.4269     2.2910     2.2727
 3071.5000     2.3541   215.9349   -39.4999     0.3112     8.4739   -56.5602     0.0337     2.4435     2.3075     2.2414
 3072.0000     2.5771   183.8087   -39.4940     0.2885     8.4581   -48.7538     0.0003     2.4903     2.3914     2.8410
 3072.5000     2.9210   160.8914   -39.4868     0.2504     8.4576   -25.9098    -0.0027     2.5152     2.6167     3.4534
 3073.0000     3.5991   140.9906   -39.6331     0.2399     8.4570   -25.6224     0.0063     2.5288     2.8851     5.6642
 3073.5000     4.1655   123.5031   -39.9270     0.2380     8.4564   -25.3383     0.0198     2.5242     3.3168     5.8657
 3074.0000     4.7613   119.8898   -40.0718     0.2431     8.4557   -25.0376     0.0348     2.5258     4.0597     5.8665
 3074.5000     5.4268   119.5988   -40.2169     0.2550     8.4551   -27.1176     0.0408     2.5280     4.6347     5.8675
 3075.0000     5.5416   122.3228   -40.5120     0.2556     8.4545   -39.5096     0.0166     2.5264     5.0396     5.8274
 3075.5000     5.5419   128.5058   -40.9810     0.2531     8.4539   -39.1502    -0.0059     2.5196     5.4418     5.7877
 3076.0000     5.5423   134.1072   -41.7038     0.2507     8.4533   -38.8626     0.0016     2.5083     5.5578     5.7084
 3076.5000     5.5427   133.5126   -42.4510     0.2480     8.4527   -38.5715     0.0213     2.5052     5.5206     5.6695
 3077.0000     5.5431   133.2175   -42.5973     0.2470     8.4369   -30.6968     0.0182     2.5067     5.4831     5.6705
 3077.5000     5.6211   132.9268   -42.2888     0.2544     8.4363   -37.9280     0.0061     2.5052     5.4845     5.6726
 3078.0000     5.7802   133.2372   -41.9818     0.2591     8.4054   -37.6404    -0.0030     2.5022     5.5625     5.7518
 3078.5000     5.9437   133.8493   -41.6747     0.2607     8.3897   -29.8340     0.0061     2.5014     5.6416     5.8740
 3079.0000     6.1118   135.7485   -41.5170     0.2625     8.3891   -37.0677    -0.0030     2.5021     5.6822     6.0409
 3079.5000     6.1122   141.4105   -41.5111     0.2634     8.3885   -36.7669    -0.0151     2.5060     5.8033     6.2996
 3080.0000     6.1126   141.7187   -41.5053     0.2591     8.3878   -36.4182    -0.0121     2.5142     5.8045     6.5694
 3080.5000     6.1130   139.9175   -41.6516     0.2513     8.3873   -36.1306    -0.0045     2.5157     5.8059     6.8986
 3081.0000     6.1095   138.7218   -41.7952     0.2461     8.3866   -50.8807    -0.0151     2.5157     5.8071     7.0945
 3081.5000     5.9877   138.4267   -41.9398     0.2470     8.3860   -50.5932    -0.0196     2.5149     5.6882     7.0955
 3082.0000     5.7834   140.5493   -42.1063     0.2549     8.3855   -35.2631    -0.0227     2.5141     5.4945     6.6654
 3082.5000     5.6251   143.2730   -42.2294     0.2567     8.3848   -19.8708    -0.0197     2.5126     5.4199     6.2176
 3083.0000     5.5093   143.5837   -42.2221     0.2609     8.3841   -19.5834    -0.0167     2.5126     5.3089     5.8405
 3083.5000     5.4335   142.3877   -42.2163     0.2669     8.3836   -19.2958    -0.0152     2.5111     5.2732     5.7603
 3084.0000     5.3962   139.9832   -42.2105     0.2654     8.3830   -19.0082    -0.0092     2.5171     5.2743     5.9241
 3084.5000     5.4435   135.1654   -41.9035     0.2601     8.3824   -18.7206    -0.0002     2.5261     5.3124     6.0923
 3085.0000     5.7858   134.2670   -41.5964     0.2548     8.3667   -33.4706     0.0103     2.5223     5.3880     6.1415
 3085.5000     5.8673   134.2780   -41.4386     0.2566     8.3659   -33.1112     0.0179     2.5171     5.5800     6.2229
 3086.0000     5.9914   133.9849   -41.4328     0.2584     8.3654   -32.8236     0.0161     2.5193     5.7788     6.3110
 3086.5000     6.2908   134.3157   -41.4270     0.2542     8.3193   -32.5360     0.0087     2.5329     5.9847     6.5813
 3087.0000     6.7444   135.2114   -41.5733     0.2485     8.2733   -32.2484     0.0042     2.5412     6.1550     7.0081
