~VERSION INFORMATION
 VERS.                2.0:   CWLS LOG ASCII STANDARD - VERSION 2.0
 WRAP.                 NO:   ONE LINE PER DEPTH STEP
~WELL INFORMATION
#MNEM.UNIT      DATA TYPE    INFORMATION
#----------   ------------   ------------------------------
 STRT.F          150.0000:   START DEPTH
 STOP.F         2980.0000:   STOP DEPTH
 STEP.F            0.5000:   STEP LENGTH
 NULL.          -999.2500:   NO VALUE
 COMP. FENIX & SCISSION U.S. NAVY:   COMPANY
 WELL.   FENIX "A" #84-20:   WELL
 FLD .             NPR #3:   FIELD
 LOC .      S20 T39N R78W:   LOCATION
 CNTY.            NATRONA:   COUNTY
 STAT.            WYOMING:   STATE
 CTRY. UNITED STATES OF AMERICA:   COUNTRY
 SRVC.       SCHLUMBERGER:   SERVICE COMPANY
 DATE.        21-FEB-1977:   LOGDATE
 API .     49025103020000:   API NUMBER
~CURVE INFORMATION
#MNEM.UNIT       API CODE    CURVE DESCRIPTION
#----------   ------------   ------------------------------
 DEPT.F                  :   
 NPHI.DEC    42 890 03 00:   NEUTRON POROSITY SANDSTONE
 GRD .GAPI   45 310 01 00:   GAMMA RAY FROM DENSITY LOG
 CALD.IN     45 280 60 00:   CALIPER FROM DENSITY LOG
 RHOB.G/C3   45 350 01 00:   BULK DENSITY
 DCOR.G/C3   45 356 01 00:   DENSITY CORRECTION
 SPR .MV     07 010 01 00:   SPONTANEOUS POTENTIAL
 LLD .OHMM   11 220 10 00:   LATEROLOG DEEP
 LLS .OHMM   11 220 09 00:   LATEROLOG SHALLOW
 MSFL.OHMM   07 270 04 00:   MICRO SPHERICALLY FOCUSED RES.
~PARAMETER INFORMATION
#MNEM.UNIT          VALUE    DESCRIPTION
#----------   ------------   ------------------------------
 EKB .F         5006.0000:   Kelly bushing
 EGL .F         4996.0000:   Ground level
 EDF .F            0.0000:   Drilling floor
 TD  .F         2973.0000:   Total depth
 DATE.        21-FEB-1977:   Date logged
 CLNT.            A2DTECH:   Client Code
 SL  . 330' FEL & 2310' FNL:   Surface Location
 PD  .                 GL:   Permanent Datum
 EPD .F              4996:   Elevation Permanent Datum
 LMF .                 KB:   Log Measured From
 DMF .                 KB:   Drilling Measured From
 DAPD.F                10:   Feet Above Permanent Datum
 DD  .F              2973:   Depth driller
 DL  .F              2971:   Depth logger
 BLI .F              2970:   Bottom log interval
 TLI .F               164:   Top log interval
 CS1 .IN            8.625:   Casing size
 CBD1.      8.625" @ 167':   Casing driller 1
 CBL1.F               164:   Casing logger 1
 BS1 .IN            7.875:   Bit size
 BSD1.F              2973:   Depth drilled with bit1
 DFT .            KCL MUD:   Type fluid in hole
 DFD .                9.5:   Density
 DFV .                 35:   Viscosity
 DFPH.                6.5:   pH
 DFL .                 11:   Fluid loss
 MSS .              CIRC.:   Source of sample
 RMS .OHMM           0.27:   Rm
 MST .F                72:   Rm Meas. temp.
 RMF .OHMM           0.19:   Rmf
 MFST.F                72:   Rmf Meas. temp.
 RMC .OHMM           0.35:   Rmc
 MCST.F                72:   Rmc Meas. temp.
 MFSS.               MEAS:   Source Rmf.
 MCSS.               CALC:   Source Rmc.
 RMB .OHMM           0.18:   Rm. at BHT
 BHT .F               110:   BHT.
 TCS .HRS            0300:   Time Circ. stopped
 TLAB.HRS            1000:   Time logger at bottom
 MRT .F               110:   Maximum recorded temp.
 LUN .               7711:   Logging unit number
 LUL .               CSPR:   Logging unit location
 ENGI.             SAYLER:   Recorded By
 WITN.               JAPP:   Witnessed by
 ORIG.           5" PRINT:   Origin of data
 UWI .     49025103020000:   Unique Well ID
 DICO. A2D TECHNOLOGIES, INC.:   Digitizing Company
~OTHER INFORMATION
~A   DEPT       NPHI       GRD      CALD       RHOB       DCOR        SPR        LLD        LLS       MSFL   
# ...
 2413.0000     0.2150   108.9600    11.0490     2.5240     0.0360   -33.8460     9.6820    10.3480    12.6610
 2413.5000     0.2110   109.1500    11.0410     2.5210     0.0340   -34.4170     9.6320    10.4070    12.7170
 2414.0000     0.2080   108.9280    11.0430     2.5270     0.0430   -35.6610     9.5870    10.4670    13.1040
 2414.5000     0.2080   108.1180    11.0480     2.5200     0.0330   -38.4070     9.7650    10.5940    12.9420
 2415.0000     0.2100   107.3080    11.0520     2.5120     0.0270   -42.7770    10.0950    10.8910    12.6310
 2415.5000     0.2110   106.4540    11.0570     2.5040     0.0240   -40.1300    10.5100    11.0780    12.9700
 2416.0000     0.2140   104.4710    11.0660     2.5000     0.0260   -36.1810    10.1300    10.9270    14.1040
 2416.5000     0.2150   102.5840    11.0770     2.5230     0.0280   -34.3660    10.3500    11.0070    12.8650
 2417.0000     0.2150   101.9540    11.0640     2.5180     0.0260   -35.0060    10.5100    11.5220    13.6020
 2417.5000     0.2170   103.2210    11.0520     2.5150     0.0240   -35.2410    10.3560    11.2610    16.0410
 2418.0000     0.2190   104.7010    11.0400     2.5230     0.0320   -35.4170    10.1240    10.8690    15.0690
 2418.5000     0.2220   106.2670    11.0280     2.5220     0.0410   -35.6200     9.8920    10.4770    12.6310
 2419.0000     0.2240   108.7760    11.0160     2.5400     0.0440   -35.7720     9.7650     9.9460    12.4010
 2419.5000     0.2260   110.4490    11.0040     2.5410     0.0400   -35.9520     9.2410    10.1270    12.2830
 2420.0000     0.2260   110.8380    11.0040     2.5330     0.0260   -36.1250     9.5870    10.5100    12.1750
 2420.5000     0.2240   110.7800    11.0110     2.5290     0.0310   -36.2970     9.3540    10.3470    12.2080
 2421.0000     0.2230   110.7180    11.0180     2.5330     0.0400   -36.4730     9.1930    10.0910    12.4010
 2421.5000     0.2250   110.6320    11.0250     2.5380     0.0400   -36.6420     9.0320     9.8360    12.1850
 2422.0000     0.2260   111.5580    11.0310     2.5560     0.0560   -36.8400     8.8700     9.5870    11.2430
 2422.5000     0.2240   112.6530    11.0390     2.5460     0.0480   -37.0610     8.7450     9.8460    10.6490
 2423.0000     0.2210   113.7760    11.0240     2.5240     0.0310   -37.3330     8.9510    10.0990    11.2790
 2423.5000     0.2180   113.7540    11.0040     2.5210     0.0280   -37.5930     9.4430    10.3520    12.3120
 2424.0000     0.2180   113.0410    10.9850     2.5270     0.0340   -37.8670    10.1300    10.6050    14.1040
 2424.5000     0.2200   112.3170    10.9660     2.5140     0.0290   -38.1200    10.0800    10.7050    14.0070
 2425.0000     0.2210   112.1170    10.9460     2.5050     0.0190   -38.4190     9.9970    10.6270    13.8470
 2425.5000     0.2230   112.2430    10.9270     2.5000     0.0230   -38.4470     9.9150    10.5100    14.3650
 2426.0000     0.2200   112.3730    10.9070     2.5150     0.0280   -38.4550     9.8320    10.6080    14.1700
 2426.5000     0.2180   112.5040    10.8880     2.5120     0.0330   -38.6900     9.7650    10.8580    13.8330
 2427.0000     0.2180   112.6360    10.8690     2.5050     0.0360   -39.0050    10.9030    11.1070    13.3750
 2427.5000     0.2170   112.7650    10.8490     2.5140     0.0390   -39.3200    10.7790    11.3120    12.6310
 2428.0000     0.2170   112.6990    10.8300     2.5290     0.0370   -39.6290    10.5650    11.0250    13.8470
 2428.5000     0.2190   112.0200    10.8110     2.5200     0.0320   -39.9330    10.3510    10.7820    13.3690
 2429.0000     0.2230   111.3470    10.7910     2.5160     0.0280   -40.2750    10.1300    10.5390    12.1750
 2429.5000     0.2270   110.6820    10.7780     2.5220     0.0340   -40.4870     9.7590    10.2960    12.4370
 2430.0000     0.2270   110.2660    10.7680     2.5150     0.0300   -41.2360     9.3760    10.0530    13.1040
 2430.5000     0.2290   110.9710    10.7590     2.5110     0.0350   -41.6530     8.9930     9.6640    12.8490
 2431.0000     0.2290   112.8930    10.7500     2.5240     0.0300   -41.7410     8.7450     9.1610    12.3920
 2431.5000     0.2290   115.3420    10.7440     2.5150     0.0220   -41.9700     8.4290     8.6570    11.9360
 2432.0000     0.2310   117.2980    10.7470     2.5050     0.0190   -42.1820     7.6890     8.1250    11.4790
 2432.5000     0.2360   118.8930    10.7490     2.5040     0.0190   -42.3860     7.5490     8.1750    11.0220
 2433.0000     0.2390   119.6870    10.7510     2.5010     0.0140   -42.5990     7.4110     8.2290    12.4010
 2433.5000     0.2430   118.9800    10.7530     2.4950     0.0080   -42.8090     7.5490     8.2760    11.8370
 2434.0000     0.2500   118.6210    10.7560     2.5000     0.0120   -43.0160     7.3410     7.6890    10.7050
 2434.5000     0.2500   118.8780    10.7580     2.5130     0.0210   -43.2210     7.2760     7.8320    10.9050
 2435.0000     0.2480   119.1230    10.7600     2.5230     0.0280   -43.3160     6.9720     8.1250    11.1210
 2435.5000     0.2500   119.3710    10.7620     2.5200     0.0250   -43.4100     6.7020     7.1440    11.3120
 2436.0000     0.2550   119.8020    10.7680     2.5210     0.0310   -43.4990     6.4270     7.4110    10.4310
 2436.5000     0.2610   120.5950    10.7760     2.5420     0.0360   -43.5830     6.1420     7.2620     9.6430
 2437.0000     0.2670   121.2240    10.7850     2.5420     0.0410   -43.7590     5.9440     7.0990     8.9800
 2437.5000     0.2740   121.4660    10.7930     2.5410     0.0380   -44.0070     5.9440     6.9350     8.4290
 2438.0000     0.2730   121.1530    10.8010     2.5400     0.0350   -43.9100     5.8850     6.3980     8.8000
 2438.5000     0.2720   121.7670    10.8100     2.5450     0.0330   -43.8040     5.8360     6.5310     9.2410
 2439.0000     0.2740   122.6660    10.8180     2.5500     0.0350   -43.6970     6.1670     6.6370     8.9610
 2439.5000     0.2720   123.6190    10.8270     2.5560     0.0430   -43.4610     6.0770     6.9200     8.4290
 2440.0000     0.2690   124.6980    10.8350     2.5550     0.0510   -43.0360     5.9440     7.2760     9.0720
 2440.5000     0.2690   125.8570    10.8410     2.5500     0.0510   -42.6190     5.8360     6.8860     8.9450
 2441.0000     0.2700   126.8090    10.8300     2.5430     0.0440   -42.1990     5.9440     7.0620     8.6780
 2441.5000     0.2680   127.0780    10.8190     2.5380     0.0370   -41.7830     5.9440     7.4110     8.2760
 2442.0000     0.2610   126.5690    10.8090     2.5430     0.0400   -41.3540     6.1800     7.3530     8.7450
 2442.5000     0.2570   126.3970    10.7980     2.5590     0.0440   -40.9520     6.5210     7.1350     9.0720
 2443.0000     0.2530   127.0060    10.7880     2.5530     0.0340   -40.4730     7.0410     6.8860     9.4120
 2443.5000     0.2470   126.8050    10.7770     2.5500     0.0240   -40.2630     7.5610     7.6780    10.0080
 2444.0000     0.2410   124.2640    10.7660     2.5380     0.0220   -40.0130     8.0800     8.7450    11.5220
 2444.5000     0.2350   121.4150    10.7700     2.5220     0.0220   -39.8030     8.6000    10.9030    11.8840
 2445.0000     0.2310   120.6660    10.7790     2.5180     0.0250   -39.5690     9.4120    10.6750    12.4010
 2445.5000     0.2280   120.5480    10.7880     2.5150     0.0310   -39.2960     9.3810    10.4570    13.3470
 2446.0000     0.2290   120.0540    10.7970     2.5250     0.0360   -39.5940     9.3110    10.2380    14.6320
 2446.5000     0.2320   118.0400    10.8060     2.5370     0.0410   -40.0940     9.2400    10.0190    14.3540
 2447.0000     0.2350   118.0540    10.8150     2.5390     0.0440   -41.8640     9.1700     9.8010    13.5950
 2447.5000     0.2380   119.0990    10.8230     2.5420     0.0460   -44.7560     9.0720     9.5870    13.1740
 2448.0000     0.2410   120.8250    10.8320     2.5320     0.0310   -47.3210     9.1300     9.7050    12.6630
 2448.5000     0.2430   122.7100    10.8410     2.5250     0.0390   -49.6390     9.2240    10.2520    11.9530
 2449.0000     0.2440   124.9700    10.8500     2.5420     0.0520   -48.8370     9.3180    10.9030    12.7770
