~VERSION INFORMATION
 VERS.                2.0:   CWLS LOG ASCII STANDARD - VERSION 2.0
 WRAP.                 NO:   ONE LINE PER DEPTH STEP
~WELL INFORMATION
#MNEM.UNIT      DATA TYPE    INFORMATION
#----------   ------------   ------------------------------
 STRT.F           44.0000:   START DEPTH
 STOP.F         6166.0000:   STOP DEPTH
 STEP.F            0.5000:   STEP LENGTH
 NULL.          -999.2500:   NO VALUE
 COMP.   TESORO PETROLEUM:   COMPANY
 WELL. TESORO 11X NPR #3-23:   WELL
 FLD .             TEAPOT:   FIELD
 LOC .      S23 T38N R78W:   LOCATION
 CNTY.            NATRONA:   COUNTY
 STAT.            WYOMING:   STATE
 CTRY. UNITED STATES OF AMERICA:   COUNTRY
 SRVC.       SCHLUMBERGER:   SERVICE COMPANY
 DATE.        29-OCT-1968:   LOGDATE
 API .     49025100170000:   API NUMBER
~CURVE INFORMATION
#MNEM.UNIT       API CODE    CURVE DESCRIPTION
#----------   ------------   ------------------------------
 DEPT.F                  :   
 SN  .OHMM   05 040 18 00:   SHORT NORMAL 18"
 RES .OHMM   05 000 00 00:   RESISTIVITY
 ILD .OHMM   05 120 46 00:   INDUCTION LOG DEEP RESISTIVITY
 SPR .MV     05 010 01 00:   SPONTANEOUS POTENTIAL FROM RES.
~PARAMETER INFORMATION
#MNEM.UNIT          VALUE    DESCRIPTION
#----------   ------------   ------------------------------
 EKB .F         5283.0000:   Kelly bushing
 EGL .F         5272.0000:   Ground level
 EDF .F            0.0000:   Drilling floor
 TD  .F         6171.0000:   Total depth
 CLNT.            A2DTECH:   Client Code
 SL  . 380' FNL & 380' FWL:   Surface Location
 PD  .                 GL:   Permanent Datum
 EPD .F              5272:   Elevation Permanent Datum
 LMF .                 KB:   Log Measured From
 DMF .                 KB:   Drilling Measured From
 DAPD.F                11:   Feet Above Permanent Datum
 DATE.        29-OCT-1968:   Date Logged [DD-MMM-YYYY]
 DD  .F              6171:   Depth driller
 DL  .F              6167:   Depth logger
 BLI .F              6166:   Bottom log interval
 TLI .F               975:   Top log interval
 CS1 .IN            10.75:   Casing size
 CBD1.      10.75" @ 975':   Casing driller 1
 CBL1.F               975:   Casing logger 1
 BS1 .IN            9.125:   Bit size
 BSD1.F              6171:   Depth drilled with bit1
 DFT .           GEL-CHEM:   Type fluid in hole
 DFD .                9.6:   Density
 DFV .                 61:   Viscosity
 DFPH.                 10:   pH
 DFL .                6.8:   Fluid loss
 MSS .           FLOWLINE:   Source of sample
 RMS .OHMM           0.89:   Rm
 MST .F                80:   Rm Meas. temp.
 RMF .OHMM           0.60:   Rmf
 MFST.F                80:   Rmf Meas. temp.
 MFSS.               MEAS:   Source Rmf.
 RMB .OHMM           0.45:   Rm. at BHT
 BHT .F               160:   BHT.
 TCS .HRS               4:   Time Circ. stopped
 MRT .F               160:   Maximum recorded temp.
 LUN .               7041:   Logging unit number
 LUL .               CSPR:   Logging unit location
 ENGI.            MANGOLD:   Recorded By
 WITN.                MAY:   Witnessed by
 ORIG.         2.5" PRINT:   Origin of data
 UWI .     49025100170000:   Unique Well ID
 DICO. A2D TECHNIOLOGIES,INC.:   Digitizing Company
~OTHER INFORMATION
~A  DEPTH       SN        RES        ILD        SPR
# ...
 4059.0000     8.5091  -999.2500     7.9726   -38.5471
 4059.5000     8.8813  -999.2500     8.2720   -38.5441
 4060.0000     9.0909  -999.2500     8.5710   -38.5410
 4060.5000     9.3302  -999.2500     8.8706   -38.5380
 4061.0000     9.4910  -999.2500     8.8663   -38.5344
 4061.5000     9.6276  -999.2500     9.1660   -38.5315
 4062.0000     9.6789  -999.2500     9.1611   -38.5287
 4062.5000     9.6970  -999.2500     9.1565   -38.5258
 4063.0000     9.6177  -999.2500     9.1520   -38.5228
 4063.5000     9.3118  -999.2500     8.8426   -38.5198
 4064.0000     9.0059  -999.2500     8.5344   -38.8211
 4064.5000     8.3789  -999.2500     7.4662   -38.8176
 4065.0000     7.6972  -999.2500     5.7902   -39.1185
 4065.5000     6.8729  -999.2500     4.3883   -39.4195
 4066.0000     6.2002  -999.2500     3.4469   -39.4160
 4066.5000     4.8995  -999.2500     2.9513   -39.7171
 4067.0000     4.1391  -999.2500     2.6702   -39.7142
 4067.5000     4.1362  -999.2500     2.4240   -40.0381
 4068.0000     3.9819  -999.2500     2.4187   -40.3728
 4068.5000     4.1306  -999.2500     2.7183   -40.2224
 4069.0000     4.5272  -999.2500     3.0180   -39.5776
 4069.5000     5.8362  -999.2500     3.9255   -39.2367
 4070.0000     7.4540  -999.2500     5.1977   -38.7837
 4070.5000     8.5118  -999.2500     6.6103   -38.4768
 4071.0000     9.2665  -999.2500     9.1757   -38.4740
 4071.5000     9.8757  -999.2500    10.4255   -38.4711
 4072.0000    10.3454  -999.2500    10.5897   -38.1641
 4072.5000    10.7732  -999.2500    10.5844   -38.4653
 4073.0000    10.7697  -999.2500    10.5801   -38.4620
 4073.5000    10.7661  -999.2500    10.5758   -38.4590
 4074.0000    10.7632  -999.2500    10.5714   -38.4559
 4074.5000    10.7606  -999.2500    10.5669   -38.7568
 4075.0000    10.7576  -999.2500    10.2584   -39.0578
 4075.5000    10.5818  -999.2500     9.8388   -39.3587
 4076.0000    10.4061  -999.2500     8.9664   -39.3556
 4076.5000    10.1424  -999.2500     7.6602   -39.6567
 4077.0000     9.9697  -999.2500     6.8960   -39.6535
 4077.5000     9.6814  -999.2500     6.5878   -39.6505
 4078.0000     9.5270  -999.2500     6.5835   -39.6474
 4078.5000     9.2212  -999.2500     6.7395   -39.6444
 4079.0000     9.0667  -999.2500     6.9043   -39.6408
 4079.5000     9.1031  -999.2500     7.2644   -39.6379
 4080.0000     9.6364  -999.2500     8.2066   -39.6351
 4080.5000    10.3637  -999.2500     9.2272   -39.6322
 4081.0000    11.3268  -999.2500    10.5068   -39.6292
 4081.5000    12.0816  -999.2500    11.4143   -39.6261
 4082.0000    12.8363  -999.2500    12.3219   -39.6231
 4082.5000    13.4698  -999.2500    12.9255   -39.6201
 4083.0000    13.8122  -999.2500    13.3906   -39.9210
 4083.5000    14.3430  -999.2500    13.5248   -39.9174
 4084.0000    14.5698  -999.2500    13.4711   -40.2188
 4084.5000    14.6394  -999.2500    13.2112   -40.5196
 4085.0000    14.7879  -999.2500    13.3737   -40.5167
 4085.5000    14.7848  -999.2500    13.8093   -40.5137
 4086.0000    14.6303  -999.2500    14.1089   -40.5106
 4086.5000    14.6106  -999.2500    13.8007   -40.5076
 4087.0000    14.4181  -999.2500    12.8782   -40.5046
 4087.5000    14.3182  -999.2500    11.9301   -40.5015
 4088.0000    14.0116  -999.2500    11.6596   -40.4980
 4088.5000    13.7057  -999.2500    11.6550   -40.7991
 4089.0000    13.3999  -999.2500    11.6505   -40.7962
 4089.5000    13.0939  -999.2500    11.9498   -40.7933
 4090.0000    12.7576  -999.2500    11.9446   -40.7903
 4090.5000    12.3789  -999.2500    11.9403   -40.7872
 4091.0000    11.9516  -999.2500    11.7840   -40.7842
 4091.5000    11.4146  -999.2500    10.6606   -40.9134
 4092.0000    10.9572  -999.2500     7.6047   -41.0821
 4092.5000    10.4999  -999.2500     5.7597   -41.0785
 4093.0000     9.4183  -999.2500     5.1717   -41.3796
 4093.5000     8.4153  -999.2500     4.8458   -41.3767
 4094.0000     7.4668  -999.2500     4.6132   -41.3739
 4094.5000     7.0030  -999.2500     4.6089   -41.6749
 4095.0000     6.9394  -999.2500     4.6045   -41.6717
 4095.5000     7.2996  -999.2500     4.6002   -41.9731
 4096.0000     7.7513  -999.2500     5.2281   -41.6657
 4096.5000     8.5187  -999.2500     6.2300   -41.6626
 4097.0000     9.4852  -999.2500     7.9100   -41.3551
 4097.5000    10.4093  -999.2500     9.3994   -41.0483
 4098.0000    11.3577  -999.2500    10.2945   -41.0454
 4098.5000    11.9782  -999.2500    11.2591   -40.7386
 4099.0000    12.4299  -999.2500    11.2548   -40.7356
 4099.5000    12.2756  -999.2500    11.4027   -40.7325
 4100.0000    12.1212  -999.2500    11.2462   -40.7295
 4100.5000    11.8602  -999.2500    10.5991   -40.7264
 4101.0000    11.5992  -999.2500    10.0089   -40.7234
 4101.5000    11.3382  -999.2500     9.6166   -40.8537
 4102.0000    11.0772  -999.2500     9.2243   -40.8537
 4102.5000    10.8162  -999.2500     9.1109   -40.8537
 4103.0000    10.5552  -999.2500     8.8052   -40.8537
 4103.5000    10.2943  -999.2500     8.8037   -40.8537
 4104.0000    10.4175  -999.2500     8.9543   -40.8537
 4104.5000    10.7163  -999.2500     9.1049   -40.8537
 4105.0000    11.1665  -999.2500     9.4073   -40.8537
 4105.5000    11.1621  -999.2500     9.7098   -40.8537
 4106.0000    11.1576  -999.2500    10.0123   -40.8537
 4106.5000    11.1530  -999.2500    10.2082   -40.8537
 4107.0000    11.1485  -999.2500    10.3739   -40.8537
 4107.5000    11.1439  -999.2500    10.4635   -40.8537
 4108.0000    11.1387  -999.2500    10.3097   -40.8537
 4108.5000    11.1345  -999.2500    10.0043   -40.8537
 4109.0000    10.9787  -999.2500     9.5470   -40.8537
 4109.5000    10.8227  -999.2500     9.0896   -40.8537
 4110.0000    10.6364  -999.2500     8.7842   -40.8537
 4110.5000    10.4612  -999.2500     8.4787   -40.8537
 4111.0000    10.0657  -999.2500     8.4772   -40.8537
 4111.5000     9.8946  -999.2500     8.4757   -40.8534
 4112.0000    10.1933  -999.2500     8.4742   -40.8533
 4112.5000    10.3406  -999.2500     8.7006   -40.8534
 4113.0000    10.4879  -999.2500     9.0787   -40.8520
 4113.5000    10.6481  -999.2500     9.3812   -40.8536
 4114.0000    10.8142  -999.2500     9.8357   -40.8537
 4114.5000    11.0303  -999.2500    10.2902   -40.8445
 4115.0000    11.2980  -999.2500    10.8967   -40.9450
 4115.5000    11.6773  -999.2500    11.3816   -41.1529
 4116.0000    12.2782  -999.2500    11.8970   -41.3512
 4116.5000    12.5769  -999.2500    12.6096   -41.5480
 4117.0000    13.0272  -999.2500    13.0185   -41.7488
 4117.5000    13.3409  -999.2500    13.0167   -41.9453
 4118.0000    13.5071  -999.2500    12.8629   -42.1453
 4118.5000    13.6205  -999.2500    12.1016   -42.3494
 4119.0000    13.4696  -999.2500    11.1883   -42.4497
 4119.5000    12.2461  -999.2500    10.8829   -42.3357
 4120.0000    11.3328  -999.2500    10.8815   -42.2287
 4120.5000    10.7224  -999.2500    10.7130   -42.1192
 4121.0000    10.4151  -999.2500    10.5139   -42.0081
 4121.5000    10.7139  -999.2500     9.8739   -41.8970
 4122.0000    10.7091  -999.2500     9.2339   -41.7915
 4122.5000    10.6489  -999.2500     8.3663   -41.6723
 4123.0000    10.3970  -999.2500     7.5286   -41.6684
 4123.5000     9.7856  -999.2500     6.9192   -41.6673
 4124.0000     9.1752  -999.2500     6.1579   -41.7547
 4124.5000     8.5649  -999.2500     5.7005   -41.8480
 4125.0000     7.9545  -999.2500     5.3951   -41.9437
 4125.5000     7.6086  -999.2500     5.2416   -42.0394
 4126.0000     7.0364  -999.2500     5.2401   -42.1343
 4126.5000     6.8803  -999.2500     5.2386   -42.2278
 4127.0000     6.9525  -999.2500     5.2371   -42.3270
 4127.5000     7.3250  -999.2500     5.3875   -42.4214
 4128.0000     7.6237  -999.2500     5.3857   -42.4738
 4128.5000     7.7710  -999.2500     5.3843   -42.1757
 4129.0000     7.9182  -999.2500     5.3828   -41.8612
 4129.5000     7.8714  -999.2500     5.3814   -41.5320
 4130.0000     7.3030  -999.2500     5.3799   -41.2241
 4130.5000     7.1470  -999.2500     5.3784   -40.8750
 4131.0000     7.2939  -999.2500     5.5591   -40.8047
 4131.5000     7.7432  -999.2500     5.6795   -40.7337
