~VERSION INFORMATION
 VERS.                2.0:   CWLS LOG ASCII STANDARD - VERSION 2.0
 WRAP.                 NO:   ONE LINE PER DEPTH STEP
~WELL INFORMATION
#MNEM.UNIT      DATA TYPE    INFORMATION
#----------   ------------   ------------------------------
 STRT.F          450.0000:   START DEPTH
 STOP.F         3070.0000:   STOP DEPTH
 STEP.F            0.5000:   STEP LENGTH
 NULL.          -999.2500:   NO VALUE
 COMP. LAWRENCE ALLISON & ASSOCIATES:   COMPANY
 WELL. LAWRENCE "X" #86-28:   WELL
 FLD .             NPR #3:   FIELD
 LOC .      S28 T39N R78W:   LOCATION
 CNTY.            NATRONA:   COUNTY
 STAT.            WYOMING:   STATE
 CTRY. UNITED STATES OF AMERICA:   COUNTRY
 SRVC.      WESTERN ATLAS:   SERVICE COMPANY
 DATE.        03-JAN-1988:   LOGDATE
 API .     49025111920000:   API NUMBER
~CURVE INFORMATION
#MNEM.UNIT       API CODE    CURVE DESCRIPTION
#----------   ------------   ------------------------------
 DEPT.F                  :   
 TEND.LBS    45 635 01 00:   TENSION FROM DENSITY LOG
 CALD.IN     45 280 60 00:   CALIPER FROM DENSITY LOG
 NPHI.DEC    42 890 03 00:   NEUTRON POROSITY SANDSTONE
 DEN .G/C3   45 350 01 00:   BULK DENSITY
 CORR.G/C3   45 356 01 00:   DENSITY CORRECTION
 TENR.LBS    07 635 01 00:   TENSION FROM RESISTIVITY
 RFOC.OHMM   07 220 04 00:   RESISTIVITY FOCUSED LOG RES.
 RILD.OHMM   07 120 46 00:   DEEP INDUCTION RESISTIVITY
 RILM.OHMM   07 120 44 00:   INDUCTION LOG MEDIUM RESISTIVITY
 SPR .MV     07 010 01 00:   SPONTANEOUS POTENTIAL
 GRR .GAPI   07 310 01 00:   GAMMA RAY FROM RESISTIVITY
~PARAMETER INFORMATION
#MNEM.UNIT          VALUE    DESCRIPTION
#----------   ------------   ------------------------------
 EKB .F         5072.0000:   Kelly bushing
 EGL .F         5061.0000:   Ground level
 EDF .F         5071.0000:   Drilling floor
 TD  .F         3062.0000:   Total depth
 DATE.        03-JAN-1988:   Date logged
 CLNT.            A2DTECH:   Client Code
 SL  . 1721' FSL & 556' FEL:   Surface Location
 PD  .                 GL:   Permanent Datum
 DD  .F              3060:   Depth driller
 DL  .F              3062:   Depth logger
 BLI .F              3060:   Bottom log interval
 CS1 .IN            8.625:   Casing size
 CBD1.      8.625" @ 480':   Casing driller 1
 CBL1.F               480:   Casing logger 1
 BS1 .IN            7.875:   Bit size
 DFT .        KCL-POLYMER:   Type fluid in hole
 DFD .                8.9:   Density
 DFV .                 36:   Viscosity
 DFPH.                9.5:   pH
 DFL .                8.4:   Fluid loss
 MSS .               TANK:   Source of sample
 RMS .OHMM           0.45:   Rm
 MST .F                80:   Rm Meas. temp.
 RMF .OHMM           0.41:   Rmf
 MFST.F                60:   Rmf Meas. temp.
 RMC .OHMM           0.65:   Rmc
 MCST.F                60:   Rmc Meas. temp.
 MFSS.               MEAS:   Source Rmf.
 RMB .OHMM           0.31:   Rm. at BHT
 BHT .F               110:   BHT.
 TCS .HRS               4:   Time Circ. stopped
 MRT .F               110:   Maximum recorded temp.
 LUN .            HL 6343:   Logging unit number
 LUL .               CODY:   Logging unit location
 ENGI.               RALL:   Recorded By
 WITN.              FIVRS:   Witnessed by
 ORIG.     2.5", 5" PRINT:   Origin of data
 UWI .     49025111920000:   Unique Well ID
 DICO. A2D TECHNOLOGIES, INC.:   Digitizing Company
 DAPD.                 11:   Feet Above Permanent Datum
 BSD1.               3060:   Depth drilled with bit1
 MCSS.               CALC:   Source Rmc.
 EPD .               5061:   Elevation Permanent Datum
 LMF .                 KB:   Log Measured From
 DMF .                 KB:   Drilling Measured From
 TLI .                480:   Top log interval
~OTHER INFORMATION
~A   DEPT     TEND       CALD       NPHI        DEN       CORR       TENR       RFOC       RILD       RILM        SPR         GRR  
# ...
 2859.5000     2.0160     8.1390     0.3250     2.3470     0.0600   -52.2310     1.8130     1.8640     2.1930    -3.2030   237.8860
 2860.0000     2.0160     8.1390     0.3170     2.3820     0.0560   -52.2310     2.5820     1.9720     2.6240    -3.5880   222.1870
 2860.5000     2.0160     8.1380     0.2520     2.4470     0.0350   -52.2310     4.3430     2.3120     3.2880    -3.9890   186.9270
 2861.0000     2.0160     8.1380     0.2220     2.5150     0.0130   -52.2310     6.5050     2.4000     3.9520    -4.3300   147.3790
 2861.5000     2.0160     8.1370     0.2070     2.5430     0.0010   -52.2310     7.9550     3.2130     4.6160    -4.2110   120.9880
 2862.0000     2.0160     8.1360     0.2020     2.5370    -0.0120   -52.2310     7.5380     4.0550     5.2800    -4.1050   108.2920
 2862.5000     2.0160     8.1360     0.2050     2.5320    -0.0200   -52.2310     7.0040     4.8970     5.5390    -3.9940   104.5850
 2863.0000     2.0160     8.1350     0.2090     2.5310    -0.0180   -52.2310     6.4710     5.8960     5.8960    -4.1670   103.7400
 2863.5000     2.0160     8.1350     0.2150     2.5370     0.0210   -52.2310     5.9510     5.7870     5.7940    -4.5830   102.2510
 2864.0000     2.0160     8.1340     0.2190     2.5460     0.0620   -52.2310     5.7390     5.6530     5.6290    -4.9730   101.4640
 2864.5000     2.0160     8.1330     0.2210     2.5450     0.0740   -52.2310     5.5320     5.5190     5.4640    -5.7260   105.7960
 2865.0000     2.0160     8.1330     0.2230     2.5350     0.0550   -52.2310     5.3720     5.3690     5.2980    -6.4970   110.4270
 2865.5000     2.0160     8.1320     0.2250     2.5260     0.0380   -52.2310     5.2680     5.1040     5.1330    -7.2630   113.9500
 2866.0000     2.0160     8.1320     0.2280     2.5160     0.0210   -52.2310     5.1640     4.8550     4.9820    -7.9140   113.6370
 2866.5000     2.0160     8.1310     0.2300     2.5110     0.0100   -52.2310     5.0600     4.6050     4.7340    -8.3780   114.9580
 2867.0000     2.0160     8.1310     0.2310     2.5090     0.0170   -52.2310     4.9070     4.2850     4.4620    -8.3670   117.9540
 2867.5000     2.0160     8.1300     0.2310     2.5050     0.0230   -52.2310     4.7330     3.8690     4.0780    -8.3670   120.1880
 2868.0000     2.0160     8.1290     0.2320     2.5010     0.0310   -52.2310     4.5600     3.4530     3.6940    -8.3670   122.7210
 2868.5000     2.0160     8.1290     0.2420     2.4960     0.0310   -52.2310     4.3780     3.0790     3.3100    -8.3160   125.6050
 2869.0000     2.0160     8.1280     0.2520     2.4930     0.0280   -52.2310     4.1480     2.7840     2.9260    -8.2220   132.3820
 2869.5000     2.0160     8.1280     0.2690     2.4800     0.0190   -52.2310     3.6900     2.4900     2.5420    -7.9640   143.0380
 2870.0000     2.0160     8.1270     0.2980     2.4630     0.0120   -52.1320     3.1600     2.2270     2.2690    -7.3890   155.0600
 2870.5000     2.0160     8.1260     0.3500     2.4340     0.0050   -51.5740     2.6300     2.2540     2.2690    -7.1680   192.8770
 2871.0000     2.0160     8.1260     0.3510     2.3940     0.0040   -51.0160     2.1660     2.2810     2.6750    -7.3080   220.8260
 2871.5000     2.0160     8.1250     0.3460     2.3730     0.0040   -50.4590     2.3760     2.3070     3.0840    -7.7570   214.8910
 2872.0000     2.0160     8.1250     0.3220     2.3800     0.0060   -49.9010     3.9030     2.4370     3.4920    -8.2360   199.0690
 2872.5000     2.0160     8.1240     0.2420     2.4290     0.0070   -49.3430     5.7110     2.7310     3.9010    -8.7200   154.1760
 2873.0000     2.0160     8.1240     0.2330     2.4910     0.0090   -48.7850     6.5020     3.0250     4.3100    -9.2260   127.9670
 2873.5000     2.0160     8.1230     0.2320     2.5270     0.0100   -48.2270     6.2200     3.3000     4.7190    -9.2150   121.9740
 2874.0000     2.0160     8.1220     0.2330     2.5210     0.0120   -47.6700     5.9450     4.0750     5.0430    -8.8800   121.6120
 2874.5000     2.0160     8.1220     0.2350     2.5210     0.0130   -47.1120     5.9210     4.8040     5.2710    -8.5340   121.7120
 2875.0000     2.0160     8.1210     0.2390     2.5190     0.0150   -46.5540     5.8960     5.0280     5.5220    -8.1830   125.5630
 2875.5000     2.0160     8.1210     0.2420     2.5190     0.0160   -45.9960     5.8220     5.0280     5.5490    -8.5190   128.8150
 2876.0000     2.0160     8.1200     0.2460     2.5210     0.0200   -45.4380     5.7170     5.0280     5.5860    -8.9180   128.0360
 2876.5000     2.0160     8.1190     0.2480     2.5170     0.0240   -44.8810     5.6120     5.0280     5.6240    -9.3170   125.7820
 2877.0000     2.0160     8.1190     0.2510     2.5150     0.0280   -44.3230     5.4700     5.0280     5.6620    -9.6720   125.2480
 2877.5000     2.0160     8.1180     0.2520     2.5230     0.0330   -43.7650     5.5850     5.0280     5.6790    -9.9750   126.8280
 2878.0000     2.0160     8.1180     0.2520     2.5310     0.0400   -43.2070     5.7370     5.0340     5.6660   -10.2710   128.5540
 2878.5000     2.0160     8.1170     0.2510     2.5390     0.0520   -42.6490     5.8890     5.0470     5.6520   -10.5670   129.6100
 2879.0000     2.0160     8.1170     0.2510     2.5370     0.0600   -42.0890     5.9550     5.0610     5.6370   -10.8640   129.4840
 2879.5000     2.0160     8.1160     0.2500     2.5340     0.0550   -42.0890     5.9620     5.0750     5.6260   -11.1580   129.3750
 2880.0000     2.0160     8.1150     0.2510     2.5300     0.0470   -42.0890     5.9700     5.0880     5.6380   -11.4090   129.2650
 2880.5000     2.0160     8.1150     0.2520     2.5290     0.0390   -42.0890     5.9770     5.1020     5.6520   -11.4530   129.1540
 2881.0000     2.0160     8.1140     0.2540     2.5220     0.0050   -42.0890     5.9840     5.1160     5.6660   -11.5030   129.0410
 2881.5000     2.0160     8.1140     0.2550     2.5210    -0.0090   -42.0890     5.9910     5.1340     5.6790   -11.5560   128.9190
 2882.0000     2.0160     8.1130     0.2550     2.5220    -0.0040   -42.0890     5.9970     5.1580     5.7070   -11.6640   128.8930
 2882.5000     2.0160     8.1120     0.2570     2.5160     0.0230   -42.0890     6.0050     5.1820     5.7490   -11.9620   130.5240
 2883.0000     2.0160     8.1120     0.2580     2.5030     0.0510   -42.0890     6.1510     5.2060     5.7910   -12.2540   132.1460
 2883.5000     2.0160     8.1110     0.2600     2.4930     0.0770   -42.0890     6.4740     5.2290     5.8330   -12.5460   133.6770
 2884.0000     2.0160     8.1110     0.2600     2.4960     0.0640   -42.0890     6.4580     5.2530     5.8760   -12.7630   135.1240
 2884.5000     2.0160     8.1100     0.2600     2.5050     0.0270   -42.0890     6.4400     5.2690     5.8960   -12.4410   136.3070
 2885.0000     2.0160     8.1100     0.2640     2.5130    -0.0100   -42.0890     6.4220     5.0940     5.7710   -12.1120   136.9990
 2885.5000     2.0160     8.1090     0.2660     2.5180    -0.0110   -42.0890     6.2540     4.9620     5.5990   -11.7840   137.6760
 2886.0000     2.0160     8.1080     0.2690     2.5090    -0.0100   -42.0890     5.9510     4.8290     5.4280   -11.4610   137.6700
 2886.5000     2.0160     8.1080     0.2750     2.5030    -0.0070   -42.0890     5.4760     4.6970     5.2570   -11.1820   136.6180
 2887.0000     2.0160     8.1070     0.2770     2.5040    -0.0020   -42.0890     5.1720     4.5640     5.0850   -11.1810   136.4720
 2887.5000     2.0160     8.1070     0.2790     2.5070     0.0020   -42.0890     5.2030     4.4320     4.9620   -10.8290   137.2690
 2888.0000     2.0160     8.1060     0.2810     2.5100     0.0070   -42.0890     5.2810     4.2510     4.9140   -10.4600   138.5900
 2888.5000     2.0160     8.1070     0.2850     2.5120     0.0150   -39.0320     5.3590     4.2630     4.8650   -10.0910   139.9280
 2889.0000     2.0160     8.1080     0.2880     2.5150     0.0220   -35.2770     5.4190     4.2850     4.8040    -9.7220   139.0330
 2889.5000     2.0160     8.1100     0.2890     2.5180     0.0300   -31.5220     5.2330     4.3760     4.9840    -9.3850   137.9390
