~VERSION INFORMATION
 VERS.                2.0:   CWLS LOG ASCII STANDARD - VERSION 2.0
 WRAP.                 NO:   ONE LINE PER DEPTH STEP
~WELL INFORMATION
#MNEM.UNIT      DATA TYPE    INFORMATION
#----------   ------------   ------------------------------
 STRT.F           15.0000:   START DEPTH
 STOP.F         2952.5000:   STOP DEPTH
 STEP.F            0.5000:   STEP LENGTH
 NULL.          -999.2500:   NO VALUE
 COMP.    FENIX & SCISSON:   COMPANY
 WELL.  FENIX "AX" #64-29:   WELL
 FLD .  TEAPOT DOME NPR-3:   FIELD
 LOC .      S29 T39N R78W:   LOCATION
 CNTY.            NATRONA:   COUNTY
 STAT.            WYOMING:   STATE
 CTRY. UNITED STATES OF AMERICA:   COUNTRY
 SRVC.           BIRDWELL:   SERVICE COMPANY
 DATE.        02-MAY-1978:   LOGDATE
 API .     49025106460000:   API NUMBER
~CURVE INFORMATION
#MNEM.UNIT       API CODE    CURVE DESCRIPTION
#----------   ------------   ------------------------------
 DEPT.F                  :   
 SPR .MV     05 010 01 00:   SPONTANEOUS POTENTIAL
 IL  .OHMM   05 120 00 00:   INDUCTION RESISTIVITY
 SN  .OHMM   05 040 16 00:   SHORT NORMAL 16"
 CALD.IN     45 280 60 00:   CALIPER FROM DENSITY LOG
 GRD .GAPI   45 310 01 00:   GAMMA RAY FROM DENSITY LOG
 CORR.G/C3   45 356 01 00:   DENSITY CORRECTION
 RHOB.G/C3   45 350 01 00:   BULK DENSITY
~PARAMETER INFORMATION
#MNEM.UNIT          VALUE    DESCRIPTION
#----------   ------------   ------------------------------
 EKB .F         4993.0000:   Kelly bushing
 EGL .F         4983.0000:   Ground level
 EDF .F            0.0000:   Drilling floor
 TD  .F         2952.0000:   Total depth
 DATE.        02-MAY-1978:   Date logged
 CLNT.            A2DTECH:   Client Code
 SL  . 2150' FNL & 1560' FEL:   Surface Location
 PD  .                 GL:   Permanent Datum
 DD  .F              2950:   Depth driller
 DL  .F              2952:   Depth logger
 BLI .F              2947:   Bottom log interval
 CBL1.F               150:   Casing logger 1
 BS1 .IN            7.875:   Bit size
 DFT .                GEL:   Type fluid in hole
 DFD .                8.7:   Density
 DFV .                 30:   Viscosity
 DFPH.                 10:   pH
 DFL .                7.6:   Fluid loss
 MSS .            MUD PIT:   Source of sample
 RMS .OHMM            1.3:   Rm
 MST .F                62:   Rm Meas. temp.
 RMF .OHMM            .95:   Rmf
 MFST.F                64:   Rmf Meas. temp.
 RMC .OHMM              1:   Rmc
 MCST.F                64:   Rmc Meas. temp.
 MFSS.               MEAS:   Source Rmf.
 RMB .OHMM            .73:   Rm. at BHT
 BHT .F               110:   BHT.
 TCS .HRS               3:   Time Circ. stopped
 MRT .F               110:   Maximum recorded temp.
 LUN .               2958:   Logging unit number
 LUL .               CASP:   Logging unit location
 ENGI.             MILLER:   Recorded By
 WITN.           MCGINLEY:   Witnessed by
 ORIG.         2.5" PRINT:   Origin of data
 UWI .     49025106460000:   Unique Well ID
 DICO. A2D TECHNOLOGIES, INC.:   Digitizing Company
 DAPD.                 10:   Feet Above Permanent Datum
 BSD1.F              2950:   Depth drilled with bit1
 EPD .F              4983:   Elevation Permanent Datum
 LMF .                 KB:   Log Measured From
 DMF .                 KB:   Drilling Measured From
 TLI .F               150:   Top log interval
~OTHER INFORMATION
~A   DEPT      SPR         IL         SN       CALD        GRD       CORR       RHOB   
# ...
  515.5000   -71.6030     8.7750     8.2470    12.2120    94.8080     0.1220     2.5070
  516.0000   -71.5990     8.7670     8.2630    12.2110    96.2070     0.1220     2.5140
  516.5000   -71.5950     8.7480     8.2760    12.2090    94.4620     0.1210     2.5130
  517.0000   -71.5900     8.7560     8.3060    12.2080    92.8850     0.1200     2.5100
  517.5000   -71.5860     8.7370     8.3320    12.2070    92.4920     0.1190     2.5060
  518.0000   -71.5810     9.0780     8.3590    12.2060    92.2290     0.1210     2.5090
  518.5000   -71.5770     9.3450     8.3860    12.2050    91.8800     0.1260     2.5120
  519.0000   -71.5720     9.5870     8.4280    12.2040    91.5700     0.1310     2.5160
  519.5000   -71.5680     9.5870     8.4180    12.2030    88.4180     0.1350     2.5140
  520.0000   -71.5630     9.5870     8.3820    12.2020    84.1930     0.1400     2.5100
  520.5000   -71.5590     9.5870     8.3470    12.2010    83.0770     0.1440     2.5060
  521.0000   -71.5550     9.5870     8.3110    12.2000    85.0690     0.1490     2.5020
  521.5000   -71.5500     9.5870     8.2760    12.1990    86.3240     0.1540     2.5010
  522.0000   -71.5460     9.5870     8.2410    12.1980    84.5740     0.1580     2.4990
  522.5000   -71.5410     9.5870     8.2060    12.1970    82.0970     0.1630     2.4960
  523.0000   -71.5370     9.5870     8.1700    12.1960    82.1270     0.1670     2.4940
  523.5000   -71.5320     9.2390     8.1350    12.1950    82.1790     0.1670     2.4930
  524.0000   -71.5280     9.0020     8.1000    12.1940    82.2620     0.1670     2.5010
  524.5000   -71.5230     8.8610     8.0650    12.1930    82.3450     0.1630     2.5120
  525.0000   -71.5190     8.7210     8.0300    12.1910    82.4270     0.1580     2.5230
  525.5000   -71.5140     8.5850     7.9940    12.1920    83.0590     0.1440     2.5280
  526.0000   -71.5200     8.6000     7.9590    12.1940    83.8690     0.1340     2.5270
  526.5000   -71.5280     8.6220     7.9240    12.1950    84.6730     0.1300     2.5270
  527.0000   -71.5360     8.6430     7.8890    12.1960    85.4700     0.1270     2.5350
  527.5000   -71.5440     8.6650     7.8530    12.1980    86.2850     0.1290     2.5420
  528.0000   -71.5510     8.6870     7.8180    12.1990    87.0650     0.1310     2.5440
  528.5000   -71.5590     8.7090     7.7830    12.2000    87.9630     0.1330     2.5460
  529.0000   -71.5670     8.7450     7.7480    12.2020    88.4950     0.1370     2.5380
  529.5000   -71.5750     8.7210     7.7130    12.2030    89.1940     0.1420     2.5280
  530.0000   -71.5820     8.6530     7.6770    12.2040    89.7180     0.1480     2.5190
  530.5000   -71.5900     8.5840     7.6420    12.2060    90.1950     0.1540     2.5220
  531.0000   -71.5980     8.5160     7.6070    12.2070    87.4770     0.1580     2.5240
  531.5000   -71.6060     8.4480     7.5720    12.2080    84.6190     0.1570     2.5280
  532.0000   -71.6130     8.3410     7.5300    12.2100    84.7940     0.1560     2.5230
  532.5000   -71.6210     8.2210     7.4740    12.2110    85.1050     0.1540     2.5180
  533.0000   -71.6290     8.1000     7.4180    12.2120    85.3600     0.1530     2.5130
  533.5000   -71.6360     7.9800     7.3630    12.2140    87.2600     0.1520     2.5080
  534.0000   -71.6440     7.8590     7.3070    12.2150    90.9560     0.1530     2.5020
  534.5000   -71.6520     7.7390     7.2510    12.2160    88.3550     0.1610     2.5010
  535.0000   -71.6600     7.6180     7.1960    12.2180    82.8430     0.1680     2.5000
  535.5000   -71.6670     7.5320     7.1400    12.2190    83.8750     0.1760     2.5020
  536.0000   -71.6750     7.4920     7.0840    12.2200    85.7050     0.1780     2.5040
  536.5000   -71.6830     7.4530     7.0280    12.2220    87.4680     0.1760     2.5090
  537.0000   -71.6910     7.4110     7.0130    12.2230    89.1980     0.1710     2.5190
  537.5000   -71.6980     7.4110     7.0130    12.2240    89.4680     0.1590     2.5150
  538.0000   -71.7060     7.4110     7.0130    12.2260    89.0180     0.1580     2.5100
  538.5000   -71.7140     7.4110     7.0130    12.2270    88.5670     0.1480     2.5090
  539.0000   -71.7220     7.4110     7.0140    12.2290    88.1620     0.1380     2.5160
  539.5000   -71.7290     7.4110     7.0140    12.2300    87.7600     0.1220     2.5220
  540.0000   -71.7370     7.4110     7.0140    12.2310    87.1730     0.1060     2.5270
  540.5000   -71.7450     7.4110     7.0140    12.2320    85.9340     0.0900     2.5330
  541.0000   -71.7520     7.4110     7.0130    12.2320    84.7140     0.0750     2.5260
  541.5000   -71.7600     7.4110     7.0150    12.2300    83.3490     0.0750     2.5180
  542.0000   -71.7680     7.3610     7.0160    12.2310    83.9320     0.0880     2.5080
  542.5000   -71.7760     7.2140     6.9350    12.1090    87.0870     0.1010     2.5070
  543.0000   -71.7830     7.0680     6.7940    11.9280    88.0270     0.1130     2.5160
  543.5000   -71.7910     6.9220     6.6550    11.7350    88.6610     0.1240     2.5200
  544.0000   -71.7990     6.7750     6.5160    11.7300    91.6110     0.1280     2.5100
  544.5000   -71.8070     6.6290     6.3770    11.8580    96.5620     0.1290     2.5020
  545.0000   -71.8140     6.4830     6.2380    11.9800    97.3530     0.1310     2.4930
  545.5000   -71.8220     6.3370     6.0990    12.0290    95.8300     0.1260     2.4840
  546.0000   -71.8300     6.1900     5.9600    12.0090    94.4250     0.1190     2.4770
  546.5000   -71.8380     6.0440     5.8200    11.9920    94.7960     0.0970     2.4540
  547.0000   -71.8450     5.8360     5.7290    11.9880    96.5610     0.0620     2.4220
  547.5000   -71.8530     5.8520     5.7500    11.9560    98.2010     0.0320     2.3750
  548.0000   -71.8610     5.8800     5.7710    11.9310    99.7990     0.0060     2.2910
  548.5000   -71.8680     5.9080     5.7920    11.6730   100.8350     0.0200     2.2110
  549.0000   -71.8760     5.9360     5.8140    11.8630   101.5540     0.0590     2.1380
  549.5000   -71.8840     5.8440     5.8360    11.7550   102.2860     0.1150     2.0640
  550.0000   -71.8920     5.7080     5.5300    11.5640   102.9730     0.1590     2.0220
  550.5000   -71.8990     5.5720     5.2260    12.1810   103.6630     0.0490     1.9790
  551.0000   -71.9070     5.4220     5.2520    12.2140   104.5360    -0.0500     1.9350
  551.5000   -71.9150     5.4220     5.2760    12.2440   103.4880     0.0710     1.7530
  552.0000   -71.9230     5.4220     5.3010    12.2240   100.4420     0.2000     1.7680
  552.5000   -71.9300     5.4220     5.3250    12.2290    97.6320     0.3810     1.7620
  553.0000   -71.9380     5.4220     5.3500    12.2300    94.7580     0.3710     1.7690
  553.5000   -71.9460     5.4220     5.3740    12.2270    91.7920     0.3750     1.8910
  554.0000   -71.9540     5.6060     5.3980    12.2280    90.4390     0.3710     2.0430
  554.5000   -71.9610     5.8010     5.4220    12.2260    93.2220     0.3610     2.1230
  555.0000   -71.9690     5.9450     5.5600    12.2260    95.6320     0.3500     2.1520
  555.5000   -71.9770     5.9500     5.6950    12.2250    98.2750     0.3490     2.1510
  556.0000   -71.9850     5.9540     5.7420    12.2250   100.7290     0.3560     2.1650
  556.5000   -71.9920     5.9590     5.7600    12.2240   102.8900     0.3010     2.2600
  557.0000   -72.0000     5.9630     5.7780    12.2240    99.8160     0.2770     2.2520
  557.5000   -72.0080     5.9670     5.7950    12.2230    97.1910     0.2880     2.2210
  558.0000   -72.0150     5.9720     5.8130    12.2220    94.3160     0.2990     2.2980
  558.5000   -72.0230     5.9760     5.8300    12.2220    97.8910     0.3150     2.4650
  559.0000   -72.0310     5.9810     5.8480    12.2210   101.7890     0.2570     2.6490
  559.5000   -72.0390     5.9850     5.8660    12.2210   103.1490     0.1320     2.5840
  560.0000   -72.0460     5.9900     5.8830    12.2200   102.5900     0.0910     2.5460
  560.5000   -72.0540     5.9940     5.9010    12.2200   102.1400     0.0960     2.5310
