~VERSION INFORMATION
 VERS.                2.0:   CWLS LOG ASCII STANDARD - VERSION 2.0
 WRAP.                 NO:   ONE LINE PER DEPTH STEP
~WELL INFORMATION
#MNEM.UNIT      DATA TYPE    INFORMATION
#----------   ------------   ------------------------------
 STRT.F            0.0000:   START DEPTH
 STOP.F         4030.0000:   STOP DEPTH
 STEP.F            0.5000:   STEP LENGTH
 NULL.          -999.2500:   NO VALUE
 COMP.  FENIX AND SCISSON:   COMPANY
 WELL.  FENIX "LX" #33-10:   WELL
 FLD . TEAPOT DOME (NPR #3):   FIELD
 LOC .      S10 T38N R78W:   LOCATION
 CNTY.            NATRONA:   COUNTY
 STAT.            WYOMING:   STATE
 CTRY. UNITED STATES OF AMERICA:   COUNTRY
 SRVC.       SCHLUMBERGER:   SERVICE COMPANY
 DATE.        03-APR-1978:   LOGDATE
 API .     49025105980000:   API NUMBER
~CURVE INFORMATION
#MNEM.UNIT       API CODE    CURVE DESCRIPTION
#----------   ------------   ------------------------------
 DEPT.F                  :   
 SPR .MV     07 010 01 00:   SPONTANEOUS POTENTIAL
 ILD .OHMM   07 120 46 00:   DEEP INDUCTION RESISTIVITY
 SFL .OHMM   07 220 01 00:   SHALLOW FOCUSED LOG RESISTIVITY
 ILM .OHMM   07 120 44 00:   INDUCTION LOG MEDIUM RESISTIVITY
 NPHI.DEC    42 890 03 00:   NEUTRON POROSITY SANDSTONE
 GRD .GAPI   45 310 01 00:   GAMMA RAY FROM DENSITY LOG
 CALD.IN     45 280 60 00:   CALIPER FROM DENSITY LOG
 RHOB.G/C3   45 350 01 00:   BULK DENSITY
 CORR.G/C3   45 356 01 00:   DENSITY CORRECTION
~PARAMETER INFORMATION
#MNEM.UNIT          VALUE    DESCRIPTION
#----------   ------------   ------------------------------
 EKB .F         5232.0000:   Kelly bushing
 EGL .F         5222.0000:   Ground level
 EDF .F            0.0000:   Drilling floor
 EPD .F         5222.0000:   Permanent datum
 TD  .F         4040.0000:   Total depth
 DATE.        03-APR-1978:   Date logged
 CLNT.            A2DTECH:   Client Code
 SL  . 1700' FNL & 1700' FWL:   Surface Location
 PD  .                 GL:   Permanent Datum
 DD  .F              4040:   Depth driller
 DL  .F              4031:   Depth logger
 BLI .F              4025:   Bottom log interval
 CS1 .IN            8.625:   Casing size
 CBD1.      8.625" @ 503':   Casing driller 1
 CBL1.F               504:   Casing logger 1
 BS1 .IN            7.875:   Bit size
 DFT .           CHEM GEL:   Type fluid in hole
 DFD .                9.5:   Density
 DFV .                 43:   Viscosity
 DFPH.               11.5:   pH
 DFL .                4.4:   Fluid loss
 MSS .            MUD PIT:   Source of sample
 RMS .OHMM           1.16:   Rm
 MST .F                80:   Rm Meas. temp.
 RMF .OHMM           0.93:   Rmf
 MFST.F                80:   Rmf Meas. temp.
 RMC .OHMM           1.74:   Rmc
 MCST.F                80:   Rmc Meas. temp.
 MFSS.               MEAS:   Source Rmf.
 RMB .OHMM          0.742:   Rm. at BHT
 BHT .F               125:   BHT.
 TCS .HRS            0800:   Time Circ. stopped
 MRT .F               125:   Maximum recorded temp.
 LUN .               7660:   Logging unit number
 LUL .                GLT:   Logging unit location
 ENGI.            TOEPPER:   Recorded By
 WITN.           MCGINLEY:   Witnessed by
 ORIG.         2.5" PRINT:   Origin of data
 UWI .     49025105980000:   Unique Well ID
 DICO. A2D TECHNOLOGIES, INC.:   Digitizing Company
 DAPD.                 10:   Feet Above Permanent Datum
 BSD1.               4040:   Depth drilled with bit1
 MCSS.               CALC:   Source Rmc.
 LMF .                 KB:   Log Measured From
 DMF .                 KB:   Drilling Measured From
 TLI .                504:   Top log interval
 TLAB.               1000:   Time logger at bottom
~OTHER INFORMATION
~A    DEPT     SPR        ILD        SFL        ILM       NPHI         GRD      CALD       RHOB       CORR   
# ...
 1204.5000   -38.8310    10.7000    10.0880    10.9350     0.2660    86.4820    11.6620     2.6180     0.0740
 1205.0000   -38.8710    10.5640     9.9250    10.7690     0.2670    84.6900    11.6710     2.6010     0.0570
 1205.5000   -38.8130    10.4280     9.8370    10.6020     0.2710    85.2680    11.6810     2.5610     0.0440
 1206.0000   -39.0600    10.2920     9.7500    10.4360     0.2740    86.0500    11.6900     2.5390     0.0290
 1206.5000   -39.1280    10.1560     9.6620    10.2690     0.2790    86.8440    11.6990     2.5530     0.0210
 1207.0000   -39.1910    10.0190     9.5750    10.1020     0.2770    86.1080    11.7090     2.5680     0.0160
 1207.5000   -38.8010     9.7650     9.4870     9.9460     0.2740    85.4310    11.7180     2.5700     0.0230
 1208.0000   -38.8750     9.6940     9.4000     9.8760     0.2710    84.7180    11.7270     2.5670     0.0300
 1208.5000   -38.5860     9.6270     9.3120     9.8110     0.2670    83.8800    11.7370     2.5740     0.0340
 1209.0000   -38.0500     9.5600     9.2240     9.7450     0.2650    84.5450    11.7460     2.5840     0.0320
 1209.5000   -38.0620     9.4930     9.1370     9.6800     0.2720    86.0790    11.7550     2.5700     0.0290
 1210.0000   -38.0270     9.4260     9.0490     9.6140     0.2820    87.4510    11.7640     2.5580     0.0220
 1210.5000   -38.0880     9.3600     8.9620     9.5490     0.2780    88.8340    11.7740     2.5460     0.0140
 1211.0000   -37.7280     9.2930     8.8740     9.4830     0.2770    89.3360    11.7790     2.5670     0.0210
 1211.5000   -37.6450     9.2260     8.7870     9.4170     0.2810    89.2780    11.7840     2.5880     0.0360
 1212.0000   -37.6380     9.1590     8.6990     9.3520     0.2870    89.2500    11.7900     2.5980     0.0510
 1212.5000   -37.6710     9.0720     8.5850     9.2410     0.2880    89.4410    11.7950     2.5820     0.0490
 1213.0000   -37.5980     9.0800     8.5930     9.2490     0.2850    87.4370    11.8000     2.5670     0.0470
 1213.5000   -37.9960     9.1050     8.6180     9.2760     0.2820    84.6740    11.8060     2.5520     0.0420
 1214.0000   -37.9970     9.1300     8.6430     9.3030     0.2830    85.6460    11.8110     2.5410     0.0330
 1214.5000   -38.3800     9.1540     8.6680     9.3290     0.2800    86.6340    11.8160     2.5720     0.0550
 1215.0000   -38.5150     9.1790     8.6930     9.3560     0.2750    87.5980    11.8220     2.5860     0.0510
 1215.5000   -38.9020     9.2040     8.7180     9.3830     0.2680    88.2730    11.8270     2.5780     0.0400
 1216.0000   -38.8100     9.2410     8.7450     9.4120     0.2710    84.8760    11.8320     2.5660     0.0380
 1216.5000   -38.8710     9.1940     8.6690     9.3400     0.2780    84.6240    11.8380     2.5450     0.0500
 1217.0000   -38.8300     9.1060     8.5870     9.2630     0.2830    86.7840    11.8430     2.5510     0.0390
 1217.5000   -38.7680     9.0180     8.5050     9.1860     0.2800    88.9350    11.8480     2.5590     0.0340
 1218.0000   -38.2530     8.9300     8.4230     9.1090     0.2830    89.8720    11.8540     2.5680     0.0470
 1218.5000   -38.4130     8.8410     8.3410     9.0320     0.2850    88.9190    11.8590     2.5620     0.0380
 1219.0000   -37.9910     8.7530     8.2590     8.9550     0.2830    87.8790    11.8640     2.5550     0.0310
 1219.5000   -38.0650     8.6650     8.1780     8.8780     0.2820    87.1860    11.8690     2.5490     0.0360
 1220.0000   -38.0500     8.5770     8.0960     8.8010     0.2810    83.3960    11.8750     2.5430     0.0420
 1220.5000   -38.0400     8.4890     8.0140     8.7240     0.2830    84.9180    11.8800     2.5590     0.0580
 1221.0000   -38.0390     8.4010     7.9320     8.6470     0.2880    86.7420    11.8850     2.5430     0.0660
 1221.5000   -37.6820     8.3130     7.8500     8.5690     0.2970    88.9100    11.8910     2.5470     0.0500
 1222.0000   -37.5760     8.2250     7.9500     8.4920     0.3030    90.7610    11.8910     2.5740     0.0550
 1222.5000   -37.3400     8.1370     8.1020     8.4290     0.3000    92.7820    11.8870     2.5980     0.0650
 1223.0000   -37.2350     8.0480     8.2550     8.4290     0.2960    91.4930    11.8840     2.5920     0.0550
 1223.5000   -37.2660     7.9770     8.4080     8.4290     0.2870    89.2480    11.8800     2.5760     0.0530
 1224.0000   -37.0840     7.9770     8.5610     8.4290     0.2780    87.0730    11.8760     2.5550     0.0540
 1224.5000   -37.4120     7.9770     8.7140     8.4290     0.2840    88.0850    11.8730     2.5270     0.0450
 1225.0000   -38.0200     7.9770     8.7450     8.4290     0.2850    89.1550    11.8690     2.5470     0.0280
 1225.5000   -37.7650     7.9770     8.7450     8.4290     0.2810    89.8440    11.8660     2.5770     0.0490
 1226.0000   -37.4950     7.9770     8.7340     8.4290     0.2780    88.7550    11.8620     2.5720     0.0600
 1226.5000   -37.8460     7.9770     8.7210     8.4290     0.2810    87.7410    11.8580     2.5690     0.0500
 1227.0000   -38.0700     7.9770     8.7080     8.4300     0.2830    86.6080    11.8550     2.5550     0.0410
 1227.5000   -38.0790     7.9770     8.6950     8.4220     0.2860    85.5970    11.8510     2.5430     0.0400
 1228.0000   -37.9170     7.9770     8.6810     8.4100     0.2920    84.6810    11.8480     2.5410     0.0460
 1228.5000   -37.9390     7.9770     8.6680     8.3980     0.3030    86.8020    11.8440     2.5350     0.0470
 1229.0000   -38.0570     7.9770     8.6550     8.3860     0.3040    89.4880    11.8410     2.5240     0.0340
 1229.5000   -38.0760     7.9770     8.6420     8.3740     0.3020    92.3380    11.8370     2.5200     0.0260
 1230.0000   -37.8460     7.9750     8.6280     8.3620     0.2960    95.1900    11.8330     2.5360     0.0320
 1230.5000   -37.6150     7.9540     8.6150     8.3500     0.2940    96.3600    11.8300     2.5540     0.0380
 1231.0000   -37.6950     7.9320     8.6020     8.3380     0.3020    92.7600    11.8260     2.5660     0.0440
 1231.5000   -37.3310     7.9100     8.5890     8.3260     0.2960    89.4890    11.8230     2.5580     0.0510
 1232.0000   -37.2340     7.8880     8.5760     8.3140     0.2910    86.4160    11.8190     2.5480     0.0550
 1232.5000   -37.2830     7.8660     8.5620     8.3020     0.2940    88.8910    11.8150     2.5350     0.0240
 1233.0000   -36.9250     7.8440     8.5490     8.2900     0.3020    91.3650    11.8120     2.5530     0.0360
 1233.5000   -36.7050     7.8230     8.5360     8.2790     0.3060    93.1170    11.8080     2.5750     0.0570
 1234.0000   -36.4560     7.8010     8.5230     8.2670     0.3060    92.4570    11.8050     2.6040     0.0750
 1234.5000   -36.4620     7.7790     8.5100     8.2550     0.2890    91.9090    11.8010     2.5950     0.0390
 1235.0000   -36.5190     7.7570     8.4970     8.2430     0.2790    91.3190    11.7970     2.5710     0.0340
 1235.5000   -36.9120     7.7350     8.4830     8.2310     0.2890    90.4780    11.7940     2.5410     0.0250
 1236.0000   -36.7940     7.7130     8.4700     8.2190     0.2950    89.0920    11.7900     2.5490     0.0230
 1236.5000   -37.1780     7.6890     8.4570     8.2070     0.3030    87.7480    11.7870     2.5620     0.0330
 1237.0000   -37.2530     7.7120     8.4440     8.1950     0.3010    86.3050    11.7830     2.5490     0.0270
 1237.5000   -37.2580     7.7610     8.4300     8.1830     0.2910    84.9890    11.7800     2.5380     0.0230
 1238.0000   -37.2450     7.8080     8.4440     8.1710     0.2890    83.8960    11.7750     2.5250     0.0180
 1238.5000   -37.2540     7.8560     8.4780     8.1590     0.2860    85.6470    11.7780     2.5180     0.0170
 1239.0000   -37.2510     7.9050     8.5110     8.1470     0.2840    87.3860    11.7900     2.5330     0.0190
 1239.5000   -37.2530     7.9770     8.5440     8.1340     0.2870    88.9220    11.8020     2.5500     0.0340
 1240.0000   -37.2490     7.8310     8.5760     8.1240     0.2930    89.7740    11.8130     2.5670     0.0500
 1240.5000   -37.2530     7.7470     8.4880     8.0290     0.2910    90.7840    11.8250     2.5680     0.0430
