~VERSION INFORMATION
 VERS.                2.0:   CWLS LOG ASCII STANDARD - VERSION 2.0
 WRAP.                 NO:   ONE LINE PER DEPTH STEP
~WELL INFORMATION
#MNEM.UNIT      DATA TYPE    INFORMATION
#----------   ------------   ------------------------------
 STRT.F          164.0000:   START DEPTH
 STOP.F         3223.5000:   STOP DEPTH
 STEP.F            0.5000:   STEP LENGTH
 NULL.          -999.2500:   NO VALUE
 COMP.    FENIX & SCISSON:   COMPANY
 WELL. FENIX & SCISSON "AX" #64-34:   WELL
 FLD . NAVAL PETROLEUM RESERVE #3:   FIELD
 LOC .      S34 T39N R78W:   LOCATION
 CNTY.            NATRONA:   COUNTY
 STAT.            WYOMING:   STATE
 CTRY. UNITED STATES OF AMERICA:   COUNTRY
 SRVC.       SCHLUMBERGER:   SERVICE COMPANY
 DATE.        30-DEC-1980:   LOGDATE
 API .     49025108660000:   API NUMBER
~CURVE INFORMATION
#MNEM.UNIT       API CODE    CURVE DESCRIPTION
#----------   ------------   ------------------------------
 DEPT.F                  :   
 GRD .GAPI   45 310 01 00:   GAMMA RAY FROM DENSITY LOG
 RHOB.G/C3   45 350 01 00:   BULK DENSITY
 CALD.IN     45 280 60 00:   CALIPER FROM DENSITY LOG
 CORR.G/C3   45 356 01 00:   DENSITY CORRECTION
 SPR .MV     07 010 01 00:   SPONTANEOUS POTENTIAL
 TENR.LBS    06 635 01 00:   TENSION FROM RESISTIVITY
 ILD .OHMM   07 120 46 00:   DEEP INDUCTION RESISTIVITY
 ILM .OHMM   07 120 44 00:   INDUCTION LOG MEDIUM RESISTIVITY
 SFL .OHMM   07 220 01 00:   SHALLOW FOCUSED LOG RESISTIVITY
~PARAMETER INFORMATION
#MNEM.UNIT          VALUE    DESCRIPTION
#----------   ------------   ------------------------------
 EKB .F         5088.0000:   Kelly bushing
 EGL .F         5078.0000:   Ground level
 TD  .F         3225.0000:   Total depth
 CLNT.            A2DTECH:   Client Code
 SL  . 3107' FSL & 3680' FWL:   Surface Location
 PD  .                 GL:   Permanent Datum
 EPD .F              5078:   Elevation Permanent Datum
 LMF .                 KB:   Log Measured From
 DMF .                 KB:   Drilling Measured From
 DAPD.F                10:   Feet Above Permanent Datum
 DATE.        30-DEC-1980:   Date Logged [DD-MMM-YYYY]
 DD  .F              3225:   Depth driller
 DL  .F              3225:   Depth logger
 BLI .F              3219:   Bottom log interval
 TLI .F               190:   Top log interval
 CS1 .IN            8.625:   Casing size
 CBD1.      8.625" @ 205':   Casing driller 1
 CBL1.F               190:   Casing logger 1
 BS1 .IN            7.875:   Bit size
 BSD1.F              3225:   Depth drilled with bit1
 DFT .              FRESH:   Type fluid in hole
 DFD .                  9:   Density
 DFV .                 46:   Viscosity
 MSS .           MUD TANK:   Source of sample
 RMS .OHMM           2.47:   Rm
 MST .F                57:   Rm Meas. temp.
 RMF .OHMM           1.45:   Rmf
 MFST.F                57:   Rmf Meas. temp.
 MFSS.               MEAS:   Source Rmf.
 RMB .OHMM            1.2:   Rm. at BHT
 BHT .F               124:   BHT.
 TCS .HRS            0400:   Time Circ. stopped
 MRT .F               124:   Maximum recorded temp.
 LUN .               8034:   Logging unit number
 LUL .               CSPR:   Logging unit location
 ENGI.             LARSON:   Recorded By
 WITN.              FIVAS:   Witnessed by
 ORIG.        2" 5" PRINT:   Origin of data
 UWI .     49025108660000:   Unique Well ID
 DICO. A2D TECHNOLOGIES, INC:   Digitizing Company
 TLAB.HRS            2030:   Time logger at bottom
~OTHER INFORMATION
~A   DEPT       GRD      RHOB       CALD       CORR        SPR       TENR        ILD        ILM        SFL   
# ...
  383.0000    88.1653     2.4769     9.2639     0.0382   -72.9753   765.1991     9.0344     9.2363     9.5474
  383.5000    86.7935     2.4860     9.2621     0.0406   -72.6815   765.1991     8.8984     8.9675     9.4043
  384.0000    86.1782     2.5062     9.2758     0.0432   -72.6220   765.1991     8.8916     8.8969     9.2618
  384.5000    86.0166     2.5077     9.2591     0.0459   -72.4934   765.1991     8.8833     8.8269     9.1230
  385.0000    85.8548     2.4914     9.2490     0.0471   -72.4948   765.1991     8.8129     8.8208     9.0519
  385.5000    86.1476     2.4712     9.2407     0.0490   -72.4949   765.1991     8.8062     8.7500     9.0451
  386.0000    86.5887     2.4704     9.2392     0.0490   -72.5818   765.1991     8.7996     8.6812     9.0389
  386.5000    87.0349     2.4843     9.2533     0.0490   -72.8552   765.1991     8.7928     8.6129     9.0311
  387.0000    86.1144     2.4867     9.2667     0.0488   -72.9140   765.1991     8.6590     8.4837     9.0249
  387.5000    84.8939     2.4812     9.2803     0.0481   -73.0611   765.1991     8.5903     8.4778     9.0194
  388.0000    85.8114     2.4688     9.2788     0.0481   -73.1082   765.1991     8.5222     8.4098     9.0126
  388.5000    88.6531     2.4579     9.2925     0.0479   -72.9513   765.1991     8.5025     8.4040     9.0715
  389.0000    91.6686     2.4579     9.2907     0.0473   -72.8909   765.1991     8.4337     8.3379     9.0638
  389.5000    93.6251     2.4617     9.2742     0.0478   -73.0646   765.1991     8.3650     8.3322     8.8638
  390.0000    93.0097     2.4679     9.2727     0.0497   -73.9194   765.1991     8.3143     8.3263     8.7310
  390.5000    92.0918     2.4818     9.2712     0.0535   -74.2734   765.1991     8.3681     8.3193     8.6623
  391.0000    90.7200     2.5089     9.2696     0.0538   -74.7025   765.1991     8.3602     8.3136     8.7190
  391.5000    89.1438     2.5159     9.2527     0.0522   -75.0988   765.1991     8.4160     8.3079     8.8380
  392.0000    87.5201     2.5135     9.2513     0.0495   -75.0884   765.1991     8.5301     8.3624     8.8974
  392.5000    86.7534     2.5011     9.2498     0.0462   -75.0142   765.1991     8.5221     8.4171     9.0203
  393.0000    85.9868     2.4980     9.2531     0.0438   -74.9605   765.1991     8.5156     8.4722     9.1450
  393.5000    86.5817     2.5003     9.2624     0.0432   -74.6474   765.1991     8.5092     8.4650     9.1372
  394.0000    88.2357     2.5011     9.2606     0.0424   -74.3741   765.1991     8.5028     8.5219     9.0638
  394.5000    89.8946     2.4933     9.2591     0.0424   -74.1465   765.1991     8.4963     8.5762     8.9925
  395.0000    91.2910     2.4776     9.2573     0.0432   -73.6734   765.1991     8.5498     8.6309     8.9219
  395.5000    92.2898     2.4514     9.2409     0.0431   -72.9176   765.1991     8.4820     8.5630     8.7250
  396.0000    91.3693     2.4343     9.2394     0.0439   -72.4783   766.6050     8.4148     8.3740     8.5301
  396.5000    89.2411     2.4319     9.2377     0.0439   -72.3450   767.9042     8.2286     8.1891     8.2235
  397.0000    86.8103     2.4311     9.2363     0.0446   -72.4830   769.2034     7.8073     7.8894     7.9844
  397.5000    85.5898     2.4327     9.2348     0.0446   -72.5460   770.5027     7.4262     7.6075     7.6965
  398.0000    85.7408     2.4482     9.2333     0.0454   -72.6944   771.8019     7.1580     7.3330     7.4190
  398.5000    86.7771     2.4900     9.2319     0.0459   -72.7007   773.1011     6.9996     7.0177     7.2523
  399.0000    87.9772     2.5055     9.2483     0.0474   -72.6997   774.4004     6.8943     6.8627     6.9926
  399.5000    89.7824     2.5016     9.2591     0.0492   -72.7216   775.6996     6.8394     6.8026     6.8878
  400.0000    92.1928     2.4946     9.2575     0.0429   -72.8202   776.9988     6.8332     6.7540     6.8336
  400.5000    92.3364     2.4814     9.2715     0.0265   -72.9153   778.2981     6.8639     6.7983     7.0298
  401.0000    92.0211     2.4573     9.2848     0.0257   -73.0106   779.5973     6.9237     6.7447     7.0258
  401.5000    90.9516     2.4457     9.3001     0.0265   -73.1030   780.8965     6.9178     6.7889     7.0727
  402.0000    91.5443     2.4573     9.3270     0.0296   -73.1175   782.1958     6.9130     6.9372     7.1705
  402.5000    92.1418     2.4696     9.3489     0.0382   -73.4133   783.4950     6.9583     7.1822     7.2194
  403.0000    91.8264     2.4960     9.3545     0.0492   -73.7020   784.7943     7.0037     7.3343     7.2676
  403.5000    91.9122     2.4929     9.3530     0.0498   -74.0721   786.0935     7.0993     7.3280     7.3151
  404.0000    93.1410     2.4788     9.3512     0.0472   -74.7189   787.3927     7.1469     7.2703     7.4709
  404.5000    94.3382     2.4673     9.3498     0.0433   -74.9538   788.6920     7.1937     7.2652     7.4121
  405.0000    94.3250     2.4712     9.3635     0.0412   -74.7982   789.9912     7.2395     7.2590     7.4080
  405.5000    93.1016     2.4812     9.3470     0.0411   -74.7034   791.2904     7.2868     7.3078     7.4040
  406.0000    92.7892     2.4944     9.3455     0.0421   -74.2787   792.5897     7.3332     7.5152     7.4535
  406.5000    93.3782     2.5006     9.3591     0.0442   -73.9579   793.8889     7.3282     7.6743     7.5624
  407.0000    93.6673     2.4982     9.3576     0.0459   -73.6258   795.1881     7.3774     7.7805     7.7173
  407.5000    92.8945     2.5005     9.3558     0.0483   -73.3302   796.4874     7.4244     7.7179     7.8261
  408.0000    90.7634     2.5029     9.3392     0.0496   -72.9848   797.7866     7.4729     7.7126     7.9917
  408.5000    89.8425     2.5036     9.3379     0.0521   -72.7509   799.0858     7.4665     7.6519     8.1034
  409.0000    89.6781     2.4997     9.3311     0.0550   -72.5001   800.3851     7.4614     7.6466     8.1573
  409.5000    90.4214     2.5051     9.3196     0.0589   -72.2548   801.6843     7.4562     7.6414     8.0932
  410.0000    92.0724     2.5102     9.3182     0.0730   -72.1363   802.9835     7.3976     7.6359     7.9730
  410.5000    94.5159     2.5175     9.3167     0.0727   -72.3061   804.2828     7.3925     7.6295     7.9118
  411.0000    96.2821     2.5097     9.3152     0.0706   -72.4676   805.5820     7.4408     7.6808     7.9072
  411.5000    95.5093     2.4996     9.2983     0.0690   -72.6495   806.8812     7.4345     7.7311     7.9027
  412.0000    92.4704     2.4756     9.2968     0.0671   -72.5168   805.5780     7.4293     7.7803     7.8981
  412.5000    92.9112     2.4787     9.2955     0.0641   -72.6988   803.6650     7.4782     7.8313     7.8929
  413.0000    93.8057     2.4818     9.2939     0.0603   -72.7003   801.7520     7.5269     7.8825     7.8885
  413.5000    96.0619     2.4662     9.3076     0.0577   -72.6957   799.8390     7.5830     7.8757     7.8842
  414.0000    97.7129     2.4639     9.3058     0.0545   -72.8952   797.9260     7.6794     7.9287     7.8799
  414.5000    94.9733     2.4678     9.3133     0.0509   -73.1727   796.0131     7.6890     7.9218     7.8754
  415.0000    93.7499     2.4755     9.3030     0.0489   -73.4518   794.1000     7.7257     7.9163     7.8709
  415.5000    94.3419     2.4880     9.3014     0.0485   -73.7307   792.1870     7.7190     7.8527     7.8657
  416.0000    96.1442     2.5034     9.2999     0.0492   -74.0101   790.2740     7.7092     7.7909     7.8614
  416.5000    96.5855     2.5096     9.2985     0.0529   -74.2919   788.3611     7.6518     7.7296     7.9150
  417.0000    96.4205     2.5033     9.2970     0.0531   -74.3362   786.4481     7.6465     7.6472     7.8527
  417.5000    96.1044     2.4940     9.2952     0.0492   -74.3350   784.5350     7.5864     7.6084     7.8426
  418.0000    96.0884     2.4855     9.2937     0.0471   -74.2764   782.6221     7.5814     7.6019     7.7308
  418.5000    96.3778     2.4886     9.2771     0.0458   -74.1538   780.7091     7.5759     7.5421     7.5613
  419.0000    96.8186     2.4893     9.2756     0.0444   -74.0314   778.7961     7.5151     7.4827     7.5028
