~VERSION INFORMATION
 VERS.                2.0:   CWLS LOG ASCII STANDARD - VERSION 2.0
 WRAP.                 NO:   ONE LINE PER DEPTH STEP
~WELL INFORMATION
#MNEM.UNIT      DATA TYPE    INFORMATION
#----------   ------------   ------------------------------
 STRT.F            0.0000:   START DEPTH
 STOP.F         3982.0000:   STOP DEPTH
 STEP.F            0.5000:   STEP LENGTH
 NULL.          -999.2500:   NO VALUE
 COMP.   LAWRENCE ALLISON:   COMPANY
 WELL. LAWRENCE NPR 3 "LX" #61-10:   WELL
 FLD .                NPR:   FIELD
 LOC .      S10 T38N R78W:   LOCATION
 CNTY.            NATRONA:   COUNTY
 STAT.            WYOMING:   STATE
 CTRY. UNITED STATES OF AMERICA:   COUNTRY
 SRVC.      DRESSER ATLAS:   SERVICE COMPANY
 DATE.        14-APR-1983:   LOGDATE
 API .     49025109180000:   API NUMBER
~CURVE INFORMATION
#MNEM.UNIT       API CODE    CURVE DESCRIPTION
#----------   ------------   ------------------------------
 DEPT.F                  :   
 CALD.IN     45 280 60 00:   CALIPER FROM DENSITY LOG
 RHOB.G/C3   45 350 01 00:   BULK DENSITY
 DRHO.G/C3   45 356 01 00:   DENSITY CORRECTION
 TEND.LBS    45 635 01 00:   TENSION FROM DENSITY LOG
 CNC .DEC    42 890 03 00:   NEUTRON PORISITY SANDSTONE
 GRR .GAPI   07 310 01 00:   GAMMA RAY FROM RESISTIVITY
 SPR .MV     07 010 01 00:   SPONTANEOUS POTENTIAL
 ILD .OHMM   07 120 46 00:   DEEP INDUCTION RESISTIVITY
 ILM .OHMM   07 120 44 00:   INDUCTION LOG MEDIUM RESISTIVITY
 SFL .OHMM   07 220 01 00:   SHALLOW FOCUSED LOG RESISTIVITY
 TENS.LBS    60 635 01 00:   TENSION FROM SONIC LOG
 DT  .US/F   60 520 00 00:   DELTA TIME
 TENR.LBS    07 635 01 00:   TENSION FROM RESISTIVITY
~PARAMETER INFORMATION
#MNEM.UNIT          VALUE    DESCRIPTION
#----------   ------------   ------------------------------
 EKB .F         5164.0000:   Kelly bushing
 EGL .F         5154.0000:   Ground level
 EDF .F            0.0000:   Drilling floor
 TD  .F         3985.0000:   Total depth
 DATE.        14-APR-1983:   Date logged
 CLNT.            A2DTECH:   Client Code
 SL  . 138' FNL & 1331' FEL:   Surface Location
 PD  .                 GL:   Permanent Datum
 EPD .F              5154:   Elevation Permanent Datum
 LMF .                 KB:   Log Measured From
 DMF .                 KB:   Drilling Measured From
 DD  .F              3985:   Depth driller
 DL  .F              3948:   Depth logger
 BLI .F              3945:   Bottom log interval
 CS1 .IN            8.625:   Casing size
 CBD1.      8.625" @ 442':   Casing driller 1
 CBL1.F               453:   Casing logger 1
 BS1 .IN            7.875:   Bit size
 DFT .                KCI:   Type fluid in hole
 DFD .                8.9:   Density
 DFV .                 40:   Viscosity
 DFPH.                8.5:   pH
 DFL .                 10:   Fluid loss
 MSS .           FLOWLINE:   Source of sample
 RMS .OHMM           0.38:   Rm
 MST .F                68:   Rm Meas. temp.
 RMF .OHMM           0.30:   Rmf
 MFST.F                68:   Rmf Meas. temp.
 RMC .OHMM           0.49:   Rmc
 MCST.F                68:   Rmc Meas. temp.
 MFSS.               MEAS:   Source Rmf.
 RMB .OHMM           0.22:   Rm. at BHT
 BHT .F               122:   BHT.
 TCS .HRS               4:   Time Circ. stopped
 MRT .F               122:   Maximum recorded temp.
 LUN .               6764:   Logging unit number
 LUL .              WLSTN:   Logging unit location
 ENGI.            QUICKEL:   Recorded By
 WITN.           JENNINGS:   Witnessed by
 ORIG.           5" PRINT:   Origin of data
 UWI .     49025109180000:   Unique Well ID
 DICO. A2D TECHNOLOGIES, INC.:   Digitizing Company
 DAPD.                 10:   Feet Above Permanent Datum
 BSD1.               3985:   Depth drilled with bit1
 MCSS.               CALC:   Source Rmc.
~OTHER INFORMATION
~A    DEPT    CALD       RHOB       DRHO       TEND        CNC         GRR       SPR        ILD        ILM        SFL       TENS         DT       TENR   
# ...
 1144.0000     8.0400     2.5110     0.0470   -71.2580     0.2930   100.2640   -41.0220     8.4760     8.0230     8.1760  -999.2500  -999.2500   -66.6500
 1144.5000     8.0390     2.5150     0.0460   -72.0060     0.2910   101.1190   -40.6650     8.4250     8.0640     8.1250  -999.2500  -999.2500   -66.6500
 1145.0000     8.0390     2.5270     0.0530   -72.7540     0.2890   103.8310   -40.4460     8.3970     8.1030     8.0020  -999.2500  -999.2500   -66.6500
 1145.5000     8.0380     2.5320     0.0600   -73.5020     0.2960   105.3680   -40.8080     8.2460     8.1420     7.8070  -999.2500  -999.2500   -66.6500
 1146.0000     8.0380     2.5340     0.0660   -74.2490     0.3010   103.7180   -41.2280     8.2910     8.1710     7.8580  -999.2500  -999.2500   -66.6500
 1146.5000     8.0370     2.5320     0.0710   -74.9970     0.2920   102.0860   -41.5020     8.3330     8.1710     7.9660  -999.2500  -999.2500   -66.6500
 1147.0000     8.0370     2.5280     0.0750   -75.7450     0.2840   102.8910   -41.9010     8.3750     8.1710     8.0550  -999.2500  -999.2500   -66.6500
 1147.5000     8.0360     2.5240     0.0680   -76.4930     0.2790   103.2060   -42.1790     8.4130     8.2240     8.1230  -999.2500  -999.2500   -66.6500
 1148.0000     8.0360     2.5190     0.0390   -77.2400     0.2760   102.6490   -42.0740     8.4450     8.2230     8.1710  -999.2500  -999.2500   -66.6500
 1148.5000     8.0350     2.5140     0.0690   -77.9880     0.2760   103.5270   -41.9800     8.4740     8.1710     8.0240  -999.2500  -999.2500   -66.6500
 1149.0000     8.0350     2.5090     0.0810   -78.7360     0.2770   106.3580   -42.0210     8.2680     8.0620     7.9090  -999.2500  -999.2500   -66.6500
 1149.5000     8.0340     2.4980     0.0690   -79.4840     0.2790   109.5990   -41.7610     8.0970     7.9400     7.7940  -999.2500  -999.2500   -66.6500
 1150.0000     8.0340     2.4830     0.0520   -80.2310     0.2820   108.9780   -41.4330     8.0970     7.9030     7.7360  -999.2500  -999.2500   -66.6500
 1150.5000     8.0330     2.4830     0.0350   -80.9790     0.2810   104.8520   -41.5050     8.0970     7.9510     7.9510  -999.2500  -999.2500   -66.6500
 1151.0000     8.0330     2.4970     0.0230   -81.7270     0.2770   102.5820   -41.7110     8.1790     8.0000     7.6660  -999.2500  -999.2500   -66.6500
 1151.5000     8.0320     2.5170     0.0250   -82.4750     0.2750   103.2760   -41.8780     8.2950     8.0850     7.7670  -999.2500  -999.2500   -66.4180
 1152.0000     8.0320     2.5380     0.0400   -83.2220     0.2770   104.4490   -41.9900     8.3970     8.2040     7.9640  -999.2500  -999.2500   -66.0910
 1152.5000     8.0310     2.5600     0.0560   -83.9700     0.2840   105.0260   -41.9130     8.5860     8.3240     8.0970  -999.2500  -999.2500   -65.7630
 1153.0000     8.0310     2.5640     0.0620   -84.7180     0.2890   105.7100   -41.8490     8.7540     8.4740     8.2330  -999.2500  -999.2500   -65.4360
 1153.5000     8.0300     2.5600     0.0670   -85.4660     0.2880   104.4690   -41.7860     8.9220     8.5920     8.3210  -999.2500  -999.2500   -65.1090
 1154.0000     8.0300     2.5490     0.0690   -85.4470     0.2820   100.6270   -41.5500     9.0710     8.7520     8.5070  -999.2500  -999.2500   -64.7810
 1154.5000     8.0300     2.5400     0.0710   -85.1640     0.2730    98.4440   -41.3270     9.1840     8.9500     8.7090  -999.2500  -999.2500   -64.4540
 1155.0000     8.0300     2.5310     0.0750   -84.8810     0.2700    97.1650   -41.1400     9.2960     8.9910     8.7370  -999.2500  -999.2500   -64.1270
 1155.5000     8.0300     2.5200     0.0800   -84.5980     0.2740    95.4050   -40.9700     9.3810     9.0460     8.7730  -999.2500  -999.2500   -63.7990
 1156.0000     8.0300     2.5020     0.0740   -84.3150     0.2790    96.6690   -40.8630     9.4170     9.1000     8.9440  -999.2500  -999.2500   -63.4720
 1156.5000     8.0300     2.4850     0.0390   -84.0320     0.2820    99.9450   -40.7330     9.4540     9.1540     9.0530  -999.2500  -999.2500   -63.1450
 1157.0000     8.0300     2.4720     0.0210   -83.7490     0.2820   102.6770   -40.6380     9.4230     9.1990     8.8890  -999.2500  -999.2500   -62.8180
 1157.5000     8.0300     2.4620     0.0210   -83.4660     0.2770   104.6950   -40.4990     9.3930     9.0520     8.7690  -999.2500  -999.2500   -62.4900
 1158.0000     8.0300     2.4620     0.0210   -83.1830     0.2730   105.1620   -40.4370     9.3680     8.9270     8.7090  -999.2500  -999.2500   -62.1630
 1158.5000     8.0300     2.4640     0.0230   -82.8990     0.2680   104.0000   -40.8870     9.1920     8.8030     8.9500  -999.2500  -999.2500   -61.8360
 1159.0000     8.0300     2.4660     0.0200   -82.6160     0.2770   101.0600   -41.3930     9.0440     8.6790     9.0060  -999.2500  -999.2500   -61.5080
 1159.5000     8.0300     2.4700     0.0170   -82.3330     0.2910    98.1850   -41.4250     8.8690     8.5070     8.7430  -999.2500  -999.2500   -61.1810
 1160.0000     8.0300     2.4740     0.0270   -82.0500     0.2910    99.0480   -41.3800     8.6540     8.3060     8.2690  -999.2500  -999.2500   -60.8540
 1160.5000     8.0300     2.4780     0.0260   -81.7670     0.2840   102.1450   -41.4200     8.3970     8.1050     7.8070  -999.2500  -999.2500   -60.5260
 1161.0000     8.0300     2.4870     0.0090   -81.4840     0.2950   103.6770   -41.3980     8.3970     7.9510     7.7700  -999.2500  -999.2500   -60.1990
 1161.5000     8.0300     2.5000     0.0060   -81.2010     0.3070   103.5030   -41.4000     8.3970     8.0070     7.7360  -999.2500  -999.2500   -59.8720
 1162.0000     8.0300     2.5190     0.0130   -80.9180     0.2950   103.5120   -41.4460     8.5270     8.2120     8.0420  -999.2500  -999.2500   -59.5440
 1162.5000     8.0300     2.5280     0.0580   -80.6350     0.2820   105.0340   -41.4790     8.6310     8.5520     8.3210  -999.2500  -999.2500   -59.2170
 1163.0000     8.0300     2.5310     0.0620   -80.3520     0.2800   106.4420   -41.5290     8.7090     8.5890     8.4220  -999.2500  -999.2500   -58.8900
 1163.5000     8.0300     2.5320     0.0650   -80.0690     0.2810   105.5270   -41.5800     8.8040     8.6300     8.4410  -999.2500  -999.2500   -58.5620
 1164.0000     8.0300     2.5320     0.0650   -79.7860     0.2830   103.5530   -41.4850     8.8800     8.5580     8.3690  -999.2500  -999.2500   -58.2350
 1164.5000     8.0300     2.5270     0.0600   -79.5030     0.2920   101.7700   -41.2330     8.9500     8.4910     8.2980  -999.2500  -999.2500   -57.9080
 1165.0000     8.0300     2.5250     0.0590   -79.2200     0.2930   100.7430   -40.9630     8.9250     8.4230     8.2460  -999.2500  -999.2500   -57.5800
 1165.5000     8.0300     2.5280     0.0590   -78.9370     0.2820   102.2600   -40.6370     8.9010     8.3560     8.1710  -999.2500  -999.2500   -57.2530
 1166.0000     8.0300     2.5310     0.0790   -78.6540     0.2640   104.9110   -40.2560     8.8690     8.3060     8.1200  -999.2500  -999.2500   -56.9260
 1166.5000     8.0300     2.5320     0.0690   -78.3710     0.2680   105.9280   -40.0700     8.8980     8.2740     8.0630  -999.2500  -999.2500   -56.5840
 1167.0000     8.0300     2.5330     0.0550   -78.0880     0.2720   104.9340   -40.2230     8.9390     8.2460     8.0230  -999.2500  -999.2500   -56.2240
 1167.5000     8.0300     2.5370     0.0430   -77.8050     0.2860   102.3450   -40.3770     8.9800     8.6300     8.3510  -999.2500  -999.2500   -55.8630
 1168.0000     8.0300     2.5380     0.0390   -77.5220     0.2870   101.4040   -40.1410     9.0320     8.6620     8.5030  -999.2500  -999.2500   -55.5030
 1168.5000     8.0300     2.5360     0.0350   -77.2390     0.2830   102.2310   -39.8730     8.9860     8.7090     8.5520  -999.2500  -999.2500   -55.1420
 1169.0000     8.0300     2.5420     0.0340   -76.9550     0.2800    99.5710   -40.1700     8.9220     8.6630     8.5030  -999.2500  -999.2500   -54.7820
 1169.5000     8.0300     2.5520     0.0470   -76.6720     0.2760    95.4630   -40.9400     8.8570     8.5660     8.3910  -999.2500  -999.2500   -54.4210
