~VERSION INFORMATION
 VERS.                2.0:   CWLS LOG ASCII STANDARD - VERSION 2.0
 WRAP.                 NO:   ONE LINE PER DEPTH STEP
~WELL INFORMATION
#MNEM.UNIT      DATA TYPE    INFORMATION
#----------   ------------   ------------------------------
 STRT.F          407.0000:   START DEPTH
 STOP.F         3228.0000:   STOP DEPTH
 STEP.F            0.5000:   STEP LENGTH
 NULL.          -999.2500:   NO VALUE
 COMP.    FENIX & SCISSON:   COMPANY
 WELL.   FENIX "A" #21-34:   WELL
 FLD .             N.P.R.:   FIELD
 LOC .      S34 T39N R78W:   LOCATION
 CNTY.            NATRONA:   COUNTY
 STAT.            WYOMING:   STATE
 CTRY. UNITED STATES OF AMERICA:   COUNTRY
 SRVC.       SCHLUMBERGER:   SERVICE COMPANY
 DATE.        05-MAY-1977:   LOGDATE
 API .     49025103710000:   API NUMBER
~CURVE INFORMATION
#MNEM.UNIT       API CODE    CURVE DESCRIPTION
#----------   ------------   ------------------------------
 DEPT.F                  :   
 SPR .MV     11 010 01 00:   SPONTANEOUS POTENTIAL FROM RES.
 LLS .OHMM   11 220 09 00:   LATEROLOG LOG SHALLOW
 LLD .OHMM   11 220 10 00:   LATEROLOG DEEP
 MSFL.OHMM   11 270 04 00:   MICRO SPHERICALLY FOCUSED
 CALD.IN     45 280 60 00:   CALIPER FROM DENSITY LOG
 NPHI.DEC    42 890 03 00:   NEUTRON POROSITY SANDSTONE
 GRD .GAPI   45 310 01 00:   GAMMA RAY FROM DENSITY LOG
 CORR.G/C3   45 356 01 00:   DENSITY CORRECTION
 RHOB.G/C3   45 350 01 00:   BULK DENSITY
~PARAMETER INFORMATION
#MNEM.UNIT          VALUE    DESCRIPTION
#----------   ------------   ------------------------------
 EKB .F         5086.0000:   Kelly bushing
 EGL .F         5074.0000:   Ground level
 TD  .F         3226.0000:   Total depth
 CLNT.            A2DTECH:   Client Code
 SL  . 990' FWL & 330' FNL:   Surface Location
 PD  .                 GL:   Permanent Datum
 EPD .F              5074:   Elevation Permanent Datum
 LMF .                 KB:   Log Measured From
 DMF .                 KB:   Drilling Measured From
 DAPD.F                12:   Feet Above Permanent Datum
 DATE.        05-MAY-1977:   Date Logged [DD-MMM-YYYY]
 DD  .F              3226:   Depth driller
 DL  .F              3229:   Depth logger
 BLI .F              3227:   Bottom log interval
 TLI .F               430:   Top log interval
 CS1 .IN            8.625:   Casing size
 CBD1.      8.625" @ 424':   Casing driller 1
 CBL1.F               430:   Casing logger 1
 BS1 .IN            7.875:   Bit size
 BSD1.F              3226:   Depth drilled with bit1
 DFT .                KCL:   Type fluid in hole
 DFD .                9.4:   Density
 DFV .                 31:   Viscosity
 DFPH.                  8:   pH
 DFL .                9.6:   Fluid loss
 MSS .           MUD TANK:   Source of sample
 RMS .OHMM          0.202:   Rm
 MST .F                78:   Rm Meas. temp.
 RMF .OHMM          0.191:   Rmf
 MFST.F                76:   Rmf Meas. temp.
 MFSS.               MEAS:   Source Rmf.
 RMC .OHMM           0.30:   Rmc
 MCST.F                78:   Rmc Meas. temp.
 MCSS.               CALC:   Source Rmc.
 RMB .OHMM          0.123:   Rm. at BHT
 BHT .F               128:   BHT.
 TCS .HRS            1400:   Time Circ. stopped
 TLAB.HRS            0300:   Time logger at bottom
 MRT .F               128:   Maximum recorded temp.
 LUN .               5642:   Logging unit number
 LUL .               CSPR:   Logging unit location
 ENGI.                FIX:   Recorded By
 WITN.         HARRINGTON:   Witnessed by
 ORIG.           5" PRINT:   Origin of data
 UWI .     49025103710000:   Unique Well ID
 DICO. A2D TECHNOLOGIES, INC.:   Digitizing Company
~OTHER INFORMATION
~A   DEPT      SPR        LLS        LLD       MSFL       CALD       NPHI         GRD      CORR       RHOB   
# ...
 2268.5000   -34.0533    10.8010    10.4200    17.8526     8.3335     0.3975   163.9701     0.0072     2.3972
 2269.0000   -33.8412    13.6728    12.7570    16.3346     8.3326     0.3812   154.0809     0.0096     2.4041
 2269.5000   -31.2702    14.9747    13.8823    14.6389     8.3317     0.3706   150.5075    -0.0005     2.4005
 2270.0000   -30.3599    15.0767    12.9705    13.7698     8.3314     0.3417   155.2800    -0.0173     2.4029
 2270.5000   -30.4856    12.4493    11.0746    13.0422     8.3313     0.3320   163.6615    -0.0096     2.4082
 2271.0000   -30.8750    10.4740     9.1338    12.0160     8.3313     0.3426   171.3662     0.0064     2.4046
 2271.5000   -27.9848    10.1269     8.3006    11.1474     8.3313     0.3428   179.9733     0.0172     2.4056
 2272.0000   -28.1625    10.4999     7.8094    11.0791     8.3313     0.3391   191.3683     0.0256     2.4111
 2272.5000   -31.5404    10.6595     7.2965    11.2478     8.3313     0.3379   197.9556     0.0288     2.4178
 2273.0000   -33.8343    10.2383     7.0576    11.4162     8.3313     0.3414   203.1975     0.0252     2.4194
 2273.5000   -33.7276     9.1758     7.0185    10.9635     8.3313     0.3498   207.6048     0.0140     2.4127
 2274.0000   -35.7736     7.8889     7.1760     9.3611     8.3313     0.3540   209.4836     0.0080     2.4068
 2274.5000   -36.2346     7.0214     7.1857     7.2554     8.3313     0.3585   211.0981     0.0052     2.4009
 2275.0000   -35.1210     6.4249     6.5916     6.4574     8.3311     0.3596   213.1638     0.0061     2.3987
 2275.5000   -34.1064     5.9610     4.6579     5.9083     8.3331     0.3422   210.4927     0.0100     2.4004
 2276.0000   -33.8485     5.4169     3.7887     5.4812     8.3672     0.3382   206.0170     0.0344     2.4103
 2276.5000   -33.8477     5.0943     3.6143     5.1558     8.4004     0.3414   192.2932     0.0398     2.4412
 2277.0000   -33.7964     5.0304     3.6697     5.3059     8.4333     0.3357   168.1935     0.0089     2.4873
 2277.5000   -32.7819     5.5128     3.9385     5.9340     8.4663     0.3362   158.3043     0.0007     2.5017
 2278.0000   -32.2692     5.6355     4.2269     6.2813     8.4992     0.3467   152.9264     0.0100     2.5056
 2278.5000   -32.6266     5.3384     4.3517     6.4148     8.5321     0.3630   149.7952     0.0093     2.4959
 2279.0000   -32.9984     5.2335     4.2962     6.2788     8.5497     0.3614   150.0653     0.0042     2.4719
 2279.5000   -33.6909     5.5786     4.2150     6.1242     8.5461     0.3469   151.9054    -0.0017     2.4630
 2280.0000   -33.8531     5.6243     4.1902     6.3918     8.5410     0.3213   156.6808     0.0045     2.4842
 2280.5000   -33.8326     5.6704     4.2856     6.6694     8.5357     0.3414   155.1375     0.0235     2.5122
 2281.0000   -33.8088     5.7566     4.4737     6.7692     8.5305     0.3558   148.9499     0.0358     2.5244
 2281.5000   -33.8730     5.8847     4.7025     6.8706     8.5253     0.3624   146.6403     0.0193     2.4988
 2282.0000   -35.0064     6.0581     4.7747     6.9254     8.5201     0.3421   143.9691     0.0064     2.4929
 2282.5000   -36.0378     6.1924     4.7479     6.9806     8.5149     0.3376   140.1702     0.0082     2.5044
 2283.0000   -36.2256     6.0618     4.6890     6.9878     8.5097     0.3344   137.7246     0.0137     2.5220
 2283.5000   -36.2968     5.7079     4.6487     6.8989     8.5045     0.3357   136.6324     0.0168     2.5302
 2284.0000   -35.4003     5.6350     4.5905     6.8111     8.4993     0.3468   138.4725     0.0147     2.5151
 2284.5000   -35.1112     5.5703     4.5168     6.7228     8.4941     0.3513   136.4780     0.0111     2.5146
 2285.0000   -35.0411     5.5789     4.3680     6.5932     8.4889     0.3488   134.9347     0.0059     2.5169
 2285.5000   -36.0981     5.5858     4.2849     6.5528     8.4837     0.3434   135.8726     0.0030     2.4998
 2286.0000   -36.2754     5.6957     4.3281     6.7452     8.4785     0.3397   136.6196     0.0092     2.5149
 2286.5000   -35.2907     5.7840     4.5838     6.9415     8.4733     0.3379   135.9438     0.0169     2.5248
 2287.0000   -34.4820     5.8723     4.7756     7.1436     8.4681     0.3384   135.0772     0.0178     2.4918
 2287.5000   -35.2536     6.0159     4.8154     7.3515     8.4629     0.3459   135.3383     0.0157     2.4889
 2288.0000   -37.4454     6.1926     4.9233     7.5654     8.4577     0.3516   135.3740     0.0151     2.4950
 2288.5000   -37.6642     6.3744     5.0336     7.6257     8.4527     0.3534   133.8306     0.0153     2.4846
 2289.0000   -37.8309     6.4266     5.1464     7.6336     8.4497     0.3500   135.5181     0.0161     2.4817
 2289.5000   -39.0323     6.4345     5.2983     7.5363     8.4890     0.3435   140.9032     0.0201     2.4893
 2290.0000   -39.7833     6.3100     5.3056     7.3893     8.5032     0.3590   142.7345     0.0224     2.4910
 2290.5000   -39.7649     6.1028     5.3129     7.0474     8.5194     0.3610   139.1700     0.0120     2.5001
 2291.0000   -40.2052     5.8212     5.2452     6.6285     8.5359     0.3496   136.9499    -0.0007     2.4859
 2291.5000   -41.2074     5.4384     4.8685     6.0985     8.5524     0.3441   135.1810    -0.0044     2.4884
 2292.0000   -43.1345     5.0110     4.2149     5.6209     8.5689     0.3507   136.5700     0.0019     2.4861
 2292.5000   -43.6200     4.8801     3.9930     5.5553     8.5858     0.3543   149.6884     0.0050     2.4983
 2293.0000   -43.5745     4.8186     3.8357     5.5999     8.5884     0.3470   153.0985     0.0044     2.4691
 2293.5000   -43.9442     4.8249     3.8409     5.5597     8.5872     0.3376   147.2814     0.0038     2.4639
 2294.0000   -44.9061     4.7644     3.8462     5.0596     8.5860     0.3397   146.4058     0.0024     2.4482
 2294.5000   -46.2665     4.6399     3.9052     4.6615     8.5848     0.3420   151.4128     0.0003     2.4423
 2295.0000   -47.1049     4.3650     3.8568     4.2948     8.5836     0.3438   148.5160    -0.0010     2.4609
 2295.5000   -47.0438     4.0776     3.2252     4.0120     8.5824     0.3456   147.8661    -0.0017     2.4739
 2296.0000   -45.7893     3.7275     2.5341     3.7219     8.5812     0.3479   150.6084     0.0008     2.4803
 2296.5000   -44.7093     3.4328     2.4853     3.5982     8.5800     0.3488   143.4349     0.0054     2.4653
 2297.0000   -45.8082     3.2771     2.5792     4.1372     8.5789     0.3509   144.8239     0.0101     2.4752
 2297.5000   -47.1357     3.2609     2.8154     4.5624     8.5777     0.3590   146.4385     0.0155     2.4761
 2298.0000   -46.3385     3.3655     3.2173     4.6952     8.5765     0.3692   148.9553     0.0210     2.4672
 2298.5000   -45.9189     3.5288     3.4147     4.7326     8.5753     0.3724   151.5203     0.0171     2.4583
 2299.0000   -47.2235     3.6577     3.4659     4.7692     8.5741     0.3683   155.3453     0.0029     2.4523
 2299.5000   -49.6084     3.8176     3.1291     4.6772     8.5729     0.3663   149.9668     0.0017     2.4675
 2300.0000   -50.9524     3.9844     3.0892     4.6486     8.5717     0.3804   149.7744     0.0080     2.4902
 2300.5000   -51.2892     3.9894     3.1377     4.6546     8.5705     0.3725   155.6779     0.0134     2.4730
 2301.0000   -51.4087     4.0500     3.1790     4.6917     8.5695     0.3764   162.0269     0.0158     2.4791
 2301.5000   -54.2056     4.0550     3.2097     4.7822     8.5695     0.3890   169.7293     0.0129     2.4687
 2302.0000   -52.3355     4.1166     3.2404     4.9084     8.5724     0.3980   173.1376     0.0031     2.4538
 2302.5000   -52.2428     4.1217     3.2180     5.0346     8.5783     0.4043   161.9010    -0.0004     2.4810
 2303.0000   -53.1117     4.0981     3.2217     5.1608     8.5842     0.3967   158.0996     0.0051     2.4931
 2303.5000   -55.7698     4.0588     3.2705     5.2733     8.5901     0.3780   157.6817     0.0166     2.4910
 2304.0000   -56.6637     4.0194     3.2970     5.2794     8.5960     0.3640   152.9781     0.0213     2.4933
 2304.5000   -56.9822     3.9800     3.2771     5.2476     8.6019     0.3583   154.8158     0.0229     2.5025
