~VERSION INFORMATION
 VERS.                2.0:   CWLS LOG ASCII STANDARD - VERSION 2.0
 WRAP.                 NO:   ONE LINE PER DEPTH STEP
~WELL INFORMATION
#MNEM.UNIT      DATA TYPE    INFORMATION
#----------   ------------   ------------------------------
 STRT.F          540.0000:   START DEPTH
 STOP.F         4100.0000:   STOP DEPTH
 STEP.F            0.5000:   STEP LENGTH
 NULL.          -999.2500:   NO VALUE
 COMP. LAWRENCE ALISON & ASSOC.,WEST:   COMPANY
 WELL. LAWRENCE "X" #15-11:   WELL
 FLD .              N P R:   FIELD
 LOC .      S11 T38N R78W:   LOCATION
 CNTY.            NATRONA:   COUNTY
 STAT.            WYOMING:   STATE
 CTRY. UNITED STATES OF AMERICA:   COUNTRY
 SRVC.      DRESSER ATLAS:   SERVICE COMPANY
 DATE.        18-MAY-1985:   LOGDATE
 API .     49025110220000:   API NUMBER
~CURVE INFORMATION
#MNEM.UNIT       API CODE    CURVE DESCRIPTION
#----------   ------------   ------------------------------
 DEPT.F                  :   
 NPHI.DEC    42 890 03 00:   NEUTRON POROSITY SANDSTONE
 RHOB.G/C3   45 350 01 00:   BULK DENSITY
 CORR.G/C3   45 356 01 00:   DENSITY CORRECTION
 TEND.LBS    45 635 01 00:   TENSION FROM DENSITY LOG
 GRD .GAPI   45 310 01 00:   GAMMA RAY FROM DENSITY LOG
 CALD.IN     45 280 60 00:   CALIPER FROM DENSITY LOG
 SPR .MV     07 010 01 00:   SPONTANEOUS POTENTIAL
 RILD.OHMM   07 120 46 00:   DEEP INDUCTION RESISTIVITY
 RILM.OHMM   07 120 44 00:   INDUCTION LOG MEDIUM RESISTIVITY
 RFOC.OHMM   07 220 04 00:   RESISTIVITY FOCUSED LOG RES.
 TENR.LBS    07 635 01 00:   TENSION FROM RESISTIVITY
~PARAMETER INFORMATION
#MNEM.UNIT          VALUE    DESCRIPTION
#----------   ------------   ------------------------------
 EKB .F         5201.0000:   Kelly bushing
 EGL .F         5189.0000:   Ground level
 EDF .F         5200.0000:   Drilling floor
 TD  .F         4095.0000:   Total depth
 DATE.        18-MAY-1985:   Date logged
 CLNT.            A2DTECH:   Client Code
 SL  . 2203' FSL & 377' FWL:   Surface Location
 PD  .                 GL:   Permanent Datum
 EPD .F              5189:   Elevation Permanent Datum
 LMF .                 KB:   Log Measured From
 DMF .                 KB:   Drilling Measured From
 DAPD.F                12:   Feet Above Permanent Datum
 DD  .F              4095:   Depth driller
 DL  .F              4093:   Depth logger
 BLI .F              4091:   Bottom log interval
 TLI .F                 0:   Top log interval
 CS1 .IN            8.625:   Casing size
 CBD1.      8.625" @ 565':   Casing driller 1
 CBL1.F               565:   Casing logger 1
 BS1 .IN            7.875:   Bit size
 BSD1.F              4095:   Depth drilled with bit1
 DFT .            GEL KCL:   Type fluid in hole
 DFD .                9.2:   Density
 DFV .                 40:   Viscosity
 DFPH.                8.0:   pH
 DFL .                9.0:   Fluid loss
 MSS .            MUDTANK:   Source of sample
 RMS .OHMM            .57:   Rm
 MST .F                69:   Rm Meas. temp.
 RMF .OHMM            .49:   Rmf
 MFST.F                69:   Rmf Meas. temp.
 RMC .OHMM            .71:   Rmc
 MCST.F                69:   Rmc Meas. temp.
 MFSS.               MEAS:   Source Rmf.
 MCSS.               CALC:   Source Rmc.
 RMB .OHMM            .30:   Rm. at BHT
 BHT .F               139:   BHT.
 TCS .HRS               4:   Time Circ. stopped
 MRT .F               139:   Maximum recorded temp.
 LUN .            HL 6302:   Logging unit number
 LUL .               CODY:   Logging unit location
 ENGI.              GETTY:   Recorded By
 WITN.              FIVAS:   Witnessed by
 ORIG.           5" PRINT:   Origin of data
 UWI .     49025110220000:   Unique Well ID
 DICO. A2D TECHNOLOGIES, INC.:   Digitizing Company
~OTHER INFORMATION
~A   DEPT     NPHI       RHOB       CORR        TEND        GRD      CALD        SPR       RILD       RILM       RFOC       TENR   
# ...
 2431.0000     0.2830     2.5600    -0.0080   -45.0690   110.1130    10.4370   -13.8500     4.8300     5.2360     4.6000   -65.2600
 2431.5000     0.2800     2.5640     0.0010   -46.7970   111.8450    10.4380   -13.9700     5.0930     5.4790     4.3950   -65.9950
 2432.0000     0.2840     2.5690     0.0140   -48.5260   109.5070    10.4380   -14.0900     5.3550     5.7230     4.4350   -66.7290
 2432.5000     0.2920     2.5740     0.0260   -50.2550   106.7080    10.4390   -14.2100     5.6180     5.9660     4.8050   -67.4640
 2433.0000     0.2710     2.5770     0.0360   -51.9830   103.8750    10.4390   -14.3300     5.8800     6.2100     5.3290   -68.1980
 2433.5000     0.2560     2.5740     0.0410   -53.7120   101.1520    10.4400   -14.4490     6.1430     6.4530     5.8530   -68.9330
 2434.0000     0.2770     2.5690     0.0210   -55.4400    99.4630    10.4400   -14.5690     6.4050     6.6880     6.5540   -69.6670
 2434.5000     0.3100     2.5640     0.0030   -57.1690    97.8140    10.4400   -14.6890     6.4480     6.6640     6.5040   -70.4020
 2435.0000     0.3260     2.5680    -0.0070   -58.8970    98.1790    10.4410   -14.8090     6.4390     6.6410     6.4040   -71.1360
 2435.5000     0.3130     2.5720    -0.0040   -60.6260    98.9130    10.4410   -14.9280     6.4310     6.6180     6.3040   -71.8710
 2436.0000     0.2970     2.5760    -0.0040   -62.3550    99.6570    10.4420   -15.0480     6.4230     6.5950     6.2040   -72.6050
 2436.5000     0.2800     2.5800    -0.0090   -64.0830   100.2580    10.4420   -15.1730     6.4150     6.5710     6.0490   -73.3400
 2437.0000     0.2910     2.5760    -0.0020   -65.8120    99.9480    10.4420   -15.2130     6.4070     6.5480     6.0990   -74.0740
 2437.5000     0.2990     2.5710     0.0120   -67.5400    99.6720    10.4430   -15.2250     6.3990     6.5250     6.2110   -74.8090
 2438.0000     0.2990     2.5690     0.0180   -69.2690   100.1170    10.4430   -15.2360     6.3910     6.5080     6.3220   -75.5430
 2438.5000     0.2830     2.5740     0.0200   -70.9970   101.2490    10.4440   -15.2470     6.3900     6.6550     6.4330   -76.2780
 2439.0000     0.2660     2.5800     0.0210   -72.7260   102.4970    10.4440   -15.2580     6.5240     6.7380     6.5450   -77.0130
 2439.5000     0.2620     2.5850     0.0230   -74.4540   103.7580    10.4450   -15.2690     6.6880     6.8740     6.6270   -77.7470
 2440.0000     0.2750     2.5870     0.0240   -75.4980   104.9980    10.4450   -15.2800     6.6560     6.8520     6.5390   -78.4820
 2440.5000     0.2840     2.5880     0.0260   -73.4330   105.2880    10.4450   -15.2920     6.5870     6.8030     6.4680   -79.2160
 2441.0000     0.2760     2.5920     0.0270   -71.3680   105.1540    10.4460   -15.3030     6.5170     6.7550     6.3980   -79.9510
 2441.5000     0.2690     2.5970     0.0290   -69.3030   104.3100    10.4460   -15.3140     6.4480     6.7070     6.3270   -80.6850
 2442.0000     0.2660     2.5980     0.0310   -67.2390   102.3080    10.4470   -15.3250     6.3780     6.6590     6.2570   -81.4200
 2442.5000     0.3010     2.5960     0.0320   -65.1740   101.1480    10.4470   -15.3360     6.3090     6.6100     6.1860   -82.1540
 2443.0000     0.2990     2.5880     0.0330   -63.1090   102.3020    10.4480   -15.3470     6.2390     6.5620     6.1160   -82.8890
 2443.5000     0.2830     2.5820     0.0330   -61.0450   103.7630    10.4480   -15.3580     6.1690     6.5140     6.0450   -83.6230
 2444.0000     0.2600     2.5790     0.0310   -58.9800   102.7350    10.4480   -15.3690     6.3110     6.6570     5.9940   -84.3580
 2444.5000     0.2500     2.5770     0.0140   -56.9150   101.5560    10.4490   -15.3800     6.4840     6.8280     6.2160   -85.0920
 2445.0000     0.2550     2.5750     0.0030   -56.5220   100.5160    10.4490   -15.3920     6.6560     6.9990     6.3900   -85.8270
 2445.5000     0.2640     2.5730    -0.0080   -58.1390   100.2900    10.4500   -15.4030     6.8280     7.1700     6.5640   -86.5610
 2446.0000     0.2700     2.5750    -0.0030   -59.7560   100.0670    10.4500   -15.4290     7.0000     7.3950     6.7380   -87.2960
 2446.5000     0.2620     2.5800     0.0020   -61.3730    99.8420    10.4510   -15.4680     7.2610     7.3160     6.9110   -88.0300
 2447.0000     0.2510     2.5840     0.0080   -62.9910    99.7150    10.4510   -15.5070     7.1780     7.1540     7.0010   -88.7650
 2447.5000     0.2510     2.5880     0.0130   -64.6080   100.5980    10.4510   -15.5470     7.0070     6.9910     6.9370   -89.4990
 2448.0000     0.2750     2.5890     0.0190   -66.2250   102.9340    10.4520   -15.5860     6.8360     6.8290     6.7450   -90.2340
 2448.5000     0.3010     2.5880     0.0240   -67.8420   105.2030    10.4520   -15.6250     6.7500     6.8740     6.5290   -90.9680
 2449.0000     0.3190     2.5860     0.0300   -69.4590   104.0190    10.4540   -15.6640     6.8060     6.9370     6.3130   -91.7030
 2449.5000     0.2650     2.5860     0.0340   -71.0760   100.0590    10.4570   -15.7030     6.8700     7.0080     6.1610   -92.4370
 2450.0000     0.2550     2.5880     0.0390   -72.6930    95.2280    10.4590   -15.7420     6.9330     7.0790     6.4660   -93.1720
 2450.5000     0.2390     2.5890     0.0370   -74.3100    93.9550    10.4610   -15.7810     6.9970     7.1500     6.7020   -93.9060
 2451.0000     0.2480     2.5890     0.0220   -75.9270    95.4990    10.4630   -15.8210     7.0600     7.2210     6.9370   -94.6410
 2451.5000     0.2590     2.5850     0.0070   -77.5440    97.3240    10.4660   -15.8600     7.1300     7.2920     7.1950   -95.3750
 2452.0000     0.2620     2.5800     0.0030   -79.1610    99.1800    10.4680   -15.8990     7.1300     7.3270     7.1950   -96.1100
 2452.5000     0.2730     2.5690    -0.0010   -80.7780   101.0760    10.4700   -15.9380     6.9230     7.0360     7.0720   -96.8440
 2453.0000     0.2850     2.5570    -0.0130   -82.3960   101.5580    10.4720   -15.9760     6.7360     6.8140     6.8990   -97.5790
 2453.5000     0.2830     2.5550    -0.0280   -84.0130   102.4450    10.4750   -15.9790     6.5500     6.5910     6.7260   -98.3130
 2454.0000     0.2890     2.5530    -0.0210   -85.6300   103.7500    10.4770   -15.8850     6.3630     6.3680     6.5530   -99.0480
 2454.5000     0.3040     2.5480    -0.0120   -87.2470   105.0460    10.4790   -15.7940     6.1760     6.1460     6.3800   -99.7820
 2455.0000     0.3070     2.5400    -0.0030   -88.8640   105.7610    10.4810   -15.7040     6.0490     5.9920     6.3280  -100.5170
 2455.5000     0.3020     2.5330    -0.0020   -90.4810   105.1210    10.4840   -15.6130     6.0630     5.9700     6.3220  -101.2510
 2456.0000     0.2970     2.5310    -0.0010   -92.0980   104.5250    10.4860   -15.5230     6.0740     5.9480     6.3170  -101.9860
 2456.5000     0.2980     2.5320    -0.0010   -93.7150   103.9250    10.4880   -15.4320     6.0860     5.9270     6.3120  -102.7200
 2457.0000     0.2950     2.5340    -0.0040   -95.3320   103.2170    10.4910   -15.3420     6.0980     5.9050     6.3060  -103.4550
 2457.5000     0.2880     2.5360    -0.0170   -95.1560   101.1780    10.4920   -15.2510     6.1100     5.8860     6.3010  -104.1900
 2458.0000     0.2810     2.5370    -0.0300   -94.3110    99.1290    10.4920   -15.1910     6.1220     5.8860     6.2950  -104.9240
 2458.5000     0.2740     2.5360    -0.0350   -93.4660    97.0790    10.4920   -15.1570     6.1340     5.9060     6.2900  -105.6590
 2459.0000     0.2680     2.5370    -0.0310   -92.6210    94.9880    10.4920   -15.1230     6.1460     5.9330     6.2840  -106.2930
 2459.5000     0.2730     2.5430    -0.0260   -91.7760    95.0880    10.4920   -15.0890     6.1610     5.9400     6.2790  -100.7160
 2460.0000     0.2760     2.5490    -0.0090   -90.9310    96.3010    10.4920   -15.0540     6.0100     5.8420     6.2740   -94.7570
 2460.5000     0.2690     2.5550     0.0090   -90.0860    98.5650    10.4920   -15.0200     5.8350     5.7090     6.1140   -88.7990
 2461.0000     0.2660     2.5610     0.0260   -89.2410   100.4650    10.4920   -14.9860     5.6590     5.5750     5.9440   -82.8400
