~VERSION INFORMATION
 VERS.                2.0:   CWLS LOG ASCII STANDARD - VERSION 2.0
 WRAP.                 NO:   ONE LINE PER DEPTH STEP
~WELL INFORMATION
#MNEM.UNIT      DATA TYPE    INFORMATION
#----------   ------------   ------------------------------
 STRT.F           48.0000:   START DEPTH
 STOP.F         3235.5000:   STOP DEPTH
 STEP.F            0.5000:   STEP LENGTH
 NULL.          -999.2500:   NO VALUE
 COMP.    TESORO PEROLEUM:   COMPANY
 WELL. TESORO P46 T 28 N.P.R. #3-28:   WELL
 FLD .        TEAPOT DOME:   FIELD
 LOC .      S28 T39N R78W:   LOCATION
 CNTY.            NATRONA:   COUNTY
 STAT.            WYOMING:   STATE
 CTRY. UNITED STATES OF AMERICA:   COUNTRY
 SRVC.      DRESSER ATLAS:   SERVICE COMPANY
 DATE.        17-SEP-1975:   LOGDATE
 API .     49025102530000:   API NUMBER
~CURVE INFORMATION
#MNEM.UNIT       API CODE    CURVE DESCRIPTION
#----------   ------------   ------------------------------
 DEPT.F                  :   
 CALD.IN     45 280 60 00:   CALIPER FROM DENSITY LOG
 RHOB.G/C3   45 350 01 00:   BULK DENSITY
 CORR.G/C3   45 356 01 00:   DENSITY CORRECTION
 TEND.LBS    45 635 01 00:   TENSION FORM DENSITY LOG
 NPHI.DEC    42 890 03 00:   NEUTRON POROSITY SANDSTONE
 SPR .MV     07 010 01 00:   SPONTANEOUS POTENTIAL
 ILD .OHMM   07 120 46 00:   DEEP INDUCTION RESISTIVITY
 ILM .OHMM   07 120 44 00:   INDUCTION LOG MEDIUM RESISTIVITY
 SFL .OHMM   07 220 01 00:   SHALLOW FOCUSED LOG RESISTIVITY
 GRD .GAPI   45 310 01 00:   GAMMA RAY FROM DENSITY LOG
~PARAMETER INFORMATION
#MNEM.UNIT          VALUE    DESCRIPTION
#----------   ------------   ------------------------------
 EKB .F         5088.0000:   Kelly bushing
 EGL .F         5075.0000:   Ground level
 TD  .F         3218.0000:   Total depth
 CLNT.            A2DTECH:   Client Code
 SL  . 2310' FWL & 1650' FSL:   Surface Location
 PD  .                 GL:   Permanent Datum
 EPD .F              5075:   Elevation Permanent Datum
 LMF .                 KB:   Log Measured From
 DMF .                 KB:   Drilling Measured From
 DAPD.F                13:   Feet Above Permanent Datum
 DATE.        17-SEP-1975:   Date Logged [DD-MMM-YYYY]
 DD  .F              3218:   Depth driller
 DL  .F              3217:   Depth logger
 BLI .F              3215:   Bottom log interval
 TLI .F               395:   Top log interval
 CS1 .IN            8.625:   Casing size
 CBD1.      8.625" @ 393':   Casing driller 1
 CBL1.F               395:   Casing logger 1
 BS1 .IN            7.875:   Bit size
 BSD1.F              3218:   Depth drilled with bit1
 DFT .           CHEM GEL:   Type fluid in hole
 DFD .                9.5:   Density
 DFV .                 60:   Viscosity
 DFPH.                9.5:   pH
 DFL .                 11:   Fluid loss
 MSS .           FLOWLINE:   Source of sample
 RMS .OHMM           0.55:   Rm
 MST .F                60:   Rm Meas. temp.
 RMF .OHMM           0.48:   Rmf
 MFST.F                62:   Rmf Meas. temp.
 MFSS.               MEAS:   Source Rmf.
 RMC .OHMM            1.6:   Rmc
 MCST.F                62:   Rmc Meas. temp.
 MCSS.               MEAS:   Source Rmc.
 RMB .OHMM            0.3:   Rm. at BHT
 BHT .F               112:   BHT.
 TCS .HRS               5:   Time Circ. stopped
 MRT .F               112:   Maximum recorded temp.
 LUN .               6008:   Logging unit number
 LUL .              GLTTE:   Logging unit location
 ENGI.            MILHOAN:   Recorded By
 WITN.               WOLF:   Witnessed by
 ORIG.           5" PRINT:   Origin of data
 UWI .     49025102530000:   Unique Well ID
 DICO. A2DTECHNOLOGIES,INC.:   Digitizing Company
~OTHER INFORMATION
~A   DEPT     CALD       RHOB       CORR       TEND       NPHI         SPR         ILD        ILM        SFL      GRD   
# ...
 3197.0000     7.9551     2.5893     0.0101  1266.3480     0.2235   -20.8861     7.8113     8.1820     8.8261    86.6754
 3197.5000     7.9565     2.5924     0.0103  1264.2820     0.2262   -20.8774     7.9238     8.1875     8.2360    88.6267
 3198.0000     7.9580     2.5948     0.0106  1262.2150     0.2279   -21.1667     8.0378     8.0787     7.9025    86.7334
 3198.5000     7.9445     2.5956     0.0108  1260.1205     0.2297   -21.4554     7.9854     7.8613     8.4768    86.2730
 3199.0000     7.9460     2.5950     0.0109  1258.0063     0.2319   -21.4466     7.9240     7.7558     9.0929    87.2648
 3199.5000     7.9475     2.5913     0.0111  1255.4990     0.2381   -21.7356     7.6134     7.5480     8.7257    88.0102
 3200.0000     7.9493     2.5839     0.0083  1253.7762     0.2435   -22.1712     7.4594     7.4478     7.4892    88.2759
 3200.5000     7.9507     2.5712     0.0085  1251.3660     0.2422   -22.3135     7.2077     7.2351     7.0866    85.6630
 3201.0000     7.9522     2.5638     0.0087  1257.2003     0.2407   -22.6024     6.9645     6.7649     6.9910    86.2759
 3201.5000     7.9537     2.5662     0.0089  1267.1748     0.2370   -22.5916     6.7764     6.6741     6.7080    86.8750
 3202.0000     7.9551     2.5708     0.0091  1275.8940     0.2328   -22.2853     6.5934     6.4953     6.8061    87.6658
 3202.5000     7.9566     2.5709     0.0093  1273.4139     0.2268   -22.2766     6.4600     6.4082     6.6222    89.3708
 3203.0000     7.9581     2.5718     0.0095  1271.2993     0.2216   -21.9702     6.3735     6.3239     7.0208    89.6364
 3203.5000     7.9595     2.5737     0.0097  1269.1771     0.2186   -21.6637     6.2020     6.3273     7.5666    88.2229
 3204.0000     7.9610     2.5773     0.0084  1267.0695     0.2180   -21.0579     5.8691     6.2868     7.1101    87.5226
 3204.5000     7.9625     2.5812     0.0086  1264.9547     0.2164   -20.7516     5.7899     6.0660     8.4091    87.0751
 3205.0000     7.9643     2.5737     0.0072  1262.4612     0.2170   -20.4453     6.0814     5.7502     8.5302    85.4217
 3205.5000     7.9658     2.5572     0.0074  1263.0214     0.2227   -20.1390     6.1263     5.4419     7.6349    84.7279
 3206.0000     7.9672     2.5520     0.0106  1264.8888     0.2263   -19.6839     5.7175     5.1494     6.1120    84.7544
 3206.5000     7.9837     2.5513     0.0124  1266.7562     0.2265   -19.3777     5.2624     5.0108     5.6245    84.7859
 3207.0000     7.9852     2.5543     0.0141  1268.6237     0.2229   -19.0714     5.0496     4.9442     5.3962    84.8117
 3207.5000     8.0016     2.5559     0.0143  1270.4911     0.2199   -18.9137     4.9132     4.8791     5.2461    84.8375
 3208.0000     8.0031     2.5544     0.0145  1270.8964     0.2231   -19.0540     4.8144     4.8144     5.1807    84.8632
 3208.5000     8.0045     2.5514     0.0147  1269.0823     0.2255   -19.1941     4.7825     4.8170     5.2933    84.8890
 3209.0000     8.0060     2.5485     0.0149  1267.3715     0.2213   -19.4831     4.7849     4.7530     5.4835    84.4286
 3209.5000     8.0075     2.5470     0.0150  1265.2959     0.2188   -19.4732     4.8200     4.6905     5.8006    83.9746
 3210.0000     8.0090     2.5455     0.0152  1263.8467     0.2260   -19.4636     4.7225     4.6282     5.8847    83.7661
 3210.5000     8.0108     2.5441     0.0154  1277.0359     0.2275   -19.4554     4.5955     4.5661     5.8467    83.5526
 3211.0000     7.9969     2.5411     0.0156  1275.4277     0.2222   -19.4462     4.5334     4.5061     5.3429    83.5790
 3211.5000     7.9987     2.5359     0.0143  1273.6703     0.2199   -19.5863     4.5357     4.4462     4.9105    83.6054
 3212.0000     7.9848     2.5321     0.0145  1287.0936     0.2277   -19.7265     4.5376     4.4178     4.6524    83.6367
 3212.5000     7.9867     2.5323     0.0147  1300.5161     0.2313   -20.0133     4.4763     4.3895     4.5272    83.9024
 3213.0000     7.9728     2.5330     0.0149  1298.4128     0.2312   -20.0046     4.4168     4.3925     4.4667    83.9281
 3213.5000     7.9592     2.5300     0.0151  1296.7296     0.2300   -19.9970     4.3880     4.3948     4.4688    84.6736
 3214.0000     7.9311     2.5255     0.0153  1295.0464     0.2282   -19.9435     4.3594     4.3972     4.5022    84.9392
 3214.5000     7.9326     2.5254     0.0155  1278.1971     0.2257   -19.6815     4.3920     4.4612     4.5994    85.4448
 3215.0000     7.9340     2.5256     0.0172  1261.0492     0.2233   -19.6723     4.5176     4.5262     4.6988    85.7104
 3215.5000     7.9355     2.5240     0.0174  1229.1545     0.2224   -19.5148     4.6467     4.5286     4.8003    85.7362
 3216.0000     7.9373     2.5226     0.0206  1136.8369     0.2229   -19.0595     4.6810     4.5945     4.8701    86.2418
 3216.5000  -999.2500  -999.2500  -999.2500   950.9003     0.2244   -18.1560     4.6829     4.6615     4.8729  -999.2500
 3217.0000  -999.2500  -999.2500  -999.2500  1199.1704     0.2256   -16.0640     4.6848     4.6646     4.8752  -999.2500
 3217.5000  -999.2500  -999.2500  -999.2500  1539.2229     0.2256  -999.2500  -999.2500  -999.2500  -999.2500  -999.2500
 3218.0000  -999.2500  -999.2500  -999.2500  1794.3372     0.2255  -999.2500  -999.2500  -999.2500  -999.2500  -999.2500
 3218.5000  -999.2500  -999.2500  -999.2500  2457.3074  -999.2500  -999.2500  -999.2500  -999.2500  -999.2500  -999.2500
 3219.0000  -999.2500  -999.2500  -999.2500  2818.1619  -999.2500  -999.2500  -999.2500  -999.2500  -999.2500  -999.2500
 3219.5000  -999.2500  -999.2500  -999.2500  2937.3254  -999.2500  -999.2500  -999.2500  -999.2500  -999.2500  -999.2500
 3220.0000  -999.2500  -999.2500  -999.2500  2965.8535  -999.2500  -999.2500  -999.2500  -999.2500  -999.2500  -999.2500
 3220.5000  -999.2500  -999.2500  -999.2500  2978.8562  -999.2500  -999.2500  -999.2500  -999.2500  -999.2500  -999.2500
 3221.0000  -999.2500  -999.2500  -999.2500  2974.3245  -999.2500  -999.2500  -999.2500  -999.2500  -999.2500  -999.2500
 3221.5000  -999.2500  -999.2500  -999.2500  2960.3845  -999.2500  -999.2500  -999.2500  -999.2500  -999.2500  -999.2500
 3222.0000  -999.2500  -999.2500  -999.2500  2958.7014  -999.2500  -999.2500  -999.2500  -999.2500  -999.2500  -999.2500
 3222.5000  -999.2500  -999.2500  -999.2500  2956.5981  -999.2500  -999.2500  -999.2500  -999.2500  -999.2500  -999.2500
 3223.0000  -999.2500  -999.2500  -999.2500  2970.4417  -999.2500  -999.2500  -999.2500  -999.2500  -999.2500  -999.2500
 3223.5000  -999.2500  -999.2500  -999.2500  2983.8650  -999.2500  -999.2500  -999.2500  -999.2500  -999.2500  -999.2500
 3224.0000  -999.2500  -999.2500  -999.2500  2981.7610  -999.2500  -999.2500  -999.2500  -999.2500  -999.2500  -999.2500
 3224.5000  -999.2500  -999.2500  -999.2500  3010.3228  -999.2500  -999.2500  -999.2500  -999.2500  -999.2500  -999.2500
 3225.0000  -999.2500  -999.2500  -999.2500  3038.8181  -999.2500  -999.2500  -999.2500  -999.2500  -999.2500  -999.2500
 3225.5000  -999.2500  -999.2500  -999.2500  3052.2405  -999.2500  -999.2500  -999.2500  -999.2500  -999.2500  -999.2500
 3226.0000  -999.2500  -999.2500  -999.2500  3065.6638  -999.2500  -999.2500  -999.2500  -999.2500  -999.2500  -999.2500
 3226.5000  -999.2500  -999.2500  -999.2500  3063.5605  -999.2500  -999.2500  -999.2500  -999.2500  -999.2500  -999.2500
 3227.0000  -999.2500  -999.2500  -999.2500  3061.8774  -999.2500  -999.2500  -999.2500  -999.2500  -999.2500  -999.2500
 3227.5000  -999.2500  -999.2500  -999.2500  3060.1709  -999.2500  -999.2500  -999.2500  -999.2500  -999.2500  -999.2500
 3228.0000  -999.2500  -999.2500  -999.2500  3058.0908  -999.2500  -999.2500  -999.2500  -999.2500  -999.2500  -999.2500
 3228.5000  -999.2500  -999.2500  -999.2500  3041.3020  -999.2500  -999.2500  -999.2500  -999.2500  -999.2500  -999.2500
 3229.0000  -999.2500  -999.2500  -999.2500  3009.4082  -999.2500  -999.2500  -999.2500  -999.2500  -999.2500  -999.2500
 3229.5000  -999.2500  -999.2500  -999.2500  2977.5134  -999.2500  -999.2500  -999.2500  -999.2500  -999.2500  -999.2500
 3230.0000  -999.2500  -999.2500  -999.2500  2960.7253  -999.2500  -999.2500  -999.2500  -999.2500  -999.2500  -999.2500
