~VERSION INFORMATION
 VERS.                2.0:   CWLS LOG ASCII STANDARD - VERSION 2.0
 WRAP.                 NO:   ONE LINE PER DEPTH STEP
~WELL INFORMATION
#MNEM.UNIT      DATA TYPE    INFORMATION
#----------   ------------   ------------------------------
 STRT.F           22.5000:   START DEPTH
 STOP.F         4120.0000:   STOP DEPTH
 STEP.F            0.5000:   STEP LENGTH
 NULL.          -999.2500:   NO VALUE
 COMP. LAWRENCE ALLISON & ASSOCIATES:   COMPANY
 WELL. LAWRENCE-ALLISON SHX #37-10:   WELL
 FLD .              N P R:   FIELD
 LOC .      S10 T38N R78W:   LOCATION
 CNTY.            NATRONA:   COUNTY
 STAT.            WYOMING:   STATE
 CTRY. UNITED STATES OF AMERICA:   COUNTRY
 SRVC.      DRESSER ATLAS:   SERVICE COMPANY
 DATE.        29-JUN-1983:   LOGDATE
 API .     49025107370001:   API NUMBER
~CURVE INFORMATION
#MNEM.UNIT       API CODE    CURVE DESCRIPTION
#----------   ------------   ------------------------------
 DEPT.F                  :   
 TEND.LBS    45 635 01 00:   TENSION FROM DENSITY LOG
 CORR.G/C3   45 356 01 00:   DENSITY CORRECTION
 NPHI.DEC    42 890 03 00:   NEUTRON POROSITY SANDSTONE
 CALD.IN     45 280 60 00:   CALIPER FROM DENSITY LOG
 GRR .GAPI   07 310 01 00:   GAMMA RAY FROM RESISTIVITY
 SPR .MV     07 010 01 00:   SPONTANEOUS POTENTIAL
 TENR.LBS    07 635 01 00:   TENSION FROM RESISTIVITY
 RILD.OHMM   07 120 46 00:   DEEP INDUCTION RESISTIVITY
 RILM.OHMM   07 120 44 00:   INDUCTION LOG MEDIUM RESISTIVITY
 RFOC.OHMM   07 220 04 00:   RESISTIVITY FOCUSED LOG RES.
 RHOB.G/C3   45 350 01 00:   BULK DENSITY
~PARAMETER INFORMATION
#MNEM.UNIT          VALUE    DESCRIPTION
#----------   ------------   ------------------------------
 EKB .F         5228.0000:   Kelly bushing
 EGL .F         5218.0000:   Ground level
 EDF .F            0.0000:   Drilling floor
 EPD .F         5218.0000:   Permanent datum
 TD  .F         4125.0000:   Total depth
 DATE.        29-JUN-1983:   Date logged
 CLNT.            A2DTECH:   Client Code
 SL  . 984' FWL & 1620' FEL:   Surface Location
 PD  .                 GL:   Permanent Datum
 DD  .F              4125:   Depth driller
 DL  .F              4107:   Depth logger
 BLI .F              4105:   Bottom log interval
 CS1 .IN              4.5:   Casing size
 CBD1.       4.5" @ 2213':   Casing driller 1
 CBL1.F              2213:   Casing logger 1
 BS1 .IN             6.25:   Bit size
 DFT .                KCL:   Type fluid in hole
 DFD .                8.8:   Density
 DFV .                 45:   Viscosity
 DFPH.                  9:   pH
 DFL .               10.8:   Fluid loss
 MSS .            MUDTANK:   Source of sample
 RMS .OHMM            .44:   Rm
 MST .F               108:   Rm Meas. temp.
 RMF .OHMM            .37:   Rmf
 MFST.F               108:   Rmf Meas. temp.
 RMC .OHMM            .55:   Rmc
 MCST.F               108:   Rmc Meas. temp.
 MFSS.               MEAS:   Source Rmf.
 RMB .OHMM            .36:   Rm. at BHT
 BHT .F               126:   BHT.
 TCS .HRS               2:   Time Circ. stopped
 MRT .F               126:   Maximum recorded temp.
 LUN .               6343:   Logging unit number
 LUL .                 FM:   Logging unit location
 ENGI.          I. GOVETT:   Recorded By
 WITN.          G. STRONG:   Witnessed by
 ORIG.     2.5", 5" PRINT:   Origin of data
 UWI .     49025107370001:   Unique Well ID
 DICO. A2D TECHNOLOGIES, INC.:   Digitizing Company
 DAPD.                 10:   Feet Above Permanent Datum
 BSD1.               4125:   Depth drilled with bit1
 MCSS.               CALC:   Source Rmc.
 TLI .               2213:   Top log interval
~OTHER INFORMATION
~A   DEPT     TEND       CORR       NPHI       CALD         GRR       SPR       TENR       RILD       RILM       RFOC       RHOB   
# ...
 2950.5000     0.0000     0.0530     0.1850     7.2890   117.3080   -39.8790    14.8510     7.0570     7.0550     6.1810     2.5780
 2951.0000     0.0000     0.0370     0.1880     7.2890   117.5380   -39.8910    14.8510     7.0150     7.0060     6.4000     2.5810
 2951.5000     0.0000     0.0340     0.1840     7.2900   117.8260   -39.8850    14.8510     6.9730     6.9570     6.7100     2.5890
 2952.0000     0.0000     0.0480     0.1800     7.2910   115.5220   -39.7610    14.8510     6.9310     6.9080     7.0200     2.6000
 2952.5000     0.0000     0.0720     0.1750     7.2920   112.3740   -39.6360    14.8510     6.8920     6.8590     7.2280     2.6110
 2953.0000     0.0000     0.0930     0.1700     7.2930   109.5470   -39.5110    14.8510     6.8610     6.8090     7.0940     2.6180
 2953.5000     0.0000     0.1140     0.1690     7.2940   111.7060   -39.3880    14.8510     6.7630     6.7120     6.9930     2.6100
 2954.0000     0.0000     0.1110     0.1700     7.2940   114.4760   -39.3240    14.8510     6.5360     6.5220     6.9240     2.6050
 2954.5000     0.0000     0.0980     0.1710     7.2950   116.6780   -39.3790    14.8510     6.3090     6.3320     6.6300     2.5990
 2955.0000     0.0000     0.0840     0.1710     7.2960   115.7200   -39.4310    14.8510     6.0830     6.1420     6.3370     2.5930
 2955.5000     0.0000     0.0840     0.1760     7.2970   114.7630   -39.4830    14.8510     5.8480     5.9520     6.0440     2.5840
 2956.0000     0.0000     0.0900     0.1790     7.2980   113.8180   -39.4700    14.8510     5.2900     5.6830     5.7500     2.5750
 2956.5000     0.0000     0.0960     0.1780     7.2990   113.0780   -39.4130    14.8510     4.7130     5.0320     5.3340     2.5580
 2957.0000     0.0000     0.1040     0.1780     7.3000   114.4670   -39.3500    14.8510     4.1760     4.3820     5.4990     2.5380
 2957.5000     0.0000     0.0900     0.1780     7.3000   115.9060   -39.1110    14.8510     3.7050     3.7240     5.7820     2.5160
 2958.0000     0.0000     0.0630     0.2070     7.3010   123.9090   -38.1420    14.8510     3.2340     3.0890     6.1240     2.4880
 2958.5000     0.0000     0.0350     0.2410     7.3020   141.2540   -37.1840    14.8510     2.7630     2.0660     5.0960     2.4340
 2959.0000     0.0000     0.0330     0.2740     7.3000   158.4440   -36.2330    14.8510     2.4310     2.1220     3.8070     2.2670
 2959.5000     0.0000     0.0100     0.3000     7.3410   175.0360   -35.2830    14.8510     2.3210     2.2600     2.5170     2.0050
 2960.0000     0.0000    -0.0030     0.2820     7.4550   197.1750   -34.9270    14.8510     2.2650     2.6700     1.6740     2.0030
 2960.5000     0.0000     0.0420     0.2470     7.5760   192.0940   -35.3040    14.8510     2.4320     3.1400     1.9240     2.0640
 2961.0000     0.0000     0.0670     0.2130     7.6830   176.3460   -36.1180    14.8510     2.8280     3.6110     3.1580     2.1330
 2961.5000     0.0000     0.0630     0.1900     7.7950   155.6330   -36.9240    14.8510     3.2230     4.0740     4.8660     2.3090
 2962.0000     0.0000     0.0540     0.1520     7.5450   135.0610   -37.0570    14.8510     3.6190     4.5360     6.5750     2.4200
 2962.5000     0.0000     0.0770     0.1560     7.2570   114.0040   -37.1690    14.8510     4.3100     4.9970     6.9030     2.5640
 2963.0000     0.0000     0.0880     0.1590     6.9970   106.3600   -37.2820    14.8510     5.2040     5.4330     6.5820     2.5560
 2963.5000     0.0000     0.0820     0.1590     6.9940   103.4380   -37.3960    14.8510     6.1500     5.7940     6.2770     2.5620
 2964.0000     0.0000     0.0770     0.1590     6.9900   100.5210   -37.5110    14.8510     7.0310     6.1360     5.9720     2.5560
 2964.5000     0.0000     0.0730     0.1580     6.9970   100.3560   -37.6240    14.8510     6.7060     6.1810     5.6890     2.5560
 2965.0000     0.0000     0.0680     0.1590     6.9980    99.1510   -37.7130    14.8510     6.4010     6.0680     5.5650     2.5600
 2965.5000     0.0000     0.0630     0.1680     7.0020    97.8050   -37.6440    14.8510     6.0960     5.8170     5.4500     2.5630
 2966.0000     0.0000     0.0620     0.1740     7.0040    96.5280   -37.5740    14.8510     5.7910     5.5960     5.3350     2.5640
 2966.5000     0.0000     0.0660     0.1750     7.0070    98.6360   -37.5040    14.8510     5.4860     5.3750     5.2200     2.5650
 2967.0000     0.0000     0.0700     0.1770     7.0100   100.9690   -37.4350    14.8510     5.2120     5.1540     5.1050     2.5690
 2967.5000     0.0000     0.0730     0.1790     7.0130   103.2940   -37.3650    14.8510     4.9690     4.9320     4.9900     2.5710
 2968.0000     0.0000     0.0770     0.1790     7.0150   105.6120   -37.2950    14.8510     4.7260     4.7110     4.8750     2.5670
 2968.5000     0.0000     0.0810     0.1780     7.0180   107.9360   -37.2260    14.8510     4.4270     4.4950     4.7610     2.5620
 2969.0000     0.0000     0.0850     0.1760     7.0210   110.2650   -37.1560    14.8510     4.0090     4.2610     4.6470     2.5580
 2969.5000     0.0000     0.0880     0.1820     7.0240   112.5350   -37.0930    14.8510     3.5910     3.8290     4.5330     2.5560
 2970.0000     0.0000     0.0860     0.1980     7.0270   120.1930   -37.0350    14.8510     3.1730     3.3970     4.4190     2.5470
 2970.5000     0.0000     0.0830     0.2200     7.0240   130.5670   -36.9730    14.8510     2.7550     2.9660     4.3050     2.5250
 2971.0000     0.0000     0.0660     0.2420     7.0180   147.7660   -36.8000    14.8510     2.4730     2.5340     3.8350     2.5000
 2971.5000     0.0000     0.0510     0.2640     7.0120   165.5210   -36.1910    14.8510     2.4450     2.0850     3.2450     2.4720
 2972.0000     0.0000     0.0320     0.2890     7.0060   183.5610   -35.5910    14.8510     2.4160     2.4690     2.6540     2.4020
 2972.5000     0.0000     0.0850     0.2710     7.0000   196.6280   -34.9990    14.8510     2.5050     2.8710     2.0280     2.3110
 2973.0000     0.0000     0.2010     0.2490     6.9940   188.6620   -34.6380    14.8510     2.5970     3.2720     2.1100     2.3180
 2973.5000     0.0000     0.1930     0.2280     6.9890   168.9240   -35.0650    14.8510     2.7700     3.6730     3.0420     2.3470
 2974.0000     0.0000     0.1440     0.2060     6.9830   141.2670   -35.6720    14.8510     3.3080     4.0750     4.4910     2.4170
 2974.5000     0.0000     0.1010     0.1850     6.9770   116.7750   -36.9760    14.8510     3.8450     4.5180     6.2950     2.5140
 2975.0000     0.0000     0.0940     0.1840     6.9710   113.9370   -37.7450    14.8510     4.3820     4.9720     6.2490     2.5880
 2975.5000     0.0000     0.1140     0.1840     6.9650   115.3360   -38.3630    14.8510     4.9190     5.3990     6.1330     2.5960
 2976.0000     0.0000     0.0990     0.1860     6.9590   119.6300   -38.9710    14.8510     5.4320     5.7170     6.0170     2.5990
 2976.5000     0.0000     0.0820     0.1880     6.9530   119.5460   -39.4950    14.8510     5.9020     5.9300     5.9020     2.5920
 2977.0000     0.0000     0.0620     0.1900     6.9470   118.4760   -39.4370    14.8510     5.8720     5.9960     6.0260     2.5880
 2977.5000     0.0000     0.0550     0.1920     6.9410   117.4750   -39.3690    14.8510     5.8480     6.0610     6.1480     2.5880
 2978.0000     0.0000     0.0650     0.1930     6.9360   118.1670   -39.3200    14.8510     5.9380     6.1270     6.2700     2.5890
 2978.5000     0.0000     0.0730     0.1930     6.9300   118.9730   -39.9800    14.8510     6.0100     6.1930     6.3910     2.5860
 2979.0000     0.0000     0.0810     0.1940     6.9240   119.7740   -40.2230    14.8510     6.0830     6.2590     6.5130     2.5820
 2979.5000     0.0000     0.0890     0.1950     6.9180   120.5690   -40.1060    14.8510     6.1810     6.3250     6.6350     2.5830
 2980.0000     0.0000     0.0970     0.1960     6.9120   121.3510   -39.9860    14.8510     6.1300     6.4130     6.7560     2.5850
 2980.5000     0.0000     0.1040     0.1950     6.9090   122.2650   -39.8640    14.8510     6.0530     6.3390     6.8780     2.5870
