~VERSION INFORMATION
 VERS.                2.0:   CWLS LOG ASCII STANDARD - VERSION 2.0
 WRAP.                 NO:   ONE LINE PER DEPTH STEP
~WELL INFORMATION
#MNEM.UNIT      DATA TYPE    INFORMATION
#----------   ------------   ------------------------------
 STRT.F           50.0000:   START DEPTH
 STOP.F         2832.5000:   STOP DEPTH
 STEP.F            0.5000:   STEP LENGTH
 NULL.          -999.2500:   NO VALUE
 COMP.    FENIX & SCISSON:   COMPANY
 WELL. FENIX NPR 3 "AX" #87-20:   WELL
 FLD .              N P R:   FIELD
 LOC .      S20 T39N R78W:   LOCATION
 CNTY.            NATRONA:   COUNTY
 STAT.            WYOMING:   STATE
 CTRY. UNITED STATES OF AMERICA:   COUNTRY
 SRVC.           BIRDWELL:   SERVICE COMPANY
 DATE.        01-AUG-1978:   LOGDATE
 API .     49025106780000:   API NUMBER
~CURVE INFORMATION
#MNEM.UNIT       API CODE    CURVE DESCRIPTION
#----------   ------------   ------------------------------
 DEPT.F                  :   
 CALD.IN     45 280 60 00:   CALIPER FROM DENSITY LOG
 CORR.G/C3   45 356 01 00:   DENSITY CORRECTION
 GRD .GAPI   45 310 01 00:   GAMMA RAY FROM DENSITY LOG
 RHOB.G/C3   45 350 01 00:   BULK DENSITY
 SPR .MV     05 010 01 00:   SPONTANEOUS POTENTIAL
 ILD .OHMM   05 120 46 00:   DEEP INDUCTION RESISTIVITY
 SN  .OHMM   05 040 00 00:   SHORT NORMAL
~PARAMETER INFORMATION
#MNEM.UNIT          VALUE    DESCRIPTION
#----------   ------------   ------------------------------
 EKB .F         5007.0000:   Kelly bushing
 EGL .F         4997.0000:   Ground level
 EDF .F            0.0000:   Drilling floor
 EPD .F            0.0000:   Permanent datum
 TD  .F         2832.0000:   Total depth
 DATE.        01-AUG-1978:   Date logged
 CLNT.            A2DTECH:   Client Code
 SL  . 940' FSL & 200' FEL:   Surface Location
 PD  .                 GL:   Permanent Datum
 DD  .F              2825:   Depth driller
 DL  .F              2832:   Depth logger
 BLI .F              2826:   Bottom log interval
 CS1 .IN            8.625:   Casing size
 CBD1.      8.625" @ 140':   Casing driller 1
 CBL1.F               240:   Casing logger 1
 BS1 .IN            7.875:   Bit size
 DFT .            KCL/GEL:   Type fluid in hole
 DFD .                  9:   Density
 DFV .                 34:   Viscosity
 DFL .                  8:   Fluid loss
 MSS .           FLOWLINE:   Source of sample
 RMS .OHMM            1.5:   Rm
 MST .F                70:   Rm Meas. temp.
 RMF .OHMM            .70:   Rmf
 MFST.F                72:   Rmf Meas. temp.
 RMC .OHMM            2.2:   Rmc
 MCST.F                75:   Rmc Meas. temp.
 MFSS.               MEAS:   Source Rmf.
 TCS .HRS               6:   Time Circ. stopped
 LUN .               3007:   Logging unit number
 LUL .               CASP:   Logging unit location
 ENGI.            POINTER:   Recorded By
 WITN.              AMEND:   Witnessed by
 ORIG.           5" PRINT:   Origin of data
 UWI .     49025106780000:   Unique Well ID
 DICO. A2D TECHNOLOGIES, INC.:   Digitizing Company
 DAPD.                 10:   Feet Above Permanent Datum
 BSD1.F              2825:   Depth drilled with bit1
 LMF .                 KB:   Log Measured From
 DMF .                 KB:   Drilling Measured From
 TLI .F               140:   Top log interval
~OTHER INFORMATION
~A   DEPT     CALD       CORR         GRD      RHOB        SPR        ILD         SN   
# ...
 1369.5000     8.8990     0.0780    95.2980     2.5790   -23.2660     8.3010     8.7380
 1370.0000     8.9330     0.0850    99.8350     2.5820   -23.2150     8.2360     8.7260
 1370.5000     8.9670     0.0920   104.5260     2.5940   -23.1640     8.2360     8.7150
 1371.0000     8.9710     0.0990   108.3840     2.5900   -23.1140     8.2360     8.7030
 1371.5000     8.9640     0.1000   109.7550     2.5970   -23.0790     8.2360     8.7010
 1372.0000     8.9570     0.1010   111.5670     2.6040   -23.1650     8.2360     8.7010
 1372.5000     8.9580     0.1030   112.6680     2.5970   -23.2530     8.2360     8.7010
 1373.0000     8.9660     0.1050   110.4240     2.5810   -23.3400     8.2360     8.7010
 1373.5000     8.9750     0.1060   112.1520     2.5800   -23.4280     8.2360     8.7010
 1374.0000     8.9830     0.1180   113.8770     2.5800   -23.4650     8.2390     8.7010
 1374.5000     8.9920     0.1320   111.6170     2.5880   -23.4650     8.2520     8.7010
 1375.0000     8.9790     0.1390   113.0600     2.5960   -23.4650     8.2640     8.7010
 1375.5000     8.9580     0.1440   114.1530     2.6090   -23.4650     8.2770     8.7010
 1376.0000     8.9370     0.1410   116.1470     2.6200   -23.4650     8.2890     8.7010
 1376.5000     8.9160     0.1380   119.7780     2.6280   -23.4650     8.3010     8.7010
 1377.0000     8.9180     0.1410   116.2990     2.6080   -23.4650     8.3120     8.7010
 1377.5000     8.9240     0.1460   109.1900     2.5980   -23.4650     8.2990     8.7010
 1378.0000     8.9290     0.1570   109.5770     2.5980   -23.4650     8.2630     8.7010
 1378.5000     8.9350     0.1620   107.6710     2.6000   -23.4650     8.2260     8.7010
 1379.0000     8.9350     0.1620   108.1390     2.6020   -23.4650     8.1900     8.7010
 1379.5000     8.9360     0.1620   106.9630     2.6040   -23.4660     8.1610     8.7010
 1380.0000     8.9140     0.1600   109.0310     2.6010   -23.4650     8.2120     8.7010
 1380.5000     8.9150     0.1580   112.9020     2.5960   -23.4330     8.2550     8.7010
 1381.0000     8.9180     0.1560   114.1510     2.5930   -23.3250     8.2970     8.7010
 1381.5000     8.9230     0.1550   116.3380     2.5980   -23.2210     8.3120     8.7000
 1382.0000     8.9290     0.1530   118.0040     2.5960   -23.1170     8.4750     8.8630
 1382.5000     8.9340     0.1560   112.3080     2.5830   -23.0140     8.6300     9.0520
 1383.0000     8.9270     0.1690   110.9700     2.5750   -22.9030     8.7850     9.2410
 1383.5000     8.9040     0.1800   110.5100     2.5940   -23.3520     8.9400     9.4310
 1384.0000     8.8800     0.1860   111.3640     2.6010   -24.0470     9.1080     9.7100
 1384.5000     8.8570     0.1880   111.5860     2.6020   -24.1150     9.0310     9.6920
 1385.0000     8.8340     0.1890   107.2100     2.6030   -24.1730     8.9430     9.6560
 1385.5000     8.8130     0.1890   105.5610     2.6030   -24.2330     8.9840     9.6200
 1386.0000     8.7970     0.1810   106.4190     2.6250   -24.2950     9.0270     9.5850
 1386.5000     8.7810     0.1710   105.7050     2.6110   -24.3570     9.0710     9.5340
 1387.0000     8.7390     0.1700   105.5270     2.5950   -24.4030     9.1140     9.5390
 1387.5000     8.6970     0.1700   105.5470     2.5950   -24.1530     9.1570     9.5530
 1388.0000     8.6980     0.1700   101.6650     2.5980   -23.2590     9.1920     9.5660
 1388.5000     8.6980     0.1720   106.2410     2.6120   -23.4490     9.1920     9.5800
 1389.0000     8.6980     0.1650   108.5280     2.6210   -23.6110     9.1920     9.5930
 1389.5000     8.6980     0.1540   103.2720     2.6370   -23.7640     9.1920     9.6070
 1390.0000     8.6960     0.1460   103.5660     2.6430   -23.7020     9.1920     9.6220
 1390.5000     8.6880     0.1210   106.6270     2.6600   -23.3140     9.1920     9.5480
 1391.0000     8.6790     0.0950   108.3090     2.6690   -22.9230     9.0540     9.3900
 1391.5000     8.6710     0.0720   103.4300     2.6200   -23.2030     8.8510     9.2320
 1392.0000     8.6630     0.0790    99.2840     2.5640   -23.6560     8.6480     9.0740
 1392.5000     8.6580     0.1100    97.7360     2.5470   -23.5180     8.4440     8.9150
 1393.0000     8.6580     0.1140    99.8490     2.5860   -23.3500     8.3770     8.7570
 1393.5000     8.6580     0.1130   101.8440     2.6120   -23.1820     8.3560     8.6190
 1394.0000     8.6580     0.1050   105.2720     2.6190   -23.0680     8.3350     8.5970
 1394.5000     8.6580     0.0970   120.5000     2.6170   -23.1180     8.3130     8.5760
 1395.0000     8.6720     0.0870   109.4550     2.6150   -23.1720     8.2920     8.5540
 1395.5000     8.6910     0.0770   107.8630     2.6130   -23.2240     8.2710     8.5330
 1396.0000     8.7090     0.0670   109.7940     2.6060   -23.2670     8.2490     8.5120
 1396.5000     8.7280     0.0570   108.3170     2.5940   -23.3090     8.2280     8.4900
 1397.0000     8.7470     0.0570   109.1000     2.5830   -23.3620     8.2070     8.4690
 1397.5000     8.7660     0.0580   105.7090     2.5840   -23.4150     8.1860     8.4590
 1398.0000     8.7780     0.0580   102.6700     2.5890   -23.4640     8.1640     8.4500
 1398.5000     8.8090     0.0580    99.9710     2.5910   -23.4660     8.1350     8.4400
 1399.0000     8.8410     0.0590    98.0530     2.5900   -23.4650     8.1030     8.4310
 1399.5000     8.8730     0.0590    97.3960     2.5900   -23.4650     8.0720     8.4220
 1400.0000     8.8970     0.0630    97.8730     2.5890   -23.4650     8.0410     8.4120
 1400.5000     8.9140     0.0700   103.9150     2.5830   -23.4650     8.0140     8.4030
 1401.0000     8.9320     0.0820   104.6800     2.5770   -23.4650     8.0200     8.3930
 1401.5000     8.9490     0.0930   105.5360     2.5810   -23.4650     8.0250     8.3840
 1402.0000     8.9670     0.0960   103.3440     2.5960   -23.4560     8.0310     8.3740
 1402.5000     8.9680     0.0980   102.4240     2.5950   -23.3920     8.0360     8.3650
 1403.0000     8.9500     0.1020   103.6300     2.5900   -23.3270     8.0420     8.3550
 1403.5000     8.9320     0.1130   104.4360     2.5880   -23.2630     8.0480     8.3460
 1404.0000     8.9150     0.1290   107.7890     2.5960   -23.1980     8.0530     8.3360
 1404.5000     8.9150     0.1420   112.1550     2.6050   -23.1320     8.0590     8.3270
 1405.0000     8.9150     0.1460   114.3850     2.6090   -23.0760     8.0650     8.3170
 1405.5000     8.9150     0.1460   115.2790     2.6160   -23.2690     8.0700     8.3120
 1406.0000     8.9150     0.1460   113.1160     2.6090   -23.4600     8.0770     8.4370
 1406.5000     8.9150     0.1530   115.3850     2.6020   -23.5000     8.0870     8.5610
 1407.0000     8.9150     0.1590   112.7920     2.6010   -23.5380     8.0820     8.6860
 1407.5000     8.9150     0.1650   110.9100     2.6030   -23.5780     8.3170     8.8100
 1408.0000     8.9170     0.1630   110.4960     2.6270   -23.6190     8.5390     8.9340
 1408.5000     8.9320     0.1580   125.2580     2.6330   -23.6580     8.7010     9.0250
 1409.0000     8.9460     0.1470   126.9450     2.6340   -23.6210     8.6780     9.0250
 1409.5000     8.9600     0.1350   127.1050     2.6350   -23.5720     8.6590     9.0250
 1410.0000     8.9740     0.1180   124.5140     2.6270   -23.5230     8.6410     9.0250
 1410.5000     8.9700     0.1000   114.7400     2.6130   -23.4750     8.6230     9.0250
 1411.0000     8.9640     0.0930   114.7290     2.6040   -23.4260     8.6040     9.0250
 1411.5000     8.9590     0.0920   115.4290     2.5960   -23.3770     8.5860     9.0250
 1412.0000     8.9530     0.0980   115.2240     2.5790   -23.3280     8.5680     9.0250
 1412.5000     8.9470     0.1040   109.4610     2.5730   -23.2780     8.5500     9.0250
 1413.0000     8.9420     0.1040   109.5200     2.5870   -23.2670     8.5310     9.0250
 1413.5000     8.9360     0.1040   115.9200     2.5850   -23.2420     8.5130     8.9790
 1414.0000     8.9290     0.1030   116.0950     2.5840   -23.1990     8.4950     8.8960
 1414.5000     8.9210     0.1030   110.3620     2.6030   -23.1560     8.4760     8.8140
