~VERSION INFORMATION
 VERS.                2.0:   CWLS LOG ASCII STANDARD - VERSION 2.0
 WRAP.                 NO:   ONE LINE PER DEPTH STEP
~WELL INFORMATION
#MNEM.UNIT      DATA TYPE    INFORMATION
#----------   ------------   ------------------------------
 STRT.F          199.5000:   START DEPTH
 STOP.F         2983.0000:   STOP DEPTH
 STEP.F            0.5000:   STEP LENGTH
 NULL.          -999.2500:   NO VALUE
 COMP.    FENIX & SCISSON:   COMPANY
 WELL. FENIX (UE-49) "AX" #52-29:   WELL
 FLD . U.S. NAVAL PETROLEUM RESERVE #3:   FIELD
 LOC .      S29 T39N R78W:   LOCATION
 CNTY.            NATRONA:   COUNTY
 STAT.            WYOMING:   STATE
 CTRY. UNITED STATES OF AMERICA:   COUNTRY
 SRVC.           BIRDWELL:   SERVICE COMPANY
 DATE.        07-AUG-1977:   LOGDATE
 API .     49025104090000:   API NUMBER
~CURVE INFORMATION
#MNEM.UNIT       API CODE    CURVE DESCRIPTION
#----------   ------------   ------------------------------
 DEPT.F                  :   
 GRD .GAPI   45 310 01 00:   GAMMA RAY FROM DENSITY LOG
 CALD.IN     45 280 60 00:   CALIPER FROM DENSITY LOG
 DEN .G/C3   45 350 01 00:   BULK DENSITY
 DCOR.G/C3   45 356 01 00:   DENSITY CORRECTION
 SN  .OHMM   05 040 16 00:   SHORT NORMAL 16"
 ILD .OHMM   05 120 46 00:   INDUCTION LOG DEEP RESISTIVITY
~PARAMETER INFORMATION
#MNEM.UNIT          VALUE    DESCRIPTION
#----------   ------------   ------------------------------
 EKB .F         4995.0000:   Kelly bushing
 EGL .F         4985.0000:   Ground level
 EDF .F            0.0000:   Drilling floor
 TD  .F         2973.0000:   Total depth
 DATE.         7-AUG-1977:   Date logged
 CLNT.            A2DTECH:   Client Code
 SL  . 1400' FNL & 2380' FEL:   Surface Location
 PD  .                 GL:   Permanent Datum
 EPD .F              4985:   Elevation Permanent Datum
 LMF .                 KB:   Log Measured From
 DMF .                 KB:   Drilling Measured From
 DAPD.F                10:   Feet Above Permanent Datum
 DD  .F              2972:   Depth driller
 DL  .F              2973:   Depth logger
 BLI .F              2968:   Bottom log interval
 TLI .F               216:   Top log interval
 CS1 .IN            8.625:   Casing size
 CBD1.      8.625" @ 216':   Casing driller 1
 CBL1.F               216:   Casing logger 1
 BS1 .IN            7.875:   Bit size
 BSD1.F              2972:   Depth drilled with bit1
 DFT .            GEL-KCL:   Type fluid in hole
 DFD .                8.9:   Density
 DFV .                 33:   Viscosity
 DFL .                  9:   Fluid loss
 MSS .            MUD PIT:   Source of sample
 RMS .OHMM           0.26:   Rm
 MST .F                73:   Rm Meas. temp.
 RMF .OHMM           0.26:   Rmf
 MFST.F                72:   Rmf Meas. temp.
 RMC .OHMM           0.96:   Rmc
 MCST.F                72:   Rmc Meas. temp.
 MFSS.              PRESS:   Source Rmf.
 RMB .OHMM           0.14:   Rm. at BHT
 BHT .F               130:   BHT.
 TCS .HRS               5:   Time Circ. stopped
 MRT .F               130:   Maximum recorded temp.
 LUN .               2958:   Logging unit number
 LUL .             CASPER:   Logging unit location
 ENGI.                LAW:   Recorded By
 WITN.             RHODES:   Witnessed by
 ORIG.           5" PRINT:   Origin of data
 UWI .     49025104090000:   Unique Well ID
 DICO. A2D TECHNOLOGIES, INC.:   Digitizing Company
~OTHER INFORMATION
~A   DEPT       GRD      CALD        DEN       DCOR         SN        ILD   
# ...
  407.5000    61.1810     9.3660     2.5050     0.0190     9.6960    10.2180
  408.0000    58.4900     9.3630     2.5060     0.0190     9.4330    10.3070
  408.5000    61.3140     9.3590     2.5070     0.0150     9.3940    10.4340
  409.0000    59.7220     9.3560     2.5040     0.0130     9.3530    10.3880
  409.5000    58.5180     9.3520     2.4970     0.0130     9.3120    10.3300
  410.0000    62.7610     9.3510     2.4910     0.0140     9.2620    10.3080
  410.5000    65.1440     9.3610     2.4960     0.0150     9.3020    10.2850
  411.0000    62.3370     9.3700     2.5010     0.0150     9.3540    10.2630
  411.5000    57.0230     9.3790     2.5070     0.0130     9.4060    10.2440
  412.0000    54.3720     9.3890     2.5060     0.0110     9.4580    10.5300
  412.5000    58.3530     9.3870     2.5030     0.0160     9.5100    10.7250
  413.0000    61.3650     9.3850     2.5050     0.0170     9.6960    10.4340
  413.5000    62.0520     9.3830     2.5120     0.0140     9.9660    10.8500
  414.0000    56.3220     9.3810     2.4980     0.0130     9.4330    10.9920
  414.5000    54.1300     9.3780     2.4940     0.0140     9.7850    11.1060
  415.0000    56.6010     9.3760     2.4910     0.0160    10.0580    11.2200
  415.5000    58.8040     9.3740     2.4970     0.0220    10.0000    11.3310
  416.0000    56.6560     9.3720     2.5080     0.0280    10.0580    11.3080
  416.5000    57.7800     9.3700     2.5200     0.0230    10.0580    11.2850
  417.0000    54.7770     9.3700     2.5310     0.0160    10.0580    11.2630
  417.5000    54.8590     9.3700     2.5180     0.0100    10.0580    11.2400
  418.0000    56.4810     9.3700     2.5020     0.0140    10.0580    11.2280
  418.5000    55.9030     9.3700     2.5080     0.0170    10.0580    11.4980
  419.0000    57.7310     9.3680     2.5160     0.0230    10.0580    11.6850
  419.5000    54.1320     9.3640     2.5230     0.0260    10.0580    11.8620
  420.0000    56.5580     9.3610     2.5300     0.0290    10.0580    11.8850
  420.5000    58.0860     9.3580     2.5280     0.0280    10.0780    11.9070
  421.0000    56.7930     9.3550     2.5290     0.0300    10.1080    11.9290
  421.5000    56.3560     9.3510     2.5350     0.0310    10.1380    11.9510
  422.0000    55.9460     9.3550     2.5510     0.0340    10.1680    11.9700
  422.5000    57.4090     9.3640     2.5420     0.0400    10.1980    11.8840
  423.0000    58.6910     9.3730     2.5540     0.0360    10.2280    11.8020
  423.5000    58.9690     9.3820     2.5320     0.0460    10.2580    11.7210
  424.0000    54.1030     9.3840     2.5290     0.0440    10.2880    11.6470
  424.5000    55.9420     9.3560     2.5240     0.0320    10.3180    11.7650
  425.0000    60.2010     9.3290     2.5250     0.0100    10.3490    11.8620
  425.5000    58.3660     9.3010     2.5130     0.0100    10.3790    11.9620
  426.0000    61.1560     9.2920     2.5020     0.0160    10.4090    12.0720
  426.5000    59.6690     9.2950     2.5030     0.0150    10.4390    12.1930
  427.0000    58.2660     9.2970     2.5050     0.0180    10.4690    12.2840
  427.5000    55.4780     9.3000     2.5050     0.0180    10.4990    12.3850
  428.0000    53.9080     9.3020     2.5090     0.0180    10.5290    12.4850
  428.5000    57.8090     9.3050     2.5050     0.0170    10.5590    12.6620
  429.0000    60.3720     9.3070     2.5030     0.0210    10.5890    12.9080
  429.5000    56.1430     9.3100     2.5110     0.0270    10.6270    13.1200
  430.0000    54.0510     9.3060     2.5180     0.0290    10.6100    13.1200
  430.5000    56.3490     9.2990     2.5150     0.0240    10.5800    13.1200
  431.0000    55.8350     9.2920     2.5090     0.0200    10.5490    13.1200
  431.5000    56.9710     9.2850     2.5090     0.0180    10.5300    13.1960
  432.0000    54.7440     9.2780     2.5040     0.0200    10.6250    13.2980
  432.5000    54.7200     9.2710     2.4960     0.0260    10.6150    13.3630
  433.0000    54.0450     9.2720     2.4990     0.0310    10.5990    13.2990
  433.5000    55.8530     9.2740     2.5010     0.0430    10.5840    13.2530
  434.0000    58.2990     9.2750     2.5030     0.0610    10.5680    13.2060
  434.5000    57.5130     9.2770     2.5080     0.0830    10.5520    13.1590
  435.0000    56.4950     9.2780     2.5210     0.1020    10.5370    13.1200
  435.5000    58.3520     9.2800     2.5370     0.0830    10.5210    13.2510
  436.0000    57.5420     9.2810     2.5320     0.0610    10.5060    13.3630
  436.5000    53.0630     9.2830     2.5240     0.0370    10.4900    12.3050
  437.0000    52.0250     9.2840     2.5150     0.0210    10.4740    12.6480
  437.5000    59.0310     9.2860     2.5100     0.0250    10.4590    12.1930
  438.0000    57.6460     9.2870     2.5160     0.0240    10.4430    12.5330
  438.5000    54.4430     9.2890     2.5130     0.0180    10.4180    12.2480
  439.0000    55.1570     9.2900     2.5050     0.0200    10.3780    11.9710
  439.5000    51.9160     9.3080     2.5040     0.0220    10.3390    12.0220
  440.0000    51.5040     9.3270     2.5110     0.0210    10.2990    12.0580
  440.5000    53.6910     9.3250     2.5020     0.0220    10.2600    12.0940
  441.0000    55.0650     9.3190     2.5060     0.0220    10.2200    12.1300
  441.5000    56.5230     9.3130     2.5090     0.0180    10.1810    12.1650
  442.0000    55.0400     9.3080     2.5010     0.0130    10.1510    12.1930
  442.5000    57.9730     9.3020     2.4980     0.0150    10.1060    11.9650
  443.0000    57.6070     9.2960     2.5000     0.0120    10.0530    11.8420
  443.5000    60.1140     9.2910     2.5010     0.0070    10.0000    11.7970
  444.0000    56.8140     9.3010     2.4970     0.0030     9.9470    11.7540
  444.5000    52.8000     9.3110     2.4910     0.0030     9.8940    11.4730
  445.0000    54.8700     9.3210     2.4900     0.0000     9.8150    11.2860
  445.5000    57.2550     9.3290     2.4910    -0.0030     9.7220    11.2280
  446.0000    59.9970     9.3160     2.4790     0.0030     9.6300    11.3310
  446.5000    55.5050     9.3400     2.4790     0.0110     9.5370    11.1630
  447.0000    57.2450     9.3640     2.4960     0.0130     9.4330    11.0240
  447.5000    59.4960     9.3870     2.5130     0.0130     9.4530    11.1460
  448.0000    60.1440     9.3890     2.5170     0.0160     9.4760    11.2280
  448.5000    57.4910     9.3890     2.5150     0.0170     9.4990    10.6660
  449.0000    55.1810     9.3890     2.5100     0.0170     9.5200    10.4860
  449.5000    57.4490     9.3890     2.5050     0.0180     9.4670    10.4230
  450.0000    61.0830     9.3890     2.5050     0.0190     9.4170    10.3600
  450.5000    63.7960     9.3890     2.5070     0.0150     9.3680    10.2960
  451.0000    62.3010     9.3890     2.5000     0.0190     9.3190    10.2330
  451.5000    57.8630     9.3890     2.5050     0.0190     9.2700    10.1690
  452.0000    60.9310     9.3890     2.5110     0.0170     9.2210     9.9500
  452.5000    62.2430     9.3890     2.5140     0.0190     9.1680     9.6840
  453.0000    57.2280     9.3890     2.5110     0.0250     9.0810     9.5750
  453.5000    57.5840     9.3890     2.5080     0.0250     8.9940     9.4670
  454.0000    55.8930     9.3890     2.5100     0.0320     8.9070     9.3580
  454.5000    56.4180     9.3880     2.5230     0.0370     8.8470     9.2620
  455.0000    54.8240     9.3870     2.5300     0.0280     8.9290     9.2830
  455.5000    58.1010     9.3850     2.5280     0.0200     8.8590     9.3050
  456.0000    55.7550     9.3840     2.5200     0.0120     8.7830     9.3280
  456.5000    57.4820     9.3820     2.5120     0.0080     8.6860     9.3470
  457.0000    55.8240     9.3810     2.5070     0.0130     8.7800     9.3840
  457.5000    56.4530     9.3800     2.5140     0.0180     8.9100     9.4230
  458.0000    60.7520     9.3780     2.5200     0.0270     9.0390     9.6720
  458.5000    58.1630     9.3770     2.5270     0.0280     9.1770    10.1510
  459.0000    57.6040     9.3750     2.5290     0.0270     9.1770     9.8330
