~VERSION INFORMATION
 VERS.                2.0:   CWLS LOG ASCII STANDARD - VERSION 2.0
 WRAP.                 NO:   ONE LINE PER DEPTH STEP
~WELL INFORMATION
#MNEM.UNIT      DATA TYPE    INFORMATION
#----------   ------------   ------------------------------
 STRT.F            9.5000:   START DEPTH
 STOP.F         3154.0000:   STOP DEPTH
 STEP.F            0.5000:   STEP LENGTH
 NULL.          -999.2500:   NO VALUE
 COMP. LAWRENCE ALISON AND ASSOCIATES:   COMPANY
 WELL. LAWRENCE "X" #86-3:   WELL
 FLD .          N.P.R. #3:   FIELD
 LOC .       S3 T38N R78W:   LOCATION
 CNTY.            NATRONA:   COUNTY
 STAT.            WYOMING:   STATE
 CTRY. UNITED STATES OF AMERICA:   COUNTRY
 SRVC.       DRESSER ALAS:   SERVICE COMPANY
 DATE.        13-JUN-1986:   LOGDATE
 API .     49025110920000:   API NUMBER
~CURVE INFORMATION
#MNEM.UNIT       API CODE    CURVE DESCRIPTION
#----------   ------------   ------------------------------
 DEPT.F                  :   
 CALD.IN     45 280 60 00:   CALIPER FROM DENSITY LOG
 RHOB.G/C3   45 350 01 00:   BULK DENSITY
 CORR.G/C3   45 356 01 00:   DENSITY CORRECTION
 CNC .DEC    42 890 03 00:   NEUTRON PORISITY LIMESTONE
 SPR .MV     07 010 01 00:   SPONTANEOUS POTENTIAL
 GRR .GAPI   07 310 01 00:   GAMMA RAY FROM RESISTIVITY
 RFOC.OHMM   07 220 04 00:   RESISTIVITY FOCUSED LOG RES.
 ILD .OHMM   07 120 46 00:   DEEP INDUCTION RESISTIVITY
 ILM .OHMM   07 120 44 00:   INDUCTION LOG MEDIUM RESISTIVITY
 TENR.LBS    07 635 01 00:   TENSION FROM RESISTIVITY
~PARAMETER INFORMATION
#MNEM.UNIT          VALUE    DESCRIPTION
#----------   ------------   ------------------------------
 EKB .F         5153.0000:   Kelly bushing
 EGL .F         5142.0000:   Ground level
 EDF .F         5151.0000:   Drilling floor
 TD  .F         3151.0000:   Total depth
 DATE.        13-JUN-1986:   Date logged
 CLNT.            A2DTECH:   Client Code
 SL  . 1450' FSL & 144' FEL:   Surface Location
 PD  .                 GL:   Permanent Datum
 EPD .F              5142:   Elevation Permanent Datum
 LMF .                 KB:   Log Measured From
 DMF .                 KB:   Drilling Measured From
 DAPD.F                11:   Feet Above Permanent Datum
 DD  .F              3151:   Depth driller
 DL  .F              3151:   Depth logger
 BLI .F              3146:   Bottom log interval
 TLI .F                11:   Top log interval
 CS1 .IN            8.625:   Casing size
 CBD1.      8.625" @ 584':   Casing driller 1
 CBL1.F               592:   Casing logger 1
 BS1 .IN            7.875:   Bit size
 BSD1.F              3151:   Depth drilled with bit1
 DFT .            KCL-GEL:   Type fluid in hole
 DFD .                8.8:   Density
 DFV .                 35:   Viscosity
 DFPH.                8.5:   pH
 DFL .               15.5:   Fluid loss
 MSS .           FLOWLINE:   Source of sample
 RMS .OHMM           0.49:   Rm
 MST .F                80:   Rm Meas. temp.
 RMF .OHMM           0.38:   Rmf
 MFST.F                80:   Rmf Meas. temp.
 RMC .OHMM           0.61:   Rmc
 MCST.F                80:   Rmc Meas. temp.
 MFSS.               MEAS:   Source Rmf.
 MCSS.               CALC:   Source Rmc.
 RMB .OHMM           0.37:   Rm. at BHT
 BHT .F               112:   BHT.
 TCS .HRS            0.37:   Time Circ. stopped
 MRT .F               112:   Maximum recorded temp.
 LUN .            HL-6274:   Logging unit number
 LUL .           GILLETTE:   Logging unit location
 WITN.             STRONG:   Witnessed by
 ORIG.           5" PRINT:   Origin of data
 UWI .     49025110920000:   Unique Well ID
 DICO. A2D TECHNOLOGIES, INC.:   Digitizing Company
~OTHER INFORMATION
~A    DEPT    CALD       RHOB       CORR        CNC        SPR        GRR       RFOC        ILD        ILM       TENR   
# ...
 1450.0000  -999.2500  -999.2500  -999.2500  -999.2500  -110.0923    93.2339     7.8995     7.8308     6.6473   -74.0221
 1450.5000  -999.2500  -999.2500  -999.2500  -999.2500  -110.2954    93.2288     7.8262     7.6909     6.5248   -63.8251
 1451.0000  -999.2500  -999.2500  -999.2500  -999.2500  -110.4993    94.8384     7.8255     7.6217     6.4641   -63.6781
 1451.5000  -999.2500  -999.2500  -999.2500  -999.2500  -110.5026    96.0443     7.2670     7.6210     6.3450   -63.5313
 1452.0000  -999.2500  -999.2500  -999.2500  -999.2500  -110.3025    96.6502     7.1332     7.3519     6.3445   -63.3843
 1452.5000  -999.2500  -999.2500  -999.2500  -999.2500  -109.9013    95.2269     7.0670     7.4249     6.3440   -63.2374
 1453.0000  -999.2500  -999.2500  -999.2500  -999.2500  -109.4998    95.2219     7.0664     7.4245     6.3437   -93.2392
 1453.5000  -999.2500  -999.2500  -999.2500  -999.2500  -109.3000    95.2169     7.1315     7.4240     6.4616   -93.0920
 1454.0000  -999.2500  -999.2500  -999.2500  -999.2500  -109.7058    96.0192     7.0653     7.4232     6.6430   -92.9447
 1454.5000  -999.2500  -999.2500  -999.2500  -999.2500  -109.9097    95.2068     7.1303     7.6313     6.6424   -92.7976
 1455.0000  -999.2500  -999.2500  -999.2500  -999.2500  -110.1136    94.3944     7.5365     7.6311     6.6420   -92.6504
 1455.5000  -999.2500  -999.2500  -999.2500  -999.2500  -110.3176    93.9857     7.6058     7.7016     6.5804   -92.5033
 1456.0000  -999.2500  -999.2500  -999.2500  -999.2500  -110.9252    95.9971     7.5352     7.8235     6.5796   -92.3561
 1456.5000  -999.2500  -999.2500  -999.2500  -999.2500  -110.7246    95.9930     7.6046     7.8231     6.5793   -92.2088
 1457.0000  -999.2500  -999.2500  -999.2500  -999.2500  -110.3238    95.5843     7.5339     7.8223     6.5786   -92.0617
 1457.5000  -999.2500  -999.2500  -999.2500  -999.2500  -110.5259    94.7699     7.6032     7.8217     6.5780   -71.8173
 1458.0000  -999.2500  -999.2500  -999.2500  -999.2500  -110.5272    92.5500     7.3266     7.8211     6.5775   -71.6408
 1458.5000  -999.2500  -999.2500  -999.2500  -999.2500  -109.9252    92.5470     7.4627     7.7690     6.5769   -71.5233
 1459.0000  -999.2500  -999.2500  -999.2500  -999.2500  -109.9289    95.1605     7.3934     7.7207     6.5764   -71.3763
 1459.5000  -999.2500  -999.2500  -999.2500  -999.2500  -110.3347    98.7889     7.3928     7.6726     6.5759   -71.2587
 1460.0000  -999.2500  -999.2500  -999.2500  -999.2500  -110.3368    99.5913     7.3242     7.6248     6.5753   -71.0529
 1460.5000  -999.2500  -999.2500  -999.2500  -999.2500  -110.1371    98.3752     7.2792     7.7665     6.5750   -60.8580
 1461.0000  -999.2500  -999.2500  -999.2500  -999.2500  -109.7354    96.3515     7.5290     7.7660     6.5742   -60.7112
 1461.5000  -999.2500  -999.2500  -999.2500  -999.2500  -109.7371    98.3651     7.5983     7.8167     6.5737   -60.5643
 1462.0000  -999.2500  -999.2500  -999.2500  -999.2500  -109.9396    98.7639     7.5976     7.8162     6.5733   -60.4175
 1462.5000  -999.2500  -999.2500  -999.2500  -999.2500  -110.1432    99.5664     7.6676     7.8155     6.5727   -60.2706
 1463.0000  -999.2500  -999.2500  -999.2500  -999.2500  -110.1453    98.7539     7.6669     7.8149     6.5721   -70.1419
 1463.5000  -999.2500  -999.2500  -999.2500  -999.2500  -109.9478   100.7666     7.5958     7.8142     6.5715   -70.0243
 1464.0000  -999.2500  -999.2500  -999.2500  -999.2500  -110.3530   102.3766     7.5253     7.8135     6.5709   -69.8742
 1464.5000  -999.2500  -999.2500  -999.2500  -999.2500  -110.3534   100.3529     7.3868     7.6898     6.6933   -69.7240
 1465.0000  -999.2500  -999.2500  -999.2500  -999.2500  -110.3555    98.3291     7.5239     7.7608     6.8176   -69.5738
 1465.5000  -999.2500  -999.2500  -999.2500  -999.2500  -109.9547    98.3241     7.6637     7.9051     6.8805   -69.4236
 1466.0000  -999.2500  -999.2500  -999.2500  -999.2500  -109.7549    98.3191     7.6631     7.9043     6.8799   -69.2734
 1466.5000  -999.2500  -999.2500  -999.2500  -999.2500  -109.7570    97.9104     7.8054     7.9771     6.8796   -69.1233
 1467.0000  -999.2500  -999.2500  -999.2500  -999.2500  -109.7591    97.9054     7.7330     8.0232     6.7529   -68.9731
 1467.5000  -999.2500  -999.2500  -999.2500  -999.2500  -109.9630    95.0739     7.6612     7.9508     6.6900   -68.8228
 1468.0000  -999.2500  -999.2500  -999.2500  -999.2500  -110.5723    94.6651     7.5202     7.8792     6.6279   -68.6726
 1468.5000  -999.2500  -999.2500  -999.2500  -999.2500  -110.1710    87.7957     7.5895     7.8785     6.6273   -68.5224
 1469.0000  -999.2500  -999.2500  -999.2500  -999.2500  -110.1731    88.5981     7.5888     7.9491     6.6885   -68.3723
 1469.5000  -999.2500  -999.2500  -999.2500  -999.2500  -110.3771    88.1892     7.5882     7.8998     6.8127   -68.2221
 1470.0000  -999.2500  -999.2500  -999.2500  -999.2500  -110.3792    86.9727     7.5178     7.8994     6.8122   -87.1869
 1470.5000  -999.2500  -999.2500  -999.2500  -999.2500  -110.1794    86.1600     7.8003     8.0459     6.9389   -57.8922
 1471.0000  -999.2500  -999.2500  -999.2500  -999.2500  -109.9792    85.3473     8.0190     8.1203     6.9382   -67.7913
 1471.5000  -999.2500  -999.2500  -999.2500  -999.2500  -109.9817    86.1488     8.0183     8.2712     6.9377   -67.6444
 1472.0000  -999.2500  -999.2500  -999.2500  -999.2500  -109.7819    86.5474     8.0921     8.2706     6.9373   -67.4975
 1472.5000  -999.2500  -999.2500  -999.2500  -999.2500  -109.5820    86.9461     8.0170     8.2348     6.9366   -77.3962
 1473.0000  -999.2500  -999.2500  -999.2500  -999.2500  -109.3826    89.7678     7.7970     8.0877     6.8088   -77.2493
 1473.5000  -999.2500  -999.2500  -999.2500  -999.2500  -109.3847    93.3971     7.6536     7.8723     6.6219   -67.0568
 1474.0000  -999.2500  -999.2500  -999.2500  -999.2500  -108.9811    95.0084     7.8681     7.8718     6.6215   -66.9100
 1474.5000  -999.2500  -999.2500  -999.2500  -999.2500  -109.1851    90.5602     7.5819     7.8007     6.5599   -86.8241
 1475.0000  -999.2500  -999.2500  -999.2500  -999.2500  -109.3891    87.7282     7.5813     7.6614     6.4391   -66.5868
 1475.5000  -999.2500  -999.2500  -999.2500  -999.2500  -109.7969    88.9347     7.3734     7.6608     6.4386   -66.4400
 1476.0000  -999.2500  -999.2500  -999.2500  -999.2500  -109.5971    89.7373     7.1712     7.5918     6.3788   -66.2932
 1476.5000  -999.2500  -999.2500  -999.2500  -999.2500  -109.8011    97.4054     7.1706     7.5911     6.3782   -76.1911
 1477.0000  -999.2500  -999.2500  -999.2500  -999.2500  -110.0051    99.6243     7.3269     7.6592     6.4371   -65.9995
 1477.5000  -999.2500  -999.2500  -999.2500  -999.2500  -110.2091    99.6223     7.3894     7.6587     6.4367   -65.8526
 1478.0000  -999.2500  -999.2500  -999.2500  -999.2500  -109.4035    92.5439     7.4627     7.7272     6.4961   -55.6613
 1478.5000  -999.2500  -999.2500  -999.2500  -999.2500  -110.0114    87.6925     7.4621     7.8657     6.6162   -55.5145
 1479.0000  -999.2500  -999.2500  -999.2500  -999.2500  -109.8115    86.4747     7.4618     7.8654     6.6160   -55.3677
 1479.5000  -999.2500  -999.2500  -999.2500  -999.2500  -110.0156    87.6802     7.6461     7.8648     6.6154   -55.2209
 1480.0000  -999.2500  -999.2500  -999.2500  -999.2500  -109.2103    91.1129     7.6454     7.8644     6.6151   -55.0742
 1480.5000  -999.2500  -999.2500  -999.2500  -999.2500  -109.4144    98.5759     7.7158     7.9585     6.7378   -64.9715
 1481.0000  -999.2500  -999.2500  -999.2500  -999.2500  -109.4164    98.5709     7.6441     7.8852     6.7998   -74.8685
 1481.5000  -999.2500  -999.2500  -999.2500  -999.2500  -109.4185    95.3347     7.6434     7.8935     6.8626   -64.6778
 1482.0000  -999.2500  -999.2500  -999.2500  -999.2500  -109.6226    92.5024     7.6428     7.9018     6.9257   -54.4873
 1482.5000  -999.2500  -999.2500  -999.2500  -999.2500  -109.8266    92.0935     7.7131     7.9101     6.8614   -84.4714
 1483.0000  -999.2500  -999.2500  -999.2500  -999.2500  -109.8287    93.7040     7.6416     7.9184     6.8608   -74.2515
