~VERSION INFORMATION
 VERS.                2.0:   CWLS LOG ASCII STANDARD - VERSION 2.0
 WRAP.                 NO:   ONE LINE PER DEPTH STEP
~WELL INFORMATION
#MNEM.UNIT      DATA TYPE    INFORMATION
#----------   ------------   ------------------------------
 STRT.F          240.0000:   START DEPTH
 STOP.F         2876.0000:   STOP DEPTH
 STEP.F            0.5000:   STEP LENGTH
 NULL.          -999.2500:   NO VALUE
 COMP.    FENIX & SCISSON:   COMPANY
 WELL. FENIX & SCISSON "A" #23-21:   WELL
 FLD .               NPR3:   FIELD
 LOC .      S21 T39N R78W:   LOCATION
 CNTY.            NATRONA:   COUNTY
 STAT.            WYOMING:   STATE
 CTRY. UNITED STATES OF AMERICA:   COUNTRY
 SRVC.              WELEX:   SERVICE COMPANY
 DATE.        05-MAR-1977:   LOGDATE
 API .     49025103030000:   API NUMBER
~CURVE INFORMATION
#MNEM.UNIT       API CODE    CURVE DESCRIPTION
#----------   ------------   ------------------------------
 DEPT.F                  :   
 GRD .GAPI   45 310 01 00:   GAMMA RAY FROM DENSITY LOG
 CALD.IN     45 280 60 00:   CALIPER FROM DENSITY LOG
 CORR.G/C3   45 356 01 00:   DENSITY CORRECTION
 RHOB.G/C3   45 350 01 00:   BULK DENSITY
 SPR .MV     07 010 01 00:   SPONTANEOUS POTENTIAL
 ILD .OHMM   07 120 46 00:   DEEP INDUCTION RESISTIVITY
 ILM .OHMM   07 120 44 00:   INDUCTION LOG MEDIUM RESISTIVITY
 SGRD.OHMM   07 220 05 00:   SHALLOW SHORT GUARD RESISTIVITY
~PARAMETER INFORMATION
#MNEM.UNIT          VALUE    DESCRIPTION
#----------   ------------   ------------------------------
 EKB .F         4986.0000:   Kelly bushing
 EGL .F         4976.0000:   Ground level
 TD  .F         2885.0000:   Total depth
 CLNT.            A2DTECH:   Client Code
 SL  . 990' FWL & 1650' FNL:   Surface Location
 DATE.        05-MAR-1977:   Date Logged [DD-MMM-YYYY]
 DD  .F              2885:   Depth driller
 DL  .F              2882:   Depth logger
 BLI .F              2876:   Bottom log interval
 TLI .F               238:   Top log interval
 CS1 .IN            8.625:   Casing size
 CBD1.      8.625" @ 251':   Casing driller 1
 CBL1.IN              251:   Casing logger 1
 BS1 .IN            7.875:   Bit size
 BSD1.F              2885:   Depth drilled with bit1
 DFT .                KCL:   Type fluid in hole
 DFD .                9.5:   Density
 TCS .HRS               3:   Time Circ. stopped
 MRT .F                78:   Maximum recorded temp.
 ENGI.          D. LAWSON:   Recorded By
 WITN.            K. JAPP:   Witnessed by
 ORIG.         2.5" PRINT:   Origin of data
 UWI .     49025103030000:   Unique Well ID
 DICO. A2D TECHNOLOGIES,INC.:   Digitizing Company
 PD  .                 GL:   Permanent Datum
 EPD .               4976:   Elevation Permanent Datum
 LMF .                 KB:   Log Measured From
 DMF .                 KB:   Drilling Measured From
 DAPD.                 10:   Feet Above Permanent Datum
 DFL .                8.8:   Fluid loss
 MSS .           FLOWLINE:   Source of sample
 RMS .OHMM            .40:   Rm
 MST .F                58:   Rm Meas. temp.
 RMF .OHMM            .37:   Rmf
 MFST.F                58:   Rmf Meas. temp.
 MFSS.OHMM            .67:   Source Rmf.
 MCST.F                58:   Rmc Meas. temp.
 MCSS.               MEAS:   Source Rmc.
 RMB .OHMM            .30:   Rm. at BHT
 BHT .F                78:   BHT.
~OTHER INFORMATION
~A   DEPT       GRD        CALD      CORR        RHOB      SPR        ILD        ILM       SGRD   
# ...
 1981.5000   161.6441     8.4303     0.0052     2.4346   -51.5882     5.6049     8.3179     9.9301
 1982.0000   164.8521     8.4306     0.0112     2.4361   -51.5853     5.6033     8.4463    10.1951
 1982.5000   167.6904     8.4309     0.0169     2.4481   -51.5823     5.6018     8.5481    10.9629
 1983.0000   170.7341     8.4312     0.0202     2.4585   -51.5793     5.6002     8.2889    10.5640
 1983.5000   172.5023     8.4315     0.0260     2.4526   -51.5763     5.5220     7.9644     9.5898
 1984.0000   172.7919     8.4318     0.0290     2.4421   -51.5740     5.5205     7.8662     8.7618
 1984.5000   169.7307     8.4321     0.0290     2.4437   -51.5710     5.5190     7.9857     9.2527
 1985.0000   167.8445     8.4324     0.0290     2.4526   -51.5680     5.5174     8.0839    10.3622
 1985.5000   165.4591     8.4327     0.0321     2.4645   -51.5651     5.5925     8.1950    10.1185
 1986.0000   163.1556     8.4330     0.0351     2.4735   -51.5621     5.5909     8.3076     9.0201
 1986.5000   161.2732     8.4333     0.0321     2.4752   -51.5592     5.6670     8.4323    10.4350
 1987.0000   160.4428     8.4335     0.0287     2.4556   -51.5562     5.6654     8.6561    11.0948
 1987.5000   160.7405     8.4338     0.0227     2.4467   -51.5533     5.7425     8.5169    11.0733
 1988.0000   161.3821     8.4341     0.0172     2.4452   -51.5503     5.7409     8.0683    10.7350
 1988.5000   163.2009     8.4344     0.0173     2.4468   -51.5473     5.8190     7.9655    10.1729
 1989.0000   166.0227     8.4347     0.0173     2.4512   -51.5444     5.8174     8.3091     9.7587
 1989.5000   168.6706     8.4350     0.0173     2.4542   -51.5414     5.8965     8.6585     9.8444
 1990.0000   171.6138     8.4354     0.0204     2.4542   -51.5385     5.8949     8.9073    10.8089
 1990.5000   172.4979     8.4356     0.0240     2.4498   -51.5355     5.8933     9.2649    11.4351
 1991.0000   170.4495     8.4359     0.0294     2.4438   -51.5326     5.8917     9.2713    12.2329
 1991.5000   166.9349     8.4362     0.0324     2.4349   -51.5296     5.8900     9.3909    12.7165
 1992.0000   163.4202     8.4365     0.0354     2.4260   -51.5266     5.8884     9.2611    12.5118
 1992.5000   161.3718     8.4368     0.0348     2.4200   -51.5237     5.8062     9.2534    11.9904
 1993.0000   161.3762     8.4077     0.0288     2.4081   -51.5207     5.5694     8.9952    10.8944
 1993.5000   160.7941     8.4080     0.0251     2.3992   -51.5177     5.4164     8.7501    10.2719
 1994.0000   159.0390     8.4083     0.0123     2.4126   -51.5148     5.2676     8.1625     8.2223
 1994.5000   156.4040     8.4086     0.0049     2.4380   -51.5119     5.1940     7.2896     6.8958
 1995.0000   162.2735     8.4089     0.0027     2.4455   -51.6322     5.0514     6.2898     6.8150
 1995.5000   165.2105     8.4092     0.0027     2.4485   -51.8018     5.0500     7.3282     8.6528
 1996.0000   164.3351     8.4389     0.0036     2.4500   -51.7988     4.9794     7.8460    10.1963
 1996.5000   162.5800     8.4392     0.0058     2.4515   -51.7958     4.9781     8.1701    10.8993
 1997.0000   160.8248     8.4395     0.0058     2.4530   -51.7929     4.9085     8.1668    10.8924
 1997.5000   157.8967     8.4398     0.0058     2.4530   -52.0864     4.7083     7.9439    10.3048
 1998.0000   155.8483     8.4401     0.0050     2.4545   -52.0829     4.6426     7.7244     9.7412
 1998.5000   155.2655     8.4403     0.0029     2.4560   -52.0799     4.4532     7.1119     8.7197
 1999.0000   155.1701     8.4406     0.0039     2.4590   -52.0769     4.3910     6.5458     7.5946
 1999.5000   155.2749     8.4409     0.0070     2.4694   -52.0740     4.2704     6.1111     6.6154
 2000.0000   155.5726     8.4412     0.0130     2.4844   -52.0710     4.2108     6.1951     7.5964
 2000.5000   154.9905     8.4415     0.0180     2.4948   -52.0680     4.2101     6.2802     8.6015
 2001.0000   154.9949     8.4418     0.0180     2.4874   -52.0651     4.2678     6.2794     8.7194
 2001.5000   161.7441     8.4421     0.0140     2.4695   -52.0621     4.2668     6.2785     8.2482
 2002.0000   164.0945     8.4424     0.0080     2.4547   -52.0592     4.2659     6.2776     7.9116
 2002.5000   165.5652     8.4721     0.0050     2.4402   -52.0562     4.2650     6.1908     7.8484
 2003.0000   165.8629     8.4724    -0.0009     2.4332   -52.1406     4.2641     6.1900     7.4739
 2003.5000   165.2807     8.4727    -0.0058     2.4366   -52.2731     4.2633     6.2750     7.0741
 2004.0000   160.3227     8.4730    -0.0076     2.4506   -52.4056     4.3216     6.6596     8.5215
 2004.5000   157.1173     8.4711    -0.0090     2.4483   -52.5381     4.3206     6.9222     9.2297
 2005.0000   156.2017     8.4688    -0.0120     2.4351   -52.6332     4.3197     6.9080     7.4932
 2005.5000   155.9129     8.4665    -0.0090     2.4190   -52.6302     4.3869     6.8036     6.9756
 2006.0000   154.7977     8.4643    -0.0090     2.4113   -52.6272     4.5074     6.7183     8.8670
 2006.5000   153.4189     8.4620    -0.0090     2.4205   -52.6242     4.6313     6.7222    10.1561
 2007.0000   151.9598     8.4597    -0.0030     2.4335   -52.6213     4.6885     6.9071     9.3018
 2007.5000   151.0876     8.4575     0.0030     2.4428   -52.6184     4.7526     6.9999     9.6963
 2008.0000   150.3631     8.4552     0.0120     2.4537   -52.6154     4.7516     7.2937    10.2640
 2008.5000   150.8799     8.4530     0.0210     2.4651   -52.6124     4.7506     7.3939     9.3191
 2009.0000   152.7108     8.4507     0.0299     2.4736   -52.6095     4.8156     7.5996     8.8116
 2009.5000   154.1886     8.4484     0.0329     2.4689   -52.7381     4.8146     6.9952     9.2944
 2010.0000   152.4536     8.4462     0.0299     2.4517   -52.8995     4.8136     6.6189    10.0500
 2010.5000   151.8514     8.4439     0.0180     2.4302   -52.8965     4.8125     6.4380     8.0305
 2011.0000   153.6153     8.4416     0.0000     2.4146   -52.8935     4.8783     6.4371     6.9916
 2011.5000   151.6687     8.4394    -0.0090     2.4009   -52.8905     4.8773     6.6163     7.6790
 2012.0000   150.3984     8.4371    -0.0090     2.4091   -52.8876     4.8095     6.9903    10.2409
 2012.5000   152.6395     8.4348    -0.0060     2.4188   -52.8846     4.8085     7.2845    11.1310
 2013.0000   153.9266     8.4326     0.0060     2.4296   -52.8817     4.7417     7.3847    10.7674
 2013.5000   153.2309     8.4303     0.0180     2.4433   -52.8787     4.6118     7.4095     9.0418
 2014.0000   151.0025     8.4280     0.0299     2.4616   -52.8757     4.4854     7.0834     9.1659
 2014.5000   156.1032     8.4258     0.0389     2.4591   -52.8728     4.3625     6.7955     8.8826
 2015.0000   156.9305     8.4235     0.0449     2.4457   -52.9635     4.1848     6.4299     7.9641
 2015.5000   157.6245     8.4212     0.0509     2.4353   -53.1632     4.1267     5.9186     7.7446
 2016.0000   159.2313     8.4190     0.0419     2.4222   -53.1598     4.0136     5.5235     6.2933
 2016.5000   152.6975     8.4167     0.0329     2.4121   -53.4531     3.9578     5.0146     5.4871
 2017.0000   147.0769     8.4144     0.0320     2.4234   -53.4497     3.9570     4.6303     4.8457
 2017.5000   142.1119     8.4122     0.0389     2.4412   -53.7430     3.9020     4.6864     5.1915
 2018.0000   139.7439     8.4099     0.0449     2.4525   -53.7396     3.8477     5.5498     9.1506
 2018.5000   142.3540     8.4076     0.0539     2.4577   -53.7366     3.6911     6.1241     9.0230
 2019.0000   146.3006     8.4054     0.0569     2.4471   -53.7338     3.5408     6.2483    10.3591
 2019.5000   149.7924     8.4031     0.0599     2.4173   -53.7308     3.4437     6.0399     9.6649
 2020.0000   150.8799     8.4008     0.0599     2.3905   -53.7278     3.3220     5.5646     7.3280
 2020.5000   152.6015     8.3986     0.0599     2.3815   -53.7248     3.1623     4.9576     5.8722
 2021.0000   152.0207     8.3963     0.0539     2.3770   -53.7219     3.0166     4.4445     4.9732
 2021.5000   149.6392     8.3940     0.0509     2.3800   -53.7190     2.8731     3.9300     4.3903
