~VERSION INFORMATION
 VERS.                2.0:   CWLS LOG ASCII STANDARD - VERSION 2.0
 WRAP.                 NO:   ONE LINE PER DEPTH STEP
~WELL INFORMATION
#MNEM.UNIT      DATA TYPE    INFORMATION
#----------   ------------   ------------------------------
 STRT.F           30.0000:   START DEPTH
 STOP.F         3240.0000:   STOP DEPTH
 STEP.F            0.5000:   STEP LENGTH
 NULL.          -999.2500:   NO VALUE
 COMP. LAWRENCE-ALLISON ASSOCIATES WES:   COMPANY
 WELL. LAWRENCE "AX" #87AX28:   WELL
 FLD .   TEAPOT N.P.R. #3:   FIELD
 LOC .      S28 T39N R78W:   LOCATION
 CNTY.            NATRONA:   COUNTY
 STAT.            WYOMING:   STATE
 CTRY. UNITED STATES OF AMERICA:   COUNTRY
 SRVC.       SCHLUMBERGER:   SERVICE COMPANY
 DATE.        28-MAY-1982:   LOGDATE
 API .     49025108860000:   API NUMBER
~CURVE INFORMATION
#MNEM.UNIT       API CODE    CURVE DESCRIPTION
#----------   ------------   ------------------------------
 DEPT.F                  :   
 TENR.LBS    07 635 01 00:   TENSION FROM RESISTIVITY
 GRR .GAPI   07 310 01 00:   GAMMA RAY FROM RESISTIVITY
 SPR .MV     07 010 01 00:   SPONTANEOUS POTENTIAL FROM RES.
 ILD .OHMM   07 120 46 00:   DEEP INDUCTION RESISTIVITY
 ILM .OHMM   07 120 44 00:   INDUCTION LOG MEDIUM RESISTIVITY
 SFL .OHMM   07 220 01 00:   SHALLOW FOCUSED LOG RESISITIVITY
 TEND.LBS    45 635 01 00:   TENSION FORM DENSITY LOG
 NPHI.DEC    42 890 03 00:   NEUTRON POROSITY SANDSTONE
 CALD.IN     45 280 60 00:   CALIPER FROM DENSITY LOG
 CORR.G/C3   45 356 01 00:   DENSITY CORRECTION
 RHOB.G/C3   45 350 01 00:   BULK DENSITY
~PARAMETER INFORMATION
#MNEM.UNIT          VALUE    DESCRIPTION
#----------   ------------   ------------------------------
 EKB .F         5070.0000:   Kelly bushing
 EGL .F         5060.0000:   Ground level
 TD  .F         3220.0000:   Total depth
 CLNT.            A2DTECH:   Client Code
 SL  . 1341' FSL & 162' FEL:   Surface Location
 PD  .                 GL:   Permanent Datum
 EPD .F              5060:   Elevation Permanent Datum
 LMF .                 KB:   Log Measured From
 DMF .                 KB:   Drilling Measured From
 DAPD.F                10:   Feet Above Permanent Datum
 DATE.        28-MAY-1982:   Date Logged [DD-MMM-YYYY]
 DD  .F              3220:   Depth driller
 DL  .F              3215:   Depth logger
 BLI .F              3212:   Bottom log interval
 TLI .F               489:   Top log interval
 CS1 .IN            9.625:   Casing size
 CBD1.      9.625" @ 461':   Casing driller 1
 CBL1.F               489:   Casing logger 1
 BS1 .IN            9.750:   Bit size
 BSD1.F              3220:   Depth drilled with bit1
 DFT .          POLY./KCL:   Type fluid in hole
 DFD .                8.8:   Density
 DFV .                 44:   Viscosity
 DFPH.                7.0:   pH
 DFL .                8.0:   Fluid loss
 MSS .           MUD TANK:   Source of sample
 RMS .OHMM          0.778:   Rm
 MST .F                65:   Rm Meas. temp.
 RMF .OHMM          0.710:   Rmf
 MFST.F                67:   Rmf Meas. temp.
 MFSS.               MEAS:   Source Rmf.
 RMB .OHMM          0.447:   Rm. at BHT
 BHT .F               118:   BHT.
 TCS .HRS            2000:   Time Circ. stopped
 TLAB.HRS            2430:   Time logger at bottom
 MRT .F               118:   Maximum recorded temp.
 LUN .               8043:   Logging unit number
 LUL .               CSPR:   Logging unit location
 ENGI.             DENNIS:   Recorded By
 WITN.             STRONG:   Witnessed by
 ORIG.           5" PRINT:   Origin of data
 UWI .     49025108860000:   Unique Well ID
 DICO. A2D TECHNOLOGIES, INC.:   Digitizing Company
~OTHER INFORMATION
~A   DEPT     TENR         GRR       SPR        ILD        ILM        SFL       TEND       NPHI       CALD       CORR       RHOB   
# ...
 1372.0000   858.7756    98.9817   -38.3296     7.1998     6.6754     7.3726  1125.5677    -0.0641    11.3486    -0.0026     2.5141
 1372.5000   857.1465    95.0323   -38.3223     7.2561     6.7276     7.3778  1125.8827    -0.0523    11.3479    -0.0026     2.5149
 1373.0000   871.5257    92.9643   -38.0086     7.2620     6.7802     7.4899  1126.1976    -0.0407    11.3622    -0.0002     2.5211
 1373.5000   869.4894    92.0479   -37.6950     7.2667     6.6885     7.6026  1126.5125    -0.0435    11.3615     0.0022     2.5374
 1374.0000   883.5155    92.5206   -37.6876     7.2186     6.5969     7.7170  1126.8274    -0.0573    11.3608     0.0061     2.5545
 1374.5000   881.8254    93.6834   -37.6784     7.1720     6.4636     7.6130  1127.1422    -0.0597    11.3600     0.0078     2.5676
 1375.0000   880.1353    94.3846   -37.5179     7.1267     6.4208     7.4572  1127.4572    -0.0610    11.3440     0.0093     2.5762
 1375.5000   894.1746    93.4386   -37.3574     7.0809     6.3793     7.3045  1127.7720    -0.0662    11.3433     0.0071     2.5662
 1376.0000   892.1384    92.7871   -37.3501     7.0352     6.2941     7.1562  1128.0869    -0.0742    11.3578     0.0032     2.5391
 1376.5000   890.5097    93.7213   -37.3427     6.9897     6.2090     7.0598  1128.4017    -0.0764    11.3722     0.0025     2.5283
 1377.0000   904.4813    98.8071   -37.3353     6.9446     6.1688     7.0133  1128.7167    -0.0606    11.3714     0.0064     2.5253
 1377.5000   902.8523   100.8930   -37.6342     6.8508     6.1730     7.0193  1129.0315    -0.0509    11.3903     0.0096     2.5261
 1378.0000   901.1960   102.0557   -37.6250     6.8065     6.1779     7.0744  1129.3464    -0.0415    11.4160     0.0073     2.5269
 1378.5000   899.1870   101.8338   -37.5623     6.8121     6.1820     7.1808  1129.6614    -0.0381    11.4457     0.0042     2.5284
 1379.0000   897.5580   100.6065   -37.4578     6.8166     6.1860     7.1859  1129.9762    -0.0522    11.4450     0.0027     2.5293
 1379.5000   895.9289    98.3924   -37.6036     6.8221     6.1900     7.1408  1130.2911    -0.0574    11.4595     0.0043     2.5301
 1380.0000   894.3003    97.9376   -37.7475     6.8754     6.1499     7.0447  1130.6060    -0.0477    11.4741     0.0075     2.5285
 1380.5000   892.6713    97.9487   -37.5870     6.8310     6.0660     6.9004  1130.9209    -0.0281    11.4886     0.0044     2.5185
 1381.0000   891.0422    98.1884   -37.7346     6.7387     5.9433     6.7592  1131.2357    -0.0103    11.5032     0.0006     2.5085
 1381.5000   889.3657    97.0435   -37.8804     6.5535     5.9039     7.0592  1131.5507    -0.0116    11.5328     0.0014     2.5047
 1382.0000   887.3770    95.2062   -38.0245     6.5100     5.8250     7.1145  1131.8655    -0.0290    11.5474     0.0046     2.5047
 1382.5000   885.7479    94.2921   -38.0067     6.4242     5.8288     6.7743  1132.1804    -0.0519    11.5466     0.0085     2.5086
 1383.0000   884.1188    94.3032   -37.8546     6.3828     5.8326     6.4953  1132.4954    -0.0599    11.5306     0.0117     2.5140
 1383.5000   882.4898    95.0045   -37.6941     6.3869     5.9203     6.3161  1132.8107    -0.0468    11.5452     0.0140     2.5210
 1384.0000   880.8611    95.2441   -37.5336     6.3911     6.0524     6.3667  1133.1263    -0.0289    11.5442     0.0133     2.5226
 1384.5000   879.2251    94.7915   -37.5263     6.3953     6.1006     6.5087  1133.4420    -0.0210    11.5435     0.0110     2.5203
 1385.0000   877.5350    93.6466   -37.2126     6.4452     6.1483     6.7501  1133.7578    -0.0213    11.5428     0.0079     2.5188
 1385.5000   875.5668    92.7324   -37.0521     6.5421     6.1964     7.0500  1134.0735    -0.0272    11.5573     0.0080     2.5181
 1386.0000   873.9378    93.4523   -37.0429     6.5942     6.2004     7.1561  1134.3893    -0.0294    11.5566     0.0112     2.5196
 1386.5000   872.3088    95.7525   -37.0355     6.5985     6.2045     7.1090  1134.7050    -0.0301    11.5711     0.0112     2.5251
 1387.0000   886.6879    96.6845   -36.8750     6.6976     6.1644     7.0646  1135.0208    -0.0392    11.5702     0.0128     2.5290
 1387.5000   884.6517    97.3857   -36.8677     6.7982     6.1686     6.9694  1135.3364    -0.0435    11.5848     0.0152     2.5336
 1388.0000   898.6232    96.7023   -36.8603     6.9003     6.1735     6.8755  1135.6521    -0.0405    11.5840     0.0191     2.5360
 1388.5000   896.5870    93.7113   -36.8530     6.8011     6.1775     6.7829  1135.9679    -0.0384    11.5680     0.0161     2.5306
 1389.0000   894.9579    91.1817   -36.8453     6.6200     6.1815     6.7394  1136.2836    -0.0464    11.5520     0.0107     2.5235
 1389.5000   893.3289    90.2676   -36.8364     6.6254     6.1856     6.7934  1136.5994    -0.0537    11.5359     0.0076     2.5191
 1390.0000   891.6998    95.1249   -36.9822     6.6772     6.2339     6.8956  1136.9150    -0.0498    11.5046     0.0084     2.5207
 1390.5000   906.0790   100.9030   -36.9748     6.6815     6.2381     7.1505  1137.2308    -0.0458    11.4884     0.0116     2.5261
 1391.0000   904.0424   102.9888   -37.1224     6.7337     6.2431     7.2581  1137.5465    -0.0426    11.5031     0.0124     2.5315
 1391.5000   918.0144   102.7648   -37.2665     6.7381     6.2471     7.2631  1137.8623    -0.0414    11.5177     0.0062     2.5323
 1392.0000   915.9782   102.0836   -37.4121     6.7909     6.2512     7.1652  1138.1780    -0.0558    11.5322     0.0008     2.5262
 1392.5000   914.3491   101.8618   -37.4029     6.7963     6.2553     7.0687  1138.4937    -0.0680    11.5466    -0.0023     2.5161
 1393.0000   912.7201   101.3999   -37.3956     6.8493     6.2594     6.9747  1138.8094    -0.0671    11.5612    -0.0038     2.5131
 1393.5000   911.0911    99.8049   -37.5432     6.9028     6.2638     6.9300  1139.1251    -0.0519    11.5757     0.0002     2.5178
 1394.0000   909.4620    95.6600   -37.8421     6.9568     6.3126     6.9843  1139.4409    -0.0425    11.5595     0.0057     2.5209
 1394.5000   923.4335    94.9744   -37.9862     6.9613     6.3628     7.0894  1139.7566    -0.0413    11.4976     0.0104     2.5132
 1395.0000   921.7368    97.7547   -37.9786     7.0158     6.4126     7.2022  1140.0724    -0.0514    11.4357     0.0034     2.5086
 1395.5000   904.1681    98.4560   -37.9695     7.0214     6.4627     7.3055  1140.3881    -0.0585    11.3891    -0.0012     2.5040
 1396.0000   902.5391    95.6957   -37.9621     7.0762     6.5132     7.2071  1140.7037    -0.0655    11.3425    -0.0043     2.5017
 1396.5000   900.9100    89.9261   -37.9548     7.1315     6.5641     7.1088  1141.0195    -0.0662    11.3417    -0.0034     2.5048
 1397.0000   899.2809    89.0212   -37.9474     7.1872     6.6155     7.2170  1141.3352    -0.0623    11.3257     0.0044     2.5118
 1397.5000   897.6519    90.1862   -37.9400     7.1919     6.6683     7.3256  1141.6510    -0.0532    11.3403     0.0099     2.5196
 1398.0000   895.9960    91.5797   -37.9286     7.2481     6.6726     7.4890  1141.9667    -0.0450    11.3393     0.0138     2.5250
 1398.5000   893.9866    92.5117   -37.7703     7.2540     6.6770     7.4409  1142.2825    -0.0408    11.3386     0.0077     2.5281
 1399.0000   892.3576    93.4437   -37.7630     7.2587     6.6813     7.4465  1142.5981    -0.0405    11.3379     0.0015     2.5289
 1399.5000   890.7290    94.3757   -37.6025     7.3154     6.7336     7.3982  1142.9139    -0.0360    11.3524    -0.0039     2.5236
 1400.0000   889.0999    95.1835   -37.4420     7.3202     6.7380     7.4046  1143.2296    -0.0281    11.3517    -0.0078     2.5112
 1400.5000   887.4709    93.0301   -37.2815     7.3773     6.7425     7.4097  1143.5453    -0.0278    11.3515    -0.0045     2.5051
 1401.0000   885.8419    90.6113   -37.2194     7.3822     6.7962     7.5211  1143.8611    -0.0462    11.3513     0.0009     2.5043
 1401.5000   884.2113    89.7005   -37.0970     7.3944     6.8006     7.7513  1144.1768    -0.0645    11.3512     0.0111     2.5198
 1402.0000   882.6924    89.9365   -36.9510     7.4459     6.8050     8.0315  1144.4926    -0.0664    11.3510     0.0244     2.5392
