~VERSION INFORMATION
 VERS.                2.0:   CWLS LOG ASCII STANDARD - VERSION 2.0
 WRAP.                 NO:   ONE LINE PER DEPTH STEP
~WELL INFORMATION
#MNEM.UNIT      DATA TYPE    INFORMATION
#----------   ------------   ------------------------------
 STRT.F          634.0000:   START DEPTH
 STOP.F         3464.0000:   STOP DEPTH
 STEP.F            0.5000:   STEP LENGTH
 NULL.          -999.2500:   NO VALUE
 COMP. LAWRENCE-ALLISON & ASSOCIATES W:   COMPANY
 WELL. LAWRENCE "TX" #44-27:   WELL
 FLD .   NAVAL RESERVE #3:   FIELD
 LOC .      S27 T39N R78W:   LOCATION
 CNTY.            NATRONA:   COUNTY
 STAT.            WYOMING:   STATE
 CTRY. UNITED STATES OF AMERICA:   COUNTRY
 SRVC.       SCHLUMBERGER:   SERVICE COMPANY
 DATE.        13-MAR-1982:   LOGDATE
 API .     49025108870000:   API NUMBER
~CURVE INFORMATION
#MNEM.UNIT       API CODE    CURVE DESCRIPTION
#----------   ------------   ------------------------------
 DEPT.F                  :   
 TENR.LBS    07 635 01 00:   TENSION FROM RESISTIVITY
 ILD .OHMM   07 120 46 00:   DEEP INDUCTION RESISTIVITY
 ILM .OHMM   07 120 44 00:   INDUCTION LOG MEDIUM RESISTIVITY
 SFLU.OHMM   07 220 01 00:   SPHERICALLY FOCUSED LOG UNAVERAGED RESISTIVITY
 SPR .MV     07 010 01 00:   SPONTANEOUS POTENTIAL
 TENN.LBS    42 635 01 00:   TENSION FROM COMPENSATE NEUTRON
 CALD.IN     45 280 60 00:   CALIPER FROM DENSITY LOG
 GRD .GAPI   45 310 01 00:   GAMMA RAY FROM DENSITY LOG
 RHOB.G/C3   45 350 01 00:   BULK DENSITY
 DRHO.G/C3   45 356 01 00:   DENSITY CORRECTION
 NPHI.DEC    42 890 03 00:   NEUTRON POROSITY SANDSTONE
~PARAMETER INFORMATION
#MNEM.UNIT          VALUE    DESCRIPTION
#----------   ------------   ------------------------------
 EKB .F         5049.0000:   Kelly bushing
 EGL .F         5039.0000:   Ground level
 EDF .F            0.0000:   Drilling floor
 EPD .F            0.0000:   Permanent datum
 TD  .F         3440.0000:   Total depth
 DATE.        13-MAR-1982:   Date logged
 CLNT.            A2DTECH:   Client Code
 PD  .                 GL:   Permanent Datum
 DD  .F              3440:   Depth driller
 DL  .F              3439:   Depth logger
 BLI .F              3433:   Bottom log interval
 CS1 .IN            9.625:   Casing size
 CBD1.      9.625" @ 650':   Casing driller 1
 CBL1.F               647:   Casing logger 1
 BS1 .IN            7.875:   Bit size
 DFT .                GEL:   Type fluid in hole
 DFD .                9.3:   Density
 DFV .                 48:   Viscosity
 DFPH.                 10:   pH
 DFL .                  8:   Fluid loss
 MSS .                PIT:   Source of sample
 RMS .OHMM           1.82:   Rm
 MST .F                67:   Rm Meas. temp.
 RMF .OHMM           1.32:   Rmf
 MFST.F                67:   Rmf Meas. temp.
 MFSS.               MEAS:   Source Rmf.
 RMB .OHMM           1.09:   Rm. at BHT
 BHT .F               112:   BHT.
 TCS .HRS            1300:   Time Circ. stopped
 MRT .F               112:   Maximum recorded temp.
 LUN .               8039:   Logging unit number
 LUL .               CSPR:   Logging unit location
 ENGI.   WAGNER/CONOSENTI:   Recorded By
 WITN.           JENNINGS:   Witnessed by
 ORIG.           5" PRINT:   Origin of data
 UWI .     49025108870000:   Unique Well ID
 DICO. A2D TECHNOLOGIES, INC.:   Digitizing Company
 DAPD.                 10:   Feet Above Permanent Datum
 BSD1.F              3440:   Depth drilled with bit1
 TLI .F               647:   Top log interval
 TLAB.HRS            1800:   Time logger at bottom
~OTHER INFORMATION
~A   DEPT     TENR        ILD        ILM       SFLU        SPR       TENN       CALD         GRD      RHOB       DRHO       NPHI   
# ...
 3226.5000  1576.0430     3.3540     3.2650     3.8910   -21.6110  1934.5240    10.0940   110.8030     2.5000     0.0330     0.2180
 3227.0000  1576.9430     3.2790     3.1850     3.7480   -21.9490  1934.5240    10.0910   111.6300     2.4890     0.0270     0.2250
 3227.5000  1577.8440     3.2030     3.1060     3.6020   -22.3010  1934.5240    10.0880   112.4430     2.4830     0.0230     0.2260
 3228.0000  1578.7450     3.1270     3.0260     3.5770   -22.6520  1934.5240    10.0850   111.2470     2.4780     0.0190     0.2290
 3228.5000  1579.6460     3.0530     2.9460     3.5150   -23.0020  1934.5240    10.0820   110.0200     2.4740     0.0150     0.2350
 3229.0000  1580.5470     3.0530     2.9150     3.4520   -23.3530  1934.5240    10.0790   109.8780     2.4780     0.0190     0.2410
 3229.5000  1581.4480     3.0530     2.9150     3.3890   -23.3420  1934.5240    10.0760   108.2550     2.4820     0.0230     0.2400
 3230.0000  1582.3490     3.1380     2.9900     3.3770   -23.2480  1934.5240    10.0720   106.2990     2.4830     0.0220     0.2330
 3230.5000  1583.2500     3.2520     3.1050     3.5430   -23.1530  1934.5240    10.0690   104.7020     2.4850     0.0180     0.2220
 3231.0000  1584.1510     3.3630     3.2200     3.7020   -23.0590  1934.5240    10.0670   105.2680     2.4830     0.0150     0.2200
 3231.5000  1585.0520     3.4750     3.3340     3.7320   -22.9640  1934.5240    10.0790   105.8480     2.4790     0.0110     0.2220
 3232.0000  1585.9520     3.5870     3.4490     3.7710   -22.8660  1934.5240    10.0860   103.8310     2.4750     0.0080     0.2210
 3232.5000  1586.8260     3.6990     3.5630     4.2320   -22.6850  1934.5240    10.0860   101.3470     2.4850     0.0060     0.2100
 3233.0000  1586.8260     3.8100     3.6780     4.7450   -22.2310  1934.5240    10.0860    99.8490     2.4940     0.0060     0.1970
 3233.5000  1586.8260     3.9220     3.7920     5.4470   -21.7890  1934.5240    10.0860   100.8930     2.5020     0.0140     0.1850
 3234.0000  1586.8260     4.0340     3.9070     5.3180   -21.4020  1934.5240    10.0870   102.5100     2.5020     0.0210     0.1840
 3234.5000  1586.8260     4.1340     3.9800     5.0200   -21.4350  1934.5240    10.1030   104.1310     2.4910     0.0200     0.1930
 3235.0000  1586.8260     4.2010     4.0290     4.7230   -21.4740  1934.5240    10.1100   103.0630     2.4800     0.0180     0.2020
 3235.5000  1586.8260     4.2500     4.0790     4.6160   -21.5110  1934.5240    10.1250   101.5660     2.4750     0.0140     0.2090
 3236.0000  1586.8260     4.2110     4.0960     4.7360   -21.5490  1934.5240    10.1400   102.5610     2.4710     0.0090     0.2100
 3236.5000  1586.8260     4.0790     3.9680     4.7890   -21.5850  1934.5240    10.1540   103.9380     2.4660     0.0080     0.2100
 3237.0000  1586.8260     3.9340     3.8450     4.4880   -21.6820  1958.9290    10.1690   104.5080     2.4620     0.0080     0.2090
 3237.5000  1586.8260     3.7890     3.7220     4.2000   -21.7970  1994.0480    10.1840   103.5220     2.4580     0.0100     0.2130
 3238.0000  1586.8260     3.6440     3.5990     3.9850   -21.9120  1974.2061    10.1990   101.7810     2.4590     0.0180     0.2220
 3238.5000  1586.8260     3.5060     3.4750     3.9380   -22.0280  1962.0900    10.2130   101.8470     2.4630     0.0280     0.2310
 3239.0000  1586.8260     3.3890     3.3520     3.9160   -22.1430  1948.7570    10.2280   102.5540     2.4660     0.0280     0.2340
 3239.5000  1586.8260     3.2720     3.2550     3.8590   -22.2590  1934.5240    10.2430   104.4960     2.4690     0.0250     0.2360
 3240.0000  1586.8260     3.2550     3.2550     3.7980   -22.3730  1935.5840    10.2570   106.5910     2.4720     0.0220     0.2360
 3240.5000  1586.8260     3.3160     3.2550     3.7020   -22.5030  1936.7200    10.2680   108.6940     2.4750     0.0200     0.2360
 3241.0000  1586.8260     3.4280     3.2850     3.7290   -22.6350  1937.8560    10.2720   110.8480     2.4740     0.0200     0.2370
 3241.5000  1586.8260     3.5330     3.3970     3.7870   -22.7670  1938.9930    10.2760   110.6110     2.4740     0.0230     0.2390
 3242.0000  1586.8260     3.6380     3.5100     3.8410   -22.8960  1940.1290    10.2800   108.6700     2.4740     0.0260     0.2410
 3242.5000  1586.8260     3.7430     3.6220     4.2330   -22.9270  1941.2650    10.2840   104.6830     2.4780     0.0260     0.2400
 3243.0000  1586.8260     3.8410     3.7340     4.7110   -22.5140  1942.4020    10.2880   100.9110     2.4840     0.0260     0.2300
 3243.5000  1586.8260     3.8410     3.8060     5.1550   -22.1090  1943.5380    10.3130   102.5210     2.4890     0.0250     0.2180
 3244.0000  1586.8260     3.8410     3.7500     4.8940   -21.7040  1944.6740    10.3390   104.3800     2.4820     0.0240     0.2110
 3244.5000  1586.8260     3.8000     3.6740     4.3450   -21.3030  1945.8110    10.3660   106.1220     2.4720     0.0240     0.2210
 3245.0000  1586.8260     3.7400     3.5980     3.9410   -20.9850  1946.9470    10.3920   105.8950     2.4660     0.0240     0.2340
 3245.5000  1586.8260     3.6790     3.5220     3.7840   -20.9690  1948.0840    10.4180   105.5950     2.4720     0.0270     0.2380
 3246.0000  1581.9500     3.6190     3.4460     3.7020   -20.9410  1949.2200    10.4330   105.3040     2.4800     0.0380     0.2370
 3246.5000  1574.8080     3.5580     3.3700     3.7320   -20.9110  1950.3560    10.4410   105.0150     2.4860     0.0500     0.2350
 3247.0000  1567.6650     3.4980     3.3160     3.8360   -20.8820  1951.4930    10.4500   104.7250     2.4820     0.0500     0.2330
 3247.5000  1560.5220     3.4380     3.3160     3.9400   -20.8530  1952.6290    10.4580   104.4360     2.4750     0.0440     0.2340
 3248.0000  1553.3790     3.3770     3.3160     4.0960   -20.8240  1953.7650    10.4670   104.1460     2.4720     0.0410     0.2350
 3248.5000  1546.2360     3.3460     3.3160     4.0600   -20.7970  1954.3650    10.5240   103.8530     2.4770     0.0500     0.2350
 3249.0000  1539.0930     3.3190     3.3160     3.9620   -21.0470  1954.3650    10.5880   103.9890     2.4940     0.0600     0.2350
 3249.5000  1531.9500     3.2620     3.3160     3.7590   -21.3350  1954.3650    10.6520   104.8800     2.5020     0.0600     0.2470
 3250.0000  1527.5840     3.2060     3.3170     3.5360   -21.6240  1954.3650    10.7170   105.7290     2.4980     0.0530     0.2570
 3250.5000  1529.7159     3.1650     3.3190     3.5040   -21.9120  1954.3650    10.7490   106.2520     2.4890     0.0390     0.2570
 3251.0000  1531.8480     3.1460     3.2770     3.5730   -22.2000  1954.3650    10.7380   105.3230     2.4810     0.0270     0.2470
 3251.5000  1533.9800     3.1280     3.2660     3.7100   -22.4910  1954.3650    10.7230   105.3310     2.4820     0.0270     0.2370
 3252.0000  1536.1121     3.1090     3.2520     3.8470   -22.7980  1954.3650    10.7080   107.9410     2.4940     0.0390     0.2350
 3252.5000  1538.2440     3.0910     3.2240     3.9490   -22.9290  1954.3650    10.6930   110.4220     2.5090     0.0510     0.2400
 3253.0000  1540.3760     3.0720     3.1960     3.8240   -22.6700  1954.3650    10.6890   111.7820     2.4980     0.0500     0.2450
 3253.5000  1542.5070     3.0530     3.1670     3.5870   -22.3620  1954.3650    10.6970   109.9880     2.4760     0.0410     0.2500
 3254.0000  1544.6390     3.0270     3.1390     3.3490   -22.0590  1954.3650    10.7080   108.2800     2.4580     0.0250     0.2550
 3254.5000  1546.7710     2.9800     3.1110     3.2550   -21.7950  1954.3650    10.7200   106.8690     2.4510     0.0260     0.2600
 3255.0000  1548.9030     2.9330     3.0810     3.4330   -21.6710  1954.3650    10.7320   108.6420     2.4560     0.0270     0.2570
 3255.5000  1551.0350     2.8850     3.0390     3.5360   -21.5370  1954.3650    10.7430   111.6730     2.4530     0.0270     0.2490
 3256.0000  1553.1670     2.8380     2.9940     3.5360   -21.4020  1954.3650    10.7710   115.2190     2.4430     0.0210     0.2450
 3256.5000  1555.2990     2.7900     2.9490     3.3740   -21.2670  1954.3650    10.7690   118.7380     2.4330     0.0180     0.2450
