~VERSION INFORMATION
 VERS.                2.0:   CWLS LOG ASCII STANDARD - VERSION 2.0
 WRAP.                 NO:   ONE LINE PER DEPTH STEP
~WELL INFORMATION
#MNEM.UNIT      DATA TYPE    INFORMATION
#----------   ------------   ------------------------------
 STRT.F            0.5000:   START DEPTH
 STOP.F         5758.0000:   STOP DEPTH
 STEP.F            0.5000:   STEP LENGTH
 NULL.          -999.2500:   NO VALUE
 COMP.   LAWRENCE ALLISON:   COMPANY
 WELL. LAWRENCE "X" #51-10:   WELL
 FLD .          NPR NO. 3:   FIELD
 LOC .      S10 T38N R78W:   LOCATION
 CNTY.            NATRONA:   COUNTY
 STAT.            WYOMING:   STATE
 CTRY. UNITED STATES OF AMERICA:   COUNTRY
 SRVC.      DRESSER ATLAS:   SERVICE COMPANY
 DATE.        31-JAN-1987:   LOGDATE
 API .     49025111230000:   API NUMBER
~CURVE INFORMATION
#MNEM.UNIT       API CODE    CURVE DESCRIPTION
#----------   ------------   ------------------------------
 DEPT.F                  :   
 GRR .GAPI   07 310 01 00:   GAMMA RAY FROM RESISTIVITY
 TENR.LBS    07 635 01 00:   TENSION FROM RESISTIVITY
 SPR .MV     07 010 01 00:   SPONTANEOUS POTENTIAL
 RD  .OHMM   11 220 10 00:   RESISTIVITY DEEP
 RS  .OHMM   11 220 09 00:   RESISTIVITY SHALLOW
 CNC .DEC    42 890 03 00:   NEUTRON POROSITY
 CALD.IN     45 280 60 00:   CALIPER FROM DENSITY LOG
 DEN .G/C3   45 350 01 00:   BULK DENSITY
 CORR.G/C3   45 356 01 00:   DENSITY CORRECTION
 TEND.LBS    45 635 01 00:   TENSION FORM DENSITY LOG
~PARAMETER INFORMATION
#MNEM.UNIT          VALUE    DESCRIPTION
#----------   ------------   ------------------------------
 EKB .F         5227.0000:   Kelly bushing
 EGL .F         5215.0000:   Ground level
 EDF .F            0.0000:   Drilling floor
 TD  .F         5750.0000:   Total depth
 CLNT.            A2DTECH:   Client Code
 SL  . 2356' FEL & 170' FNL:   Surface Location
 PD  .                 GL:   Permanent Datum
 EPD .F              5215:   Elevation Permanent Datum
 LMF .                 KB:   Log Measured From
 DMF .                 KB:   Drilling Measured From
 DAPD.F                12:   Feet Above Permanent Datum
 DATE.        31-JAN-1987:   Date Logged [DD-MMM-YYYY]
 DD  .F              5747:   Depth driller
 DL  .F              5750:   Depth logger
 BLI .F              5748:   Bottom log interval
 CS1 .IN            9.625:   Casing size
 CBD1.      9.625" @ 511':   Casing driller 1
 CBL1.F               512:   Casing logger 1
 BS1 .IN             8.75:   Bit size
 BSD1.F              5747:   Depth drilled with bit1
 DFT .        KCL POLYMER:   Type fluid in hole
 DFD .                9.3:   Density
 DFV .                 43:   Viscosity
 DFPH.                9.5:   pH
 MSS .           FLOWLINE:   Source of sample
 RMS .OHMM          0.247:   Rm
 MST .F                74:   Rm Meas. temp.
 RMF .OHMM          0.162:   Rmf
 MFST.F                74:   Rmf Meas. temp.
 MFSS.               MEAS:   Source Rmf.
 RMC .OHMM          0.310:   Rmc
 MCST.F                74:   Rmc Meas. temp.
 MCSS.               CALC:   Source Rmc.
 RMB .OHMM          0.109:   Rm. at BHT
 BHT .F               167:   BHT.
 TCS .HRS               5:   Time Circ. stopped
 MRT .F               167:   Maximum recorded temp.
 LUN .            HL-6274:   Logging unit number
 LUL .           GILLETTE:   Logging unit location
 ORIG.        2" 5" PRINT:   Origin of data
 UWI .     49025111230000:   Unique Well ID
 DICO. A2D TECHNOLOGIES, INC.:   Digitizing Company
 ENGI.             RAUTIO:   Recorded By
 WITN.             STRONG:   Witnessed by
 DFL .                7.8:   Fluid loss
~OTHER INFORMATION
~A  DEPTH      GRR       TENR        SPR         RD         RS        CNC       CALD        DEN       CORR       TEND
# ...
 3317.0000   124.4834   -83.8258   -83.3746     7.1547     6.2356     0.2687    10.4678     2.5469     0.0220   -76.9520
 3317.5000   128.2423   -90.6129   -83.3567     7.1058     6.4642     0.2784    10.5002     2.5469     0.0038   -84.1969
 3318.0000   132.6116   -90.8667   -83.5006     7.1557     6.5119     0.2837    10.5277     2.5484     0.0008   -83.9776
 3318.5000   133.5666   -79.1778   -83.7921     7.2558     6.4665     0.2895    10.5267     2.5499     0.0083   -91.2782
 3319.0000   130.2047   -67.4889   -83.9324     7.2063     6.3270     0.2835    10.5260     2.5521     0.0294   -82.0210
 3319.5000   127.7716   -55.8000   -83.9142     7.0589     6.1536     0.2756    10.5252     2.5551     0.0430   -45.6713
 3320.0000   127.1786   -44.1111   -83.8997     7.0106     6.0674     0.2701    10.5400     2.5574     0.0520   -45.4522
 3320.5000   127.8415   -40.8000   -83.8852     6.9629     6.0690     0.2689    10.5391     2.5596     0.0550   -37.7143
 3321.0000   129.7340   -67.1933   -83.8671     6.8587     6.0221     0.2725    10.5537     2.5558     0.0534   -45.0686
 3321.5000   134.7312   -93.0327   -84.1658     6.8208     5.9002     0.2783    10.5529     2.5475     0.0323   -59.8323
 3322.0000   139.4101  -106.2089   -84.4609     6.7744     5.8593     0.2837    10.5368     2.5300     0.0172   -82.1694
 3322.5000   139.7459   -85.0000   -84.4427     6.6819     5.8608     0.2916    10.5514     2.5202     0.0278   -97.6266
 3323.0000   137.6224   -65.0000   -84.4246     6.6361     5.9041     0.2943    10.5813     2.5050     0.0428   -58.9162
 3323.5000   135.4989   -45.0000   -84.4101     6.6367     5.9056     0.2825    10.6264     2.5095     0.0397   -28.8722
 3324.0000   135.2155   -48.7739   -84.3956     6.6371     5.9918     0.2746    10.6412     2.5158     0.0276   -28.6064
 3324.5000   135.5688   -59.4511   -84.3808     6.6376     6.0794     0.2688    10.6556     2.5224     0.0110   -28.3873
 3325.0000   135.6037   -65.2713   -84.3629     6.7130     6.2128     0.2664    10.7009     2.5148    -0.0102   -28.1681
 3325.5000   132.2418   -64.0889   -84.3484     6.7988     6.3488     0.2730    10.7154     2.5170    -0.0208   -35.5225
 3326.0000   130.7200   -85.0000   -84.3339     6.8726     6.6284     0.2797    10.7301     2.5216    -0.0148   -50.2862
 3326.5000   129.5253   -85.0000   -84.3189     6.9687     6.6803     0.2878    10.7446     2.5231    -0.0103   -50.0669
 3327.0000   128.9411   -85.0000   -84.3012     7.0175     6.4441     0.2896    10.7429     2.5223    -0.0073   -49.8478
 3327.5000   129.6039   -85.0000   -84.2867     7.0180     6.2637     0.2899    10.7252     2.5246    -0.0013   -49.6241
 3328.0000   132.1157   -85.0000   -84.4273     6.8271     6.1323     0.2905    10.7115     2.5284     0.0334   -56.9282
 3328.5000   134.9370   -85.0000   -84.5673     6.8138     6.0898     0.2915    10.7108     2.5211     0.0288   -56.6543
 3329.0000   136.2105   -84.5474   -84.5491     6.7809     6.0913     0.2926    10.7407     2.5025     0.0107   -64.0088
 3329.5000   136.5636   -83.6246   -84.6931     6.8284     6.0488     0.2965    10.7555     2.4972    -0.0059   -71.3083
 3330.0000   136.2802   -82.7018   -84.3653     6.8289     6.0069     0.3008    10.7852     2.5055    -0.0014   -55.9968
 3330.5000   133.5375   -81.7789   -84.0376     6.7824     5.9231     0.3035    10.8153     2.5010     0.0016   -48.2588
 3331.0000   131.0956   -80.8561   -83.7135     6.6896     5.8405     0.3011    10.8144     2.4979    -0.0030   -48.0396
 3331.5000   132.3777   -79.9333   -83.5442     6.5528     5.7177     0.3059    10.8290     2.5002    -0.0125   -47.8195
 3332.0000   136.1278   -79.0105   -83.5294     6.4511     5.5972     0.3126    10.8589     2.5085    -0.0076   -47.5940
 3332.5000   137.7107   -78.0877   -83.5115     6.3130     5.4407     0.3135    10.8735     2.5154     0.0014   -54.9009
 3333.0000   136.1977   -77.1649   -83.4970     6.2444     5.4421     0.3122    10.8726     2.5261     0.0240   -62.2006
 3333.5000   135.3038   -76.2421   -83.4825     6.1591     5.4432     0.3119    10.8718     2.5600     0.0950   -69.5001
 3334.0000   135.0292   -75.3193   -83.4675     6.1170     5.5623     0.3152    10.8866     2.6017     0.1659   -69.2262
 3334.5000   134.4536   -74.3965   -83.4498     6.1175     5.7267     0.3128    10.9165     2.5911     0.1462   -69.0070
 3335.0000   131.3520   -73.4737   -83.5901     6.2896     5.8505     0.2964    10.9311     2.5820     0.0873   -68.7878
 3335.5000   129.5700   -72.5509   -83.5756     6.4218     5.8937     0.2894    10.9608     2.5668     0.0384   -68.5687
 3336.0000   131.1616   -71.6281   -83.5575     6.5271     5.9372     0.2879    10.9908     2.5470     0.0725   -60.8270
 3336.5000   131.4974   -70.7053   -83.5430     6.6514     5.8931     0.2915    10.9900     2.5190     0.1416   -53.0380
 3337.0000   129.0149   -69.7825   -83.3736     6.7885     5.8552     0.2930    10.9893     2.5337     0.1355   -45.3000
 3337.5000   122.6064   -68.8596   -83.3591     6.8360     5.8150     0.2985    11.0345     2.5748     0.0630   -37.5620
 3338.0000   121.7038   -67.9368   -83.3410     6.8411     5.6119     0.3011    11.0950     2.6258     0.0086   -29.8241
 3338.5000   123.6051   -67.0140   -83.1717     6.2926     5.2937     0.3123    11.1709     2.6372    -0.0019   -22.0861
 3339.0000   128.9907   -66.0912   -83.0024     5.7919     4.9718     0.3206    11.2928     2.6182     0.0705   -29.4405
 3339.5000   134.8292   -65.1684   -82.8328     5.5955     4.7981     0.3245    11.3841     2.6121     0.1595   -29.1665
 3340.0000   137.9602   -65.7757   -82.8149     5.4432     4.7309     0.3184    11.3527     2.5932     0.1898   -36.4662
 3340.5000   138.0389   -66.7246   -82.9588     5.3688     4.7319     0.3117    11.2293     2.5659     0.1323   -43.7658
 3341.0000   134.4584   -67.6736   -82.9407     5.3322     4.6991     0.3111    11.1672     2.5302     0.0477   -43.4919
 3341.5000   128.4762   -68.6225   -82.9262     5.2958     4.7003     0.3166    11.0897     2.5057     0.0205   -50.7914
 3342.0000   125.4152   -69.5714   -83.0665     5.2962     4.7012     0.3253    11.1217     2.4642     0.0461   -50.5723
 3342.5000   125.7597   -70.5203   -83.2068     5.3411     4.7362     0.3343    11.2263     2.4453     0.1155   -57.9267
 3343.0000   126.7245   -71.4692   -83.4982     5.4455     4.8398     0.3299    11.2869     2.4195     0.1653   -65.2263
 3343.5000   127.0767   -72.4181   -83.4801     5.4836     4.9458     0.3221    11.3166     2.4323     0.2015   -64.9524
 3344.0000   128.9692   -73.3670   -83.6240     5.5990     5.0180     0.3138    11.2698     2.4551     0.1321   -64.7332
 3344.5000   131.7905   -74.3159   -83.7643     5.6382     5.0551     0.3086    11.2231     2.4763     0.0249   -64.5112
 3345.0000   133.4158   -75.2648   -83.7461     5.6777     4.9843     0.3089    11.0996     2.4998    -0.0039   -64.2857
 3345.5000   135.2747   -76.2138   -83.8864     5.6781     4.8795     0.3143    11.0531     2.5286    -0.0024   -64.0209
 3346.0000   136.2384   -77.1627   -84.0231     5.3359     4.7431     0.3168    11.0982     2.5232     0.0157   -71.3753
 3346.5000   137.2022   -78.1116   -84.0086     5.0143     4.6105     0.3195    11.1281     2.5141     0.0263   -71.1014
 3347.0000   136.5736   -79.0605   -83.8390     4.7777     4.3550     0.3243    11.1237     2.5141     0.0308   -70.8821
 3347.5000   135.7241   -80.0094   -83.8211     4.5209     4.0553     0.3301    11.1181     2.5103     0.0141   -70.6630
 3348.0000   135.1398   -80.9583   -83.6518     4.3979     3.7762     0.3352    11.1126     2.4694     0.0126   -70.4438
 3348.5000   134.8731   -81.9072   -83.6373     4.2782     3.6185     0.3364    11.1070     2.4580     0.0322   -70.2246
 3349.0000   134.5992   -82.8561   -83.6223     4.2179     3.5677     0.3341    11.1015     2.4921     0.1114   -70.0000
 3349.5000   134.6429   -83.8051   -83.6046     4.1333     3.5686     0.3270    11.1140     2.5201     0.1529   -69.7316
 3350.0000   134.9874   -84.7540   -83.5901     4.0487     3.6992     0.3209    11.2042     2.5307     0.1798   -69.5489
