~VERSION INFORMATION
 VERS.                2.0:   CWLS LOG ASCII STANDARD - VERSION 2.0
 WRAP.                 NO:   ONE LINE PER DEPTH STEP
~WELL INFORMATION
#MNEM.UNIT      DATA TYPE    INFORMATION
#----------   ------------   ------------------------------
 STRT.F            9.0000:   START DEPTH
 STOP.F         2876.0000:   STOP DEPTH
 STEP.F            0.5000:   STEP LENGTH
 NULL.          -999.2500:   NO VALUE
 COMP.    FENIX & SCISSON:   COMPANY
 WELL. FENIX & SCISSON "AX" #82-29:   WELL
 FLD .        TEAPOT DOME:   FIELD
 LOC .      S29 T39N R78W:   LOCATION
 CNTY.            NATRONA:   COUNTY
 STAT.            WYOMING:   STATE
 CTRY. UNITED STATES OF AMERICA:   COUNTRY
 SRVC.           BIRDWELL:   SERVICE COMPANY
 DATE.        12-JAN-1980:   LOGDATE
 API .     49025107980000:   API NUMBER
~CURVE INFORMATION
#MNEM.UNIT       API CODE    CURVE DESCRIPTION
#----------   ------------   ------------------------------
 DEPT.F                  :   
 GRD .GAPI   45 310 01 00:   GAMMA RAY FROM DENSITY LOG
 CALD.IN     45 280 60 00:   CALIPER FROM DENSITY LOG
 CORR.G/C3   45 356 01 00:   DENSITY CORRECTION
 RHOB.G/C3   45 350 01 00:   BULK DENSITY
 SPR .MV     07 010 01 00:   SPONTANEOUS POTENTIAL
 ILD .OHMM   07 120 46 00:   DEEP INDUCTION RESISTIVITY
 SN  .OHMM   07 220 01 00:   SHALLOW FOCUSED LOG RESISTIVITY
~PARAMETER INFORMATION
#MNEM.UNIT          VALUE    DESCRIPTION
#----------   ------------   ------------------------------
 EKB .F         4985.0000:   Kelly bushing
 EGL .F         4973.0000:   Ground level
 EDF .F         4982.0000:   Drilling floor
 TD  .F         2876.0000:   Total depth
 CLNT.            A2DTECH:   Client Code
 SL  . 1821' FEL & 414' FEL:   Surface Location
 DATE.        12-JAN-1980:   Date Logged [DD-MMM-YYYY]
 DD  .F              2870:   Depth driller
 DL  .F              2876:   Depth logger
 BLI .F              2876:   Bottom log interval
 TLI .F               320:   Top log interval
 CS1 .IN            8.625:   Casing size
 CBD1.      8.625" @ 280':   Casing driller 1
 CBL1.IN              320:   Casing logger 1
 BS1 .IN            7.875:   Bit size
 BSD1.F              2870:   Depth drilled with bit1
 DFT .            GEL MUD:   Type fluid in hole
 DFD .                8.7:   Density
 DFV .                 53:   Viscosity
 DFPH.               10.5:   pH
 DFL .               15.4:   Fluid loss
 MSS .            MUD PIT:   Source of sample
 RMS .OHMM            1.8:   Rm
 MST .F                50:   Rm Meas. temp.
 RMF .OHMM            1.4:   Rmf
 MFST.F                60:   Rmf Meas. temp.
 MFSS.               MEAS:   Source Rmf.
 RMC .OHMM            1.9:   Rmc
 MCST.F                60:   Rmc Meas. temp.
 MCSS.               MEAS:   Source Rmc.
 RMB .OHMM           0.65:   Rm. at BHT
 BHT .F               138:   BHT.
 TCS .HRS              11:   Time Circ. stopped
 MRT .F               138:   Maximum recorded temp.
 LUN .               3029:   Logging unit number
 LUL .             CASPEL:   Logging unit location
 ENGI.           T. VOLFF:   Recorded By
 WITN.          MR. AMEND:   Witnessed by
 ORIG.         2.5" PRINT:   Origin of data
 UWI .     49025107980000:   Unique Well ID
 DICO. A2D TECHNOLOGIES,INC.:   Digitizing Company
 PD  .                 GL:   Permanent Datum
 EPD .F              4973:   Elevation Permanent Datum
 LMF .                 DF:   Log Measured From
 DMF .                 KB:   Drilling Measured From
 DAPD.F                 9:   Feet Above Permanent Datum
~OTHER INFORMATION
~A    DEPT      GRD      CALD       CORR       RHOB        SPR        ILD         SN   
# ...
 1647.0000   127.1673     8.3246     0.0563     2.5296   -18.0143     8.2182     8.5497
 1647.5000   132.7049     8.3235     0.0442     2.5406   -16.7734     8.3333     8.4310
 1648.0000   137.0473     8.3224     0.0350     2.5414   -16.1137     8.4498     8.5509
 1648.5000   139.3901     8.3212     0.0229     2.5329   -15.2531     8.4486     9.0454
 1649.0000   138.9606     8.3504     0.0137     2.5375   -15.2500     8.4474     9.4352
 1649.5000   135.1548     8.3494     0.0234     2.5390   -16.0236     8.4462     9.5693
 1650.0000   134.1935     8.3484     0.0349     2.5328   -17.3785     8.4450     9.5699
 1650.5000   135.9593     8.3777     0.0341     2.5191   -15.7408     8.4438     9.4207
 1651.0000   136.9138     8.3767     0.0248     2.5099   -14.1849     8.3337     9.0485
 1651.5000   138.0163     8.3756     0.0226     2.5129   -14.9380     7.1190     8.9230
 1652.0000   144.0389     8.3745     0.0467     2.5286   -16.1909     6.5578     9.1777
 1652.5000   149.1196     8.3735     0.0710     2.4961   -17.0574     6.6495     8.4445
 1653.0000   149.7334     8.3724     0.0457     2.4960   -16.4447     6.8376     8.0467
 1653.5000   149.1314     8.3713     0.0413     2.5084   -14.3076     7.5416     8.0272
 1654.0000   147.0097     8.3400     0.0466     2.5130   -16.7436     8.0881     8.7445
 1654.5000   139.7207     8.3245     0.0375     2.5144   -17.6553     8.7966     9.4620
 1655.0000   132.1279     8.3076     0.0223     2.5144   -17.6523     9.5672    10.5658
 1655.5000   132.4377     8.3063     0.0218     2.5143   -17.9543    10.5824    11.3349
 1656.0000   139.1793     8.2750     0.0585     2.5139   -17.5813    11.1803    11.6585
 1656.5000   140.7597     8.2740     0.0646     2.5058   -16.0843    11.5073    11.8242
 1657.0000   141.9310     8.2729     0.0613     2.4911   -15.8112    11.1893    11.9922
 1657.5000   142.5632     8.2719     0.0476     2.4744   -16.4180     9.9350    11.9930
 1658.0000   143.1064     8.2709     0.0506     2.4788   -16.1464     8.6433    11.9938
 1658.5000   143.7387     8.2699     0.0980     2.5068   -15.0843     7.7627    11.8024
 1659.0000   145.9270     8.2688     0.0916     2.4977   -14.4533     7.3157    10.7694
 1659.5000   148.9949     8.2374     0.0540     2.4936   -14.1108     7.0192     9.6366
 1660.0000   160.4563     8.2364     0.0192     2.5066   -14.8781     6.9205     8.9603
 1660.5000   159.5504     8.2353     0.0129     2.5065   -13.9598     7.1163     8.5657
 1661.0000   151.6535     8.2343     0.0338     2.5020   -13.8516     7.1153     8.8344
 1661.5000   151.0515     8.2332     0.0368     2.5111   -14.2587     7.4200     9.5031
 1662.0000   156.9176     8.2321     0.0338     2.5187   -14.8655     8.0700    11.8513
 1662.5000   164.5892     8.2309     0.0216     2.5111   -15.1677     9.4142    13.1973
 1663.0000   170.6734     8.2298     0.0185     2.4775   -16.3840    11.0578    14.6094
 1663.5000   177.8705     8.2288     0.0427     2.4713   -16.9908    13.3569    15.4544
 1664.0000   186.7739     8.2278     0.0942     2.4764   -16.9838    15.5478    16.3483
 1664.5000   188.1690     8.2268     0.1281     2.4888   -16.3750    16.9087    17.0528
 1665.0000   178.1870     8.2257     0.1426     2.4973   -16.4125    18.2671    18.0391
 1665.5000   169.4332     8.2247     0.1315     2.4896   -18.0113    19.3361    18.8164
 1666.0000   169.1250     8.2236     0.0751     2.4877   -19.3412    19.6246    19.6346
 1666.5000   188.1956     8.2226     0.0447     2.4865   -20.1169    20.1986    20.2132
 1667.0000   195.1924     8.2215     0.0250     2.4922   -18.5342    20.6143    20.8090
 1667.5000   201.5812     8.2204     0.0198     2.4969   -16.8343    20.6115    21.4222
 1668.0000   201.8502     8.2194     0.0180     2.5002   -17.1137    20.9001    22.0535
 1668.5000   193.3864     8.2184     0.0210     2.4986   -17.2653    21.1921    23.0244
 1669.0000   194.3041     8.2173     0.0210     2.4891   -17.2616    21.1890    23.5673
 1669.5000   196.7523     8.2160     0.0209     2.4773   -17.2587    20.8912    23.2621
 1670.0000   200.2944     8.2150     0.0209     2.4711   -16.6459    20.8883    22.2834
 1670.5000   210.9790     8.2140     0.0178     2.4681   -16.3381    20.5946    21.3661
 1671.0000   230.4738     8.2129     0.0178     2.4528   -15.4205    20.5536    20.4862
 1671.5000   243.0329     8.2119     0.0177     2.4345   -14.1980    19.6860    19.6426
 1672.0000   248.9094     8.2109     0.0207     2.4390   -12.9756    18.9815    18.5711
 1672.5000   247.1613     8.2099     0.0207     2.4466   -12.9931    17.0797    17.8064
 1673.0000   222.6604     8.2088     0.0176     2.4527   -14.2742    16.4452    17.0731
 1673.5000   198.5795     8.2077     0.0176     2.4436   -16.3203    16.5512    16.8362
 1674.0000   179.6613     8.2149     0.0175     2.4470   -16.6223    17.0353    16.6026
 1674.5000   177.9575     8.2361     0.0144     2.4641   -16.6189    17.3863    16.9390
 1675.0000   180.3961     8.2348     0.0144     2.4764   -15.7012    18.3861    18.6668
 1675.5000   184.0494     8.2338     0.0158     2.4824   -13.8695    19.4440    19.7174
 1676.0000   184.7274     8.2327     0.0204     2.4862   -14.9188    20.2764    20.6716
 1676.5000   178.2862     8.2315     0.0355     2.4811   -16.1534    20.5601    21.0854
 1677.0000   161.8787     8.2305     0.0294     2.4816   -16.6036    20.5571    19.9822
 1677.5000   150.6384     8.2294     0.0263     2.4962   -16.2952    19.4334    18.9858
 1678.0000   144.7354     8.2284     0.0505     2.5137   -15.6825    18.3207    18.3052
 1678.5000   143.2280     8.2274     0.0539     2.5090   -14.9949    17.0933    17.5730
 1679.0000   145.4404     8.2264     0.0534     2.5156   -16.2863    16.2824    16.8494
 1679.5000   146.9909     8.2253     0.0534     2.5289   -16.5884    15.4624    16.1555
 1680.0000   136.6881     8.2242     0.0564     2.5487   -16.5853    14.6717    15.4902
 1680.5000   117.8490     8.2232     0.0628     2.5823   -16.2774    14.3054    15.0623
 1681.0000   110.8640     8.2222     0.0654     2.5914   -15.0224    13.9721    15.0633
 1681.5000   105.3988     8.2210     0.0492     2.5609   -14.4422    13.8657    15.0644
 1682.0000   109.6600     8.2200     0.0410     2.5593   -15.1543    13.8634    15.2784
 1682.5000   121.8240     8.2190     0.0501     2.5547   -14.4562    13.8615    15.2795
 1683.0000   123.9576     8.2179     0.0310     2.5471   -13.8232    13.8597    15.4966
 1683.5000   121.8060     8.2469     0.0183     2.5241   -13.8201    14.0536    15.4451
 1684.0000   120.6259     8.3368     0.0310     2.5196   -13.8171    13.8559    15.2174
 1684.5000   132.4643     8.3964     0.0529     2.5243   -14.2632    13.8540    14.7839
 1685.0000   137.9629     8.4258     0.0559     2.5292   -14.4207    13.2817    14.3628
 1685.5000   136.1451     8.4247     0.0559     2.5324   -13.5024    12.9007    14.1509
 1686.0000   140.5773     8.4236     0.0558     2.5363   -14.4141    12.3335    13.7479
 1686.5000   145.2459     8.4226     0.0467     2.5327   -15.0209    11.6699    13.4733
 1687.0000   146.6322     8.4215     0.0406     2.5270   -15.6277    11.1772    12.9187
 1687.5000   147.7205     8.4205     0.0405     2.5204   -16.2345    11.0098    12.7394
 1688.0000   148.3343     8.4194     0.0435     2.5217   -16.8413    10.8449    12.7403
 1688.5000   144.9981     8.4488     0.0500     2.5248   -17.1433    10.7523    12.5635
 1689.0000   145.6119     8.4476     0.0556     2.5279   -16.2096    10.8317    12.3892
 1689.5000   158.0798     8.4466     0.0555     2.5301   -14.3709    11.0546    12.3900
 1690.0000   155.9580     8.4454     0.0544     2.5316   -13.7805    11.0531    12.5779
 1690.5000   153.2284     8.4442     0.0524     2.5224   -13.7185    11.5264    12.9486
 1691.0000   151.1066     8.4432     0.0508     2.5117   -13.4695    11.6877    13.2939
 1691.5000   149.8014     8.4422     0.0445     2.5117   -13.8669    11.8510    13.4828
 1692.0000   147.7794     8.4411     0.0431     2.5147   -14.6835    12.1862    13.5447
