~VERSION INFORMATION
 VERS.                2.0:   CWLS LOG ASCII STANDARD - VERSION 2.0
 WRAP.                 NO:   ONE LINE PER DEPTH STEP
~WELL INFORMATION
#MNEM.UNIT      DATA TYPE    INFORMATION
#----------   ------------   ------------------------------
 STRT.F         2299.0000:   START DEPTH
 STOP.F         3387.5000:   STOP DEPTH
 STEP.F            0.5000:   STEP LENGTH
 NULL.          -999.2500:   NO VALUE
 COMP. LAWRENCE ALLISON AND ASSOCIATES:   COMPANY
 WELL. 		  62-AX-3:   WELL
 FLD .                NPR:   FIELD
 LOC .       S3 T38N R78W:   LOCATION
 CNTY.            NATRONA:   COUNTY
 STAT.            WYOMING:   STATE
 CTRY. UNITED STATES OF AMERICA:   COUNTRY
 SRVC.      DRESSER ATLAS:   SERVICE COMPANY
 DATE.        14-JUN-1985:   LOGDATE
 API .     49025110330000:   API NUMBER
~CURVE INFORMATION
#MNEM.UNIT       API CODE    CURVE DESCRIPTION
#----------   ------------   ------------------------------
 DEPT.F                  :   
 NPHI.DEC    42 890 01 00:   NEUTRON POROSITY
 TEND.LBS    45 635 01 00:   TENSION
 RHOB.G/C3   45 350 01 00:   BULK DENSITY
 CORR.DEC    45 356 01 00:   CORRECTION
~PARAMETER INFORMATION
#MNEM.UNIT          VALUE    DESCRIPTION
#----------   ------------   ------------------------------
 EKB .F         5160.0000:   Kelly bushing
 EGL .F         5148.0000:   Ground level
 EDF .F            0.0000:   Drilling floor
 EPD .F         5148.0000:   Permanent datum
 TD  .F         3380.0000:   Total depth
 DATE.        14-JUN-1985:   Date logged
 CLNT.            A2DTECH:   Client Code
 PD  .                 GL:   Permanent Datum
 LMF .                 KB:   Log Measured From
 DMF .                 KB:   Drilling Measured From
 DL  .F              3380:   Depth logger
 BLI .F              3378:   Bottom log interval
 CS1 .IN            8.625:   Casing size
 CBD1.      8.625" @ 603':   Casing driller 1
 DFT .        KCL POLYMER:   Type fluid in hole
 ENGI.               MACK:   Recorded By
 WITN.             STRONG:   Witnessed by
 ORIG.       2.5"5" PRINT:   Origin of data
 UWI .     49025110330000:   Unique Well ID
 DICO. A2D TECHNOLOGIES, INC.:   Digitizing Company
 DAPD.F                12:   Feet Above Permanent Datum
 BS1 .IN            7.875:   Bit size
 DFD .                8.9:   Density
 DFV .                 46:   Viscosity
 DFPH.                8.5:   pH
 DFL .                9.6:   Fluid loss
 MSS .           FLOWLINE:   Source of sample
 RMS .OHMM           0.38:   Rm
 MST .F                74:   Rm Meas. temp.
 RMF .OHMM           0.29:   Rmf
 MFST.F                74:   Rmf Meas. temp.
 MFSS.               MEAS:   Source Rmf.
 RMC .OHMM           0.23:   Rmc
 MCST.F               120:   Rmc Meas. temp.
 MCSS.               MEAS:   Source Rmc.
 RMB .OHMM           0.23:   Rm. at BHT
 BHT .F               120:   BHT.
 TCS .                  8:   Time Circ. stopped
 MRT .                122:   Maximum recorded temp.
 LUN .            HL-6274:   Logging unit number
 LUL .               GLTE:   Logging unit location
~OTHER INFORMATION
~A     DEPTH         CORR         NPHI         RHOB         TEND
# ...
   2609.0000       0.0140       0.2573       2.5600       0.2184
   2609.5000       0.0090       0.2773       2.5550       0.2157
   2610.0000       0.0020       0.2800       2.5510       0.2129
   2610.5000      -0.0040       0.2676       2.5460       0.2101
   2611.0000      -0.0040       0.2615       2.5410       0.2073
   2611.5000       0.0030       0.2597       2.5390       0.2046
   2612.0000       0.0100       0.2695       2.5390       0.2169
   2612.5000       0.0190       0.2781       2.5420       0.2377
   2613.0000       0.0180       0.2736       2.5430       0.2494
   2613.5000       0.0170       0.2666       2.5420       0.2344
   2614.0000       0.0140       0.2617       2.5380       0.2168
   2614.5000      -0.0030       0.2587       2.5270       0.2062
   2615.0000      -0.0180       0.2526       2.5160       0.2117
   2615.5000      -0.0280       0.2517       2.5050       0.2173
   2616.0000      -0.0330       0.2528       2.5000       0.2228
   2616.5000      -0.0170       0.2542       2.5110       0.2284
   2617.0000      -0.0120       0.2573       2.5110       0.2334
   2617.5000      -0.0050       0.2619       2.5040       0.2312
   2618.0000      -0.0040       0.2630       2.4870       0.2292
   2618.5000      -0.0100       0.2651       2.4830       0.2272
   2619.0000      -0.0160       0.2704       2.4820       0.2252
   2619.5000      -0.0250       0.2690       2.4850       0.2239
   2620.0000      -0.0300       0.2648       2.4980       0.2276
   2620.5000       0.0050       0.2639       2.5190       0.2313
   2621.0000       0.0240       0.2662       2.5310       0.2350
   2621.5000       0.0300       0.2685       2.5360       0.2387
   2622.0000       0.0210       0.2772       2.5390       0.2424
   2622.5000       0.0090       0.2858       2.5440       0.2433
   2623.0000      -0.0010       0.2824       2.5410       0.2433
   2623.5000      -0.0050       0.2600       2.5340       0.2433
   2624.0000      -0.0060       0.2278       2.5300       0.2394
   2624.5000       0.0140       0.1874       2.5340       0.2295
   2625.0000       0.0270       0.1455       2.5420       0.2317
   2625.5000       0.0240       0.1284       2.5580       0.2525
   2626.0000       0.0090       0.1343       2.5710       0.2731
   2626.5000      -0.0050       0.1517       2.5460       0.2478
   2627.0000      -0.0030       0.1752       2.4990       0.2228
   2627.5000       0.0010       0.2012       2.4350       0.1979
   2628.0000       0.0000       0.2162       2.3950       0.2125
   2628.5000      -0.0020       0.2140       2.3660       0.2352
   2629.0000      -0.0050       0.2112       2.3540       0.2319
   2629.5000      -0.0070       0.2088       2.3510       0.2143
   2630.0000      -0.0070       0.2102       2.3540       0.1967
   2630.5000       0.0160       0.2101       2.3630       0.1837
   2631.0000       0.0160       0.2092       2.3730       0.1837
   2631.5000       0.0070       0.2061       2.3800       0.1837
   2632.0000      -0.0030       0.2030       2.3870       0.1837
   2632.5000       0.0180       0.2000       2.3930       0.1837
   2633.0000       0.0250       0.1981       2.3910       0.1837
   2633.5000       0.0300       0.1977       2.3890       0.1837
   2634.0000       0.0330       0.2016       2.3950       0.1837
   2634.5000       0.0280       0.2075       2.4010       0.1837
   2635.0000       0.0230       0.2047       2.3940       0.1945
   2635.5000       0.0190       0.2002       2.3850       0.2153
   2636.0000       0.0170       0.1980       2.3810       0.2313
   2636.5000       0.0150       0.1974       2.3830       0.2154
   2637.0000       0.0160       0.1973       2.3790       0.1995
   2637.5000       0.0200       0.1984       2.3740       0.1836
   2638.0000       0.0170       0.2008       2.3710       0.1677
   2638.5000       0.0090       0.2055       2.3670       0.1673
   2639.0000       0.0010       0.2153       2.3620       0.1718
   2639.5000       0.0000       0.2224       2.3560       0.1764
   2640.0000       0.0050       0.2245       2.3600       0.1809
   2640.5000       0.0020       0.2229       2.3720       0.1807
   2641.0000       0.0020       0.2198       2.3820       0.1728
   2641.5000       0.0100       0.2174       2.3850       0.1649
   2642.0000       0.0190       0.2219       2.3850       0.1570
   2642.5000       0.0190       0.2280       2.3860       0.1600
   2643.0000       0.0150       0.2274       2.3800       0.1700
   2643.5000       0.0100       0.2189       2.3680       0.1800
   2644.0000       0.0060       0.2155       2.3570       0.1681
   2644.5000       0.0060       0.2149       2.3540       0.1569
   2645.0000       0.0080       0.2127       2.3580       0.1639
   2645.5000       0.0100       0.1988       2.3610       0.1708
   2646.0000       0.0120       0.1622       2.3660       0.1777
   2646.5000       0.0170       0.1417       2.4070       0.1847
   2647.0000       0.0210       0.1399       2.4580       0.1916
   2647.5000       0.0170       0.1423       2.5120       0.1985
   2648.0000       0.0060       0.1510       2.5240       0.1967
   2648.5000      -0.0020       0.1843       2.4760       0.1717
   2649.0000      -0.0020       0.1993       2.4260       0.1607
   2649.5000       0.0010       0.2061       2.3850       0.1562
   2650.0000       0.0080       0.2139       2.3890       0.1622
   2650.5000       0.0180       0.2195       2.3940       0.1788
   2651.0000       0.0240       0.2206       2.4000       0.1771
   2651.5000       0.0240       0.2200       2.3980       0.1677
   2652.0000       0.0180       0.2190       2.3890       0.1584
   2652.5000       0.0140       0.2199       2.3810       0.1580
   2653.0000       0.0150       0.2213       2.3740       0.1657
   2653.5000       0.0080       0.2206       2.3700       0.1733
   2654.0000      -0.0010       0.2172       2.3710       0.1810
   2654.5000      -0.0050       0.2108       2.3790       0.1887
   2655.0000      -0.0030       0.2071       2.3890       0.1915
   2655.5000       0.0090       0.2070       2.3990       0.1855
   2656.0000       0.0210       0.2075       2.4100       0.1795
   2656.5000       0.0270       0.2080       2.4200       0.1735
   2657.0000       0.0170       0.2158       2.4220       0.1675
   2657.5000       0.0120       0.2334       2.4240       0.1634
   2658.0000       0.0170       0.2462       2.4280       0.1621
   2658.5000       0.0100       0.2410       2.4370       0.1608
   2659.0000       0.0030       0.2346       2.4390       0.1595
   2659.5000       0.0020       0.2327       2.4300       0.1582
   2660.0000       0.0070       0.2333       2.4130       0.1570
   2660.5000       0.0050       0.2332       2.3850       0.1557
   2661.0000       0.0040       0.2319       2.3690       0.1544
   2661.5000       0.0090       0.2282       2.3640       0.1490
   2662.0000       0.0110       0.2273       2.3620       0.1414
   2662.5000       0.0100       0.2320       2.3600       0.1341
   2663.0000       0.0100       0.2340       2.3600       0.1383
   2663.5000       0.0100       0.2336       2.3640       0.1423
   2664.0000       0.0010       0.2302       2.3670       0.1462
   2664.5000      -0.0070       0.2146       2.3670       0.1502
   2665.0000      -0.0080       0.2049       2.3680       0.1539
   2665.5000       0.0050       0.1989       2.3810       0.1539
   2666.0000       0.0200       0.1952       2.4020       0.1539
   2666.5000       0.0310       0.1927       2.4230       0.1614
   2667.0000       0.0250       0.1926       2.4450       0.1682
   2667.5000       0.0130       0.2033       2.4490       0.1750
   2668.0000       0.0010       0.2188       2.4440       0.1818
   2668.5000      -0.0020       0.2206       2.4260       0.1748
   2669.0000       0.0040       0.2199       2.4090       0.1623
   2669.5000       0.0080       0.2204       2.4010       0.1498
   2670.0000       0.0080       0.2269       2.3860       0.1471
   2670.5000      -0.0010       0.2376       2.3650       0.1528
