~VERSION INFORMATION
 VERS.                2.0:   CWLS LOG ASCII STANDARD - VERSION 2.0
 WRAP.                 NO:   ONE LINE PER DEPTH STEP
~WELL INFORMATION
#MNEM.UNIT      DATA TYPE    INFORMATION
#----------   ------------   ------------------------------
 STRT.F          216.0000:   START DEPTH
 STOP.F         3241.0000:   STOP DEPTH
 STEP.F            0.5000:   STEP LENGTH
 NULL.          -999.2500:   NO VALUE
 COMP.    FENIX & SCISSON:   COMPANY
 WELL.    FENIX "A" #72-4:   WELL
 FLD .             NPR #3:   FIELD
 LOC .       S4 T38N R78W:   LOCATION
 CNTY.            NATRONA:   COUNTY
 STAT.            WYOMING:   STATE
 CTRY. UNITED STATES OF AMERICA:   COUNTRY
 SRVC.              WELEX:   SERVICE COMPANY
 DATE.        09-JUL-1977:   LOGDATE
 API .     49025103900000:   API NUMBER
~CURVE INFORMATION
#MNEM.UNIT       API CODE    CURVE DESCRIPTION
#----------   ------------   ------------------------------
 DEPT.F                  :   
 CORR.G/C3   45 356 01 00:   DENSITY CORRECTION
 GRD .GAPI   45 310 01 00:   GAMMA RAY FROM DENSITY LOG
 RHOB.G/C3   45 350 01 00:   BULK DENSITY
 CALD.IN     45 280 60 00:   CALIPER FROM DENSITY LOG
 SPR .MV     07 010 01 00:   SPONTANEOUS POTENTIAL
 ILD .OHMM   07 120 46 00:   DEEP INDUCTION RESISTIVITY
 ILM .OHMM   07 120 44 00:   INDUCTION LOG MEDIUM RESISTIVITY
 SGRD.OHMM   07 220 05 00:   SHALLOW SHORT GUARD RESISTIVITY
~PARAMETER INFORMATION
#MNEM.UNIT          VALUE    DESCRIPTION
#----------   ------------   ------------------------------
 EKB .F         5192.0000:   Kelly bushing
 EGL .F         5182.0000:   Ground level
 TD  .F         3243.0000:   Total depth
 CLNT.            A2DTECH:   Client Code
 SL  . 990' FNL & 990' FEL:   Surface Location
 PD  .                 GL:   Permanent Datum
 EPD .F              5182:   Elevation Permanent Datum
 LMF .                 KB:   Log Measured From
 DMF .                 KB:   Drilling Measured From
 DAPD.F                10:   Feet Above Permanent Datum
 DATE.        09-JUL-1977:   Date Logged [DD-MMM-YYYY]
 DD  .F              3230:   Depth driller
 DL  .F              3243:   Depth logger
 BLI .F              3241:   Bottom log interval
 TLI .F               224:   Top log interval
 CS1 .IN            8.625:   Casing size
 CBD1.      8.625" @ 221':   Casing driller 1
 CBL1.F               224:   Casing logger 1
 BS1 .IN            7.875:   Bit size
 BSD1.F              3230:   Depth drilled with bit1
 DFT .                KCL:   Type fluid in hole
 DFD .                8.9:   Density
 DFV .                 44:   Viscosity
 DFPH.                7.5:   pH
 DFL .                5.8:   Fluid loss
 MSS .            MUD PIT:   Source of sample
 RMS .OHMM           0.24:   Rm
 MST .F                68:   Rm Meas. temp.
 RMF .OHMM           0.20:   Rmf
 MFST.F                68:   Rmf Meas. temp.
 MFSS.               MEAS:   Source Rmf.
 RMC .OHMM           0.31:   Rmc
 MCST.F                68:   Rmc Meas. temp.
 MCSS.               MEAS:   Source Rmc.
 RMB .OHMM           0.13:   Rm. at BHT
 BHT .F               117:   BHT.
 TCS .HRS               3:   Time Circ. stopped
 MRT .F               117:   Maximum recorded temp.
 LUN .               8766:   Logging unit number
 LUL .             CASPER:   Logging unit location
 ENGI.          T. JOYNER:   Recorded By
 WITN.         HARRINGTON:   Witnessed by
 ORIG.           5" PRINT:   Origin of data
 UWI .     49025103900000:   Unique Well ID
 DICO. A2D TECHNOLOGIES, INC.:   Digitizing Company
~OTHER INFORMATION
~A   DEPT     CORR         GRD        RHOB     CALD        SPR        ILD        ILM       SGRD   
# ...
  418.5000     0.0248    70.7300     2.4629    12.0929   -62.0120     5.5803     5.7596     6.0359
  419.0000     0.0248    70.8867     2.4749    12.0938   -62.0179     5.4308     5.6440     5.8765
  419.5000     0.0263    70.0054     2.4764    12.0947   -62.0250     5.3578     5.5306     5.7986
  420.0000     0.0271    70.1646     2.4660    12.0806   -62.0308     5.2505     5.3816     5.6436
  420.5000     0.0271    71.5161     2.4390    12.0666   -62.0366     5.2161     5.2016     5.4541
  421.0000     0.0271    72.2715     2.4218    12.0675   -62.0424     5.0756     5.0620     5.3439
  421.5000     0.0264    73.0269     2.4106    12.0684   -62.0481     4.8378     4.8585     5.2731
  422.0000     0.0257    73.9374     2.4046    12.0694   -62.0539     4.5470     4.6631     5.1679
  422.5000     0.0250    74.7044     2.4001    12.0852   -62.0597     4.3035     4.2053     5.0640
  423.0000     0.0242    75.8918     2.3880    12.0861   -62.0458     4.1299     3.7404     4.8602
  423.5000     0.0235    77.0943     2.3647    12.0721   -61.9220     4.0173     3.6149     4.1723
  424.0000     0.0235    77.8497     2.3283    12.0729   -61.6307     4.0207     3.7349     4.0061
  424.5000     0.0236    77.2638     2.2968    12.0589   -61.4858     4.1363     4.0988     4.4179
  425.0000     0.0253    76.3773     2.2699    12.0446   -61.1945     4.4050     4.3945     5.0786
  425.5000     0.0371    76.8372     2.2354    12.0607   -61.0496     4.4998     4.7116     5.4465
  426.0000     0.0446    78.4867     2.1890    12.0765   -60.7582     4.4393     5.0516     5.6419
  426.5000     0.0483    79.0931     2.1500    12.1370   -60.6050     4.5988     5.3788     5.8039
  427.0000     0.0424    79.1033     2.0781    12.2125   -60.4714     4.9661     5.5708     5.8475
  427.5000    -0.0122    79.7097     2.0136    12.2881   -60.3279     5.2521     5.7298     5.8914
  428.0000    -0.0257    79.2728     2.1029    12.3486   -60.3351     5.4780     5.8528     5.8946
  428.5000     0.0073    78.3889     2.3960    12.0960   -60.3409     5.7137     5.8556     5.9389
  429.0000     0.0058    80.1064     2.3992    11.9924   -60.3467     5.8807     5.9420     5.9836
  429.5000    -0.0017    82.1377     2.3856    11.9632   -60.3524     6.0112     6.0030     5.9875
  430.0000    -0.0031    82.5925     2.3736    11.9792   -60.3582     6.1338     6.0708     5.9908
  430.5000    -0.0016    80.6679     2.3691    11.9801   -60.5134     6.1367     6.1159     6.0358
  431.0000     0.0051    80.3775     2.3835    11.9959   -60.5205     6.1396     6.2041     6.0390
  431.5000     0.0104    82.7748     2.4179    11.9968   -60.5262     6.1425     6.2501     6.0423
  432.0000     0.0179    83.5302     2.4427    12.0275   -60.5320     6.1455     6.2965     6.0456
  432.5000     0.0209    82.4972     2.4562    12.0284   -60.5378     6.1484     6.3432     6.1334
  433.0000     0.0217    81.0171     2.4623    12.0442   -60.5436     6.1513     6.3463     6.1367
  433.5000     0.0200    80.4286     2.4563    12.0600   -60.5494     6.0693     6.3493     6.1828
  434.0000     0.0129    81.3356     2.4218    12.0609   -60.5552     6.0297     6.3530     6.1863
  434.5000     0.0060    80.3026     2.4136    12.0319   -60.5624     5.9914     6.4001     6.0628
  435.0000     0.0046    79.7168     2.4324    12.0029   -60.5681     5.9123     6.4032     5.8592
  435.5000     0.0091    79.7437     2.4444    12.0013   -60.5739     5.8742     6.4062     5.7408
  436.0000     0.0121    79.8888     2.4534    11.9898   -60.5797     5.8356     6.4538     5.6647
  436.5000     0.0121    79.8991     2.4551    11.9757   -60.4348     5.7980     6.5016     5.6685
  437.0000     0.0121    79.7603     2.4490    11.9768   -60.5912     5.7607     6.5047     5.6716
  437.5000     0.0129    79.3208     2.4280    11.9776   -60.5970     5.8042     6.5078     5.7540
  438.0000     0.0137    79.0343     2.4258    11.9786   -60.6030     5.8474     6.4659     5.8376
  438.5000     0.0152    79.0458     2.4343    11.9794   -60.7593     5.9320     6.3802     5.8408
  439.0000     0.0160    79.3541     2.4281    11.9654   -61.0636     5.9348     6.2915     5.8847
  439.5000     0.0152    79.6624     2.4162    11.9513   -61.3678     5.9376     6.1615     5.9296
  440.0000     0.0138    79.6726     2.4177    11.9532   -61.6721     5.8532     5.9216     5.8910
  440.5000     0.0145    79.3845     2.4237    11.9702   -61.8272     5.7015     5.7230     5.7735
  441.0000     0.0191    79.0969     2.4305    11.9841   -61.9822     5.3961     5.3800     5.5410
  441.5000     0.0228    79.4098     2.4328    11.9676   -61.8387     5.1427     4.8519     5.1365
  442.0000     0.0244    80.0437     2.4193    11.9557   -61.8459     4.9696     4.8542     4.8281
  442.5000     0.0267    80.6458     2.4029    11.9568   -62.0010     4.8353     4.8902     4.6983
  443.0000     0.0304    80.9289     2.3954    11.9726   -62.0067     4.7057     4.9265     5.1093
  443.5000     0.0349    80.6385     2.3759    11.9584   -62.1618     4.6109     4.9630     5.5189
  444.0000     0.0409    80.9493     2.3505    11.9594   -62.1675     4.5180     4.9311     5.5979
  444.5000     0.0432    81.5557     2.3265    11.9603   -62.1731     4.4270     4.7958     5.6406
  445.0000     0.0350    82.0130     2.2636    11.9612   -62.1791     4.3359     4.5030     5.7217
  445.5000     0.0170    81.2781     2.2456    11.9770   -62.1851     4.2211     4.1830     5.6459
  446.0000     0.0066    80.5432     2.3358    11.9928   -62.0414     4.1365     3.6949     4.8497
  446.5000     0.0208    80.1063     2.3694    11.9772   -61.8979     4.0815     3.1310     4.1364
  447.0000     0.0253    80.1166     2.3394    11.9647   -61.7545     4.0547     3.2879     3.6780
  447.5000     0.0261    80.4249     2.3057    11.9658   -61.6110     4.0853     3.5743     3.9172
  448.0000     0.0284    81.0313     2.2787    11.9667   -61.3182     4.1157     3.9398     5.3562
  448.5000     0.0351    81.6379     2.2488    11.9524   -61.1762     4.3227     4.2829     5.7456
  449.0000     0.0411    81.9464     2.1971    11.9685   -61.1821     4.6035     4.6239     5.8278
  449.5000     0.0419    81.8097     2.1289    11.9693   -61.0385     4.8687     4.9233     5.8317
  450.0000     0.0329    81.0747     2.0375    11.9851   -61.0457     5.2211     5.2060     5.8348
  450.5000     0.0048    80.4126     2.0105    12.0159   -61.2008     5.3742     5.1733     5.9196
  451.0000    -0.0202    79.9581     2.0798    12.0914   -61.6114     5.4489     5.3235     6.0056
  451.5000     0.0121    79.3274     2.4094    11.8841   -61.5464     5.4930     5.4392     6.0920
  452.0000     0.0062    77.8899     2.4188    11.9752   -61.4461     5.5350     5.4433     6.0978
  452.5000     0.0010    76.8466     2.4035    12.0062   -61.3463     5.5388     5.5258     6.1015
  453.0000     0.0003    77.7464     2.4173    11.9772   -61.2468     5.3535     5.3054     6.0630
  453.5000     0.0018    78.3465     2.4303    11.9787   -61.0376     5.1030     4.9205     5.8129
  454.0000     0.0071    76.8554     2.4486    11.9799   -60.8367     4.8982     4.1709     5.3583
  454.5000     0.0124    76.4092     2.4682    11.9810   -60.6373     4.6368     3.6348     4.7980
  455.0000     0.0154    76.8613     2.4622    11.9673   -60.4386     4.4755     3.4181     4.2666
  455.5000     0.0185    77.3127     2.4458    11.9532   -60.2418     4.2432     3.7498     4.0107
  456.0000     0.0207    78.6609     2.4353    11.9547   -60.0459     4.1585     4.3028     5.1523
  456.5000     0.0223    80.0091     2.4309    11.9708   -59.6849     4.1613     4.3063     5.7211
  457.0000     0.0231    78.3678     2.4204    11.9720   -59.3386     4.2224     4.2792     5.7313
  457.5000     0.0194    78.0568     2.3987    11.9881   -58.9947     4.3141     4.3132     5.2338
  458.0000     0.0142    79.7190     2.3620    11.9893   -58.6511     4.5006     4.4687     5.0936
  458.5000     0.0098    81.6742     2.3508    11.9905   -58.3090     4.8273     4.7597     5.7869
