~VERSION INFORMATION
 VERS.                2.0:   CWLS LOG ASCII STANDARD - VERSION 2.0
 WRAP.                 NO:   ONE LINE PER DEPTH STEP
~WELL INFORMATION
#MNEM.UNIT      DATA TYPE    INFORMATION
#----------   ------------   ------------------------------
 STRT.F            0.0000:   START DEPTH
 STOP.F         4700.0000:   STOP DEPTH
 STEP.F            0.5000:   STEP LENGTH
 NULL.          -999.2500:   NO VALUE
 COMP. LAWRENCE ALLISON & ASSOCIATES:   COMPANY
 WELL. LAWRENCE NPR 3 "X" #33-23:   WELL
 FLD .                NPR:   FIELD
 LOC .      S23 T38N R78W:   LOCATION
 CNTY.            NATRONA:   COUNTY
 STAT.            WYOMING:   STATE
 CTRY. UNITED STATES OF AMERICA:   COUNTRY
 SRVC.      DRESSER ATLAS:   SERVICE COMPANY
 DATE.        12-NOV-1984:   LOGDATE
 API .     49025109930000:   API NUMBER
~CURVE INFORMATION
#MNEM.UNIT       API CODE    CURVE DESCRIPTION
#----------   ------------   ------------------------------
 DEPT.F                  :   
 TEND.LBS    45 635 01 00:   TENSION FROM DENSITY LOG
 CALD.IN     45 280 60 00:   CALIPER FROM DENSITY LOG
 CORR.G/C3   45 356 01 00:   DENSITY CORRECTION
 DEN .G/C3   45 350 01 00:   BULK DENSITY
 CNC .DEC    42 890 03 00:   NEUTRON PORISITY SANDSTONE
 SPR .MV     07 010 01 00:   SPONTANEOUS POTENTIAL
 GRR .GAPI   07 310 01 00:   GAMMA RAY FROM RESISTIVITY
 RFOC.OHMM   07 220 01 00:   RESISTIVITY FOCUSED LOG RES.
 ILM .OHMM   07 120 44 00:   INDUCTION LOG MEDIUM RESISTIVITY
 ILD .OHMM   07 120 46 00:   INDUCTION LOG DEEP RESISTIVITY
 TENS.LBS    60 635 01 00:   TENSION FROM SONIC LOG
 DT  .US/F   60 520 00 00:   DELTA TIME
 TENR.LBS    07 635 01 00:   TENSION
~PARAMETER INFORMATION
#MNEM.UNIT          VALUE    DESCRIPTION
#----------   ------------   ------------------------------
 EKB .F         5308.0000:   Kelly bushing
 EGL .F         5296.0000:   Ground level
 EDF .F            0.0000:   Drilling floor
 EPD .F            0.0000:   Permanent datum
 TD  .F         4695.0000:   Total depth
 DATE.        12-NOV-1984:   Date logged
 CLNT.            A2DTECH:   Client Code
 SL  . 1415' FNL & 1874' FWL:   Surface Location
 PD  .                 GL:   Permanent Datum
 LMF .                 KB:   Log Measured From
 DMF .                 KB:   Drilling Measured From
 DAPD.F                12:   Feet Above Permanent Datum
 DD  .F              4695:   Depth driller
 DL  .F              4694:   Depth logger
 BLI .F              4691:   Bottom log interval
 TLI .F              1205:   Top log interval
 CS1 .IN            8.625:   Casing size
 CBD1.     8.625" @ 1206':   Casing driller 1
 CBL1.F              1205:   Casing logger 1
 BS1 .IN            7.875:   Bit size
 BSD1.F              4695:   Depth drilled with bit1
 DFT .     GFL/KCL/STAFLO:   Type fluid in hole
 DFD .                9.2:   Density
 DFV .                 45:   Viscosity
 DFPH.                  8:   pH
 DFL .                 10:   Fluid loss
 MSS .           FLOWLINE:   Source of sample
 RMS .OHMM            .51:   Rm
 MST .F                72:   Rm Meas. temp.
 RMF .OHMM            .43:   Rmf
 MFST.F                70:   Rmf Meas. temp.
 RMC .OHMM            .64:   Rmc
 MCST.F                72:   Rmc Meas. temp.
 MFSS.               MEAS:   Source Rmf.
 MCSS.               CALC:   Source Rmc.
 RMB .OHMM           .272:   Rm. at BHT
 BHT .F               135:   BHT.
 TCS .HRS               4:   Time Circ. stopped
 MRT .F               135:   Maximum recorded temp.
 LUN .               6274:   Logging unit number
 LUL .               GLTE:   Logging unit location
 ENGI.             RAUTIO:   Recorded By
 ORIG.           5" PRINT:   Origin of data
 UWI .     49025109930000:   Unique Well ID
 DICO. A2D TECHNOLOGIES, INC.:   Digitizing Company
~OTHER INFORMATION
~A    DEPT    TEND       CALD       CORR        DEN        CNC        SPR         GRR      RFOC        ILM        ILD       TENS         DT       TENR   
# ...
  988.0000   -38.7320    12.3540     0.0400     2.3700     0.2550   -48.0820    53.5410     9.2050     9.7110    11.2950   -19.0760    96.0330   -24.2860
  988.5000   -38.7320    12.3440     0.0340     2.3630     0.2600   -47.5380    55.9570     9.0620     9.5790    11.2050   -19.0760    95.8090   -24.2570
  989.0000   -38.7320    12.3320     0.0280     2.3560     0.2660   -47.3820    58.2310     9.0220     9.4480    11.0590   -19.0760    95.5840   -24.2290
  989.5000   -38.7320    12.3190     0.0340     2.3490     0.2720   -47.7610    59.1320     9.0070     9.3690    10.9130   -19.0760    95.3210   -24.2010
  990.0000   -38.7320    12.3190     0.0430     2.3480     0.2790   -48.1310    59.9750     8.9920     9.3000    10.7670   -19.0760    94.4780   -24.1720
  990.5000   -38.7320    12.3330     0.0470     2.3550     0.2760   -48.3830    60.8140     8.9770     9.2140    10.6200   -19.0760    93.4660   -24.1440
  991.0000   -38.7320    12.3480     0.0520     2.3730     0.2690   -48.2390    61.4090     8.9620     9.1280    10.4740   -19.0760    92.4540   -24.1150
  991.5000   -38.7320    12.3620     0.0620     2.3920     0.2620   -48.1040    61.2510     8.9480     9.0310    10.3660   -19.0760    91.3050   -24.0870
  992.0000   -38.7320    12.3760     0.0600     2.4060     0.2590   -47.9710    61.1100     8.5660     9.1120    10.3840   -19.0760    91.3540   -24.0590
  992.5000   -38.7320    12.3910     0.0510     2.4090     0.2730   -47.8370    60.9710     8.1620     9.2350    10.4000   -19.0760    91.4100   -24.0300
  993.0000   -38.7320    12.3950     0.0410     2.4070     0.2850   -47.7070    60.8310     8.1620     9.3690    10.4170   -19.0760    91.4660   -24.0020
  993.5000   -38.7320    12.3940     0.0320     2.4060     0.2880   -47.6960    60.6910     8.6720     9.5560    10.4340   -19.0760    91.0600   -23.9730
  994.0000   -38.7320    12.3940     0.0220     2.4100     0.2920   -47.9830    60.5520     9.3690     9.7640    10.4500   -19.0760    89.5420   -23.9450
  994.5000   -38.7320    12.3940     0.0180     2.4170     0.2770   -48.2570    60.4090     9.3690     9.9000    10.4610   -19.0760    88.0240   -23.9170
  995.0000   -38.7320    12.3940     0.0290     2.4230     0.2620   -48.5310    60.2450     9.3190     9.7210    10.0840   -19.0760    86.3090   -23.8880
  995.5000   -38.7320    12.3940     0.0400     2.4330     0.2500   -48.8050    61.0400     9.0050     9.2160    10.2190   -19.0760    86.8150   -23.8600
  996.0000   -38.7320    12.3940     0.0510     2.4270     0.2500   -49.0800    62.3890     8.6900     8.7050    10.3660   -19.0760    87.8270   -23.8320
  996.5000   -38.7320    12.3940     0.0590     2.4110     0.2570   -49.3560    65.2790     8.3140     8.6930    10.2370   -19.0760    88.8390   -23.8030
  997.0000   -38.7320    12.3940     0.0520     2.3960     0.2670   -49.3760    66.7680     8.3900     8.6740    10.1290   -19.0760    89.8510   -23.7750
  997.5000   -38.7320    12.3940     0.0340     2.3890     0.2750   -49.3360    64.7530     8.3730     8.6550    10.0200   -19.0760    90.4830   -23.7460
  998.0000   -38.7320    12.3940     0.0270     2.3850     0.2670   -49.2940    62.4860     8.3580     8.6360     9.9120   -19.0760    90.4290   -23.7180
  998.5000   -38.7320    12.3940     0.0290     2.3880     0.2590   -49.2520    62.8200     8.3430     8.6250     9.8100   -19.0760    90.3760   -23.6900
  999.0000   -38.7320    12.3940     0.0310     2.3920     0.2590   -49.2080    64.2380     8.3290     8.6340     9.9010   -19.0760    90.3230   -23.6610
  999.5000   -38.7320    12.3940     0.0350     2.3910     0.2670   -48.9290    65.1860     8.3140     8.6410     9.9880   -19.0760    90.2690   -23.6330
 1000.0000   -38.7320    12.3940     0.0400     2.3830     0.2630   -48.6160    64.6840     8.3000     8.6480    10.0840   -19.0760    90.2160   -23.6050
 1000.5000   -38.7320    12.3940     0.0450     2.3750     0.2550   -48.3030    63.3560     8.2850     8.6550    10.0070   -19.0760    90.1620   -23.5760
 1001.0000   -38.7320    12.3940     0.0510     2.3800     0.2560   -47.9890    62.8000     8.2700     8.6620     9.8980   -19.0760    90.1000   -23.5480
 1001.5000   -38.7320    12.3940     0.0470     2.3890     0.2660   -47.6760    62.2590     8.2560     8.6690     9.7890   -19.0760    90.4600   -23.5190
 1002.0000   -38.7320    12.3940     0.0370     2.3910     0.2810   -47.3620    62.6460     8.2410     8.6750     9.6310   -19.0760    90.8870   -23.4910
 1002.5000   -38.7320    12.3940     0.0260     2.3890     0.2760   -47.0490    63.2760     8.2260     8.6820     9.7320   -19.0760    90.8530   -23.4630
 1003.0000   -38.7320    12.3940     0.0160     2.3870     0.2700   -46.7350    64.7800     8.2120     8.6890     9.9140   -19.0760    90.3410   -23.4340
 1003.5000   -38.7320    12.3940     0.0120     2.3910     0.2630   -46.4240    65.3890     8.1970     8.6960     9.9920   -19.0760    89.8290   -23.4060
 1004.0000   -38.7320    12.3940     0.0300     2.3950     0.2560   -46.1710    64.2350     8.1830     8.7030     9.9920   -19.0760    89.3170   -23.3770
 1004.5000   -38.7320    12.3940     0.0450     2.3980     0.2480   -45.9130    62.3810     8.1680     8.7090     9.9920   -19.0760    88.8050   -23.3490
 1005.0000   -38.7320    12.3940     0.0620     2.4020     0.2550   -46.0890    60.5150     8.1620     8.7150     9.9920   -19.0760    88.7620   -23.3210
 1005.5000   -38.7320    12.3940     0.0750     2.4090     0.2670   -46.4960    59.4080     8.1620     8.7210     9.9920   -19.0760    88.8470   -23.2920
 1006.0000   -38.7320    12.3940     0.0750     2.4160     0.2760   -46.9060    62.2920     8.1620     8.7270     9.9920   -19.0760    88.9320   -23.2640
 1006.5000   -38.7320    12.3940     0.0640     2.4230     0.2650   -47.3160    65.4790     8.1620     8.7330     9.9920   -19.0760    89.0180   -23.2360
 1007.0000   -38.7320    12.3940     0.0640     2.4300     0.2540   -47.7240    64.7690     8.1620     8.7390     9.9920   -19.0760    89.0960   -23.2070
 1007.5000   -38.7320    12.3940     0.0600     2.4380     0.2440   -48.0100    63.4930     8.1620     8.7450     9.9920   -19.0760    89.4650   -23.1790
 1008.0000   -38.7320    12.3940     0.0520     2.4380     0.2440   -47.9420    63.1580     8.1620     8.7520     9.9920   -19.0760    89.8060   -23.1500
 1008.5000   -38.7320    12.3940     0.0320     2.4270     0.2540   -47.8780    67.5520     8.1620     8.7580     9.9920   -19.0760    90.1470   -23.1220
 1009.0000   -38.7320    12.3940     0.0320     2.4160     0.2590   -47.8160    68.7450     8.1620     8.7640     9.9920   -19.0760    90.4890   -23.0940
 1009.5000   -38.7320    12.3940     0.0370     2.4060     0.2550   -47.7520    68.8470     8.1620     8.7700     9.9920   -19.0760    90.7030   -23.0650
 1010.0000   -38.7320    12.3940     0.0420     2.3940     0.2550   -47.6900    67.8210     8.1620     8.7760     9.9920   -19.0760    90.7030   -23.0370
 1010.5000   -38.7320    12.3940     0.0440     2.3860     0.2580   -47.6390    68.4360     8.1620     8.7850     9.9920   -19.0760    90.7030   -23.0080
 1011.0000   -38.7320    12.3940     0.0390     2.3850     0.2610   -47.1850    70.1500     8.1620     8.7690     9.9910   -19.0760    90.7030   -22.9800
 1011.5000   -38.7320    12.3940     0.0300     2.3900     0.2610   -46.6590    71.8500     8.1620     8.7390     9.9920   -19.0760    90.7030   -22.9520
 1012.0000   -38.7320    12.3940     0.0230     2.3960     0.2620   -46.1280    71.4320     8.1620     8.7100     9.9660   -19.0760    90.7030   -22.9230
 1012.5000   -38.7320    12.3940     0.0220     2.4030     0.2590   -45.8280    68.0230     8.1620     8.6800     9.9240   -18.7740    90.7030   -22.8950
 1013.0000   -38.7320    12.3940     0.0210     2.4060     0.2560   -45.8280    64.6710     8.1620     8.6510     9.8810   -18.1570    90.7030   -22.8670
 1013.5000   -38.7320    12.3940     0.0180     2.4070     0.2530   -45.8250    62.2740     8.1660     8.6210     9.8380   -17.5400    90.5400   -22.8380
