~VERSION INFORMATION
 VERS.                2.0:   CWLS LOG ASCII STANDARD - VERSION 2.0
 WRAP.                 NO:   ONE LINE PER DEPTH STEP
~WELL INFORMATION
#MNEM.UNIT      DATA TYPE    INFORMATION
#----------   ------------   ------------------------------
 STRT.F            0.0000:   START DEPTH
 STOP.F         3504.0000:   STOP DEPTH
 STEP.F            0.5000:   STEP LENGTH
 NULL.          -999.2500:   NO VALUE
 COMP. LAWRENCE-ALLISON AND ASSOCIATES:   COMPANY
 WELL. LAWRENCE "TX" #16-34:   WELL
 FLD .              NPR 3:   FIELD
 LOC .      S34 T39N R78W:   LOCATION
 CNTY.            NATRONA:   COUNTY
 STAT.            WYOMING:   STATE
 CTRY. UNITED STATES OF AMERICA:   COUNTRY
 SRVC.       SCHLUMBERGER:   SERVICE COMPANY
 DATE.        10-APR-1982:   LOGDATE
 API .     49025108970000:   API NUMBER
~CURVE INFORMATION
#MNEM.UNIT       API CODE    CURVE DESCRIPTION
#----------   ------------   ------------------------------
 DEPT.F                  :   
 SPR .MV     07 010 01 00:   SPONTANEOUS POTENTIAL
 ILD .OHMM   07 120 46 00:   DEEP INDUCTION RESISTIVITY
 SFLU.OHMM   07 220 01 00:   SPHERICALLY FOCUSED LOG UNAVERAGED RESISTIVITY
 TENR.LBS    07 635 01 00:   TENSION FROM RESISTIVITY
 ILM .OHMM   07 120 44 00:   INDUCTION LOG MEDIUM RESISTIVITY
 GRD .GAPI   45 310 01 00:   GAMMA RAY FROM DENSITY LOG
 CALD.IN     45 280 60 00:   CALIPER FROM DENSITY LOG
 RHOB.G/C3   45 350 01 00:   BULK DENSITY
 CORR.G/C3   45 356 01 00:   DENSITY CORRECTION
 TEND.LBS    45 635 01 00:   TENSION FROM DENSITY LOG
 NPHI.DEC    42 890 03 00:   NEUTRON POROSITY SANDSTONE
~PARAMETER INFORMATION
#MNEM.UNIT          VALUE    DESCRIPTION
#----------   ------------   ------------------------------
 EKB .F         5149.0000:   Kelly bushing
 EGL .F         5139.0000:   Ground level
 EDF .F            0.0000:   Drilling floor
 TD  .F         3500.0000:   Total depth
 DATE.        10-APR-1982:   Date logged
 CLNT.            A2DTECH:   Client Code
 SL  . 1406' FSL & 423' FWL:   Surface Location
 PD  .                 GL:   Permanent Datum
 EPD .F              5139:   Elevation Permanent Datum
 LMF .                 KB:   Log Measured From
 DMF .                 KB:   Drilling Measured From
 DAPD.F                10:   Feet Above Permanent Datum
 DD  .F              3500:   Depth driller
 DL  .F              3497:   Depth logger
 BLI .F              3491:   Bottom log interval
 TLI .F               658:   Top log interval
 CS1 .IN            9.625:   Casing size
 CBD1.      9.625" @ 632':   Casing driller 1
 CBL1.F               658:   Casing logger 1
 BS1 .IN             8.75:   Bit size
 BSD1.F              3500:   Depth drilled with bit1
 DFT .           SPUD MUD:   Type fluid in hole
 DFD .                  9:   Density
 DFV .                 44:   Viscosity
 DFPH.                 10:   pH
 DFL .                  7:   Fluid loss
 MSS .           FLOWLINE:   Source of sample
 RMS .OHMM              2:   Rm
 MST .F                53:   Rm Meas. temp.
 RMF .OHMM            1.9:   Rmf
 MFST.F                53:   Rmf Meas. temp.
 RMC .OHMM            1.5:   Rmc
 MCST.F                53:   Rmc Meas. temp.
 MFSS.               MEAS:   Source Rmf.
 MCSS.               CALC:   Source Rmc.
 RMB .OHMM              1:   Rm. at BHT
 BHT .F               106:   BHT.
 TCS .HRS            1100:   Time Circ. stopped
 TLAB.HRS            1330:   Time logger at bottom
 MRT .F               106:   Maximum recorded temp.
 LUN .               8151:   Logging unit number
 LUL .                GLT:   Logging unit location
 ENGI.            NEUFFER:   Recorded By
 WITN.           JENNINGS:   Witnessed by
 ORIG.           5" PRINT:   Origin of data
 UWI .     49025108970000:   Unique Well ID
 DICO. A2D TECHNOLOGIES, INC.:   Digitizing Company
~OTHER INFORMATION
~A    DEPT     SPR        ILD       SFLU       TENR        ILM        GRD       CALD       RHOB       CORR       TEND       NPHI   
# ...
 2501.0000   -17.8240     7.5600     8.7980  1438.0260     7.7720   116.7720    10.3050     2.5550     0.0280  1380.0000     0.2560
 2501.5000   -17.7490     7.5990     8.6190  1439.7050     7.8120   115.1320    10.3010     2.5520     0.0290  1380.0000     0.2560
 2502.0000   -17.6740     7.6380     8.4410  1441.3840     7.8520   112.4280    10.2960     2.5580     0.0340  1380.0000     0.2580
 2502.5000   -17.5980     7.6780     8.6440  1443.0620     7.8920   110.0590    10.2910     2.5630     0.0400  1380.0000     0.2600
 2503.0000   -17.5230     7.7170     8.8920  1444.7410     7.9330   108.3870    10.2870     2.5590     0.0380  1380.0000     0.2570
 2503.5000   -17.4470     7.7520     9.1410  1446.4200     7.9690   108.3020    10.2820     2.5550     0.0330  1380.0000     0.2490
 2504.0000   -17.3780     7.7690     9.3190  1448.0990     7.9860   110.7970    10.2770     2.5520     0.0280  1380.0000     0.2440
 2504.5000   -17.2450     7.7840     9.0650  1449.7780     8.0010   113.6760    10.2720     2.5470     0.0240  1380.0000     0.2450
 2505.0000   -17.0950     7.7980     9.1460  1451.4570     8.0170   116.2170    10.2610     2.5340     0.0170  1380.0000     0.2450
 2505.5000   -16.9430     7.8130     9.2640  1453.1360     8.0320   115.3880    10.2430     2.5260     0.0250  1380.0000     0.2430
 2506.0000   -16.7910     7.8240     9.3820  1454.8140     8.0430   114.5670    10.2260     2.5320     0.0540  1380.0000     0.2400
 2506.5000   -16.6470     7.4860     9.4920  1456.4930     7.6960   115.1970    10.2250     2.5250     0.1200  1380.0000     0.2580
 2507.0000   -16.3680     7.2210     8.7230  1458.1720     7.4230   118.1840    10.3230     2.4350     0.1870  1380.0000     0.2800
 2507.5000   -16.3320     6.9560     7.8500  1459.8510     7.1510   121.2340    10.5640     2.2910     0.1380  1380.0000     0.3030
 2508.0000   -16.2870     6.8150     6.4490  1461.5300     7.0060   121.2340    11.0690     2.0850     0.0520  1380.0000     0.3180
 2508.5000   -16.2360     6.8150     6.7090  1463.2090     7.0060   118.6010    11.6240     2.1390     0.0220  1376.0310     0.2990
 2509.0000   -16.1740     6.8150     7.2640  1464.8879     7.0060   117.7410    11.0450     2.2260     0.0750  1369.3979     0.2820
 2509.5000   -16.3970     6.7140     7.8200  1466.5670     6.9020   119.2810    10.2490     2.3120     0.1610  1362.7650     0.2600
 2510.0000   -16.1910     6.6180     8.1170  1468.2450     6.8030   120.9990    10.5630     2.3360     0.2450  1356.1320     0.2470
 2510.5000   -15.9590     6.5230     7.6520  1469.9240     6.7050   122.4880    11.3740     2.2380     0.2320  1349.4990     0.2670
 2511.0000   -15.7220     6.3460     7.2820  1471.6030     6.5310   121.7060    12.0830     2.2100     0.2400  1342.8660     0.2800
 2511.5000   -15.4830     6.0980     7.0060  1473.2820     6.2860   120.3120    12.2140     2.2300     0.2500  1336.2330     0.2910
 2512.0000   -15.2420     5.8500     7.0510  1474.9611     6.0420   118.3390    12.2940     2.2410     0.2500  1329.6000     0.3020
 2512.5000   -15.0310     5.6020     7.0710  1476.6400     5.7970   116.3400    12.3490     2.1050     0.1930  1322.9670     0.3130
 2513.0000   -15.5510     5.3160     6.2570  1478.3190     5.5160   114.6930    12.3950     2.0020     0.0850  1316.3340     0.3310
 2513.5000   -16.1000     5.5070     5.6070  1479.9969     5.7130   113.3330    12.1570     2.0020     0.0340  1309.7010     0.3190
 2514.0000   -16.6450     5.7310     4.9390  1481.6760     5.9460   112.1770    11.5330     2.1990     0.0020  1303.0680     0.3000
 2514.5000   -16.9950     5.9560     5.7690  1483.3550     6.1790   108.8900    10.6240     2.3840     0.0060  1296.4351     0.2710
 2515.0000   -17.0430     6.1800     6.7530  1485.0341     6.4120   105.5770    10.2850     2.4890     0.0120  1289.8020     0.2630
 2515.5000   -17.0950     6.4050     7.7370  1486.7130     6.6450   105.1810    10.2640     2.5250     0.0160  1283.1689     0.2600
 2516.0000   -17.1470     6.6290     8.0670  1488.3920     6.8780   106.9830    10.2480     2.5420     0.0200  1276.5360     0.2570
 2516.5000   -17.1990     6.8540     8.2700  1490.0710     7.1110   109.7000    10.2330     2.5560     0.0250  1269.9030     0.2450
 2517.0000   -17.2500     7.0780     8.6240  1491.7490     7.3440   111.4950    10.2430     2.5630     0.0290  1263.2700     0.2320
 2517.5000   -17.3020     7.3030     9.0650  1493.4280     7.5770   110.7020    10.2590     2.5660     0.0330  1292.4550     0.2240
 2518.0000   -17.3540     7.5270     9.4050  1495.1071     7.8100   109.9010    10.2740     2.5640     0.0350  1356.4730     0.2320
 2518.5000   -17.4050     7.6270     8.9550  1496.7860     7.9130   110.0340    10.2890     2.5560     0.0350  1420.4910     0.2440
 2519.0000   -17.4570     7.6520     8.5630  1498.4650     7.9390   112.1860    10.3050     2.5410     0.0280  1484.5090     0.2560
 2519.5000   -17.5090     7.6810     8.1530  1500.1440     7.9690   115.0790    10.2910     2.5240     0.0190  1540.2950     0.2600
 2520.0000   -17.5600     7.6230     7.7520  1501.8230     7.9080   117.1790    10.2640     2.5170     0.0100  1542.5050     0.2590
 2520.5000   -17.6120     7.5510     8.1420  1503.5010     7.8340   118.2880    10.2360     2.5150     0.0020  1544.7159     0.2570
 2521.0000   -17.6640     7.4800     8.5240  1505.1801     7.7600   116.8540    10.2080     2.5190     0.0010  1546.9270     0.2530
 2521.5000   -17.7160     7.4080     8.9000  1506.8590     7.6860   115.4570    10.1800     2.5310     0.0010  1549.1379     0.2470
 2522.0000   -17.7670     7.3360     8.8310  1508.5380     7.6110   115.0080    10.1720     2.5500     0.0220  1551.3490     0.2440
 2522.5000   -17.8190     7.2650     8.6470  1510.2170     7.5370   114.6160    10.1720     2.5690     0.0520  1553.5601     0.2560
 2523.0000   -17.8710     7.1930     8.3670  1511.8960     7.4630   113.4370    10.1710     2.5760     0.0530  1555.7710     0.2670
 2523.5000   -17.9220     7.1360     8.0870  1513.5750     7.4040   112.0180    10.1610     2.5670     0.0380  1557.9821     0.2790
 2524.0000   -17.9780     7.2840     7.7520  1515.2540     7.5570   110.6040    10.1390     2.5570     0.0260  1560.1930     0.2830
 2524.5000   -18.0630     7.4070     7.9820  1516.9320     7.6840   109.5690    10.1170     2.5590     0.0290  1562.4041     0.2720
 2525.0000   -18.1490     7.5290     8.3620  1518.6110     7.8120   110.4560    10.0950     2.5630     0.0360  1564.6150     0.2580
 2525.5000   -18.2340     7.6520     8.7410  1520.2900     7.9390   111.3190    10.0730     2.5650     0.0430  1566.8260     0.2440
 2526.0000   -18.3190     7.7740     9.1210  1521.9690     8.0660   112.0400    10.0510     2.5640     0.0420  1569.0370     0.2350
 2526.5000   -18.4170     7.8970     9.5010  1523.6479     8.1930   110.1050    10.0290     2.5630     0.0320  1571.2480     0.2330
 2527.0000   -18.5280     8.0200     9.7120  1525.3270     8.3200   108.0780    10.0140     2.5600     0.0230  1573.4590     0.2310
 2527.5000   -18.6380     8.1930     9.8480  1527.0060     8.5000   106.2000    10.0160     2.5550     0.0150  1575.6700     0.2290
 2528.0000   -18.7490     8.1250     9.6060  1528.6840     8.4490   106.3050    10.0250     2.5510     0.0120  1577.8810     0.2300
 2528.5000   -18.8590     8.0110     9.4030  1530.3630     8.3630   109.2110    10.0330     2.5420     0.0090  1580.0920     0.2300
 2529.0000   -18.9700     7.8960     9.1970  1532.0420     8.2470   112.1330    10.0410     2.5370     0.0140  1582.3030     0.2300
 2529.5000   -19.0810     7.7810     8.9890  1533.7209     8.1220   113.5660    10.0490     2.5360     0.0200  1584.5140     0.2320
 2530.0000   -19.1910     7.6670     8.7370  1535.4000     7.9980   114.3710    10.0580     2.5290     0.0260  1586.7250     0.2390
 2530.5000   -19.3020     7.5520     8.2860  1537.0790     7.8730   115.2060    10.0660     2.5140     0.0220  1588.9360     0.2550
 2531.0000   -19.4120     7.4380     7.8240  1538.3430     7.7480   115.1260    10.0710     2.5010     0.0100  1591.1470     0.2630
