~VERSION INFORMATION
 VERS.                2.0:   CWLS LOG ASCII STANDARD - VERSION 2.0
 WRAP.                 NO:   ONE LINE PER DEPTH STEP
~WELL INFORMATION
#MNEM.UNIT      DATA TYPE    INFORMATION
#----------   ------------   ------------------------------
 STRT.F          206.0000:   START DEPTH
 STOP.F         3218.0000:   STOP DEPTH
 STEP.F            0.5000:   STEP LENGTH
 NULL.          -999.2500:   NO VALUE
 COMP.    FENIX & SCISSON:   COMPANY
 WELL.     FENIX AX #16-2:   WELL
 FLD .              NPR 3:   FIELD
 LOC .       S2 T38N R78W:   LOCATION
 CNTY.            NATRONA:   COUNTY
 STAT.            WYOMING:   STATE
 CTRY. UNITED STATES OF AMERICA:   COUNTRY
 SRVC.       SCHLUMBERGER:   SERVICE COMPANY
 DATE.        10-OCT-1977:   LOGDATE
 API .     49025105780000:   API NUMBER
~CURVE INFORMATION
#MNEM.UNIT       API CODE    CURVE DESCRIPTION
#----------   ------------   ------------------------------
 DEPT.F                  :   
 GRD .GAPI   45 310 01 00:   GAMMA RAY FROM DENSITY LOG
 CALD.IN     45 280 60 00:   CALIPER FROM DENSITY LOG
 RHOB.G/C3   45 350 01 00:   BULK DENSITY
 CORR.G/C3   45 356 01 00:   DENSITY CORRECTION
 SPR .MV     07 010 01 00:   SPONTANEOUS POTENTIAL FROM RES.
 RILD.OHMM   07 120 46 00:   DEEP INDUCTION RESISTIVITY
 RILM.OHMM   07 120 44 00:   INDUCTION LOG MEDIUM RESISTIVITY
 RLL8.OHMM   07 220 08 00:   LATEROLOG-8 RES.
~PARAMETER INFORMATION
#MNEM.UNIT          VALUE    DESCRIPTION
#----------   ------------   ------------------------------
 EKB .F         5123.0000:   Kelly bushing
 EGL .F         5113.0000:   Ground level
 EDF .F            0.0000:   Drilling floor
 TD  .F         3220.0000:   Total depth
 CLNT.            A2DTECH:   Client Code
 SL  . 1772' FSL & 576' FWL:   Surface Location
 PD  .                 GL:   Permanent Datum
 EPD .F              5113:   Elevation Permanent Datum
 LMF .                 KB:   Log Measured From
 DMF .                 KB:   Drilling Measured From
 DAPD.F                10:   Feet Above Permanent Datum
 DATE.        10-OCT-1977:   Date Logged [DD-MMM-YYYY]
 DD  .F              3220:   Depth driller
 DL  .F              3218:   Depth logger
 BLI .F              3212:   Bottom log interval
 TLI .F               223:   Top log interval
 CS1 .IN            8.625:   Casing size
 CBD1.      8.625" @ 222':   Casing driller 1
 CBL1.F               223:   Casing logger 1
 BS1 .IN            7.875:   Bit size
 BSD1.F              3220:   Depth drilled with bit1
 DFT .                KCL:   Type fluid in hole
 DFD .                8.6:   Density
 DFV .                 32:   Viscosity
 DFPH.                 11:   pH
 MSS .            MUD PIT:   Source of sample
 RMS .OHMM           0.29:   Rm
 MST .F                82:   Rm Meas. temp.
 RMF .OHMM          0.228:   Rmf
 MFST.F                81:   Rmf Meas. temp.
 MFSS.               MEAS:   Source Rmf.
 RMB .OHMM           0.21:   Rm. at BHT
 BHT .F               122:   BHT.
 TCS .HRS            0600:   Time Circ. stopped
 MRT .F               122:   Maximum recorded temp.
 LUN .               5642:   Logging unit number
 ENGI. CHALUPSKY PETERSON:   Recorded By
 WITN.     WES PETTINGILL:   Witnessed by
 ORIG.           5" PRINT:   Origin of data
 UWI .     49025105780000:   Unique Well ID
 DICO. A2D TECHNOLOGIES, INC.:   Digitizing Company
 TLAB.HRS            1000:   Time logger at bottom
 LUL .               CSPR:   Logging unit location
~OTHER INFORMATION
~A   DEPT       GRD      CALD       RHOB       CORR        SPR       RILD       RILM       RLL8   
# ...
 1988.0000   142.7256     9.5601     2.4791    -0.0062   -52.3218     8.8163     9.1083    11.1877
 1988.5000   143.9229     9.5756     2.4919    -0.0009   -52.1909     8.7615     9.0506    11.0278
 1989.0000   142.4584     9.5765     2.5055    -0.0009   -52.2691     8.8343     9.0625    10.5899
 1989.5000   139.8682     9.5772     2.4919    -0.0017   -52.9646     8.8424     9.0696    10.4500
 1990.0000   144.8121     9.5780     2.4754    -0.0032   -53.5725     8.9139     9.0145    10.6107
 1990.5000   146.7581     9.5787     2.4799    -0.0039   -54.1807     8.9220     8.8983    10.7739
 1991.0000   147.2057     9.5794     2.4912    -0.0046   -54.7935     8.9303     8.8442    10.8617
 1991.5000   145.8527     9.5951     2.4912    -0.0046   -55.5253     8.9403     8.8535    10.7924
 1992.0000   145.4008     9.5958     2.4882    -0.0046   -56.2681     8.9484     8.7997    10.4988
 1992.5000   149.4451     9.6115     2.4973    -0.0046   -57.0378     8.8274     8.7383    10.7392
 1993.0000   150.0416     9.6123     2.5018    -0.0046   -57.7302     8.6501     8.5720    11.1405
 1993.5000   153.4869     9.6280     2.4980    -0.0039   -58.3404     8.4724     8.3968    11.4745
 1994.0000   154.2343     9.6287     2.4860    -0.0016   -58.9052     8.1261     7.9977    11.5680
 1994.5000   152.2816     9.6296     2.4672     0.0007   -58.5147     7.9591     7.6155    10.5931
 1995.0000   149.2802     9.6453     2.4552     0.0072   -58.6113     8.0253     7.7332     9.2255
 1995.5000   142.5307     9.6461     2.5003     0.0285   -58.3802     8.0902     7.9658     8.1209
 1996.0000   136.8306     9.6618     2.5061     0.0573   -58.1035     8.0976     8.2642     7.8418
 1996.5000   134.7287     9.6775     2.4537     0.0222   -56.7757     8.1632     8.4522     8.4325
 1997.0000   137.0005     9.6932     2.4492     0.0147   -55.4335     8.2884     8.5217     9.1959
 1997.5000   143.2678     9.6939     2.4808     0.0097   -54.0304     8.4170     8.5307    10.4672
 1998.0000   146.2634     9.6946     2.4891     0.0045   -53.5150     8.4850     8.6009    11.2529
 1998.5000   145.8107     9.6954     2.4883    -0.0015   -53.1076     8.4927     8.6719    11.1043
 1999.0000   143.4089     9.6961     2.4800    -0.0060   -53.0959     8.5005     8.7434    10.7253
 1999.5000   141.3070     9.7120     2.4778    -0.0053   -53.0420     8.4457     8.7545    10.5836
 2000.0000   139.2056     9.7426     2.4838    -0.0038   -52.9783     8.4547     8.8897    10.5187
 2000.5000   140.3461     9.7099     2.4827    -0.0045   -53.8460     8.5238     8.8977    10.3004
 2001.0000   140.8111     9.7416     2.4827    -0.0037   -54.5870     8.6047     8.8424    10.0150
 2001.5000   138.4060     9.7429     2.4752     0.0008   -55.4557     8.7275     8.7854     9.9660
 2002.0000   136.1490     9.7593     2.4842     0.0060   -56.3090     8.6717     8.6686    10.6413
 2002.5000   136.9190     9.7606     2.4888     0.0091   -57.1656     8.6823     8.6167    11.2787
 2003.0000   138.2903     9.7619     2.4880     0.0017   -58.0161     8.6908     8.5629    11.3684
 2003.5000   141.7765     9.7782     2.4858    -0.0027   -58.8593     8.6353     8.5098    10.9841
 2004.0000   143.4565     9.7913     2.4851    -0.0020   -59.4151     8.5822     8.4569    10.6100
 2004.5000   143.9038     9.8153     2.4866    -0.0004   -59.7230     8.5294     8.4649    10.3221
 2005.0000   144.3497     9.8170     2.4950     0.0005   -59.7517     8.4789     8.4120    10.1861
 2005.5000   144.7970     9.8188     2.5009     0.0012   -59.7374     8.4575     8.3597    10.0524
 2006.0000   145.2457     9.8205     2.4994     0.0012   -59.3361     8.3753     8.2504     9.9915
 2006.5000   146.1447     9.8223     2.4964     0.0012   -58.3242     8.3837     8.2579    10.1554
 2007.0000   150.2174     9.8391     2.4821     0.0013   -57.8047     8.3936     8.2047    10.4534
 2007.5000   150.3626     9.8258     2.5017     0.0006   -56.4473     8.4018     8.1537    10.5366
 2008.0000   142.8036     9.8280     2.5055    -0.0009   -55.0440     8.4089     8.1629    10.2534
 2008.5000   142.9476     9.8447     2.4965    -0.0039   -54.3512     8.4173     8.1703     9.9752
 2009.0000   142.7906     9.8465     2.4875    -0.0061   -53.8632     8.4869     8.1778     9.9120
 2009.5000   140.2168     9.8482     2.4747    -0.0060   -53.5571     8.5556     8.2441    10.4336
 2010.0000   139.4571     9.8500     2.4793    -0.0059   -53.6260     8.6267     8.3124    10.7471
 2010.5000   141.5645     9.8517     2.4849    -0.0043   -54.1519     8.7256     8.3796    10.4555
 2011.0000   144.7309     9.8384     2.4973     0.0033   -54.7633     8.7672     8.5690    10.3178
 2011.5000   147.5951     9.8102     2.5019    -0.0050   -55.1961     8.8389     8.7002    10.4774
 2012.0000   148.0424     9.7969     2.4989    -0.0072   -55.7580     8.9112     8.8334    10.7987
 2012.5000   145.6697     9.7991     2.4861    -0.0004   -56.3894     8.9857     8.9049    11.1171
 2013.0000   143.0452     9.8009     2.4665    -0.0056   -57.1323     9.0590     8.9769    11.3722
 2013.5000   138.8097     9.7872     2.4710    -0.0139   -58.0919     9.1329     9.0495    11.4657
 2014.0000   142.1069     9.7894     2.4816    -0.0033   -58.9117     9.2734     9.1226    11.4777
 2014.5000   142.7255     9.7761     2.4952    -0.0002   -59.4968     9.4161     9.1965    11.5721
 2015.0000   140.3012     9.7628     2.5020     0.0014   -59.7310     9.4253     9.2050    11.5842
 2015.5000   141.2017     9.7495     2.4952     0.0075   -59.9291     9.5022     9.2152    11.6794
 2016.0000   145.8786     9.7353     2.4899     0.0060   -59.6884     9.5797     9.2236    11.5259
 2016.5000   146.3274     9.6930     2.4854     0.0007   -59.5678     9.5891     9.2981    11.5380
 2017.0000   146.3200     9.6652     2.4824    -0.0015   -59.2356     9.5301     9.3733    11.6329
 2017.5000   147.5226     9.6365     2.4907     0.0001   -58.1305     9.4716     9.4491    11.9001
 2018.0000   151.2941     9.5891     2.4892     0.0054   -56.5964     9.4133     9.4577    12.2656
 2018.5000   151.3082     9.5578     2.4840    -0.0006   -55.1268     9.2911     9.3989    12.3587
 2019.0000   149.4682     9.5222     2.4629    -0.0028   -54.3989     9.2317     9.3402    12.1095
 2019.5000   149.6394     9.5239     2.4692    -0.0027   -53.7539     9.1097     9.2163    11.7809
 2020.0000   153.0804     9.5257     2.4983     0.0055   -53.7836     8.9892     9.1590    11.3797
 2020.5000   153.3781     9.5120     2.5060     0.0207   -53.7312     9.0002     9.0920    10.7592
 2021.0000   152.6155     9.5142     2.5006     0.0185   -53.6013     9.0090     9.0454    10.1001
 2021.5000   150.7969     9.5309     2.4944     0.0103   -54.1387     9.0178     9.0557    10.0362
 2022.0000   147.4678     9.5177     2.4826    -0.0101   -54.8944     9.0266     9.0639    11.1853
 2022.5000   147.3108     9.5044     2.4668    -0.0093   -55.6374     9.1036     9.1372    12.0257
 2023.0000   146.8518     9.4911     2.4630    -0.0032   -56.3807     9.1840     9.2111    11.6994
 2023.5000   144.4290     9.5144     2.4736    -0.0108   -57.1505     9.3162     9.2855    11.3819
 2024.0000   144.2721     9.4952     2.4962     0.0007   -58.3143     9.4613     9.2940    11.4760
 2024.5000   144.4173     9.4815     2.5203     0.0160   -58.8812     9.6069     9.3024    11.6558
 2025.0000   145.6183     9.4837     2.5113     0.0196   -59.4549     9.7547     9.3776    11.9206
 2025.5000   149.2379     9.4855     2.5008     0.0091   -59.7613     9.9048     9.5214    12.3668
 2026.0000   153.6133     9.4718     2.4917    -0.0044   -59.9979     9.9856     9.7386    12.9217
 2026.5000   152.2435     9.4739     2.4841    -0.0006   -59.9123    10.0670     9.9586    13.2153
 2027.0000   149.6734     9.4757     2.4812     0.0025   -59.9314    10.2219    10.1111    13.0416
 2027.5000   149.0628     9.4624     2.4888    -0.0073   -59.5180    10.2319    10.1929    12.8702
 2028.0000   152.8329     9.4496     2.4843    -0.0043   -58.6732    10.2420    10.1272    12.7920
