~VERSION INFORMATION
 VERS.                2.0:   CWLS LOG ASCII STANDARD - VERSION 2.0
 WRAP.                 NO:   ONE LINE PER DEPTH STEP
~WELL INFORMATION
#MNEM.UNIT      DATA TYPE    INFORMATION
#----------   ------------   ------------------------------
 STRT.F            0.0000:   START DEPTH
 STOP.F         3440.0000:   STOP DEPTH
 STEP.F            0.5000:   STEP LENGTH
 NULL.          -999.2500:   NO VALUE
 COMP. FLOOR DANIEL (NPSOR):   COMPANY
 WELL. FLOOR DANIEL "SHX" #48-34:   WELL
 FLD .                NPR:   FIELD
 LOC .      S34 T39N R78W:   LOCATION
 CNTY.            NATRONA:   COUNTY
 STAT.            WYOMING:   STATE
 CTRY. UNITED STATES OF AMERICA:   COUNTRY
 SRVC.      WESTERN ATLAS:   SERVICE COMPANY
 DATE.        06-APR-1995:   LOGDATE
 API .     49025109220000:   API NUMBER
~CURVE INFORMATION
#MNEM.UNIT       API CODE    CURVE DESCRIPTION
#----------   ------------   ------------------------------
 DEPT.F                  :   
 TEND.LBS    45 635 01 00:   TENSION FROM DENSITY LOG
 ZCOR.G/C3   45 356 01 00:   DENSITY CORRECTION
 ZDEN.G/C3   45 350 01 00:   BULK DENSITY
 CALD.IN     45 280 60 00:   CALIPER FROM DENSITY LOG
 CNC .DEC    42 890 03 00:   NEUTRON POROSITY SANDSTONE
 GRR .GAPI   07 310 01 00:   GAMMA RAY FROM RESISTIVITY
 TENR.LBS    07 635 01 00:   TENSION FROM RESISTIVITY
 RFOC.OHMM   07 220 04 00:   RESISTIVITY FOCUSED LOG RES.
 RILD.OHMM   07 120 46 00:   DEEP INDUCTION RESISTIVITY
 RILM.OHMM   07 120 44 00:   INDUCTION LOG MEDIUM RESISTIVITY
~PARAMETER INFORMATION
#MNEM.UNIT          VALUE    DESCRIPTION
#----------   ------------   ------------------------------
 EKB .F         5182.0000:   Kelly bushing
 EGL .F         5172.0000:   Ground level
 EDF .F            0.0000:   Drilling floor
 EPD .F            0.0000:   Permanent datum
 TD  .F         3442.0000:   Total depth
 DATE.        06-APR-1995:   Date logged
 CLNT.            A2DTECH:   Client Code
 SL  . 97' FSL & 2256 FWL:   Surface Location
 PD  .                 GL:   Permanent Datum
 DD  .F              3442:   Depth driller
 DL  .F              3422:   Depth logger
 BLI .F              3420:   Bottom log interval
 CS1 .IN            8.625:   Casing size
 CBD1.      8.625" @ 667':   Casing driller 1
 BS1 .IN            7.875:   Bit size
 BSD1.F               AIR:   Depth drilled with bit1
 ENGI.      PAT RASMUSSEN:   Recorded By
 WITN.        GARY STRONG:   Witnessed by
 ORIG.           5" PRINT:   Origin of data
 UWI .     49025109220000:   Unique Well ID
 DICO. A2D TECHNOLOGIES, INC.:   Digitizing Company
 MRT .F               142:   Maximum recorded temp.
~OTHER INFORMATION
~A    DEPT    TEND       ZCOR       ZDEN       CALD        CNC         GRR      TENR       RFOC       RILD       RILM   
# ...
 2144.0000   -52.1220     0.0130     2.4770     8.8090     0.2170   139.3250    -7.9720  -999.2500     8.9930     9.8480
 2144.5000   -52.3850     0.0110     2.4780     8.8090     0.2170   128.7520    -7.1510  -999.2500     9.0280     9.8480
 2145.0000   -52.6480     0.0080     2.4770     8.8080     0.2210   126.5650    -6.3290  -999.2500     9.0630     9.8480
 2145.5000   -52.9110     0.0050     2.4740     8.8030     0.2240   134.2800    -5.5080  -999.2500     9.0990     9.8480
 2146.0000   -53.1740     0.0020     2.4700     8.7980     0.2270   144.1540    -4.6870  -999.2500     9.1340     9.7450
 2146.5000   -53.4370     0.0010     2.4620     8.7920     0.2290   154.6660    -3.8660  -999.2500     9.1690     9.5240
 2147.0000   -53.7000     0.0030     2.4540     8.7860     0.2320   165.5300    -3.4520  -999.2500     9.2040     9.3250
 2147.5000   -53.9630     0.0040     2.4450     8.7810     0.2350   171.6590    -3.4520  -999.2500     9.2390     9.4500
 2148.0000   -54.2260     0.0050     2.4430     8.7750     0.2380   172.5990    -3.4520  -999.2500     9.2750     9.6250
 2148.5000   -54.4890     0.0060     2.4410     8.7690     0.2360   171.3940    -3.4520  -999.2500     9.3100     9.8050
 2149.0000   -54.7520     0.0080     2.4380     8.7700     0.2350   167.2370    -3.4520  -999.2500     9.4790     9.9870
 2149.5000   -55.0150     0.0090     2.4380     8.7710     0.2330   159.9240    -3.4520  -999.2500     9.7530    10.2730
 2150.0000   -55.2780     0.0070     2.4410     8.7720     0.2320   158.8640    -3.4520  -999.2500    10.0270    10.5900
 2150.5000   -55.5410     0.0050     2.4460     8.7730     0.2310   159.2060    -3.4520  -999.2500    10.3020    10.9070
 2151.0000   -55.8040     0.0030     2.4450     8.7750     0.2290   159.3790    -3.4520  -999.2500    10.3990    11.3880
 2151.5000   -56.0670     0.0010     2.4420     8.7760     0.2270   159.1380    -3.4520  -999.2500    10.3990    11.1750
 2152.0000   -56.3300     0.0030     2.4430     8.7770     0.2240   156.2770    -3.4520  -999.2500    10.1480    10.7320
 2152.5000   -56.5930     0.0120     2.4540     8.7780     0.2170   152.3380    -3.4520  -999.2500     9.7920    10.2880
 2153.0000   -56.8560     0.0200     2.4560     8.7790     0.2190   148.3030    -3.4520  -999.2500     9.4360     9.8450
 2153.5000   -57.1190     0.0290     2.4460     8.7800     0.2220   150.2480    -3.4520  -999.2500     9.1270     9.3250
 2154.0000   -57.3820     0.0380     2.4370     8.7820     0.2260   154.1340    -3.4520  -999.2500     8.9930     9.3250
 2154.5000   -57.6450     0.0420     2.4310     8.7830     0.2280   162.6730    -3.4520  -999.2500     8.9300     9.4850
 2155.0000   -57.9080     0.0300     2.4410     8.7840     0.2250   167.3410    -3.4520  -999.2500     8.8310     9.6360
 2155.5000   -58.1710     0.0190     2.4530     8.7850     0.2220   168.0780    -3.4520  -999.2500     8.8720     9.7870
 2156.0000   -58.4340     0.0100     2.4640     8.7860     0.2180   163.6900    -3.4520  -999.2500     8.9920    10.0280
 2156.5000   -58.6970     0.0120     2.4650     8.7870     0.2150   155.9620    -3.4520  -999.2500     9.1580     9.9660
 2157.0000   -58.9600     0.0150     2.4660     8.7880     0.2150   149.5120    -3.4520  -999.2500     9.0990     9.8090
 2157.5000   -59.2230     0.0180     2.4690     8.7900     0.2150   147.4590    -3.4520  -999.2500     9.0050     9.6470
 2158.0000   -59.4860     0.0200     2.4690     8.7910     0.2160   146.8530    -3.4520  -999.2500     8.9110     9.4850
 2158.5000   -59.7490     0.0170     2.4650     8.7920     0.2190   147.3580    -3.4520  -999.2500     8.8170     9.3230
 2159.0000   -60.0120     0.0110     2.4640     8.7930     0.2210   147.6290    -3.4520  -999.2500     8.7230     9.1580
 2159.5000   -60.2750     0.0130     2.4700     8.7940     0.2240   150.0860    -3.4520  -999.2500     8.6290     8.8230
 2160.0000   -60.5380     0.0240     2.4760     8.7950     0.2240   152.6720    -3.4520  -999.2500     8.5360     8.7860
 2160.5000   -60.8010     0.0310     2.4800     8.7970     0.2210   159.3180    -3.4520  -999.2500     8.4420     8.7490
 2161.0000   -61.0640     0.0200     2.4820     8.7980     0.2190   165.3400    -3.4520  -999.2500     8.3480     8.7110
 2161.5000   -61.3270     0.0080     2.4800     8.7990     0.2160   166.4240    -3.4520  -999.2500     8.2540     8.6720
 2162.0000   -61.5900     0.0010     2.4780     8.8000     0.2170   164.7910    -3.4520  -999.2500     8.1770     8.6090
 2162.5000   -61.8530     0.0040     2.4770     8.8010     0.2180   158.7430    -3.4520  -999.2500     8.1140     8.5420
 2163.0000   -62.1160     0.0050     2.4830     8.8020     0.2200   153.6040    -3.4520  -999.2500     8.0510     8.4560
 2163.5000   -62.3790     0.0070     2.4890     8.8030     0.2210   148.4240    -3.4520  -999.2500     7.9880     8.3590
 2164.0000   -62.6230     0.0080     2.4940     8.8050     0.2220   146.6210    -3.4520  -999.2500     7.9190     8.2620
 2164.5000   -58.1200     0.0120     2.4950     8.8060     0.2220   146.0150    -3.4520  -999.2500     7.9270     8.1650
 2165.0000   -53.9120     0.0180     2.4970     8.8070     0.2230   145.9800    -3.4520  -999.2500     7.9360     8.0640
 2165.5000   -49.7040     0.0240     2.4980     8.8080     0.2240   145.9790    -2.4930  -999.2500     7.9450     8.0980
 2166.0000   -45.4960     0.0280     2.5060     8.8090     0.2270   145.3100    -1.4950  -999.2500     7.9540     8.1340
 2166.5000   -43.3950     0.0270     2.5140     8.8090     0.2300   144.4760    -0.4970  -999.2500     7.9630     8.1700
 2167.0000   -44.6900     0.0250     2.5200     8.8090     0.2330   144.6690     0.5010  -999.2500     7.9720     8.2050
 2167.5000   -45.9840     0.0240     2.5180     8.8090     0.2360   146.1720     1.4990  -999.2500     7.9800     8.2410
 2168.0000   -47.2790     0.0210     2.5000     8.8090     0.2390   146.0830     2.4960  -999.2500     7.9890     8.2760
 2168.5000   -48.5740     0.0290     2.4810     8.8090     0.2420   147.9880     3.4940  -999.2500     7.9980     8.3120
 2169.0000   -49.8690     0.0480     2.4630     8.8090     0.2380   149.6000     4.4920  -999.2500     8.0070     8.3480
 2169.5000   -51.1630     0.0670     2.4500     8.8090     0.2350   151.3710     5.4900  -999.2500     8.0160     8.3830
 2170.0000   -52.4580     0.0650     2.4780     8.8090     0.2320   153.0570     6.4880  -999.2500     8.0250     8.4190
 2170.5000   -53.7530     0.0440     2.5030     8.8090     0.2350   154.6510     7.4850  -999.2500     8.0340     8.4550
 2171.0000   -55.0470     0.0240     2.5140     8.8090     0.2390   150.9740     8.4830  -999.2500     8.0430     8.4900
 2171.5000   -56.3420     0.0070     2.5100     8.8090     0.2410   148.1740     9.4810  -999.2500     8.0510     8.5260
 2172.0000   -57.6370    -0.0010     2.5020     8.8090     0.2410   146.6650    10.4790  -999.2500     8.0620     8.5620
 2172.5000   -58.9310    -0.0020     2.4950     8.8090     0.2370   146.5150    11.4770  -999.2500     8.0520     8.5970
 2173.0000   -60.2260     0.0170     2.4880     8.8090     0.2360   146.3420    12.4740  -999.2500     8.0280     8.6320
 2173.5000   -61.5210     0.0330     2.4810     8.8090     0.2340   147.5140    13.4720  -999.2500     8.0060     8.6700
 2174.0000   -62.6230     0.0450     2.4750     8.8090     0.2320   148.8610    14.4700  -999.2500     7.9850     8.6540
 2174.5000   -61.3890     0.0260     2.4690     8.8090     0.2320   145.9430    15.4680  -999.2500     7.9620     8.6370
 2175.0000   -60.3150     0.0060     2.4770     8.8090     0.2310   141.3070    16.2720  -999.2500     7.9410     8.6190
 2175.5000   -59.2410     0.0040     2.4850     8.8090     0.2310   137.5370    16.2720  -999.2500     7.9200     8.6000
 2176.0000   -58.1670     0.0010     2.4860     8.8090     0.2310   139.3110    16.2720  -999.2500     7.9520     8.5820
 2176.5000   -57.0920    -0.0020     2.4800     8.8090     0.2320   147.7200    16.2720  -999.2500     7.9820     8.5630
 2177.0000   -56.0180    -0.0050     2.4820     8.8090     0.2350   154.4060    16.2720  -999.2500     8.0120     8.5450
