~VERSION INFORMATION
 VERS.                2.0:   CWLS LOG ASCII STANDARD - VERSION 2.0
 WRAP.                 NO:   ONE LINE PER DEPTH STEP
~WELL INFORMATION
#MNEM.UNIT      DATA TYPE    INFORMATION
#----------   ------------   ------------------------------
 STRT.F            0.5000:   START DEPTH
 STOP.F         5758.0000:   STOP DEPTH
 STEP.F            0.5000:   STEP LENGTH
 NULL.          -999.2500:   NO VALUE
 COMP.   LAWRENCE ALLISON:   COMPANY
 WELL. LAWRENCE "X" #51-10:   WELL
 FLD .          NPR NO. 3:   FIELD
 LOC .      S10 T38N R78W:   LOCATION
 CNTY.            NATRONA:   COUNTY
 STAT.            WYOMING:   STATE
 CTRY. UNITED STATES OF AMERICA:   COUNTRY
 SRVC.      DRESSER ATLAS:   SERVICE COMPANY
 DATE.        31-JAN-1987:   LOGDATE
 API .     49025111230000:   API NUMBER
~CURVE INFORMATION
#MNEM.UNIT       API CODE    CURVE DESCRIPTION
#----------   ------------   ------------------------------
 DEPT.F                  :   
 GRR .GAPI   07 310 01 00:   GAMMA RAY FROM RESISTIVITY
 TENR.LBS    07 635 01 00:   TENSION FROM RESISTIVITY
 SPR .MV     07 010 01 00:   SPONTANEOUS POTENTIAL
 RD  .OHMM   11 220 10 00:   RESISTIVITY DEEP
 RS  .OHMM   11 220 09 00:   RESISTIVITY SHALLOW
 CNC .DEC    42 890 03 00:   NEUTRON POROSITY
 CALD.IN     45 280 60 00:   CALIPER FROM DENSITY LOG
 DEN .G/C3   45 350 01 00:   BULK DENSITY
 CORR.G/C3   45 356 01 00:   DENSITY CORRECTION
 TEND.LBS    45 635 01 00:   TENSION FORM DENSITY LOG
~PARAMETER INFORMATION
#MNEM.UNIT          VALUE    DESCRIPTION
#----------   ------------   ------------------------------
 EKB .F         5227.0000:   Kelly bushing
 EGL .F         5215.0000:   Ground level
 EDF .F            0.0000:   Drilling floor
 TD  .F         5750.0000:   Total depth
 CLNT.            A2DTECH:   Client Code
 SL  . 2356' FEL & 170' FNL:   Surface Location
 PD  .                 GL:   Permanent Datum
 EPD .F              5215:   Elevation Permanent Datum
 LMF .                 KB:   Log Measured From
 DMF .                 KB:   Drilling Measured From
 DAPD.F                12:   Feet Above Permanent Datum
 DATE.        31-JAN-1987:   Date Logged [DD-MMM-YYYY]
 DD  .F              5747:   Depth driller
 DL  .F              5750:   Depth logger
 BLI .F              5748:   Bottom log interval
 CS1 .IN            9.625:   Casing size
 CBD1.      9.625" @ 511':   Casing driller 1
 CBL1.F               512:   Casing logger 1
 BS1 .IN             8.75:   Bit size
 BSD1.F              5747:   Depth drilled with bit1
 DFT .        KCL POLYMER:   Type fluid in hole
 DFD .                9.3:   Density
 DFV .                 43:   Viscosity
 DFPH.                9.5:   pH
 MSS .           FLOWLINE:   Source of sample
 RMS .OHMM          0.247:   Rm
 MST .F                74:   Rm Meas. temp.
 RMF .OHMM          0.162:   Rmf
 MFST.F                74:   Rmf Meas. temp.
 MFSS.               MEAS:   Source Rmf.
 RMC .OHMM          0.310:   Rmc
 MCST.F                74:   Rmc Meas. temp.
 MCSS.               CALC:   Source Rmc.
 RMB .OHMM          0.109:   Rm. at BHT
 BHT .F               167:   BHT.
 TCS .HRS               5:   Time Circ. stopped
 MRT .F               167:   Maximum recorded temp.
 LUN .            HL-6274:   Logging unit number
 LUL .           GILLETTE:   Logging unit location
 ORIG.        2" 5" PRINT:   Origin of data
 UWI .     49025111230000:   Unique Well ID
 DICO. A2D TECHNOLOGIES, INC.:   Digitizing Company
 ENGI.             RAUTIO:   Recorded By
 WITN.             STRONG:   Witnessed by
 DFL .                7.8:   Fluid loss
~OTHER INFORMATION
~A  DEPTH      GRR       TENR        SPR         RD         RS        CNC       CALD        DEN       CORR       TEND
# ...
 1240.0000    91.7050  -121.1925   -52.3207     9.2063     7.1223  -999.2500  -999.2500  -999.2500  -999.2500  -999.2500
 1240.5000    95.1372  -120.9901   -52.3059     9.2069     7.0237  -999.2500  -999.2500  -999.2500  -999.2500  -999.2500
 1241.0000    94.8342  -120.7876   -51.9814     9.3358     7.0771  -999.2500  -999.2500  -999.2500  -999.2500  -999.2500
 1241.5000    92.1012  -120.5852   -51.6534     9.4011     7.2329  -999.2500  -999.2500  -999.2500  -999.2500  -999.2500
 1242.0000    90.2636  -120.3828   -51.6386     9.4018     7.3921  -999.2500  -999.2500  -999.2500  -999.2500  -999.2500
 1242.5000    89.3614  -120.1803   -51.6238     9.4678     7.5549  -999.2500  -999.2500  -999.2500  -999.2500  -999.2500
 1243.0000    89.0785  -119.9779   -51.6090     9.4684     7.6117  -999.2500  -999.2500  -999.2500  -999.2500  -999.2500
 1243.5000    89.4214  -119.7754   -51.5942     9.4036     7.7245  -999.2500  -999.2500  -999.2500  -999.2500  -999.2500
 1244.0000    90.1093  -119.5730   -52.0438     9.4044     7.5632  -999.2500  -999.2500  -999.2500  -999.2500  -999.2500
 1244.5000    90.7197  -119.3705   -52.3349     9.4050     7.5113  -999.2500  -999.2500  -999.2500  -999.2500  -999.2500
 1245.0000    90.7464  -119.1681   -52.3201     9.4058     7.5684  -999.2500  -999.2500  -999.2500  -999.2500  -999.2500
 1245.5000    91.3855  -118.9657   -52.1505     9.4064     7.6800  -999.2500  -999.2500  -999.2500  -999.2500  -999.2500
 1246.0000    90.4892  -118.7632   -52.1357     9.4070     7.9060  -999.2500  -999.2500  -999.2500  -999.2500  -999.2500
 1246.5000    90.5480  -118.5608   -52.1207     9.6048     7.8517  -999.2500  -999.2500  -999.2500  -999.2500  -999.2500
 1247.0000    93.0268  -118.3583   -52.1024     9.6788     7.7985  -999.2500  -999.2500  -999.2500  -999.2500  -999.2500
 1247.5000    93.0534  -118.1559   -51.7780    10.0132     7.8018  -999.2500  -999.2500  -999.2500  -999.2500  -999.2500
 1248.0000    90.2937  -117.9535   -51.2988    10.2237     7.9168  -999.2500  -999.2500  -999.2500  -999.2500  -999.2500
 1248.5000    86.9148  -117.7510   -51.1292    10.5112     8.2202  -999.2500  -999.2500  -999.2500  -999.2500  -999.2500
 1249.0000    85.7028  -117.5486   -51.2692    10.8067     8.7565  -999.2500  -999.2500  -999.2500  -999.2500  -999.2500
 1249.5000    87.1550  -117.3461   -51.2539    11.1105     9.0134  -999.2500  -999.2500  -999.2500  -999.2500  -999.2500
 1250.0000    89.4781  -117.1437   -51.2359    11.1885     8.9523  -999.2500  -999.2500  -999.2500  -999.2500  -999.2500
 1250.5000    88.2664  -116.9412   -51.2211    11.1125     8.7653  -999.2500  -999.2500  -999.2500  -999.2500  -999.2500
 1251.0000    87.3642  -116.7388   -51.2063    10.9616     8.6440  -999.2500  -999.2500  -999.2500  -999.2500  -999.2500
 1251.5000    86.7430  -116.5364   -51.3659    10.8124     8.7681  -999.2500  -999.2500  -999.2500  -999.2500  -999.2500
 1252.0000    86.8029  -116.3339   -51.3549    10.5918     8.8957  -999.2500  -999.2500  -999.2500  -999.2500  -999.2500
 1252.5000    88.3311  -116.1315   -51.6579    10.5202     8.6473  -999.2500  -999.2500  -999.2500  -999.2500  -999.2500
 1253.0000    91.1352  -115.9290   -52.5756    10.3056     8.4053  -999.2500  -999.2500  -999.2500  -999.2500  -999.2500
 1253.5000    93.9393  -115.7266   -53.1860    10.1657     8.1041  -999.2500  -999.2500  -999.2500  -999.2500  -999.2500
 1254.0000    92.0994  -115.5242   -53.1749    10.0969     7.9420  -999.2500  -999.2500  -999.2500  -999.2500  -999.2500
 1254.5000    91.1476  -115.3217   -52.8565    10.0983     8.0005  -999.2500  -999.2500  -999.2500  -999.2500  -999.2500
 1255.0000    90.5868  -115.1193   -52.5380    10.1700     8.0595  -999.2500  -999.2500  -999.2500  -999.2500  -999.2500
 1255.5000    91.8473  -115.0000   -52.2196    10.2419     8.2359  -999.2500  -999.2500  -999.2500  -999.2500  -999.2500
 1256.0000    94.3417  -115.0000   -51.7461    10.3143     8.5376  -999.2500  -999.2500  -999.2500  -999.2500  -999.2500
 1256.5000    97.4554  -115.0000   -51.2709    10.3157     8.4182  -999.2500  -999.2500  -999.2500  -999.2500  -999.2500
 1257.0000    96.7719  -115.0000   -51.2621    10.3173     8.1826  -999.2500  -999.2500  -999.2500  -999.2500  -999.2500
 1257.5000    94.0896  -115.0000   -51.0984    10.0372     8.0107  -999.2500  -999.2500  -999.2500  -999.2500  -999.2500
 1258.0000    92.2497  -115.0000   -51.0896     9.9323     7.8409  -999.2500  -999.2500  -999.2500  -999.2500  -999.2500
 1258.5000    91.3386  -115.0000   -50.9257     9.7659     7.6230  -999.2500  -999.2500  -999.2500  -999.2500  -999.2500
 1259.0000    91.6659  -115.0000   -50.9149     9.5670     7.4632  -999.2500  -999.2500  -999.2500  -999.2500  -999.2500
 1259.5000    93.0051  -115.0000   -51.0631     9.5020     7.3588  -999.2500  -999.2500  -999.2500  -999.2500  -999.2500
 1260.0000    96.3497  -115.0000   -51.0520     9.4381     7.3079  -999.2500  -999.2500  -999.2500  -999.2500  -999.2500
 1260.5000    97.2962  -115.0000   -51.0432     9.4393     7.4147  -999.2500  -999.2500  -999.2500  -999.2500  -999.2500
 1261.0000    98.2427  -115.0000   -51.3653     9.5063     7.5233  -999.2500  -999.2500  -999.2500  -999.2500  -999.2500
 1261.5000    98.8795  -115.0000   -51.7995     9.5734     7.6878  -999.2500  -999.2500  -999.2500  -999.2500  -999.2500
 1262.0000    99.5170  -115.0000   -52.1003     9.6657     7.8001  -999.2500  -999.2500  -999.2500  -999.2500  -999.2500
 1262.5000    97.3714  -115.0000   -52.0892     9.7768     7.8017  -999.2500  -999.2500  -999.2500  -999.2500  -999.2500
 1263.0000    95.2219  -115.0000   -52.0804     9.7784     7.7477  -999.2500  -999.2500  -999.2500  -999.2500  -999.2500
 1263.5000    92.7628  -115.0000   -52.0955     9.5789     7.7497  -999.2500  -999.2500  -999.2500  -999.2500  -999.2500
 1264.0000    92.1610  -115.0000   -52.3723     9.5141     7.6413  -999.2500  -999.2500  -999.2500  -999.2500  -999.2500
 1264.5000    93.4174  -115.0000   -52.6731     9.4498     7.4275  -999.2500  -999.2500  -999.2500  -999.2500  -999.2500
 1265.0000    91.5819  -115.0000   -52.9738     9.3859     7.3236  -999.2500  -999.2500  -999.2500  -999.2500  -999.2500
 1265.5000    90.9760  -115.0000   -52.9628     9.3224     7.3254  -999.2500  -999.2500  -999.2500  -999.2500  -999.2500
 1266.0000    90.9981  -115.0000   -53.1087     9.3239     7.3269  -999.2500  -999.2500  -999.2500  -999.2500  -999.2500
 1266.5000    91.6350  -115.0000   -53.0977     9.2609     7.3810  -999.2500  -999.2500  -999.2500  -999.2500  -999.2500
 1267.0000    92.5820  -115.0000   -52.9341     9.2621     7.4354  -999.2500  -999.2500  -999.2500  -999.2500  -999.2500
 1267.5000    92.9132  -115.0000   -52.7704     9.1995     7.4912  -999.2500  -999.2500  -999.2500  -999.2500  -999.2500
 1268.0000    93.2405  -115.0000   -52.6068     9.2648     7.7094  -999.2500  -999.2500  -999.2500  -999.2500  -999.2500
 1268.5000    93.5677  -115.0000   -52.5957     9.2021     7.7110  -999.2500  -999.2500  -999.2500  -999.2500  -999.2500
 1269.0000    94.8238  -115.0000   -52.8987     9.2034     7.5490  -999.2500  -999.2500  -999.2500  -999.2500  -999.2500
 1269.5000    96.4726  -105.0000   -53.1973     9.2049     7.2336  -999.2500  -999.2500  -999.2500  -999.2500  -999.2500
 1270.0000    98.2692  -105.0000   -53.3454     9.0796     7.0313  -999.2500  -999.2500  -999.2500  -999.2500  -999.2500
 1270.5000    98.9061  -105.0014   -53.1796     9.0183     6.9333  -999.2500  -999.2500  -999.2500  -999.2500  -999.2500
 1271.0000   102.6389  -105.0000   -52.8589     8.8935     6.8849  -999.2500  -999.2500  -999.2500  -999.2500  -999.2500
 1271.5000   104.8238  -105.0000   -52.5405     8.7746     6.8373  -999.2500  -999.2500  -999.2500  -999.2500  -999.2500
 1272.0000   102.5924  -105.0000   -52.3769     8.7450     6.8391  -999.2500  -999.2500  -999.2500  -999.2500  -999.2500
 1272.5000    97.4333  -105.0000   -52.3680     8.7163     6.8895  -999.2500  -999.2500  -999.2500  -999.2500  -999.2500
 1273.0000    93.7358  -105.0000   -52.5140     8.7783     7.0406  -999.2500  -999.2500  -999.2500  -999.2500  -999.2500
