~VERSION INFORMATION
 VERS.                2.0:   CWLS LOG ASCII STANDARD - VERSION 2.0
 WRAP.                 NO:   ONE LINE PER DEPTH STEP
~WELL INFORMATION
#MNEM.UNIT      DATA TYPE    INFORMATION
#----------   ------------   ------------------------------
 STRT.F           20.0000:   START DEPTH
 STOP.F         4128.0000:   STOP DEPTH
 STEP.F            0.5000:   STEP LENGTH
 NULL.          -999.2500:   NO VALUE
 COMP. LAWRENCE-ALLISON & ASSOCIATES:   COMPANY
 WELL. LAWRENCE "X" #53-3:   WELL
 FLD .             NPR #3:   FIELD
 LOC .       S3 T38N R78W:   LOCATION
 CNTY.            NATRONA:   COUNTY
 STAT.            WYOMING:   STATE
 CTRY. UNITED STATES OF AMERICA:   COUNTRY
 SRVC.      DRESSER ATLAS:   SERVICE COMPANY
 DATE.        18-SEP-1983:   LOGDATE
 API .     49025109370000:   API NUMBER
~CURVE INFORMATION
#MNEM.UNIT       API CODE    CURVE DESCRIPTION
#----------   ------------   ------------------------------
 DEPT.F                  :   
 NPHI.DEC    42 890 03 00:   NEUTRON POROSITY SANDSTONE
 TEND.LBS    45 635 01 00:   TENSION FORM DENSITY LOG
 CORR.G/C3   45 356 01 00:   DENSITY CORRECTION
 RHOB.G/C3   45 350 01 00:   BULK DENSITY
 CALD.IN     45 280 60 00:   CALIPER FROM DENSITY LOG
 GRR .GAPI   07 310 01 00:   GAMMA RAY FROM RESISTIVITY
 TENR.LBS    06 635 01 00:   TENSION FROM RESISTIVITY
 SPR .MV     07 010 01 00:   SPONTANEOUS POTENTIAL
 RILD.OHMM   07 120 46 00:   DEEP INDUCTION RESISTIVITY
 RILM.OHMM   07 120 44 00:   INDUCTION LOG MEDIUM RESISTIVITY
 RSFL.OHMM   07 220 01 00:   SPHERICALLY FOCUSED RESISTIVITY
 TENS.LBS    60 635 01 00:   TENSION FROM SONIC
 DT  .US/F   60 520 00 00:   DELTA TIME
~PARAMETER INFORMATION
#MNEM.UNIT          VALUE    DESCRIPTION
#----------   ------------   ------------------------------
 EKB .F         5214.0000:   Kelly bushing
 EGL .F         5204.0000:   Ground level
 EDF .F            0.0000:   Drilling floor
 TD  .F         4117.0000:   Total depth
 CLNT.            A2DTECH:   Client Code
 PD  .                 GL:   Permanent Datum
 EPD .F              5204:   Elevation Permanent Datum
 LMF .                 KB:   Log Measured From
 DMF .                 KB:   Drilling Measured From
 DAPD.F                10:   Feet Above Permanent Datum
 DATE.        18-SEP-1983:   Date Logged [DD-MMM-YYYY]
 DD  .F              4117:   Depth driller
 DL  .F              4113:   Depth logger
 BLI .F              4110:   Bottom log interval
 TLI .F                 0:   Top log interval
 CS1 .IN            9.625:   Casing size
 CBD1.      9.625" @ 523':   Casing driller 1
 CBL1.F               523:   Casing logger 1
 BS1 .IN            7.875:   Bit size
 BSD1.F              4117:   Depth drilled with bit1
 DFT .            GEL KCL:   Type fluid in hole
 DFD .                9.0:   Density
 DFV .                 42:   Viscosity
 DFPH.                8.5:   pH
 DFL .                 10:   Fluid loss
 MSS .               TANK:   Source of sample
 RMS .OHMM           0.35:   Rm
 MST .F                68:   Rm Meas. temp.
 RMF .OHMM          0.266:   Rmf
 MFST.F                68:   Rmf Meas. temp.
 MFSS.               MEAS:   Source Rmf.
 RMC .OHMM          0.443:   Rmc
 MCST.F                68:   Rmc Meas. temp.
 MCSS.               CALC:   Source Rmc.
 RMB .OHMM          0.185:   Rm. at BHT
 BHT .F               130:   BHT.
 TCS .HRS               4:   Time Circ. stopped
 MRT .F               130:   Maximum recorded temp.
 LUN .               6270:   Logging unit number
 LUL .              WLSTN:   Logging unit location
 ENGI.             REEVES:   Recorded By
 WITN.             STRONG:   Witnessed by
 ORIG.           5" PRINT:   Origin of data
 UWI .     49025109370000:   Unique Well ID
 DICO. A2D TECHNOLOGIES, INC.:   Digitizing Company
~OTHER INFORMATION
~A   DEPT     NPHI       TEND       CORR       RHOB       CALD         GRR      TENR        SPR       RILD       RILM       RSFL       TENS         DT   
# ...
 1710.0000     0.2518   -55.4334     0.0240     2.5614    11.1824   125.4619   -72.2529   -77.0261     6.1104     6.0716     7.1674  -999.2500  -999.2500
 1710.5000     0.2590   -55.3010     0.0134     2.5621    11.1826   125.4027   -72.0379   -76.5912     6.1052     6.0683     7.1994  -999.2500  -999.2500
 1711.0000     0.2646   -55.1951     0.0058     2.5606    11.1924   121.7345   -71.8228   -76.4507     6.1011     6.0642     7.2314  -999.2500  -999.2500
 1711.5000     0.2711   -62.6307     0.0057     2.5568    11.2032   121.4065   -71.7773   -76.3105     6.1412     6.0613     7.3094  -999.2500  -999.2500
 1712.0000     0.2717   -62.4984     0.0117     2.5537    11.2140   123.1902   -72.1591   -76.4664     6.1805     6.1014     7.4115  -999.2500  -999.2500
 1712.5000     0.2665   -66.1897     0.0224     2.5447    11.2215   126.5636   -72.6207   -76.6206     6.1752     6.1422     7.4065  -999.2500  -999.2500
 1713.0000     0.2625   -66.0574     0.0267     2.5402    11.1861   128.8932   -73.0824   -76.7748     6.1710     6.2017     7.4025  -999.2500  -999.2500
 1713.5000     0.2631   -65.9502     0.0237     2.5409    11.1465   130.0850   -73.5440   -77.0780     6.2198     6.2695     7.2927  -999.2500  -999.2500
 1714.0000     0.2619   -65.8191     0.0161     2.5356    11.1071   129.7410   -74.0057   -77.0849     6.2522     6.3114     7.2887  -999.2500  -999.2500
 1714.5000     0.2604   -65.7132     0.0055     2.5288    11.0677   126.6614   -74.4673   -77.3864     6.2469     6.3071     7.2838  -999.2500  -999.2500
 1715.0000     0.2547   -65.6073    -0.0006     2.5303    11.0283   122.0701   -74.9290   -77.5406     6.2879     6.3029     7.2799  -999.2500  -999.2500
 1715.5000     0.2482   -65.4977    -0.0067     2.5333    10.9888   121.1343   -75.3906   -77.8438     6.2838     6.3459     7.2759  -999.2500  -999.2500
 1716.0000     0.2437   -65.3691    -0.0065     2.5377    10.9494   123.8298   -75.8523   -77.9980     6.2793     6.3883     7.2719  -999.2500  -999.2500
 1716.5000     0.2446   -61.4925     0.0083     2.5407    10.9099   128.9569   -76.3139   -78.1522     6.2741     6.3839     7.2671  -999.2500  -999.2500
 1717.0000     0.2397   -53.8451     0.0264     2.5437    10.8712   128.6209   -76.7756   -78.1591     6.3163     6.4258     7.3166  -999.2500  -999.2500
 1717.5000     0.2329   -46.1713     0.0474     2.5474    10.8788   128.5889   -77.2372   -78.1678     6.3567     6.5155     7.3647  -999.2500  -999.2500
 1718.0000     0.2351   -42.2946     0.0534     2.5511    10.9381   128.8855   -77.6989   -78.0257     6.3973     6.5599     7.3604  -999.2500  -999.2500
 1718.5000     0.2459   -34.6473     0.0353     2.5541    10.9887   129.7407   -78.1605   -77.7398     6.4392     6.6506     7.4098  -999.2500  -999.2500
 1719.0000     0.2519   -30.7692     0.0201     2.5548    11.0019   130.3166   -78.6222   -77.1577     6.5283     6.7434     7.5122  -999.2500  -999.2500
 1719.5000     0.2538   -30.6383     0.0033     2.5533    11.0070   129.6686   -79.0838   -76.5755     6.5711     6.8376     7.6171  -999.2500  -999.2500
 1720.0000     0.2472   -26.7617    -0.0086     2.5495    11.0066   126.5891   -79.5455   -76.2879     6.6142     6.8833     7.7235  -999.2500  -999.2500
 1720.5000     0.2352   -26.6558    -0.0102     2.5427    11.0065   121.6938   -80.0071   -76.2965     6.5612     6.9283     7.7751  -999.2500  -999.2500
 1721.0000     0.2283   -30.3206    -0.0087     2.5329    11.0065   116.4946   -80.4688   -76.4507     6.4629     6.7756     7.7141  -999.2500  -999.2500
 1721.5000     0.2232   -30.1883    -0.0102     2.5276    11.0065   114.9428   -80.9304   -76.4594     6.3659     6.7234     7.7099  -999.2500  -999.2500
 1722.0000     0.2325   -33.8531    -0.0103     2.5306    11.0065   117.6384   -81.3920   -76.1717     6.3607     6.6236     7.5945  -999.2500  -999.2500
 1722.5000     0.2362   -33.7472    -0.0088     2.5433    11.0065   121.2538   -81.5430   -75.8841     6.3564     6.5724     7.4281  -999.2500  -999.2500
 1723.0000     0.2389   -33.6149    -0.0028     2.5531    11.0065   122.4456   -81.2972   -75.7437     6.2611     6.5209     7.3179  -999.2500  -999.2500
 1723.5000     0.2266   -33.5090     0.0077     2.5462    11.0067   121.4741   -80.9517   -75.7524     6.1663     6.4706     7.3139  -999.2500  -999.2500
 1724.0000     0.2179   -33.4031     0.0167     2.5380    11.0080   119.6299   -80.6063   -75.9066     6.1621     6.4207     7.2566  -999.2500  -999.2500
 1724.5000     0.2164   -33.2956     0.0287     2.5365    10.9877   119.3019   -80.2608   -76.0608     6.0698     6.3253     7.2006  -999.2500  -999.2500
 1725.0000     0.2198   -36.9621     0.0467     2.5334    10.9870   122.3014   -79.9154   -76.3623     6.0439     6.2307     7.1967  -999.2500  -999.2500
 1725.5000     0.2213   -36.8297     0.0512     2.5280    10.9869   124.3971   -79.5699   -76.6655     6.0178     6.1988     7.1927  -999.2500  -999.2500
 1726.0000     0.2219   -40.4977     0.0346     2.5229    10.9870   124.6690   -79.2245   -76.9670     5.9859     6.1350     7.1879  -999.2500  -999.2500
 1726.5000     0.2201   -40.3622     0.0104     2.5221    10.9870   123.7171   -78.8790   -77.2685     5.9658     6.1316     7.1841  -999.2500  -999.2500
 1727.0000     0.2154   -40.2563    -0.0153     2.5258    10.9870   120.3416   -78.5336   -77.4227     5.9614     6.1275     7.1802  -999.2500  -999.2500
 1727.5000     0.2088   -43.9476    -0.0259     2.5328    10.9870   119.0858   -78.1881   -77.7259     5.9770     6.1242     7.1753  -999.2500  -999.2500
 1728.0000     0.1986   -43.8153    -0.0108     2.5415    10.9870   122.3972   -77.8427   -78.1746     5.9968     6.0459     7.1200  -999.2500  -999.2500
 1728.5000     0.2067   -43.6829     0.0027     2.5475    10.9870   125.7087   -77.4972   -78.4761     5.9917     6.0299     7.0651  -999.2500  -999.2500
 1729.0000     0.2224   -47.3742     0.0102     2.5476    10.9870   125.3216   -77.1518   -78.6303     5.9877     6.0259     7.0612  -999.2500  -999.2500
 1729.5000     0.2269   -47.2419     0.0056     2.5413    10.9870   121.6852   -76.8063   -78.6389     6.0265     6.0227     6.9563  -999.2500  -999.2500
 1730.0000     0.2164   -50.9067     0.0026     2.5361    10.9870   120.4374   -76.4609   -78.7914     6.0219     6.0194     6.9019  -999.2500  -999.2500
 1730.5000     0.2119   -47.0036     0.0131     2.5354    10.9870   119.7975   -76.1154   -78.3583     5.9853     6.0161     6.8486  -999.2500  -999.2500
 1731.0000     0.2200   -46.8978     0.0025     2.5361    10.9870   118.8146   -75.7700   -77.7703     5.9702     6.0121     6.8449  -999.2500  -999.2500
 1731.5000     0.2351   -46.7919    -0.0096     2.5405    10.9870   117.9017   -75.4245   -77.1956     5.9226     6.0088     6.8898  -999.2500  -999.2500
 1732.0000     0.2324   -46.6595    -0.0037     2.5443    10.9870   117.8697   -75.0791   -76.9080     5.9186     6.0491     6.9368  -999.2500  -999.2500
 1732.5000     0.2261   -46.5536     0.0116     2.5480    10.9870   117.8376   -74.7336   -76.6204     5.8678     6.0022     7.0336  -999.2500  -999.2500
 1733.0000     0.2216   -46.4477     0.0159     2.5517    10.9870   118.1096   -74.3882   -76.1778     5.7416     5.9552     7.1309  -999.2500  -999.2500
 1733.5000     0.2262   -46.3419     0.0007     2.5449    10.9872   118.6854   -74.0427   -75.6050     5.4553     5.8247     7.2304  -999.2500  -999.2500
 1734.0000     0.2400   -46.2095    -0.0084     2.5351    10.9881   119.5573   -73.6973   -75.1701     5.1091     5.5753     7.2787  -999.2500  -999.2500
 1734.5000     0.2533   -46.1036    -0.0039     2.5171    10.9857   119.8292   -73.3518   -74.7352     4.5486     4.7066     7.3274  -999.2500  -999.2500
 1735.0000     0.2608   -45.9977     0.0202     2.4908    10.8374   119.4852   -73.0063   -74.1434     4.1687     4.3277     7.2176  -999.2500  -999.2500
 1735.5000     0.2663   -46.1654     0.0458     2.4547    10.7250   118.8453   -72.6609   -73.5709     3.8482     4.0538     5.7280  -999.2500  -999.2500
