~VERSION INFORMATION
 VERS.                2.0:   CWLS LOG ASCII STANDARD - VERSION 2.0
 WRAP.                 NO:   ONE LINE PER DEPTH STEP
~WELL INFORMATION
#MNEM.UNIT      DATA TYPE    INFORMATION
#----------   ------------   ------------------------------
 STRT.F            0.0000:   START DEPTH
 STOP.F          678.0000:   STOP DEPTH
 STEP.F            0.5000:   STEP LENGTH
 NULL.          -999.2500:   NO VALUE
 COMP.       FLUOR DANIEL:   COMPANY
 WELL. FLUOR DANIEL "X" #23-2:   WELL
 FLD .          N.P.R. #3:   FIELD
 LOC .       S2 T38N R78W:   LOCATION
 CNTY.            NATRONA:   COUNTY
 STAT.            WYOMING:   STATE
 CTRY. UNITED STATES OF AMERICA:   COUNTRY
 SRVC.      WESTERN ATLAS:   SERVICE COMPANY
 DATE.        12-AUG-1994:   LOGDATE
 API .     49025226420000:   API NUMBER
~CURVE INFORMATION
#MNEM.UNIT       API CODE    CURVE DESCRIPTION
#----------   ------------   ------------------------------
 DEPT.F                  :   
 GR  .GAPI   07 310 01 00:   GAMMA RAY
 ILD .OHMM   07 120 46 00:   DEEP INDUCTION RESISTIVITY
 ILM .OHMM   07 120 44 00:   INDUCTION LOG MEDIUM RESISTIVITY
 TENR.LBS    07 635 01 00:   TENSION FROM RESISTIVITY
~PARAMETER INFORMATION
#MNEM.UNIT          VALUE    DESCRIPTION
#----------   ------------   ------------------------------
 EKB .F         5110.0000:   Kelly bushing
 EGL .F         5100.0000:   Ground level
 EDF .F         5109.0000:   Drilling floor
 EPD .F         5100.0000:   Permanent datum
 TD  .F          677.0000:   Total depth
 CLNT.            A2DTECH:   Client Code
 SL  . 1896' FNL & 744' FWL:   Surface Location
 PD  .                 GL:   Permanent Datum
 DAPD.F                10:   Feet Above Permanent Datum
 DATE.        12-AUG-1994:   Date Logged [DD-MMM-YYYY]
 DD  .F               670:   Depth driller
 DL  .F               677:   Depth logger
 BLI .F               664:   Bottom log interval
 TLI .F                 0:   Top log interval
 CS1 .              9.625:   Casing size
 CBD1.       9.625" @ 72':   Casing driller 1
 CBL1.IN               79:   Casing logger 1
 BS1 .IN             8.75:   Bit size
 BSD1.F               670:   Depth drilled with bit1
 DFT .                AIR:   Type fluid in hole
 LUN .            HL 6530:   Logging unit number
 LUL .             CASPER:   Logging unit location
 ENGI.      PAT RASMUSSEN:   Recorded By
 WITN.        GARY STRONG:   Witnessed by
 ORIG.         2.5" PRINT:   Origin of data
 UWI .     49025226420000:   Unique Well ID
 DICO. A2D TECHNOLOGIES, INC.:   Digitizing Company
~OTHER INFORMATION
~A    DEPT       GR       ILD        ILM       TENR   
# ...
  511.0000    95.1450    16.4752    16.4594     5.0872
  511.5000    96.3058    16.4708    16.4538     5.4506
  512.0000    97.2963    16.4664    16.4483     5.8139
  512.5000    97.8698    16.4620    16.4428     6.1773
  513.0000    97.6823    16.4575    16.4373     6.5407
  513.5000    96.4922    16.4432    16.4318     6.9041
  514.0000    95.1334    16.2294    16.2079     7.2674
  514.5000    94.2794    16.0086    15.9870     7.6308
  515.0000    94.8550    15.7803    15.9817    -6.5588
  515.5000    94.8382    15.5654    15.7639    -6.1773
  516.0000    94.8235    15.3533    15.7586    -5.8140
  516.5000    94.9724    14.9532    15.5438    -5.4505
  517.0000    96.2960    14.7498    15.1281    -5.0872
  517.5000    97.8823    14.7343    14.9219    -4.7238
  518.0000    99.4726    14.5336    14.9170    -4.3604
  518.5000    99.1363    14.1561    14.7137    -3.9971
  519.0000    98.1060    14.1403    14.5131    -3.6337
  519.5000    97.5039    13.9598    14.3154    -3.2703
  520.0000    95.8824    13.9561    14.3106    -2.9070
  520.5000    96.7675    13.9523    14.1155    11.9913
  521.0000    98.5158    13.9618    14.3018    12.3546
  521.5000    99.3696    14.1469    14.4897    12.7180
  522.0000    95.2113    14.7104    14.6800    13.0814
  522.5000    91.9756    14.7211    14.6743    13.4447
  523.0000    90.5019    14.9012    14.8671    13.8082
  523.5000    92.4000    14.6983    14.8621    14.1715
  524.0000    94.7373    14.6944    14.8572    14.5348
  524.5000    95.7519    14.4788    14.8522    14.8982
  525.0000    95.7353    14.1067    14.6498    15.2616
  525.5000    95.7206    13.9148    14.2580    15.6250
  526.0000    96.4392    13.7256    14.0637    15.9884
  526.5000    97.0117    13.5230    13.8720    16.3518
  527.0000    97.4430    13.3547    13.6830    16.7151
  527.5000    97.4264    13.3348    13.6784    17.0785
  528.0000    97.4117    13.1696    13.4920    17.4418
  528.5000    97.3970    13.1660    13.4875    17.8053
  529.0000    97.5216    13.1625    13.4829    18.1686
  529.5000    97.9576    13.1590    13.4784    18.5320
  530.0000    99.1194    13.3335    13.6563    18.8954
  530.5000    99.2392    13.5284    13.8357    19.2587
  531.0000    99.6782    13.8932    14.0175    19.6221
  531.5000    96.7198    14.2478    14.2008    19.9855
  532.0000    91.4110    14.0338    14.3874    20.3488
  532.5000    87.8669    13.8427    14.1913    20.7122
  533.0000    86.0874    13.2922    13.8118    21.0756
  533.5000    87.8374    13.1112    13.2636    21.4389
  534.0000    92.5286    12.7601    12.9089    21.8023
  534.5000    96.0433    12.4375    12.5637    22.1657
  535.0000    97.7933    12.2492    12.3924    22.5290
  535.5000    97.7785    12.0823    12.0610    22.8924
  536.0000    97.7638    11.9178    12.0570    23.2558
  536.5000    97.1609    11.7745    12.0529    23.6192
  537.0000    97.7344    11.7713    11.8887    23.9826
  537.5000    99.4844    11.7682    11.8847    24.3459
  538.0000    98.8814    11.7650    11.8807    24.7092
  538.5000    95.3373    11.7619    11.8767    25.0727
  539.0000    94.7343    11.7587    11.8728    25.4361
  539.5000    95.3079    11.7556    11.8688    25.7994
  540.0000    97.6461    11.7524    11.7071    26.1628
  540.5000    97.0431    11.5926    11.7038    26.5262
  541.0000    95.2637    11.5894    11.3908    26.8895
  541.5000    94.0725    11.5863    11.3870    27.2529
  542.0000    95.2343    11.4287    11.2318    27.6163
  542.5000    96.9842    11.4254    11.2280    27.9796
  543.0000    96.9695    11.2700    11.2243    28.3430
  543.5000    97.5431    11.1167    11.0713    28.7064
  544.0000   101.0577    11.1137    11.0676    29.0697
  544.5000   102.2195    11.1107    11.0639    29.4331
  545.0000   103.9695    11.1077    11.0602    29.7965
  545.5000   104.5430    11.1048    11.0565    30.1599
  546.0000   108.0577    11.1018    11.0528    30.5232
  546.5000   110.9842    11.0988    11.0491    30.8867
  547.0000   112.7341    11.0958    11.0454    16.6583
  547.5000   109.1900    11.0928    11.0417    17.0784
  548.0000   104.4694    11.0899    11.0380    17.4418
  548.5000   103.8665    11.2371    11.0343    22.5044
  549.0000   103.8517    11.2337    11.0306    32.7034
  549.5000   104.4265    11.3825    11.1755    33.0668
  550.0000   103.0393    11.5336    11.1718    33.4302
  550.5000   101.2616    11.5302    11.1681    33.7936
  551.0000    99.5804    11.6832    11.1643    34.1569
  551.5000    99.8523    11.6798    11.1606    34.5204
  552.0000   101.7877    11.6766    11.1569    34.8837
  552.5000   104.3394    11.5178    11.1531    35.2471
  553.0000   103.7353    11.2097    11.1494    35.6105
  553.5000   103.7206    10.9097    11.1457    35.9738
  554.0000   103.0274    10.6178    10.9938    36.3372
  554.5000   101.8374    10.4734    10.8439    36.7006
  555.0000   101.2354    10.4706    10.5539    37.0640
  555.5000   100.7217    10.3282    10.5504    37.4273
  556.0000   101.5529    10.1877    10.4066    37.7907
  556.5000   104.9796    10.0492    10.4031    38.1541
  557.0000   107.3155     9.9125    10.2613    38.5174
  557.5000   108.3099     9.9098    10.1215    38.8808
  558.0000   108.8834     9.9072     9.9836    39.2442
  558.5000   108.7863     9.9045     9.9802    39.6076
  559.0000   107.5158     9.9018     9.9769    39.9709
  559.5000   105.7380     9.8992     9.9735    40.3343
  560.0000   103.5294     9.8965     9.9702    40.6977
  560.5000   103.5147    10.0276    10.1012    41.0610
  561.0000   104.0892    10.1604    10.3718    41.4244
  561.5000   104.7372    10.5752    10.5081    41.7878
  562.0000   105.8980    11.4593    11.0824    42.1511
  562.5000   106.3980    12.7552    12.1671    42.5145
  563.0000   101.5389    14.5841    13.5380    42.8779
  563.5000    92.0349    15.8033    15.4720    43.2413
  564.0000    85.3404    16.8961    17.2153    43.6046
  564.5000    81.4237    18.8069    18.9002    43.9680
  565.0000    79.8530    19.8392    19.9332    44.3314
  565.5000    83.8340    20.9282    21.0226    44.6948
  566.0000    85.1176    21.7825    22.1716    45.0581
  566.5000    85.9530    22.3693    23.0725    45.4215
  567.0000    86.8529    22.9720    23.6906    45.7849
  567.5000    87.9459    23.2765    24.0019    46.1483
  568.0000    89.1764    23.2700    23.6748    46.5116
  568.5000    88.9039    23.2638    23.3521    46.8750
  569.0000    87.1254    22.6413    23.0339    47.2384
  569.5000    86.1912    22.0355    22.1197    47.6017
  570.0000    86.1765    20.8777    21.5282    47.9651
  570.5000    86.7500    20.3191    20.9524    48.3285
  571.0000    86.9883    19.7755    20.6668    48.6919
  571.5000    88.1491    19.7701    20.1141    49.0552
  572.0000    89.0588    19.5013    19.8400    49.4186
  572.5000    87.9560    18.9795    19.5696    49.7820
  573.0000    86.6765    18.7213    19.5631    50.1454
  573.5000    87.4060    18.7163    19.0398    50.5087
  574.0000    90.3296    18.4617    18.7804    50.8721
  574.5000    93.3489    18.4568    18.7741    51.2354
  575.0000    93.9215    18.2058    18.5183    51.5988
  575.5000    93.6618    17.9581    18.1849    51.9622
  576.0000    92.5723    17.9533    17.9371    52.3256
  576.5000    91.6255    17.7091    17.7714    52.6890
  577.0000    91.2647    17.7044    17.6868    53.0523
  577.5000    91.4902    17.4636    17.5233    53.4157
  578.0000    92.6510    17.2261    17.2845    53.7790
  578.5000    92.9853    16.9919    17.0490    54.1425
  579.0000    91.2039    16.8522    17.0433    54.5058
  579.5000    90.6010    16.7563    16.9621    54.8692
  580.0000    92.9392    16.5275    16.8054    55.2326
  580.5000    95.8657    16.3027    16.7253    55.5959
  581.0000    97.6157    15.8665    16.4973    55.9593
  581.5000    98.1912    15.8623    16.1276    59.3754
  582.0000    98.7647    15.6465    15.9078    71.2209
  582.5000    98.7480    15.2279    15.6910    71.5843
  583.0000    98.1450    15.0208    15.4086    75.1433
  583.5000    96.3656    15.0167    15.1986    90.0921
