~VERSION INFORMATION
 VERS.                2.0:   CWLS LOG ASCII STANDARD - VERSION 2.0
 WRAP.                 NO:   ONE LINE PER DEPTH STEP
~WELL INFORMATION
#MNEM.UNIT      DATA TYPE    INFORMATION
#----------   ------------   ------------------------------
 STRT.F            0.5000:   START DEPTH
 STOP.F         4128.0000:   STOP DEPTH
 STEP.F            0.5000:   STEP LENGTH
 NULL.          -999.2500:   NO VALUE
 COMP. LAWRENCE ALLISON ASSOC WEST:   COMPANY
 WELL. LAWRENCE NPR "AX" #12-33:   WELL
 FLD .      NPR - WILDCAT:   FIELD
 LOC .      S33 T39N R78W:   LOCATION
 CNTY.            NATRONA:   COUNTY
 STAT.            WYOMING:   STATE
 CTRY. UNITED STATES OF AMERICA:   COUNTRY
 SRVC.      DRESSER ATLAS:   SERVICE COMPANY
 DATE.        04-AUG-1984:   LOGDATE
 API .     49025109720000:   API NUMBER
~CURVE INFORMATION
#MNEM.UNIT       API CODE    CURVE DESCRIPTION
#----------   ------------   ------------------------------
 DEPT.F                  :   
 CORR.G/C3   45 356 01 00:   DENSITY CORRECTION
 TEND.LBS    45 635 01 00:   TENSION FROM DENSITY LOG
 RHOB.G/C3   45 350 01 00:   BULK DENSITY
 GRR .GAPI   07 310 01 00:   GAMMA RAY FROM RESISTIVITY
 SPR .MV     07 010 01 00:   SPONTANEOUS POTENTIAL
 RFOC.OHMM   07 220 04 00:   RESISTIVITY FOCUSED LOG RES.
 RILM.OHMM   07 120 44 00:   RESISTIVITY INDUCTION LOG MEDIUM
 RILD.OHMM   07 120 46 00:   RESISTIVITY INDUCTION LOG MEDIUM
 TENR.LBS    07 635 01 00:   TENSION FROM RESISTIVITY
 CALR.IN     07 280 01 00:   CALIPER FROM RESISTIVITY
 DT  .US/F   60 520 00 00:   DELTA TIME
 TENS.LBS    60 635 01 00:   TENSION FROM SONIC
 SPHI.DEC    60 890 00 00:   SONIC POROSITY
~PARAMETER INFORMATION
#MNEM.UNIT          VALUE    DESCRIPTION
#----------   ------------   ------------------------------
 EKB .F         5170.0000:   Kelly bushing
 EGL .F         5157.0000:   Ground level
 EDF .F            0.0000:   Drilling floor
 TD  .F         4121.0000:   Total depth
 DATE.        04-AUG-1984:   Date logged
 CLNT.            A2DTECH:   Client Code
 SL  . 857' FNL & 751' FWL:   Surface Location
 PD  .                 GL:   Permanent Datum
 EPD .F              5157:   Elevation Permanent Datum
 LMF .                 KB:   Log Measured From
 DMF .                 KB:   Drilling Measured From
 DAPD.F                13:   Feet Above Permanent Datum
 DD  .F              4120:   Depth driller
 DL  .F              4121:   Depth logger
 BLI .F              4119:   Bottom log interval
 CS1 .IN            8.625:   Casing size
 CBD1.      8.625" @ 625':   Casing driller 1
 CBL1.F               624:   Casing logger 1
 BS1 .IN            7.875:   Bit size
 BSD1.F              4120:   Depth drilled with bit1
 DFT .            GEL/KCL:   Type fluid in hole
 DFD .                9.1:   Density
 DFV .                 40:   Viscosity
 DFPH.                8.5:   pH
 DFL .                 11:   Fluid loss
 MSS .               TANK:   Source of sample
 RMS .OHMM           .302:   Rm
 MST .F                84:   Rm Meas. temp.
 RMF .OHMM            .22:   Rmf
 MFST.F                84:   Rmf Meas. temp.
 RMC .OHMM            .38:   Rmc
 MCST.F                84:   Rmc Meas. temp.
 MFSS.               CALC:   Source Rmf.
 MCSS.               CALC:   Source Rmc.
 RMB .OHMM            .19:   Rm. at BHT
 BHT .F               132:   BHT.
 TCS .HRS               4:   Time Circ. stopped
 MRT .F               132:   Maximum recorded temp.
 LUN .               6307:   Logging unit number
 LUL .               GLTE:   Logging unit location
 ENGI.           FAHLSING:   Recorded By
 WITN.       ROBERT SCOTT:   Witnessed by
 ORIG.           5" PRINT:   Origin of data
 UWI .     49025109720000:   Unique Well ID
 DICO. A2D TECHNOLOGIES, INC.:   Digitizing Company
~OTHER INFORMATION
~A    DEPT    CORR       TEND       RHOB         GRR       SPR       RFOC       RILM       RILD       TENR       CALR         DT       TENS       SPHI   
# ...
  624.5000  -999.2500  -999.2500  -999.2500    64.6850    -8.9180  -999.2500  -999.2500  -999.2500   -15.2350     8.2700  -999.2500  -999.2500  -999.2500
  625.0000  -999.2500  -999.2500  -999.2500    59.9820    -6.2890  -999.2500  -999.2500  -999.2500   -15.2350     8.3280  -999.2500  -999.2500  -999.2500
  625.5000  -999.2500  -999.2500  -999.2500    58.9400    -3.4830     0.2684     0.3286  -999.2500   -15.2350     8.4300  -999.2500  -999.2500  -999.2500
  626.0000  -999.2500  -999.2500  -999.2500    65.5360    -3.3090     0.7964     1.1237  1732.2891   -15.2350     8.5250  -999.2500  -999.2500  -999.2500
  626.5000  -999.2500  -999.2500  -999.2500    73.1340    -6.3350     1.1810     1.9189  1152.7147   -15.2350     8.6410  -999.2500  -999.2500  -999.2500
  627.0000  -999.2500  -999.2500  -999.2500    74.4370    -9.1740     1.8820     2.7140   573.1404   -15.2350     8.7540  -999.2500  -999.2500  -999.2500
  627.5000  -999.2500  -999.2500  -999.2500    75.4240   -12.3120     2.9400     3.5092     8.8776   -15.2350     8.7980  -999.2500  -999.2500  -999.2500
  628.0000  -999.2500  -999.2500  -999.2500    75.9000   -15.4530     2.9330     4.9052     4.1870   -15.2350     8.8400  -999.2500  -999.2500  -999.2500
  628.5000  -999.2500  -999.2500  -999.2500    75.9610   -18.2460     5.3540     6.2539     2.8000   -15.2350     8.8830  -999.2500  -999.2500  -999.2500
  629.0000  -999.2500  -999.2500  -999.2500    77.2620   -20.3130     6.3050     6.8370     2.7210   -15.2350     8.9390  -999.2500  -999.2500  -999.2500
  629.5000  -999.2500  -999.2500  -999.2500    82.0490   -22.5440     6.5090     7.0367     7.3190   -15.2350     8.9980  -999.2500  -999.2500  -999.2500
  630.0000  -999.2500  -999.2500  -999.2500    86.6210   -24.7870     6.4060     6.9554    10.3310   -15.2350     9.1070  -999.2500  -999.2500  -999.2500
  630.5000  -999.2500  -999.2500  -999.2500    90.5540   -27.0330     6.2580     6.9192    11.8370   -15.2350     9.2720  -999.2500  -999.2500  -999.2500
  631.0000  -999.2500  -999.2500  -999.2500    88.9790   -29.3090     6.1100     6.9474     8.1170   -15.2350     9.6280  -999.2500  -999.2500  -999.2500
  631.5000  -999.2500  -999.2500  -999.2500    87.5080   -30.5290     5.9620     7.0584     7.7330   -15.2350     9.9980  -999.2500  -999.2500  -999.2500
  632.0000  -999.2500  -999.2500  -999.2500    87.5790   -31.7210     5.8290     8.6723     7.3050   -15.2350    10.3680  -999.2500  -999.2500  -999.2500
  632.5000  -999.2500  -999.2500  -999.2500    87.7350   -31.6560     5.8290    11.2010     7.0060   -15.2350    10.7320  -999.2500  -999.2500  -999.2500
  633.0000  -999.2500  -999.2500  -999.2500    88.0490   -31.4490     6.0090    15.8900     6.9420   -15.2350    11.0000  -999.2500  -999.2500  -999.2500
  633.5000  -999.2500  -999.2500  -999.2500    89.2410   -31.2410     6.3690    15.7450     6.9420   -15.2350    10.6640  -999.2500  -999.2500  -999.2500
  634.0000  -999.2500  -999.2500  -999.2500    90.4240   -31.0340     6.7290    15.6000     8.0480   -15.2350     9.9350  -999.2500  -999.2500  -999.2500
  634.5000  -999.2500  -999.2500  -999.2500    91.2910   -30.8270     7.0890     8.9740     9.0540   -15.2350     9.3440  -999.2500  -999.2500  -999.2500
  635.0000  -999.2500  -999.2500  -999.2500    90.2620   -30.6190     7.2690     7.9690     9.7580   -15.2350     9.0840  -999.2500  -999.2500  -999.2500
  635.5000  -999.2500  -999.2500  -999.2500    89.2590   -30.4120     7.0900     8.1310     9.6680   -15.2350     9.0530  -999.2500  -999.2500  -999.2500
  636.0000  -999.2500  -999.2500  -999.2500    88.2570   -30.2040     6.8330     8.1930     9.7580   -15.2350     9.0210  -999.2500  -999.2500  -999.2500
  636.5000  -999.2500  -999.2500  -999.2500    87.2360   -29.9960     6.5770     8.1100     9.7580   -15.2350     8.9900  -999.2500  -999.2500  -999.2500
  637.0000  -999.2500  -999.2500  -999.2500    87.5370   -29.7860     6.3210     8.0430     9.1840   -15.2350     8.9820  -999.2500  -999.2500  -999.2500
  637.5000  -999.2500  -999.2500  -999.2500    90.1080   -29.5940     6.0650     7.8240     8.5460   -15.2350     9.0000  -999.2500  -999.2500  -999.2500
  638.0000  -999.2500  -999.2500  -999.2500    92.7760   -29.3630     5.8700     7.6460     7.9080   -15.2350     9.0170  -999.2500  -999.2500  -999.2500
  638.5000  -999.2500  -999.2500  -999.2500    95.3120   -29.3760     5.7380     7.2570     7.2710   -15.2350     9.0350  -999.2500  -999.2500  -999.2500
  639.0000  -999.2500  -999.2500  -999.2500    96.1140   -29.4200     5.6050     6.6890     6.5690   -15.2350     9.0530  -999.2500  -999.2500  -999.2500
  639.5000  -999.2500  -999.2500  -999.2500    96.9420   -30.3930     5.4720     6.1200     5.8380   -15.2350     9.0710  -999.2500  -999.2500  -999.2500
  640.0000  -999.2500  -999.2500  -999.2500    97.7800   -31.3950     5.3390     5.5180     5.0250   -15.2350     9.0980  -999.2500  -999.2500  -999.2500
  640.5000  -999.2500  -999.2500  -999.2500    98.6210   -32.3960     5.2190     4.8370     4.2130   -15.2350     9.1320  -999.2500  -999.2500  -999.2500
  641.0000  -999.2500  -999.2500  -999.2500    99.6960   -33.4600     4.7440     4.1560     3.4000   -15.2350     9.1650  -999.2500  -999.2500  -999.2500
  641.5000  -999.2500  -999.2500  -999.2500   100.7650   -34.7330     4.3130     3.4760     2.5880   -15.2350     9.1980  -999.2500  -999.2500  -999.2500
  642.0000  -999.2500  -999.2500  -999.2500   101.2240   -36.0100     3.9240     2.7950     2.2700   -15.2350     9.2160  -999.2500  -999.2500  -999.2500
  642.5000  -999.2500  -999.2500  -999.2500   100.4440   -37.3010     2.9860     2.3230     2.1640   -15.2350     9.2050  -999.2500  -999.2500  -999.2500
  643.0000  -999.2500  -999.2500  -999.2500    98.0190   -37.7380     2.2080     2.2590     2.0580   -15.2350     9.1860  -999.2500  -999.2500  -999.2500
  643.5000  -999.2500  -999.2500  -999.2500    95.6200   -37.7440     2.1580     2.4930     2.0050   -15.2350     9.1350  -999.2500  -999.2500  -999.2500
  644.0000  -999.2500  -999.2500  -999.2500    93.2310   -37.7460     2.1780     2.7870     2.0610   -15.2350     9.0850  -999.2500  -999.2500  -999.2500
  644.5000  -999.2500  -999.2500  -999.2500    90.8710   -37.7460     3.0800     3.2690     2.3750   -15.4310     9.0350  -999.2500  -999.2500  -999.2500
  645.0000  -999.2500  -999.2500  -999.2500    89.5090   -37.7900     4.0820     3.7510     2.6610   -15.6090     8.9970  -999.2500  -999.2500  -999.2500
  645.5000  -999.2500  -999.2500  -999.2500    91.7250   -37.9780     4.9850     4.2040     2.9470   -15.7870     8.9980  -999.2500  -999.2500  -999.2500
  646.0000  -999.2500  -999.2500  -999.2500    93.8710   -38.2750     5.3990     4.5580     3.5680   -15.9650     8.9980  -999.2500  -999.2500  -999.2500
  646.5000  -999.2500  -999.2500  -999.2500    94.4190   -38.4890     5.7750     4.9290     4.6370   -16.1430     8.9980  -999.2500  -999.2500  -999.2500
  647.0000  -999.2500  -999.2500  -999.2500    93.1890   -38.6960     6.1520     5.3010     5.2450   -16.3210     8.9990  -999.2500  -999.2500  -999.2500
  647.5000  -999.2500  -999.2500  -999.2500    94.6690   -38.9020     6.5280     5.6720     5.3920   -16.4990     9.0050  -999.2500  -999.2500  -999.2500
  648.0000  -999.2500  -999.2500  -999.2500    96.5320   -39.1090     6.9420     6.0430     5.6590   -16.6770     9.0100  -999.2500  -999.2500  -999.2500
  648.5000  -999.2500  -999.2500  -999.2500    98.3820   -39.3150     7.0060     6.4150     6.0470   -16.8550     9.0150  -999.2500  -999.2500  -999.2500
  649.0000  -999.2500  -999.2500  -999.2500    98.6110   -39.5370     7.0710     6.7860     6.4360   -17.0330     9.0200  -999.2500  -999.2500  -999.2500
  649.5000  -999.2500  -999.2500  -999.2500    98.3960   -40.0220     7.0590     7.1580     6.7220   -17.2110     9.0260  -999.2500  -999.2500  -999.2500
  650.0000  -999.2500  -999.2500  -999.2500    94.2640   -40.5550     7.0510     7.4040     6.7530   -17.3890     9.0310  -999.2500  -999.2500  -999.2500
