~VERSION INFORMATION
 VERS.                2.0:   CWLS LOG ASCII STANDARD - VERSION 2.0
 WRAP.                 NO:   ONE LINE PER DEPTH STEP
~WELL INFORMATION
#MNEM.UNIT      DATA TYPE    INFORMATION
#----------   ------------   ------------------------------
 STRT.F            2.0000:   START DEPTH
 STOP.F         3008.0000:   STOP DEPTH
 STEP.F            0.5000:   STEP LENGTH
 NULL.          -999.2500:   NO VALUE
 COMP.       FLUOR DANIEL:   COMPANY
 WELL.   FLUOR "X" #25-23:   WELL
 FLD .          N.P.R. #3:   FIELD
 LOC .      S23 T38N R78W:   LOCATION
 CNTY.            NATRONA:   COUNTY
 STAT.            WYOMING:   STATE
 CTRY. UNITED STATES OF AMERICA:   COUNTRY
 SRVC.      WESTERN ATLAS:   SERVICE COMPANY
 DATE.        21-APR-1995:   LOGDATE
 API .     49025227090000:   API NUMBER
~CURVE INFORMATION
#MNEM.UNIT       API CODE    CURVE DESCRIPTION
#----------   ------------   ------------------------------
 DEPT.F                  :   
 GRR .GAPI   07 310 01 00:   GAMMA RAY FROM RESISTIVITY
 TENR.LBS    07 635 01 00:   TENSION FROM RESISTIVITY
 RILD.OHMM   07 120 46 00:   RESISTIVITY INDUCTION LOG DEEP
 RILM.OHMM   07 120 44 00:   RESISTIVITY INDUCTION LOG MEDIUM
~PARAMETER INFORMATION
#MNEM.UNIT          VALUE    DESCRIPTION
#----------   ------------   ------------------------------
 EKB .F         5285.0000:   Kelly bushing
 EGL .F         5275.0000:   Ground level
 EDF .F         5284.0000:   Drilling floor
 TD  .F         3000.0000:   Total depth
 CLNT.            A2DTECH:   Client Code
 SL  . 2343' FSL & 1264' FWL:   Surface Location
 PD  .                 GL:   Permanent Datum
 EPD .F              5275:   Elevation Permanent Datum
 DMF .                 KB:   Drilling Measured From
 DAPD.                 10:   Feet Above Permanent Datum
 DATE.        21-APR-1995:   Date Logged [DD-MMM-YYYY]
 DD  .F              3000:   Depth driller
 DL  .F              3000:   Depth logger
 BLI .F              2999:   Bottom log interval
 TLI .F                 0:   Top log interval
 CS1 .IN            9.625:   Casing size
 CBD1.       9.625" @ 53':   Casing driller 1
 CBL1.F                53:   Casing logger 1
 BS1 .IN             6.25:   Bit size
 BSD1.F              3000:   Depth drilled with bit1
 DFT .                OIL:   Type fluid in hole
 MRT .F               114:   Maximum recorded temp.
 LUN .            HL 6530:   Logging unit number
 LUL .             CASPER:   Logging unit location
 ENGI.        VERN RAUTIO:   Recorded By
 WITN.        GARY STRONG:   Witnessed by
 ORIG.         2.5" PRINT:   Origin of data
 UWI .     49025227090000:   Unique Well ID
 DICO. A2D TECHNOLOGIES,INC.:   Digitizing Company
 LMF .                 KB:   Log Measured From
~OTHER INFORMATION
~A    DEPT      GRR      TENR       RILD       RILM   
# ...
 2703.0000   159.4812    10.4854     7.7331     7.9427
 2703.5000   157.9801     9.8385     7.7307     7.9335
 2704.0000   154.8797     9.1916     7.6242     7.8128
 2704.5000   157.2334     8.5447     7.6217     7.7211
 2705.0000   158.9917     7.8978     7.5168     7.7179
 2705.5000   159.5680     7.2509     7.6168     7.7148
 2706.0000   155.4077     6.6040     7.7182     7.7117
 2706.5000   147.6605     5.9571     7.7153     7.7080
 2707.0000   147.0899     5.3102     7.8655     7.7051
 2707.5000   150.7642     4.6633     7.9218     7.9136
 2708.0000   152.3816     4.0163     8.1361     7.9105
 2708.5000   150.0506     3.3694     8.1335     7.9073
 2709.0000   145.6334     2.7225     7.9136     7.9041
 2709.5000   141.6717     2.0756     7.9110     7.9009
 2710.0000   142.8383     1.4287     7.7950     7.8977
 2710.5000   151.6971     0.7818     7.6944     7.8945
 2711.0000   154.0471     0.1349     7.6918     7.8907
 2711.5000   153.3417    -0.5120     7.6892     7.8876
 2712.0000   151.6450    -1.1589     7.6866     7.8846
 2712.5000   153.1561    -1.8058     7.6835     7.6709
 2713.0000   154.5714    -2.4527     7.6810     7.5627
 2713.5000   153.6600    -3.0996     7.7833     7.4601
 2714.0000   148.0204    -3.7790     7.8870     7.6620
 2714.5000   147.8355    -3.3625     7.8843     7.7980
 2715.0000   152.7204    -2.9240     8.0000     7.8657
 2715.5000   150.3366    -2.4583     7.9864     7.8625
 2716.0000   146.1777    -2.0412     7.9508     7.8587
 2716.5000   147.9360    -1.6081     7.8737     7.8557
 2717.0000   147.7773    -1.1696     7.7115     7.6428
 2717.5000   147.3106    -0.7310     7.6576     7.6398
 2718.0000   148.9385    14.3275     7.5521     7.4327
 2718.5000   154.6772    13.4045     7.4481     7.4297
 2719.0000   159.0888    11.9213     7.2467     7.4007
 2719.5000   157.2938    10.4381     7.2444     7.2253
 2720.0000   154.3184     8.9549     7.2419     7.2223
 2720.5000   154.3015     7.4717     7.1421     7.2194
 2721.0000   154.3296     5.9885     7.1397     7.2160
 2721.5000   156.7408     4.5053     7.2346     7.2132
 2722.0000   159.7436     3.1720     7.2321     7.2104
 2722.5000   160.1512     3.6550     7.2293     7.2076
 2723.0000   158.9467     4.0935     7.3255     7.3116
 2723.5000   158.3339     4.5322     7.4232     7.4187
 2724.0000   159.5005     4.5049     7.5218     7.6001
 2724.5000   159.4836     3.3799     7.6219     7.5966
 2725.0000   158.8750     2.2549     7.6193     7.5935
 2725.5000   158.8582     1.1299     7.6167     7.5898
 2726.0000   159.4330     0.0049     7.6141     7.5869
 2726.5000   159.4142    -1.1201     7.6115     7.5840
 2727.0000   159.1970    -2.2451     7.6084     7.5810
 2727.5000   158.2647    -3.3701     7.6060     7.5781
 2728.0000   158.5564    -4.4951     7.7075     7.6785
 2728.5000   160.5237    -5.6201     7.8099     7.6752
 2729.0000   161.1006    -6.7451     7.8073     7.7772
 2729.5000   159.8982    -7.8701     7.6896     7.7735
 2730.0000   155.1476    -8.9951     7.5937     7.7704
 2730.5000   152.1716   -10.1201     7.7262     7.8726
 2731.0000   150.2741   -11.2451     7.8400     7.9773
 2731.5000   149.7692   -12.3701     8.0081     7.9738
 2732.0000   149.9801   -13.4951     7.8972     7.7577
 2732.5000   151.7999   -14.6201     7.7885     7.3456
 2733.0000   159.1800   -15.7451     7.5779     7.1464
 2733.5000   158.5715    -1.3157     7.3730     7.1435
 2734.0000   157.3712    -6.1362     7.2688     7.1061
 2734.5000   166.2300   -15.0585     7.1712     7.0862
 2735.0000   173.3233   -14.6199     7.1687     7.0388
 2735.5000   175.0720   -14.1124     7.1663     7.0355
 2736.0000   167.9265   -13.6954     7.1639     7.1287
 2736.5000   158.6671   -13.2783     7.1614     7.1260
 2737.0000   156.6745   -12.8613     7.1586     7.2203
 2737.5000   162.9946   -12.4268     7.2539     7.3160
 2738.0000   164.3314   -11.9884     7.3506     7.5140
 2738.5000   163.7198   -26.2302     7.3481     7.5106
 2739.0000   157.1940   -11.1112     7.5474     7.6508
 2739.5000   152.4435   -10.6725     7.6647     7.7106
 2740.0000   150.5323   -10.1504     7.7497     7.7069
 2740.5000   146.7782     4.8865     7.7467     7.8094
 2741.0000   140.9217     5.2632     7.6948     7.7009
 2741.5000   136.5365     5.7018     7.4761     7.4922
 2742.0000   136.3629     6.1404     7.3304     7.0943
 2742.5000   139.9078     6.5790     7.1322     6.9961
 2743.0000   144.0330     7.0176     7.1299     7.0889
 2743.5000   146.9747     7.4562     7.0317     7.0857
 2744.0000   147.5495     7.8948     6.9347     7.1794
 2744.5000   149.3150     8.3334     6.9510     7.2744
 2745.0000   150.4743     8.7720     7.0249     7.2709
 2745.5000   150.3247     9.2106     7.0222     7.0738
 2746.0000   149.8462     9.6492     7.1155     7.0711
 2746.5000   149.8284    10.0878     7.1127     7.0684
 2747.0000   149.8107    10.5264     7.1104     7.0656
 2747.5000   150.3816    10.9650     7.1081     7.0627
 2748.0000   150.9564    11.4036     7.1058     7.0842
 2748.5000   153.8982    11.8422     7.2026     7.2512
 2749.0000   153.8813    12.2808     7.2962     7.2478
 2749.5000   152.6440    12.7194     7.2936     7.3005
 2750.0000   153.6485    13.1580     7.2911     7.2415
 2750.5000   156.6774    13.5966     7.2887     7.2387
 2751.0000   159.8045    14.0352     7.2862     7.2359
 2751.5000   164.7068    15.2253     7.2833     7.2331
 2752.0000   166.7894    17.2824     7.2810     7.2302
 2752.5000   163.8140    19.3394     7.2786     7.2272
 2753.0000   162.6137    21.3964     7.2763     7.2243
 2753.5000   165.5554    23.4535     7.2739     7.2213
 2754.0000   164.9425    25.5105     7.2873     7.2184
 2754.5000   163.1538    27.5676     7.3684     7.2149
 2755.0000   161.6970    29.6246     7.3656     7.2121
 2755.5000   159.5887    31.6816     7.3166     7.2093
 2756.0000   152.7106    18.4405     7.2616     7.2066
 2756.5000   146.7921    18.8598     7.2587     7.2038
 2757.0000   146.4940    17.6454     7.2564     7.3987
 2757.5000   148.8440     5.0719     7.3531     7.3956
 2758.0000   155.9277     0.8826     7.3506     7.5261
 2758.5000   160.0528   -14.8186     7.4484     7.5925
 2759.0000   160.6277   -22.8070     7.4458     7.5357
 2759.5000   159.5399   -22.2912     7.3843     7.3830
 2760.0000   153.4522   -21.8742     7.2419     7.3802
 2760.5000   150.0745   -21.4571     7.1419     7.1802
 2761.0000   151.3706    -6.4202     7.0432     7.1774
 2761.5000   152.2509     8.6258     7.0409     7.0780
 2762.0000   150.4589    11.2107     6.9439     6.9800
 2762.5000   148.6669    38.7427     6.8483     6.9771
 2763.0000   149.2417    39.1812     6.8461     6.8805
 2763.5000   152.7812    32.9404     6.8438     6.7851
 2764.0000   157.5538    10.8186     6.8414     6.7824
 2764.5000   158.0669    11.3276     6.7471     6.7792
 2765.0000   157.8598    11.7447     6.7448     6.7766
 2765.5000   156.5968    12.1615     6.7425     6.7740
 2766.0000   156.8600    12.5786     6.8318     6.7713
 2766.5000   158.5827    13.0117     6.8296     6.7686
 2767.0000   159.7515    13.4502     6.7355     6.7659
 2767.5000   157.9572    13.8889     6.8252     6.7631
 2768.0000   152.6149    14.3275     6.8229     6.7604
 2768.5000   153.2198    14.7661     6.8206     6.7576
 2769.0000   153.7646    15.2894     6.8183     6.8465
 2769.5000   153.5909    15.7065     6.9432     6.9376
 2770.0000   153.1361    16.1235     7.0008     6.9345
 2770.5000   153.1183    16.5406     7.1490     7.1223
 2771.0000   151.2348    16.9576     7.2858     7.1194
 2771.5000   148.9381    16.2550     7.1855     7.1165
 2772.0000   148.7971    15.5546     6.8043     6.9036
 2772.5000   152.4547    14.8543     6.6204     6.7070
 2773.0000   153.0296    14.1540     6.4413     6.5530
 2773.5000   151.7682    13.4537     6.4391     6.4588
 2774.0000   151.2207    12.7534     6.4369     6.3723
 2774.5000   153.1606    12.0531     6.4347     6.3698
 2775.0000   154.9804    11.3528     6.4325     6.3673
 2775.5000   156.8262    10.6525     6.4300     6.4517
