~VERSION INFORMATION
 VERS.                2.0:   CWLS LOG ASCII STANDARD - VERSION 2.0
 WRAP.                 NO:   ONE LINE PER DEPTH STEP
~WELL INFORMATION
#MNEM.UNIT      DATA TYPE    INFORMATION
#----------   ------------   ------------------------------
 STRT.F          243.5000:   START DEPTH
 STOP.F         2836.0000:   STOP DEPTH
 STEP.F            0.5000:   STEP LENGTH
 NULL.          -999.2500:   NO VALUE
 COMP. FENIX & SCISSON U. S. NAVY:   COMPANY
 WELL.   FENIX "A" #86-20:   WELL
 FLD .             NPR #3:   FIELD
 LOC .      S20 T39N R78W:   LOCATION
 CNTY.            NATRONA:   COUNTY
 STAT.            WYOMING:   STATE
 CTRY. UNITED STATES OF AMERICA:   COUNTRY
 SRVC.       SCHLUMBERGER:   SERVICE COMPANY
 DATE.        22-MAR-1977:   LOGDATE
 API .     49025103130000:   API NUMBER
~CURVE INFORMATION
#MNEM.UNIT       API CODE    CURVE DESCRIPTION
#----------   ------------   ------------------------------
 DEPT.F                  :   
 SPR .MV     07 010 01 00:   SPONTANEOUS POTENTIAL
 ILD .OHMM   07 120 46 00:   DEEP INDUCTION RESISTIVITY
 ILM .OHMM   07 120 44 00:   INDUCTION LOG MEDIUM RESISTIVITY
 LL8 .OHMM   07 220 08 00:   LATEROLOG-8 RES.
 CALD.IN     45 280 60 00:   CALIPER FROM DENSITY LOG
 GRD .GAPI   45 310 01 00:   GAMMA RAY FROM DENSITY LOG
 RHOB.G/C3   45 350 01 00:   BULK DENSITY
 CORR.G/C3   45 356 01 00:   DENSITY CORRECTION
~PARAMETER INFORMATION
#MNEM.UNIT          VALUE    DESCRIPTION
#----------   ------------   ------------------------------
 EKB .F         5005.0000:   Kelly bushing
 EGL .F         4994.0000:   Ground level
 EDF .F            0.0000:   Drilling floor
 TD  .F         2836.0000:   Total depth
 DATE.        22-MAR-1977:   Date logged
 CLNT.            A2DTECH:   Client Code
 SL  . 330' FEL & 1650' FSL:   Surface Location
 PD  .                 GL:   Permanent Datum
 EPD .F              5005:   Elevation Permanent Datum
 LMF .                 KB:   Log Measured From
 DMF .                 KB:   Drilling Measured From
 DD  .F              2835:   Depth driller
 DL  .F              2836:   Depth logger
 BLI .F              2826:   Bottom log interval
 TLI .F               259:   Top log interval
 CBD1.      8.625" @ 258':   Casing driller 1
 CBL1.F               259:   Casing logger 1
 BS1 .IN            7.875:   Bit size
 DFT .                KCL:   Type fluid in hole
 DFD .                9.1:   Density
 DFV .                 35:   Viscosity
 DFPH.                  9:   pH
 DFL .                8.6:   Fluid loss
 MSS .              CIRC.:   Source of sample
 RMS .OHMM           0.22:   Rm
 MST .F                60:   Rm Meas. temp.
 RMF .OHMM           0.18:   Rmf
 MFST.F                60:   Rmf Meas. temp.
 RMC .OHMM           0.33:   Rmc
 MCST.F                60:   Rmc Meas. temp.
 MFSS.               MEAS:   Source Rmf.
 RMB .OHMM           0.12:   Rm. at BHT
 BHT .F               110:   BHT.
 TCS .HRS            0900:   Time Circ. stopped
 MRT .F               110:   Maximum recorded temp.
 LUN .               7980:   Logging unit number
 LUL .               CSPR:   Logging unit location
 ENGI.                FIX:   Recorded By
 WITN.               JAPP:   Witnessed by
 ORIG.           5" PRINT:   Origin of data
 UWI .     49025103130000:   Unique Well ID
 DICO. A2D TECHNOLOGIES, INC.:   Digitizing Company
 DAPD.                 11:   Feet Above Permanent Datum
 CS1 .              8.625:   Casing size
 BSD1.               2835:   Depth drilled with bit1
 MCSS.               CACL:   Source Rmc.
 TLAB.               1630:   Time logger at bottom
~OTHER INFORMATION
~A   DEPT      SPR        ILD        ILM        LL8       CALD         GRD      RHOB       CORR   
# ...
 2268.5000   -46.8470     7.4630     7.7390    12.4690     8.8330   132.3440     2.5570     0.0330
 2269.0000   -46.8600     7.5090     7.7870    11.9650     8.8380   131.8820     2.5520     0.0280
 2269.5000   -46.8720     7.5550     7.8340    12.1850     8.8430   129.5480     2.5460     0.0230
 2270.0000   -46.8840     7.6010     7.8820    12.6460     8.8490   128.2460     2.5380     0.0220
 2270.5000   -46.8960     7.6470     7.9290    13.1070     8.8540   130.9520     2.5400     0.0270
 2271.0000   -46.9090     7.6930     7.9770    13.1070     8.8560   133.0980     2.5550     0.0370
 2271.5000   -46.9210     7.7390     8.0250    12.9900     8.8570   134.7990     2.5690     0.0470
 2272.0000   -46.9330     7.7850     8.0720    12.7000     8.8580   138.1110     2.5650     0.0480
 2272.5000   -46.9450     7.8310     8.1200    12.4090     8.8590   139.6270     2.5700     0.0350
 2273.0000   -46.9570     7.8680     8.1680    12.5570     8.8600   138.6170     2.5450     0.0240
 2273.5000   -46.9700     7.8300     8.2150    13.2970     8.8600   136.5960     2.5380     0.0220
 2274.0000   -46.9810     7.7830     8.2630    13.5930     8.8610   129.8110     2.5560     0.0390
 2274.5000   -46.9940     7.7350     8.3100    13.4020     8.8620   131.1030     2.5660     0.0510
 2275.0000   -47.0080     7.6870     8.2910    12.9240     8.8630   133.1730     2.5670     0.0510
 2275.5000   -47.0120     7.6400     8.1960    12.4090     8.8640   129.5680     2.5730     0.0450
 2276.0000   -47.0930     7.5920     8.1000    12.7170     8.8650   128.8920     2.5640     0.0310
 2276.5000   -47.2290     7.5450     8.0040    13.2290     8.8650   128.2510     2.5310     0.0150
 2277.0000   -47.3570     7.4970     7.9080    13.8430     8.8660   132.5670     2.5150     0.0110
 2277.5000   -47.4840     7.4500     7.8130    13.1680     8.8670   140.7520     2.5280     0.0280
 2278.0000   -47.6130     7.3150     7.7170    11.4800     8.8680   142.1070     2.5470     0.0330
 2278.5000   -47.7410     7.2440     7.6210     9.7920     8.8690   146.5690     2.5430     0.0210
 2279.0000   -47.8690     7.1560     7.5260     9.6150     8.8700   148.7690     2.5470     0.0360
 2279.5000   -47.9970     7.0670     7.4300    11.3610     8.8700   140.4090     2.5520     0.0320
 2280.0000   -48.1250     6.9790     7.3340    13.2270     8.8710   130.7800     2.5550     0.0300
 2280.5000   -48.2530     6.9260     7.1830    12.3230     8.8720   137.3230     2.5850     0.0550
 2281.0000   -48.3810     6.8540     7.0490    10.3640     8.8730   143.4800     2.5790     0.0570
 2281.5000   -48.5110     6.7350     6.9140     9.9720     8.8740   145.3190     2.5690     0.0440
 2282.0000   -48.6100     6.6150     6.7800    10.1260     8.8750   140.5900     2.5580     0.0370
 2282.5000   -48.6260     6.4950     6.6450    10.3420     8.8750   145.5710     2.5410     0.0300
 2283.0000   -48.6490     6.3760     6.5110    10.1120     8.8760   147.7220     2.5550     0.0410
 2283.5000   -48.6680     6.2560     6.3760     8.9640     8.8770   150.3050     2.5640     0.0410
 2284.0000   -48.6880     6.2080     6.3230     7.8160     8.8780   153.7470     2.5550     0.0440
 2284.5000   -48.7090     6.3240     6.4760     7.7260     8.8790   151.6000     2.5510     0.0600
 2285.0000   -48.7290     6.4390     6.6680    10.1080     8.8800   143.6900     2.5830     0.0780
 2285.5000   -48.7490     6.6110     6.8600    11.5370     8.8800   135.2620     2.5860     0.0520
 2286.0000   -48.7690     6.8250     7.0530    11.1930     8.8810   126.7220     2.5810     0.0350
 2286.5000   -48.7890     7.0400     7.2450    11.1240     8.8820   124.8500     2.5860     0.0550
 2287.0000   -48.8100     7.2540     7.4370    12.0060     8.8830   120.0940     2.5900     0.0450
 2287.5000   -48.8300     7.4690     7.6290    12.8880     8.8840   123.7190     2.5790     0.0340
 2288.0000   -48.8500     7.6830     7.8210    13.5930     8.8850   125.3830     2.5740     0.0210
 2288.5000   -48.8700     7.8680     8.0130    13.2120     8.8850   127.4990     2.5540     0.0140
 2289.0000   -48.8910     7.8680     8.1600    12.2580     8.8860   131.0970     2.5490     0.0250
 2289.5000   -48.9110     7.8460     8.1300    10.9230     8.8870   131.7890     2.5570     0.0390
 2290.0000   -48.9320     7.7910     8.0910    11.1710     8.8880   128.1550     2.5490     0.0410
 2290.5000   -48.9510     7.7360     8.0530    12.4090     8.8890   121.1720     2.5640     0.0320
 2291.0000   -48.9730     7.6810     8.0140    12.8700     8.8900   126.5750     2.5430     0.0310
 2291.5000   -48.9940     7.6260     7.9760    12.5280     8.8900   132.8210     2.5530     0.0410
 2292.0000   -48.9760     7.5710     7.9370    12.1850     8.8910   130.3360     2.5540     0.0340
 2292.5000   -48.8280     7.5160     7.8990    12.3530     8.8920   127.6830     2.5570     0.0290
 2293.0000   -48.6820     7.4610     7.8680    12.2410     8.8930   132.6700     2.5700     0.0480
 2293.5000   -48.5320     7.5560     7.8680    11.3990     8.8940   134.0790     2.5570     0.0390
 2294.0000   -48.3820     7.6900     7.9940    10.6290     8.8950   135.5640     2.5530     0.0310
 2294.5000   -48.2350     7.8230     8.1210    11.4880     8.8940   130.4760     2.5740     0.0490
 2295.0000   -48.0830     7.9560     8.2470    12.6840     8.8860   129.6270     2.5670     0.0340
 2295.5000   -47.9330     8.0900     8.3730    13.8790     8.8780   127.5190     2.5650     0.0440
 2296.0000   -47.8520     8.2230     8.5000    14.3570     8.8710   121.8150     2.5830     0.0380
 2296.5000   -48.0030     8.3570     8.6260    14.3570     8.8630   122.2010     2.5910     0.0510
 2297.0000   -48.1500     8.4630     8.7520    14.3570     8.8550   121.1010     2.5650     0.0330
 2297.5000   -48.3080     8.6190     8.7770    14.3570     8.8480   119.4250     2.5480     0.0220
 2298.0000   -48.4570     8.6190     8.6920    14.3570     8.8400   125.9740     2.5410     0.0250
 2298.5000   -48.6040     8.4630     8.5510    14.0690     8.8320   123.3930     2.5360     0.0200
 2299.0000   -48.6000     8.3020     8.4090    13.7080     8.8240   124.4640     2.5760     0.0500
 2299.5000   -48.5830     8.1410     8.2680    13.3480     8.8170   130.8340     2.5690     0.0350
 2300.0000   -48.5620     7.9800     8.1260    12.6750     8.8090   138.2020     2.5550     0.0470
 2300.5000   -48.5450     7.8180     7.9850    11.1240     8.8010   134.8380     2.5400     0.0300
 2301.0000   -48.5260     7.6570     7.8430    11.2810     8.7930   136.4840     2.5280     0.0180
 2301.5000   -48.5070     7.4960     7.7020    11.9650     8.7860   137.4660     2.5330     0.0230
 2302.0000   -48.4880     7.3350     7.5600    11.8120     8.7780   127.5600     2.5460     0.0430
 2302.5000   -48.4700     7.1830     7.4190    11.5720     8.7700   135.2670     2.5560     0.0370
 2303.0000   -48.4510     7.0530     7.3150    11.3320     8.7620   134.2090     2.5550     0.0300
 2303.5000   -48.4320     7.0530     7.3150    11.0930     8.7550   132.5110     2.5760     0.0460
 2304.0000   -48.4140     7.0530     7.3150    10.7260     8.7470   126.5280     2.5900     0.0640
 2304.5000   -48.3950     7.0530     7.3150    10.8880     8.7390   121.4710     2.5750     0.0540
 2305.0000   -48.3760     7.0530     7.3150    11.2120     8.7310   125.6040     2.5550     0.0420
 2305.5000   -48.3580     7.0530     7.3150    11.5350     8.7240   129.1620     2.5630     0.0330
 2306.0000   -48.3390     7.0530     7.3150    11.9650     8.7160   130.4640     2.5700     0.0490
 2306.5000   -48.3210     7.0530     7.3150    11.9650     8.7080   131.6140     2.6020     0.0670
 2307.0000   -48.3020     6.9260     7.3150    11.6550     8.7010   131.5940     2.5910     0.0510
 2307.5000   -48.2850     6.8880     7.3150    11.3870     8.6930   130.4300     2.5750     0.0340
 2308.0000   -48.2650     6.8220     7.1830    10.9890     8.6850   129.8450     2.5560     0.0240
 2308.5000   -48.2470     6.7560     7.1030    10.6420     8.6770   134.6230     2.5620     0.0330
