~VERSION INFORMATION
 VERS.                2.0:   CWLS LOG ASCII STANDARD - VERSION 2.0
 WRAP.                 NO:   ONE LINE PER DEPTH STEP
~WELL INFORMATION
#MNEM.UNIT      DATA TYPE    INFORMATION
#----------   ------------   ------------------------------
 STRT.F            8.0000:   START DEPTH
 STOP.F         3021.0000:   STOP DEPTH
 STEP.F            0.5000:   STEP LENGTH
 NULL.          -999.2500:   NO VALUE
 COMP. LAWRENCE ALLISON & ASSOCIATES W:   COMPANY
 WELL. LAWRENCE ALLISON #68-28:   WELL
 FLD .              NPR 3:   FIELD
 LOC .      S28 T39N R78W:   LOCATION
 CNTY.            NATRONA:   COUNTY
 STAT.            WYOMING:   STATE
 CTRY. UNITED STATES OF AMERICA:   COUNTRY
 SRVC.      DRESSER ATLAS:   SERVICE COMPANY
 DATE.        19-DEC-1986:   LOGDATE
 API .     49025111580000:   API NUMBER
~CURVE INFORMATION
#MNEM.UNIT       API CODE    CURVE DESCRIPTION
#----------   ------------   ------------------------------
 DEPT.F                  :   
 SPR .MV     07 010 01 00:   SPONTANEOUS POTENTIAL
 TENR.LBS    07 635 01 00:   TENSION FROM RESISTIVITY
 RILD.OHMM   07 120 46 00:   DEEP INDUCTION RESISTIVITY
 RILM.OHMM   07 120 44 00:   INDUCTION LOG MEDIUM RESISTIVITY
 RFOC.OHMM   07 220 04 00:   RESISTIVITY FOCUSED LOG RES.
 CALD.IN     45 280 60 00:   CALIPER FROM DENSITY LOG
 CORR.G/C3   45 356 01 00:   DENSITY CORRECTION
 RHOB.G/C3   45 350 01 00:   BULK DENSITY
 CNC .DEC    42 890 03 00:   NEUTRON POROSITY SANDSTONE
 GRR .GAPI   07 310 01 00:   GAMMA RAY FROM RESISTIVITY
~PARAMETER INFORMATION
#MNEM.UNIT          VALUE    DESCRIPTION
#----------   ------------   ------------------------------
 EKB .F         5106.0000:   Kelly bushing
 EGL .F         5094.0000:   Ground level
 EDF .F            0.0000:   Drilling floor
 EPD .F         5094.0000:   Permanent datum
 TD  .F         3010.0000:   Total depth
 CLNT.            A2DTECH:   Client Code
 SL  . 1559'EL & 533' FSL:   Surface Location
 DATE.        19-DEC-1986:   Date Logged [DD-MMM-YYYY]
 DD  .F              3003:   Depth driller
 DL  .F              3010:   Depth logger
 BLI .F              3007:   Bottom log interval
 TLI .F                 0:   Top log interval
 CS1 .              8.625:   Casing size
 CBD1.      8.625" @ 389':   Casing driller 1
 CBL1.IN              405:   Casing logger 1
 BS1 .IN            7.875:   Bit size
 BSD1.F              3003:   Depth drilled with bit1
 DFT .        KCL POLYMER:   Type fluid in hole
 DFD .                9.0:   Density
 DFV .                 42:   Viscosity
 DFPH.                9.3:   pH
 DFL .                8.8:   Fluid loss
 MSS .           FLOWLINE:   Source of sample
 RMS .OHMM          0.484:   Rm
 MST .F                68:   Rm Meas. temp.
 RMF .OHMM          0.392:   Rmf
 MFST.F                68:   Rmf Meas. temp.
 MFSS.               MEAS:   Source Rmf.
 RMC .OHMM          0.605:   Rmc
 MCST.F                68:   Rmc Meas. temp.
 MCSS.               CALC:   Source Rmc.
 RMB .OHMM          0.269:   Rm. at BHT
 BHT .F               122:   BHT.
 TCS .HRS             3.5:   Time Circ. stopped
 MRT .F               122:   Maximum recorded temp.
 LUN .            HL-6274:   Logging unit number
 LUL .           GILLETTE:   Logging unit location
 ENGI.             RAUTIO:   Recorded By
 WITN.             STRONG:   Witnessed by
 ORIG.        2" 5" PRINT:   Origin of data
 UWI .     49025111580000:   Unique Well ID
 DICO. A2D TECHNOLOGIES, INC.:   Digitizing Company
~OTHER INFORMATION
~A    DEPT     SPR       TENR       RILD       RILM       RFOC       CALD       CORR       RHOB        CNC        GRR   
# ...
 2453.5000   -41.9210   -36.8721     6.1439     6.3949     6.6397    10.1330    -0.0283     2.4939     0.2485   110.2138
 2454.0000   -42.4082   -44.3790     6.0048     6.4401     6.5899    10.1485    -0.0190     2.4970     0.2463   109.9269
 2454.5000   -42.4052   -44.0625     6.0030     6.4384     6.6846    10.1483    -0.0097     2.5017     0.2432   110.5449
 2455.0000   -42.2461   -43.6914     6.0009     6.3908     6.9286    10.1638    -0.0020     2.5032     0.2410   111.1630
 2455.5000   -42.2431   -43.3858     5.9561     6.3436     7.1820    10.1636    -0.0130     2.5032     0.2357   112.9877
 2456.0000   -42.2400   -43.0802     5.8692     6.2967     7.0767    10.1635    -0.0193     2.5057     0.2323   114.5107
 2456.5000   -42.2370   -42.7746     5.8254     6.2053     6.9207    10.1633    -0.0049     2.5140     0.2360   115.7321
 2457.0000   -42.0779   -42.4690     5.7403     6.1594     6.7173    10.1632     0.0071     2.5241     0.2432   112.7303
 2457.5000   -42.0749   -42.1633     5.6565     6.1139     6.4351    10.1630     0.0242     2.5343     0.2521   111.8401
 2458.0000   -42.0718   -49.7465     5.6143     6.1126     6.2045    10.1316     0.0444     2.5358     0.2594   112.8241
 2458.5000   -42.0686   -49.3646     5.5323     6.0671     6.0257    10.1159     0.0350     2.5241     0.2659   114.2865
 2459.0000   -42.0655   -49.0590     5.4910     6.0223     5.9809    10.1001     0.0208     2.5162     0.2671   115.5079
 2459.5000   -42.0619   -48.7501     5.4108     5.9349     6.2896    10.1000     0.0051     2.5122     0.2543   115.5227
 2460.0000   -41.9028   -48.4375     5.3315     5.8910     6.4731    10.0998    -0.0059     2.5169     0.2493   114.6324
 2460.5000   -41.8998   -48.0657     5.2536     5.8475     6.6614    10.0997    -0.0309     2.5225     0.2478   113.1352
 2461.0000   -41.8967   -47.7600     5.2144     5.7626     6.7567    10.0839    -0.0193     2.5247     0.2468   114.6619
 2461.5000   -41.8937   -47.4544     5.1755     5.6381     6.7543    10.0838    -0.0077     2.5246     0.2459   115.8833
 2462.0000   -41.8906   -47.1488     5.0999     5.4767     6.6073    10.0680    -0.0046     2.5246     0.2449   116.5014
 2462.5000   -41.7315   -46.8432     5.0618     5.2818     6.3246    10.0522    -0.0016     2.5183     0.2460   112.5946
 2463.0000   -41.7285   -46.5375     5.0241     5.1306     5.9600    10.0209     0.0030     2.5097     0.2513   108.9870
 2463.5000   -41.7254   -46.2319     4.9507     5.0892     5.6165    10.0207     0.0108     2.5019     0.2543   107.7975
 2464.0000   -41.7223   -45.9263     4.8784     5.0548     5.4278    10.0206     0.0159     2.4972     0.2530   108.7209
 2464.5000   -41.7192   -45.6207     4.8420     5.0537     5.7912    10.0204    -0.0128     2.4956     0.2468   110.5457
 2465.0000   -41.4035   -45.3126     4.8452     5.0895     5.8744    10.0203    -0.0176     2.5084     0.2408   112.1162
 2465.5000   -41.4004   -44.9999     5.0529     5.1252     5.7982    10.0201    -0.0145     2.5143     0.2421   114.0250
 2466.0000   -41.2414   -44.6275     5.3131     5.1982     5.8823    10.0199    -0.0037     2.5056     0.2548   115.9339
 2466.5000   -41.0823   -44.3217     5.7918     5.6666     6.0088    10.0042     0.0056     2.4853     0.2592   116.6354
 2467.0000   -40.7673   -44.0161     6.2683     6.4038     6.4452     9.9728     0.0118     2.4611     0.2561   109.7157
 2467.5000   -40.4522   -43.7105     6.8825     7.1334     7.3102     9.8791     0.0226     2.4251     0.2409   104.9039
 2468.0000   -40.1371   -43.4049     7.6116     7.7761     8.5857     9.8009     0.0179     2.4009     0.2279    94.6622
 2468.5000   -39.8221   -50.9882     8.8538     8.6620     9.3388     9.7696    -0.0016     2.3860     0.2112    86.5322
 2469.0000   -39.6630   -50.6061    10.5241    10.1010     9.9475     9.7694     0.0193     2.3797     0.2062    80.2121
 2469.5000   -39.5039   -50.3005    11.4723    11.1192    10.5958     9.7693     0.0334     2.3790     0.1981    73.8920
 2470.0000   -39.5008   -49.9949    12.0808    12.5010    11.6872     9.7691     0.0410     2.3906     0.1903    71.7951
 2470.5000   -39.4971   -49.6875    13.3069    13.9252    12.9811     9.7533     0.0159     2.4101     0.1884    71.2066
 2471.0000   -39.4940   -50.2501    15.4056    15.2897    15.5686     9.7376    -0.0029     2.4374     0.1878    71.2560
 2471.5000   -39.4910   -56.8905    17.7911    17.7842    17.7818     9.7374    -0.0092     2.4624     0.1822    72.4464
 2472.0000   -39.4879   -56.5084    17.4054    16.6637    17.2983     9.7373    -0.0046     2.4608     0.1768    75.7794
 2472.5000   -39.4848   -64.0919    14.1164    14.0140    14.8418     9.7371     0.0031     2.4482     0.1775    78.2074
 2473.0000   -39.4818   -71.5223    12.6653    12.6664    12.9131     9.7370    -0.0032     2.4372     0.1807    80.9371
 2473.5000   -39.4787   -71.2167    11.9518    11.9542    11.8664     9.7368    -0.0126     2.4326     0.1971    84.5717
 2474.0000   -39.3197   -70.9111    11.5253    11.4459    11.2217     9.7210    -0.0174     2.4247     0.2067    85.4915
 2474.5000   -39.3166   -70.6053    11.1139    10.9532    10.8324     9.7209    -0.0034     2.4169     0.2104    85.2009
 2475.0000   -39.4696   -70.2998    10.7948    10.7097    10.4895     9.7207     0.0090     2.4130     0.2092    85.2193
 2475.5000   -39.4664   -69.9942    10.7917    10.5663    10.3468     9.7206     0.0214     2.4254     0.2042    85.5357
 2476.0000   -39.4634   -69.6875    10.7104    10.4882    10.2784     9.7204     0.0229     2.4488     0.2033    90.9984
 2476.5000   -39.4597   -69.3750    10.5541    10.4107    10.2105     9.7359     0.0197     2.4497     0.2070    95.6143
 2477.0000   -39.6134   -69.0009    10.3252    10.2596    10.2149     9.7357     0.0149     2.4448     0.2129    96.7414
 2477.5000   -39.4535   -76.5842    10.2482    10.1837    10.1465     9.7356     0.0023     2.4272     0.2182    92.8382
 2478.0000   -39.4505   -76.2021    10.3941    10.2558    10.2219     9.7354    -0.0024     2.4135     0.2253    90.4397
 2478.5000   -39.2914   -75.8965    10.4671    10.2531    10.2970     9.7352     0.0026     2.4104     0.2200    88.9462
 2479.0000   -39.2884   -75.5909    10.4635    10.2509    10.3727     9.7351     0.0208     2.4119     0.2141    91.9775
 2479.5000   -39.2851   -75.2853    10.5363    10.2487    10.5957     9.7349     0.0332     2.4158     0.2116    95.6122
 2480.0000   -39.2823   -74.9796    10.5333    10.2466    10.8236     9.7348     0.0394     2.4228     0.2100    98.3419
 2480.5000   -39.4352   -74.6740    10.5303    10.3302    11.1338     9.7346     0.0284     2.4329     0.2078    95.3400
 2481.0000   -39.4322   -74.3684    10.5272    10.4661    11.5330     9.7345     0.0018     2.4383     0.2125    91.1315
 2481.5000   -39.2730   -74.0625    10.6005    10.4633    11.7810     9.7343    -0.0108     2.4070     0.2165    88.4302
 2482.0000   -39.2699   -74.4688    10.4450    10.3114    11.2233     9.7341    -0.0110     2.3911     0.2200    88.5019
 2482.5000   -39.2662   -81.2640     9.9999    10.0887    10.1077     9.7184     0.0047     2.3867     0.2246    91.1795
 2483.0000   -39.1072   -80.8820     9.7127     9.8000     9.9055     9.7182    -0.0001     2.3867     0.2277    89.6859
 2483.5000   -39.1045   -80.5763     9.4339     9.5883     9.7718     9.7181    -0.0033     2.3952     0.2296    87.5891
 2484.0000   -39.1011   -80.2707     9.2961     9.3813     9.6397     9.7179     0.0044     2.4085     0.2293    85.4922
 2484.5000   -38.9420   -79.9651     9.2935     9.3119     9.5760     9.7178     0.0169     2.4202     0.2249    84.9000
 2485.0000   -38.9390   -79.6595     9.2909     9.3100     9.5127     9.7176     0.0152     2.4295     0.2193    86.4267
 2485.5000   -38.7799   -87.2428     9.3555     9.3080     9.5162     9.7175     0.0058     2.4295     0.2171    87.3464
 2486.0000   -38.6208   -86.8607     9.3529     9.3059     9.5193     9.7173    -0.0052     2.4223     0.2202    87.6628
 2486.5000   -38.4618   -86.5551     9.4179     9.3036     9.5228     9.7328    -0.0069     2.4208     0.2171    87.9792
