~VERSION INFORMATION
 VERS.                2.0:   CWLS LOG ASCII STANDARD - VERSION 2.0
 WRAP.                 NO:   ONE LINE PER DEPTH STEP
~WELL INFORMATION
#MNEM.UNIT      DATA TYPE    INFORMATION
#----------   ------------   ------------------------------
 STRT.F           11.0000:   START DEPTH
 STOP.F         4154.0000:   STOP DEPTH
 STEP.F            0.5000:   STEP LENGTH
 NULL.          -999.2500:   NO VALUE
 COMP.   LAWRENCE ALLISON:   COMPANY
 WELL. ALLISON NPR 3 "LX" #14-22:   WELL
 FLD .                NPR:   FIELD
 LOC .      S22 T38N R78W:   LOCATION
 CNTY.            NATRONA:   COUNTY
 STAT.            WYOMING:   STATE
 CTRY. UNITED STATES OF AMERICA:   COUNTRY
 SRVC.       DRESER ATLAS:   SERVICE COMPANY
 DATE.        14-APR-1985:   LOGDATE
 API .     49025110230000:   API NUMBER
~CURVE INFORMATION
#MNEM.UNIT       API CODE    CURVE DESCRIPTION
#----------   ------------   ------------------------------
 DEPT.F                  :   
 TEND.LBS    45 635 01 00:   TENSION FROM DENSITY LOG
 RHOB.G/C3   45 350 01 00:   BULK DENSITY
 DRHO.G/C3   45 356 01 00:   DENSITY CORRECTION
 CALD.IN     45 280 60 00:   CALIPER FROM DENSITY LOG
 NPHI.DEC    42 890 03 00:   NEUTRON POROSITY SANDSTONE
 TENR.LBS    07 635 01 00:   TENSION FROM RESISTIVITY
 SPR .MV     07 010 01 00:   SPONTANEOUS POTENTIAL
 GRR .GAPI   07 310 01 00:   GAMMA RAY FROM RESISTIVITY
 RFOC.OHMM   07 220 01 00:   RESISTIVITY FOCUSED LOG RES.
 RILD.OHMM   07 120 46 00:   DEEP INDUCTION RESISTIVITY
 RILM.OHMM   07 120 44 00:   INDUCTION LOG MEDIUM RESISTIVITY
~PARAMETER INFORMATION
#MNEM.UNIT          VALUE    DESCRIPTION
#----------   ------------   ------------------------------
 EKB .F         5230.4000:   Kelly bushing
 EGL .F         5220.4000:   Ground level
 EDF .F            0.0000:   Drilling floor
 TD  .F         4150.0000:   Total depth
 DATE.        14-APR-1985:   Date logged
 CLNT.            A2DTECH:   Client Code
 SL  . 905' FNL & 824' FWL:   Surface Location
 PD  .                 GL:   Permanent Datum
 EPD .F            5220.4:   Elevation Permanent Datum
 LMF .                 KB:   Log Measured From
 DMF .                 KB:   Drilling Measured From
 DAPD.F                10:   Feet Above Permanent Datum
 DD  .F              4150:   Depth driller
 DL  .F              4140:   Depth logger
 BLI .F              4138:   Bottom log interval
 CS1 .IN            8.625:   Casing size
 CBD1.      8.625" @ 738':   Casing driller 1
 CBL1.F               738:   Casing logger 1
 BS1 .IN            7.875:   Bit size
 BSD1.F              4150:   Depth drilled with bit1
 DFT .            KCL/GEL:   Type fluid in hole
 DFD .                9.1:   Density
 DFV .                 48:   Viscosity
 DFPH.                8.5:   pH
 DFL .                 10:   Fluid loss
 MSS .           FLOWLINE:   Source of sample
 RMS .OHMM            .35:   Rm
 MST .F                62:   Rm Meas. temp.
 RMF .OHMM            .26:   Rmf
 MFST.F                62:   Rmf Meas. temp.
 RMC .OHMM            .43:   Rmc
 MCST.F                62:   Rmc Meas. temp.
 MFSS.               CALC:   Source Rmf.
 MCSS.               CALC:   Source Rmc.
 RMB .OHMM            .16:   Rm. at BHT
 BHT .F               140:   BHT.
 TCS .HRS               6:   Time Circ. stopped
 MRT .F               140:   Maximum recorded temp.
 LUN .               6274:   Logging unit number
 LUL .               GLTE:   Logging unit location
 ENGI.               MACK:   Recorded By
 WITN.             STRONG:   Witnessed by
 ORIG.           5" PRINT:   Origin of data
 UWI .     49025110230000:   Unique Well ID
 DICO. A2D TECHNOLOGIES, INC.:   Digitizing Company
~OTHER INFORMATION
~A   DEPT     TEND       RHOB       DRHO       CALD       NPHI       TENR        SPR        GRR       RFOC       RILD       RILM   
# ...
  743.0000  -999.2500  -999.2500  -999.2500  -999.2500  -999.2500   -81.9520   -70.0860    90.6340     5.4960     5.9770    11.0860
  743.5000  -999.2500  -999.2500  -999.2500  -999.2500  -999.2500   -81.6580   -74.2770    93.9730     5.5650     6.1270    12.3830
  744.0000  -999.2500  -999.2500  -999.2500  -999.2500  -999.2500   -81.3640   -78.3780    99.0110     5.6920     6.5070    12.2690
  744.5000  -999.2500  -999.2500  -999.2500  -999.2500  -999.2500   -81.0700   -80.9060    99.8090     5.8880     6.8880    10.3070
  745.0000  -999.2500  -999.2500  -999.2500  -999.2500  -999.2500   -80.7760   -81.7800    98.7330     6.0330     7.3140     7.8090
  745.5000  -999.2500  -999.2500  -999.2500  -999.2500  -999.2500   -80.4820   -81.4360    95.2290     6.0330     7.2630     8.0280
  746.0000  -999.2500  -999.2500  -999.2500  -999.2500  -999.2500   -80.1880   -79.2070    93.8340     6.0330     7.1910     7.7700
  746.5000  -999.2500  -999.2500  -999.2500  -999.2500  -999.2500   -79.8940   -71.1670    93.2380     6.0330     7.1170     7.3810
  747.0000  -999.2500  -999.2500  -999.2500  -999.2500  -999.2500   -79.6000   -63.3570    92.5820     6.0330     7.0440     7.2100
  747.5000  -999.2500  -999.2500  -999.2500  -999.2500  -999.2500   -79.3060   -56.6640    92.2390     5.9770     6.9700     7.1170
  748.0000  -999.2500  -999.2500  -999.2500  -999.2500  -999.2500   -79.0110   -53.2830    92.3670     5.9250     6.8970     7.0230
  748.5000  -999.2500  -999.2500  -999.2500  -999.2500  -999.2500   -78.7170   -51.5620    92.4900     5.8680     6.8240     6.9300
  749.0000  -999.2500  -999.2500  -999.2500  -999.2500  -999.2500   -78.4230   -51.7590    92.6050     5.9160     6.7080     6.7950
  749.5000  -999.2500  -999.2500  -999.2500  -999.2500  -999.2500   -78.1290   -51.9460    93.0130     5.9840     6.5190     6.5600
  750.0000  -999.2500  -999.2500  -999.2500  -999.2500  -999.2500   -77.8350   -51.9980    93.5590     6.0890     6.3290     6.3250
  750.5000  -999.2500  -999.2500  -999.2500  -999.2500  -999.2500   -77.5410   -51.6280    94.7260     6.0890     6.1400     6.0890
  751.0000  -999.2500  -999.2500  -999.2500  -999.2500  -999.2500   -77.2470   -51.2710    96.5180     5.6070     5.9500     5.8540
  751.5000  -999.2500  -999.2500  -999.2500  -999.2500  -999.2500   -76.9530   -50.8540    97.6900     5.1100     5.7610     5.5520
  752.0000  -999.2500  -999.2500  -999.2500  -999.2500  -999.2500   -76.6590   -50.3770    96.9140     4.5750     5.7080     5.5920
  752.5000  -999.2500  -999.2500  -999.2500  -999.2500  -999.2500   -76.3650   -49.9000    95.8280     4.5750     5.7080     5.6470
  753.0000  -999.2500  -999.2500  -999.2500  -999.2500  -999.2500   -76.0710   -49.4190    95.8130     5.0920     5.8320     5.7020
  753.5000  -999.2500  -999.2500  -999.2500  -999.2500  -999.2500   -75.7770   -48.9210    95.8170     5.5510     6.0210     5.7610
  754.0000  -999.2500  -999.2500  -999.2500  -999.2500  -999.2500   -75.4830   -48.5720    95.8180     6.0330     6.3280     6.0990
  754.5000  -999.2500  -999.2500  -999.2500  -999.2500  -999.2500   -75.1890   -48.2140    96.0570     5.9770     6.6350     6.4580
  755.0000  -999.2500  -999.2500  -999.2500  -999.2500  -999.2500   -74.8950   -47.8540    96.5140     6.0550     6.9420     6.8170
  755.5000  -999.2500  -999.2500  -999.2500  -999.2500  -999.2500   -76.8970   -47.4940    97.0090     6.2020     7.2490     7.1880
  756.0000  -999.2500  -999.2500  -999.2500  -999.2500  -999.2500   -79.6190   -47.1340    98.2860     6.5860     7.5570     7.3520
  756.5000  -999.2500  -999.2500  -999.2500  -999.2500  -999.2500   -82.3400   -46.7730    98.5650     6.9920     7.8230     7.5270
  757.0000  -999.2500  -999.2500  -999.2500  -999.2500  -999.2500   -85.0620   -46.4040    96.2340     7.0630     7.9020     7.6010
  757.5000  -999.2500  -999.2500  -999.2500  -999.2500  -999.2500   -87.7840   -46.3430    93.6720     7.1220     7.9820     7.6770
  758.0000  -999.2500  -999.2500  -999.2500  -999.2500  -999.2500   -90.5050   -46.3910    91.4490     7.1020     8.0610     7.7540
  758.5000  -999.2500  -999.2500  -999.2500  -999.2500  -999.2500   -93.2270   -46.4390    92.6070     7.0860     8.1400     7.8300
  759.0000  -999.2500  -999.2500  -999.2500  -999.2500  -999.2500   -94.6410   -46.4880    94.8020     7.0690     8.2190     7.9060
  759.5000  -999.2500  -999.2500  -999.2500  -999.2500  -999.2500   -94.1370   -46.2070    95.8610     7.0530     8.2980     7.9820
  760.0000  -999.2500  -999.2500  -999.2500  -999.2500  -999.2500   -93.6340   -45.6490    93.5810     7.0370     8.3770     8.0580
  760.5000  -999.2500  -999.2500  -999.2500  -999.2500  -999.2500   -93.1300   -45.0930    91.5400     7.0200     8.4560     8.1340
  761.0000  -999.2500  -999.2500  -999.2500  -999.2500  -999.2500   -92.6270   -44.7310    94.7350     7.0040     8.5550     8.2540
  761.5000  -999.2500  -999.2500  -999.2500  -999.2500  -999.2500   -92.1230   -44.8550    99.9090     6.9920     8.4000     8.1830
  762.0000  -999.2500  -999.2500  -999.2500  -999.2500  -999.2500   -91.6200   -44.9730   102.4170     7.1380     8.1030     8.0280
  762.5000  -999.2500  -999.2500  -999.2500  -999.2500  -999.2500   -91.1160   -45.0820    98.8910     7.3210     8.1780     8.0500
  763.0000  -999.2500  -999.2500  -999.2500  -999.2500  -999.2500   -90.6130   -45.4760    95.5840     7.3040     8.2790     8.0710
  763.5000  -999.2500  -999.2500  -999.2500  -999.2500  -999.2500   -90.1090   -45.9460    93.2580     7.2640     8.3750     8.0920
  764.0000  -999.2500  -999.2500  -999.2500  -999.2500  -999.2500   -89.6060   -46.4200    93.0500     7.2250     8.4070     8.1030
  764.5000  -999.2500  -999.2500  -999.2500  -999.2500  -999.2500   -89.1020   -46.9070    93.2180     7.1860     8.3490     8.0050
  765.0000  -999.2500  -999.2500  -999.2500  -999.2500  -999.2500   -88.5990   -47.4510    93.4280     7.1470     8.2950     7.8930
  765.5000  -999.2500  -999.2500  -999.2500  -999.2500  -999.2500   -88.0950   -48.0120    91.9680     7.1080     8.2410     7.7810
  766.0000  -999.2500  -999.2500  -999.2500  -999.2500  -999.2500   -87.5920   -48.5860    86.0580     7.0680     8.1870     7.6680
  766.5000  -999.2500  -999.2500  -999.2500  -999.2500  -999.2500   -87.0880   -48.6180    85.5950     7.0240     8.1330     7.5560
  767.0000  -999.2500  -999.2500  -999.2500  -999.2500  -999.2500   -86.5850   -48.5110    88.3080     6.9590     8.0780     7.4440
  767.5000  -999.2500  -999.2500  -999.2500  -999.2500  -999.2500   -86.0810   -48.3990    93.6650     6.8390     8.0240     7.3210
  768.0000  -999.2500  -999.2500  -999.2500  -999.2500  -999.2500   -85.5780   -48.2870    95.4630     6.6650     7.9700     7.3050
  768.5000  -999.2500  -999.2500  -999.2500  -999.2500  -999.2500   -85.0740   -48.1770    95.1800     6.5550     7.7980     7.2870
  769.0000  -999.2500  -999.2500  -999.2500  -999.2500  -999.2500   -85.5180   -48.1320    95.0300     6.6220     7.6350     7.2700
  769.5000  -999.2500  -999.2500  -999.2500  -999.2500  -999.2500   -86.8200   -48.2850    97.1160     6.7140     7.5270     7.2540
  770.0000  -999.2500  -999.2500  -999.2500  -999.2500  -999.2500   -88.1230   -48.4370   100.6660     6.8010     7.5480     7.2540
  770.5000  -999.2500  -999.2500  -999.2500  -999.2500  -999.2500   -89.4250   -48.5870   101.9570     6.7590     7.6090     7.3220
  771.0000  -999.2500  -999.2500  -999.2500  -999.2500  -999.2500   -90.7270   -48.7390   102.6100     6.6810     7.6710     7.3820
  771.5000  -999.2500  -999.2500  -999.2500  -999.2500  -999.2500   -92.0290   -48.8930   101.3920     6.6150     7.7330     7.4410
  772.0000  -999.2500  -999.2500  -999.2500  -999.2500  -999.2500   -93.3310   -49.0430   100.5930     6.7610     7.7950     7.5010
  772.5000  -999.2500  -999.2500  -999.2500  -999.2500  -999.2500   -94.6330   -49.3460   100.3250     6.9530     7.8130     7.5270
  773.0000  -999.2500  -999.2500  -999.2500  -999.2500  -999.2500   -95.9360   -49.4560   100.0540     7.1450     7.8360     7.5270
