~VERSION INFORMATION
 VERS.                2.0:   CWLS LOG ASCII STANDARD - VERSION 2.0
 WRAP.                 NO:   ONE LINE PER DEPTH STEP
~WELL INFORMATION
#MNEM.UNIT      DATA TYPE    INFORMATION
#----------   ------------   ------------------------------
 STRT.F          620.0000:   START DEPTH
 STOP.F         3209.0000:   STOP DEPTH
 STEP.F            0.5000:   STEP LENGTH
 NULL.          -999.2500:   NO VALUE
 COMP. FENIX & SCISSON - US NAVY:   COMPANY
 WELL.   FENIX "A" #23-33:   WELL
 FLD .             NPR #3:   FIELD
 LOC .      S33 T39N R78W:   LOCATION
 CNTY.            NATRONA:   COUNTY
 STAT.            WYOMING:   STATE
 CTRY. UNITED STATES OF AMERICA:   COUNTRY
 SRVC.              WELEX:   SERVICE COMPANY
 DATE.        26-MAR-1977:   LOGDATE
 API .     49025103250000:   API NUMBER
~CURVE INFORMATION
#MNEM.UNIT       API CODE    CURVE DESCRIPTION
#----------   ------------   ------------------------------
 DEPT.F                  :   
 GRD .GAPI   45 310 01 00:   GAMMA RAY FROM DENSITY LOG
 CALD.IN     45 280 60 00:   CALIPER FROM DENSITY LOG
 CORR.G/C3   45 356 01 00:   DENSITY CORRECTION
 RHOB.G/C3   45 350 01 00:   BULK DENSITY
 SPR .MV     07 010 01 00:   SPONTANEOUS POTENTIAL
 ILD .OHMM   07 120 46 00:   DEEP INDUCTION RESISTIVITY
 ILM .OHMM   07 120 44 00:   INDUCTION LOG MEDIUM RESISTIVITY
 SGRD.OHMM   07 220 05 00:   SHALLOW SHORT GUARD RESISTIVITY
~PARAMETER INFORMATION
#MNEM.UNIT          VALUE    DESCRIPTION
#----------   ------------   ------------------------------
 EKB .F         5183.0000:   Kelly bushing
 EGL .F         5172.0000:   Ground level
 TD  .F         3213.0000:   Total depth
 CLNT.            A2DTECH:   Client Code
 SL  . 900' FWL & 1650' FNL:   Surface Location
 PD  .                 GL:   Permanent Datum
 EPD .F              5172:   Elevation Permanent Datum
 LMF .                 KB:   Log Measured From
 DMF .                 KB:   Drilling Measured From
 DAPD.F                11:   Feet Above Permanent Datum
 DATE.        26-MAR-1977:   Date Logged [DD-MMM-YYYY]
 DD  .F              3210:   Depth driller
 DL  .F              3213:   Depth logger
 BLI .F              3211:   Bottom log interval
 TLI .F               625:   Top log interval
 CS1 .IN            8.625:   Casing size
 CBD1.      8.625" @ 633':   Casing driller 1
 CBL1.F               635:   Casing logger 1
 BS1 .IN            7.875:   Bit size
 BSD1.F              3210:   Depth drilled with bit1
 DFT .            KCL MUD:   Type fluid in hole
 DFD .                9.5:   Density
 DFV .                 34:   Viscosity
 DFPH.                8.5:   pH
 DFL .                 14:   Fluid loss
 MSS .           FLOWLINE:   Source of sample
 RMS .OHMM           0.34:   Rm
 MST .F                86:   Rm Meas. temp.
 RMF .OHMM           0.25:   Rmf
 MFST.F                86:   Rmf Meas. temp.
 MFSS.            FANN KL:   Source Rmf.
 RMC .OHMM           0.55:   Rmc
 MCST.F                86:   Rmc Meas. temp.
 MCSS.            FANN KL:   Source Rmc.
 RMB .OHMM           0.31:   Rm. at BHT
 BHT .F                92:   BHT.
 TCS .HRS             2.5:   Time Circ. stopped
 MRT .F                92:   Maximum recorded temp.
 LUN .               8611:   Logging unit number
 LUL .             CASPER:   Logging unit location
 ENGI.            C. DOAK:   Recorded By
 WITN.            K. JAPP:   Witnessed by
 ORIG.           5" PRINT:   Origin of data
 UWI .     49025103250000:   Unique Well ID
 DICO. A2D TECHNOLOGIES, INC.:   Digitizing Company
~OTHER INFORMATION
~A   DEPT       GRD        CALD      CORR        RHOB      SPR        ILD        ILM       SGRD   
# ...
 2159.0000    79.0267     8.3542     0.0050     2.4669   -45.0673     7.7142     8.1296    13.3407
 2159.5000    78.7416     8.3553     0.0081     2.4730   -45.0530     7.8807     8.1344    13.0722
 2160.0000    78.6049     8.3563     0.0111     2.4776   -44.8885     8.0508     8.1393    13.7265
 2160.5000    79.0647     8.3572     0.0142     2.4776   -44.8733     8.1680     8.1460    13.3424
 2161.0000    79.9665     8.3582     0.0173     2.4784   -44.7099     8.2882     8.2123    13.0021
 2161.5000    81.1652     8.3440     0.0190     2.4793   -44.5464     8.3584     8.3061    13.9382
 2162.0000    82.9573     8.3452     0.0205     2.4816   -44.5230     8.5315     8.3878    14.5320
 2162.5000    84.1559     8.3462     0.0220     2.4839   -44.3638     8.5962     8.4068    14.4389
 2163.0000    84.3159     8.3471     0.0221     2.4855   -44.3480     8.6020     8.5142    14.3464
 2163.5000    83.8796     8.3481     0.0222     2.4871   -44.3322     8.6673     8.6378    14.6547
 2164.0000    83.3007     8.3639     0.0237     2.4886   -44.3164     8.6731     8.6703    14.6616
 2164.5000    82.2738     8.3499     0.0238     2.4879   -44.3006     8.6759     8.7534    14.2596
 2165.0000    81.0985     8.3509     0.0239     2.4857   -44.2848     8.6688     8.8946    13.8878
 2165.5000    80.5168     8.3519     0.0239     2.4828   -44.2690     8.6617     8.9001    14.3833
 2166.0000    81.5670     8.3528     0.0225     2.4798   -44.2532     8.6546     8.9795    14.9977
 2166.5000    82.4689     8.3389     0.0211     2.4784   -44.2285     8.6475     9.0976    15.1085
 2167.0000    83.5258     8.3399     0.0196     2.4747   -44.1795     8.6404     9.1659    15.1156
 2167.5000    84.2889     8.3260     0.0167     2.4695   -44.1304     8.6333     9.1714    15.1227
 2168.0000    84.8783     8.3122     0.0122     2.4590   -44.0814     8.5750     9.2403    14.9214
 2168.5000    84.0022     8.3133     0.0093     2.4508   -44.0324     8.5793     9.3096    14.7109
 2169.0000    82.8270     8.3141     0.0078     2.4621   -43.9833     8.5828     9.3154    14.3330
 2169.5000    81.3550     8.3300     0.0079     2.4559   -43.8130     8.6634     9.2569    14.4389
 2170.0000    80.1797     8.3310     0.0095     2.4452   -43.6524     8.8298     9.2004    14.7475
 2170.5000    79.1528     8.3168     0.0097     2.4444   -43.6368     8.8945     9.2059    14.8547
 2171.0000    78.4226     8.3180     0.0126     2.4525   -43.3314     8.9596     9.1470    14.4591
 2171.5000    77.6925     8.3338     0.0127     2.4592   -43.0221     9.0877     9.0897    14.4659
 2172.0000    76.9623     8.3348     0.0128     2.4532   -42.8131     9.0965     9.0966    15.6358
 2172.5000    76.0838     8.3357     0.0129     2.4418   -42.4951     9.1587     9.1025    16.5078
 2173.0000    75.2047     8.3515     0.0129     2.4402   -42.3945     9.2531     9.1400    16.2880
 2173.5000    74.3267     8.3525     0.0160     2.4469   -42.0869     9.2934     9.2125    16.5232
 2174.0000    73.7448     8.3386     0.0176     2.4536   -41.9239     9.2971     9.2462    16.7604
 2174.5000    73.7567     8.3395     0.0222     2.4588   -41.7638     9.2369     9.2517    16.8843
 2175.0000    74.0653     8.3405     0.0252     2.4602   -41.7510     9.1771     9.3212    16.8922
 2175.5000    74.0772     8.3417     0.0298     2.4594   -41.7382     9.1177     9.4560    16.5541
 2176.0000    73.7917     8.3426     0.0329     2.4616   -41.7253     8.8742     9.5270    16.1114
 2176.5000    73.2128     8.3435     0.0360     2.4645   -41.7125     8.7562     9.5327    15.5746
 2177.0000    71.7408     8.3445     0.0375     2.4653   -41.5523     8.6389     9.6043    14.9505
 2177.5000    69.6753     8.3454     0.0376     2.4448   -41.3891     8.4663     9.6102    14.2528
 2178.0000    67.3131     8.3315     0.0407     2.3982   -41.0818     8.3537     9.6173    12.9475
 2178.5000    66.1378     8.3325     0.0415     2.3565   -40.9217     8.1860     9.5571    12.9536
 2179.0000    65.5531     8.3483     0.0438     2.3305   -40.6143     8.1323     9.4322    12.6944
 2179.5000    65.8645     8.3641     0.0499     2.2808   -40.3069     8.0249     9.1188    12.0182
 2180.0000    66.7664     8.3650     0.0577     2.2357   -39.7050     8.1403     8.8158    11.6974
 2180.5000    67.9650     8.4105     0.0636     2.1888   -39.0290     8.1999     8.2916    13.7137
 2181.0000    69.3120     8.4560     0.0607     2.1414   -38.4485     8.2032     8.1270    11.9544
 2181.5000    70.0655     8.4866     0.0442     2.1079   -38.0433     8.2065     7.9660    10.4196
 2182.0000    70.6706     8.5477     0.0126     2.1257   -37.4414     8.2098     7.9709     8.4768
 2182.5000    70.9792     8.6072     0.0196     2.2621   -36.9868     8.1566     7.9209     7.2865
 2183.0000    70.9911     8.6702     0.0263     2.3306   -36.8267     8.0468     7.9815     8.1416
 2183.5000    71.1537     8.7577     0.0324     2.3940   -36.8139     7.9961     8.0415    11.6574
 2184.0000    71.3138     8.7881     0.0355     2.4468   -36.9485     7.9444     8.1019    12.6687
 2184.5000    71.9189     8.6112     0.0340     2.4641   -37.2301     7.8930     8.1067    12.7608
 2185.0000    72.9692     8.5231     0.0281     2.4680   -37.8031     7.9515     8.0558    11.9163
 2185.5000    73.8300     8.4645     0.0253     2.4643   -38.1142     8.0098     8.3433    12.0057
 2186.0000    74.8287     8.4358     0.0209     2.4598   -38.5171     8.0128     9.2309    10.8729
 2186.5000    75.5274     8.4073     0.0240     2.4568   -39.0934     8.0716    10.3036     9.6380
 2187.0000    75.8358     8.3932     0.0272     2.4675   -39.6697     8.1893    10.4877    12.5318
 2187.5000    75.5508     8.3793     0.0288     2.4743   -40.0955     8.2471     9.4018    14.1941
 2188.0000    74.8206     8.3507     0.0335     2.4714   -40.5245     8.2589     8.9038    15.2143
 2188.5000    74.0905     8.3369     0.0336     2.4692   -40.8062     8.3115     8.4321    14.5043
 2189.0000    74.9924     8.3230     0.0338     2.4677   -41.2320     8.3148     8.2649    13.8274
 2189.5000    76.4877     8.3240     0.0354     2.4679   -41.5137     8.2610     8.3844    12.9123
 2190.0000    78.2798     8.3249     0.0358     2.4694   -41.7955     8.2641     8.8033    11.2545
 2190.5000    77.1045     8.3259     0.0372     2.4724   -41.9299     8.1544     9.1873    13.4718
 2191.0000    76.0777     8.3270     0.0373     2.4755   -41.9175     8.0460     9.2500    13.5697
 2191.5000    75.0508     8.3280     0.0375     2.4778   -41.9043     7.9642     9.1908    13.1160
 2192.0000    74.4688     8.3288     0.0376     2.4794   -41.8910     7.8878     9.1346    13.8678
 2192.5000    74.9296     8.3299     0.0377     2.4742   -41.8755     7.8369     9.0153    14.0670
 2193.0000    75.3828     8.3308     0.0379     2.4803   -41.8626     7.7334     8.9575    13.9766
 2193.5000    75.0975     8.3318     0.0380     2.4841   -41.8498     7.6647     8.9028    13.8873
 2194.0000    74.8153     8.3327     0.0366     2.4804   -42.1348     7.6190     8.7864    13.5159
 2194.5000    74.5303     8.3337     0.0352     2.4774   -42.4138     7.5318     8.7315    13.1544
 2195.0000    74.2452     8.3346     0.0354     2.4805   -42.6950     7.4317     8.6077    12.8026
 2195.5000    74.1056     8.3356     0.0340     2.4851   -42.8443     7.3336     8.5047    12.4602
 2196.0000    74.4169     8.3365     0.0356     2.4889   -42.9640     7.2854     8.3936    12.0451
 2196.5000    75.1705     8.3375     0.0342     2.4913   -42.9479     7.2382     8.2851    11.5624
 2197.0000    76.0724     8.3384     0.0344     2.4928   -43.0839     7.2416     8.2901    12.1397
 2197.5000    76.2324     8.3394     0.0315     2.4898   -43.2201     7.1950     8.2951    11.9791
 2198.0000    76.0957     8.3404     0.0301     2.4814   -43.0568     7.1979     8.2999    12.1513
 2198.5000    75.8107     8.3392     0.0242     2.4706   -43.1915     7.1772     8.3051    12.5846
 2199.0000    76.1191     8.3274     0.0198     2.4615   -43.1782     7.1542     8.3102    12.9425
