~VERSION INFORMATION
 VERS.                2.0:   CWLS LOG ASCII STANDARD - VERSION 2.0
 WRAP.                 NO:   ONE LINE PER DEPTH STEP
~WELL INFORMATION
#MNEM.UNIT      DATA TYPE    INFORMATION
#----------   ------------   ------------------------------
 STRT.F          466.5000:   START DEPTH
 STOP.F         3184.0000:   STOP DEPTH
 STEP.F            0.5000:   STEP LENGTH
 NULL.          -999.2500:   NO VALUE
 COMP. LAWRENCE ALLISON AND ASSOCIATES:   COMPANY
 WELL. LAWRENCE 66 "X" #3-28:   WELL
 FLD .              N P R:   FIELD
 LOC .      S28 T39N R78W:   LOCATION
 CNTY.            NATRONA:   COUNTY
 STAT.            WYOMING:   STATE
 CTRY. UNITED STATES OF AMERICA:   COUNTRY
 SRVC.      DRESSER ATLAS:   SERVICE COMPANY
 DATE.        16-APR-1986:   LOGDATE
 API .     49025111340000:   API NUMBER
~CURVE INFORMATION
#MNEM.UNIT       API CODE    CURVE DESCRIPTION
#----------   ------------   ------------------------------
 DEPT.F                  :   
 RHOB.G/C3   45 350 01 00:   BULK DENSITY
 CORR.G/C3   45 356 01 00:   DENSITY CORRECTION
 TEND.LBS    45 635 01 00:   TENSION FROM DENSITY LOG
 NPHI.DEC    42 890 03 00:   NEUTRON POROSITY SANDSTONE
 DT  .US/F   60 520 00 00:   DELTA TIME
 TENS.LBS    51 635 01 00:   TENSION
 CALR.IN     07 280 01 00:   CALIPER FROM RESISTIVITY
 SPR .MV     07 010 01 00:   SPONTANEOUS POTENTIAL
 TENR.LBS    07 635 01 00:   TENSION FROM RESISTIVITY
 RFOC.OHMM   07 220 04 00:   RESISTIVITY FOCUSED LOG RES.
 GRR .GAPI   07 310 01 00:   GAMMA RAY FROM RESISTIVITY
 RILD.OHMM   07 120 46 00:   DEEP INDUCTION RESISTIVITY
 RILM.OHMM   07 120 44 00:   INDUCTION LOG MEDIUM RESISTIVITY
~PARAMETER INFORMATION
#MNEM.UNIT          VALUE    DESCRIPTION
#----------   ------------   ------------------------------
 EKB .F         5071.0000:   Kelly bushing
 EGL .F         5059.0000:   Ground level
 TD  .F         3176.0000:   Total depth
 DATE.        16-APR-1986:   Date logged
 CLNT.            A2DTECH:   Client Code
 SL  . 1685' FEL & 1915'FSL:   Surface Location
 PD  .                 GL:   Permanent Datum
 EPD .F              5059:   Elevation Permanent Datum
 LMF .                 KB:   Log Measured From
 DD  .F              3176:   Depth driller
 DL  .F              3176:   Depth logger
 BLI .F              3174:   Bottom log interval
 TLI .F               480:   Top log interval
 CS1 .IN            8.625:   Casing size
 BS1 .IN            7.875:   Bit size
 DFT .        POLYMER KCL:   Type fluid in hole
 DFD .                  9:   Density
 DFV .                 40:   Viscosity
 DFPH.                8.5:   pH
 DFL .               10.2:   Fluid loss
 MSS .           FLOWLINE:   Source of sample
 RMS .OHMM           .226:   Rm
 MST .F                65:   Rm Meas. temp.
 RMF .OHMM           .169:   Rmf
 MFST.F                65:   Rmf Meas. temp.
 RMC .OHMM           .283:   Rmc
 MCST.F                65:   Rmc Meas. temp.
 MFSS.               CALC:   Source Rmf.
 MCSS.               CALC:   Source Rmc.
 RMB .OHMM           .118:   Rm. at BHT
 BHT .F               125:   BHT.
 TCS .HRS               5:   Time Circ. stopped
 MRT .F               125:   Maximum recorded temp.
 LUN .               6264:   Logging unit number
 LUL .           GILLETTE:   Logging unit location
 ENGI.             MILLER:   Recorded By
 WITN.             STRONG:   Witnessed by
 ORIG.           5" PRINT:   Origin of data
 UWI .     49025111340000:   Unique Well ID
 DICO. A2D TECHNOLOGIES, INC.:   Digitizing Company
 DMF .                 KB:   Drilling Measured From
 DAPD.F                12:   Feet Above Permanent Datum
 CBD1.      8.625" @ 475':   Casing driller 1
 CBL1.F               480:   Casing logger 1
 BSD1.F              3176:   Depth drilled with bit1
~OTHER INFORMATION
~A   DEPT     RHOB       CORR       TEND       NPHI         DT       TENS       CALR        SPR       TENR       RFOC         GRR      RILD       RILM   
# ...
 2780.5000     2.5020     0.0330    19.0770     0.2250    96.5900   -60.3750     9.7870   -85.3540   -75.0000     3.2100   102.2360     3.0790     3.2240
 2781.0000     2.5040     0.0340     8.9410     0.2260    92.9600   -58.2730     9.7890   -85.7150   -71.1090     3.9670   101.5140     3.2930     3.4900
 2781.5000     2.5060     0.0310    -1.1950     0.2340    88.5300   -56.1710     9.8030   -86.0740   -61.6180     4.7250   103.6020     3.4920     3.9190
 2782.0000     2.5080     0.0250   -11.3300     0.2440    83.9820   -55.2760     9.8210   -86.4330   -55.8780     5.4830   105.5400     3.7240     4.3470
 2782.5000     2.5100     0.0200   -21.4660     0.2450    83.0690   -60.5320     9.8440   -86.8020   -58.7780     5.7420   105.2100     4.1630     4.7760
 2783.0000     2.5130     0.0220   -26.8410     0.2400    82.5440   -67.8030     9.8730   -87.3020   -61.6780     5.6800   102.2330     4.6410     5.2040
 2783.5000     2.5150     0.0340   -30.1350     0.2390    82.0180   -80.9430     9.9020   -87.8750   -64.5780     5.6370    99.8930     5.1190     5.3880
 2784.0000     2.5110     0.0470   -33.4290     0.2510    81.4920   -94.5340     9.9320   -88.2100   -79.8670     5.7800   101.0170     5.4100     5.5150
 2784.5000     2.5040     0.0490   -29.9730     0.2560    81.3180   -81.8460     9.9610   -88.4000   -95.0000     5.9570   102.7140     5.6370     5.6410
 2785.0000     2.4950     0.0280   -22.9460     0.2560    81.5620   -72.9350     9.9740   -88.5860   -95.0000     5.9800   106.8410     5.5010     5.7950
 2785.5000     2.4870     0.0120   -15.9190     0.2560    82.3220   -69.4320     9.9810   -88.7750   -95.0000     6.0040   109.4120     5.3980     5.7700
 2786.0000     2.4780     0.0250   -27.2140     0.2570    83.5150   -65.9280     9.9880   -88.9590   -68.3000     6.0120   111.9860     5.2960     5.7420
 2786.5000     2.4730     0.0380   -44.5890     0.2590    84.6510   -62.4240     9.9950   -88.9660   -73.2910     5.6180   114.6050     5.1930     5.2360
 2787.0000     2.4860     0.0490   -41.1970     0.2610    85.4630   -58.9200    10.0030   -88.3040   -82.7820     5.3340   117.2590     5.0910     5.2420
 2787.5000     2.4990     0.0370   -37.4320     0.2590    86.0880   -55.4160    10.0120   -87.6630   -77.0000     5.3720   115.6260     5.0470     5.2510
 2788.0000     2.5130     0.0210   -36.6730     0.2510    85.8790   -59.5290    10.0200   -87.0190   -66.5600     5.4120   113.6100     5.0890     5.2610
 2788.5000     2.5180     0.0100   -45.4580     0.2450    85.1220   -66.6960    10.0280   -86.6500   -65.0000     5.4330   111.6030     5.1200     5.2710
 2789.0000     2.5180     0.0110   -54.6090     0.2410    84.1590   -73.8620    10.0360   -86.3400   -65.0000     5.3340   109.8350     5.1510     5.2850
 2789.5000     2.5180     0.0130   -50.4010     0.2460    83.2800   -81.0290    10.0440   -86.0300   -77.9330     5.5430   110.8940     5.1880     5.2710
 2790.0000     2.5170     0.0140   -46.0090     0.2500    82.6780   -73.6710    10.0530   -85.7210   -95.0000     5.8480   113.4950     5.0820     5.2460
 2790.5000     2.5090    -0.0080   -41.6170     0.2550    83.1300   -52.6480    10.0610   -85.4050   -82.4820     5.7510   120.9060     4.9550     5.0100
 2791.0000     2.4980    -0.0310   -37.2240     0.2590    84.0880   -41.1940    10.0690   -85.4870   -70.2000     5.5850   128.5850     4.4940     4.6540
 2791.5000     2.4830    -0.0260   -35.9590     0.2650    85.5480   -35.9380    10.0700   -85.7680   -57.9180     5.2630   136.4980     4.0590     4.2990
 2792.0000     2.4610    -0.0040   -39.4720     0.2720    87.0080   -41.1510    10.0700   -86.0540   -55.0000     4.9090   141.1220     3.6230     3.9430
 2792.5000     2.4380     0.0380   -42.9860     0.2790    88.5960   -50.8840    10.0700   -86.3380   -55.0000     3.9670   142.9540     3.4040     3.5870
 2793.0000     2.4190     0.0790   -60.5100     0.2860    87.4000   -60.6170    10.0700   -86.5010   -59.7330     3.4600   138.8670     3.2440     3.3430
 2793.5000     2.4210     0.0790   -89.7910     0.2910    84.4720   -70.3500    10.0700   -86.5000   -77.1330     3.5450   131.7590     3.2700     3.3800
 2794.0000     2.4320     0.0720   -94.6890     0.2790    81.5430   -80.0830    10.0700   -86.5010   -94.5330     3.9800   126.4400     3.2910     3.4100
 2794.5000     2.4510     0.0670   -50.7350     0.2650    79.4560   -86.2960    10.0710   -86.4570  -111.9330     4.6930   122.3220     3.3600     3.5470
 2795.0000     2.4690     0.0280   -29.3090     0.2510    79.1150   -89.5810    10.0430   -86.3830  -105.0000     4.9550   118.2210     3.4920     3.8450
 2795.5000     2.4870    -0.0200   -42.4850     0.2460    80.3470   -92.8660    10.0100   -86.3080  -105.0000     4.9550   114.1060     3.7980     4.1430
 2796.0000     2.4930    -0.0540   -55.6610     0.2410    81.3330   -79.0070     9.9760   -86.2330   -98.7670     5.0090   109.9830     4.1940     4.4410
 2796.5000     2.4980    -0.0420   -68.8380     0.2430    82.1770   -64.4430     9.9430   -86.1590   -83.9000     5.1730   105.7820     4.5890     4.7390
 2797.0000     2.5060    -0.0190   -61.2590     0.2430    82.1770   -64.4430     9.9110   -86.1170   -65.0000     5.3360   104.2700     4.9850     5.0370
 2797.5000     2.5170     0.0020   -37.3020     0.2390    81.8330   -64.4430     9.9010   -86.2160   -71.3500     5.5000   106.3360     5.2660     5.2120
 2798.0000     2.5170     0.0210   -12.2240     0.2270    81.4920   -64.4430     9.8900   -86.2780   -77.4890     5.6630   108.8700     5.5270     5.3210
 2798.5000     2.5050     0.0090   -18.1360     0.2140    81.1520   -70.4180     9.8570   -86.0530   -83.6270     5.8270   109.4350     5.7950     5.4330
 2799.0000     2.4990    -0.0030   -44.5890     0.2200    81.1240   -81.6810     9.8330   -85.8280   -89.7660     5.9850   105.8200     5.8190     5.9200
 2799.5000     2.4950    -0.0080   -32.5040     0.2270    81.1890   -92.9430     9.8100   -85.6040   -95.9050     6.1210   102.2830     5.8450     5.9660
 2800.0000     2.4960    -0.0010   -20.3730     0.2330    81.2550   -86.9840     9.7900   -85.3810  -102.0430     6.2570   101.5470     5.9140     6.0110
 2800.5000     2.4980     0.0050   -14.5290     0.2360    81.1230   -78.1930     9.7820   -85.1560   -99.6200     6.3930   101.2650     5.9900     6.0560
 2801.0000     2.4980    -0.0030   -48.7580     0.2320    80.6000   -82.0960     9.7740   -84.7990   -89.2400     6.5320   100.9900     6.0680     6.0950
 2801.5000     2.4980    -0.0110   -84.6690     0.2280    79.9840   -95.3110     9.7660   -84.3950   -92.6750     6.5320   100.6970     6.0900     6.1320
 2802.0000     2.4930    -0.0200   -70.9750     0.2250    79.3670  -100.6020     9.7590   -83.9900  -105.0000     6.3550   101.0740     6.1120     6.1690
 2802.5000     2.4910    -0.0170   -44.5890     0.2210    78.9300   -87.3870     9.7510   -83.7110  -103.0540     6.2640   101.8970     6.1350     6.2060
 2803.0000     2.4970     0.0060   -54.6090     0.2130    78.9370   -79.3380     9.7530   -84.2350  -101.2000     6.1720   104.2090     6.1570     6.2380
 2803.5000     2.5020     0.0280   -94.9400     0.2110    79.2180   -72.7310     9.7570   -85.3590   -99.3460     6.0810   106.5810     6.1810     6.2380
 2804.0000     2.5070     0.0500  -110.4640     0.2170    79.7910   -66.1230     9.7600   -86.4750   -97.4930     5.9890   104.8990     6.4680     6.2380
 2804.5000     2.5110     0.0430  -105.2390     0.2160    80.3710   -71.0130     9.7640   -86.8610   -95.6390     5.8970   102.1470     6.7660     6.5330
 2805.0000     2.5150     0.0340   -82.9520     0.2140    80.4230   -79.8230     9.7670   -86.5590   -91.9090     5.8480    99.4050     7.0640     6.8970
 2805.5000     2.5200     0.0210   -60.6640     0.2130    79.9500   -73.2420     9.7710   -86.1410   -87.1910     5.9580    97.3270     7.3610     7.2620
 2806.0000     2.5300     0.0000   -63.3500     0.2140    78.7990   -49.2160     9.7740   -85.7170   -75.7330     6.3150    96.0960     7.5690     7.4630
