~VERSION INFORMATION
 VERS.                2.0:   CWLS LOG ASCII STANDARD - VERSION 2.0
 WRAP.                 NO:   ONE LINE PER DEPTH STEP
~WELL INFORMATION
#MNEM.UNIT      DATA TYPE    INFORMATION
#----------   ------------   ------------------------------
 STRT.F          197.0000:   START DEPTH
 STOP.F         3238.5000:   STOP DEPTH
 STEP.F            0.5000:   STEP LENGTH
 NULL.          -999.2500:   NO VALUE
 COMP.    FENIX & SCISSON:   COMPANY
 WELL. FENIX 28 "A" #28-11:   WELL
 FLD .              NPR-3:   FIELD
 LOC .      S11 T38N R78W:   LOCATION
 CNTY.            NATRONA:   COUNTY
 STAT.            WYOMING:   STATE
 CTRY. UNITED STATES OF AMERICA:   COUNTRY
 SRVC.              WELEX:   SERVICE COMPANY
 DATE.        25-OCT-1977:   LOGDATE
 API .     49025104350000:   API NUMBER
~CURVE INFORMATION
#MNEM.UNIT       API CODE    CURVE DESCRIPTION
#----------   ------------   ------------------------------
 DEPT.F                  :   
 SPR .MV     07 010 01 00:   SPONTANEOUS POTENTIAL
 TENR.LBS    07 635 01 00:   TENSION FROM RESISTIVITY
 ILM .OHMM   07 120 44 00:   INDUCTION LOG MEDIUM RESISTIVITY
 SGRD.OHMM   07 220 05 00:   SHALLOW SHORT GUARD RESISTIVITY
 ILD .OHMM   07 120 46 00:   INDUCTION LOG DEEP RESISTIVITY
 GRD .GAPI   45 310 01 00:   GAMMA RAY FROM DENSITY LOG
 CALD.IN     45 280 60 00:   CALIPER FROM DENSITY LOG
 CORR.G/C3   45 356 01 00:   DENSITY CORRECTION
 RHOB.G/C3   45 350 01 00:   BULK DENSITY
~PARAMETER INFORMATION
#MNEM.UNIT          VALUE    DESCRIPTION
#----------   ------------   ------------------------------
 EKB .F         5211.0000:   Kelly bushing
 EGL .F         5201.0000:   Ground level
 EDF .F            0.0000:   Drilling floor
 EPD .F         5201.0000:   Permanent datum
 TD  .F         3235.0000:   Total depth
 CLNT.            A2DTECH:   Client Code
 SL  . 330' FSL & 990' FWL:   Surface Location
 PD  .                 GL:   Permanent Datum
 DAPD.F                10:   Feet Above Permanent Datum
 DATE.        25-OCT-1977:   Date Logged [DD-MMM-YYYY]
 DD  .F              3235:   Depth driller
 DL  .F              3231:   Depth logger
 BLI .F              3229:   Bottom log interval
 TLI .F               200:   Top log interval
 CS1 .IN            8.625:   Casing size
 CBD1.      8.625" @ 217':   Casing driller 1
 CBL1.F               217:   Casing logger 1
 BS1 .              7.875:   Bit size
 BSD1.IN             3235:   Depth drilled with bit1
 DFT .            KCL MUD:   Type fluid in hole
 DFD .                8.9:   Density
 DFV .                 35:   Viscosity
 DFPH.               11.5:   pH
 DFL .               16.4:   Fluid loss
 MSS .           FLOWLINE:   Source of sample
 RMS .OHMM           1.18:   Rm
 MST .F                74:   Rm Meas. temp.
 RMF .OHMM           1.74:   Rmf
 MFST.F                74:   Rmf Meas. temp.
 MFSS.               MEAS:   Source Rmf.
 MCSS.               MEAS:   Source Rmc.
 RMB .OHMM           1.15:   Rm. at BHT
 BHT .F               116:   BHT.
 TCS .HRS               3:   Time Circ. stopped
 MRT .F               116:   Maximum recorded temp.
 LUN .               8611:   Logging unit number
 LUL .             CASPER:   Logging unit location
 ENGI.            C. DOAK:   Recorded By
 WITN.      W. PETTINGILL:   Witnessed by
 ORIG.           5" PRINT:   Origin of data
 UWI .     49025104350000:   Unique Well ID
 DICO. A2D TECHNOLOGIES, INC.:   Digitizing Company
~OTHER INFORMATION
~A   DEPT      SPR       TENR        ILM       SGRD        ILD         GRD      CALD       CORR       RHOB   
# ...
 2606.0000   -75.8850  1788.6285     6.4420     8.2079     5.2504   131.4444     9.1412     0.0002     2.5086
 2606.5000   -75.8940  1791.4795     6.3507     8.0339     5.2838   132.4006     9.1400    -0.0107     2.5026
 2607.0000   -75.9013  1794.3586     6.3986     7.9731     5.1705   133.3687     9.1388    -0.0123     2.5011
 2607.5000   -75.9085  1797.2378     6.4792     7.9677     5.1681   134.5061     9.1375    -0.0123     2.5145
 2608.0000   -76.0671  1800.1169     6.4759     8.1281     5.1657   135.6172     9.1362    -0.0108     2.5280
 2608.5000   -76.0743  1802.9960     6.4286     8.3506     5.1277   136.6587     9.1350    -0.0062     2.5362
 2609.0000   -75.9303  1805.8751     6.3374     8.5214     5.1253   137.2605     9.1336    -0.0016     2.5393
 2609.5000   -75.7863  1807.2040     6.3349     8.3973     5.0870   136.8975     9.1325     0.0014     2.5452
 2610.0000   -75.9466  1806.4380     6.4209     8.1625     5.0847   136.5958     9.1313     0.0091     2.5541
 2610.5000   -75.9539  1805.6720     6.4630     7.9359     5.0825   136.2658     9.1298     0.0184     2.5661
 2611.0000   -76.4150  1804.9061     6.4151     7.9322     5.0706   136.2478     9.1287     0.0277     2.5728
 2611.5000   -76.4356  1804.1401     6.4126     8.0392     5.0426   136.6609     9.1273     0.0307     2.5780
 2612.0000   -76.4295  1803.3741     6.3216     8.0353     5.0345   137.4599     9.1263     0.0307     2.5755
 2612.5000   -76.4386  1802.6082     6.2754     8.0307     5.0026   138.7155     9.1250     0.0260     2.5637
 2613.0000   -76.4458  1801.8422     6.2289     7.9165     4.9658   140.2275     9.1237     0.0182     2.5502
 2613.5000   -76.3000  1801.0762     6.1406     7.8582     4.9635   142.0816     9.1381     0.0057     2.5352
 2614.0000   -76.1560  1800.3102     6.0957     7.6931     4.9269   143.4924     9.1367    -0.0005     2.5269
 2614.5000   -76.0136  1799.5442     5.9264     7.5314     4.8907   145.4778     9.1355    -0.0068     2.5194
 2615.0000   -76.0212  1799.4012     5.7618     7.2666     4.8542   146.7083     9.1185    -0.0086     2.5125
 2615.5000   -76.1814  1800.0001     5.4809     6.9717     4.8184   147.3139     9.1175    -0.0100     2.5058
 2616.0000   -76.1886  1800.5989     5.2605     6.4128     4.8162   146.6674     9.1163    -0.0069     2.5020
 2616.5000   -76.4984  1801.1976     5.5197     6.0232     4.8140   145.2823     9.1150    -0.0116     2.5020
 2617.0000   -76.2031  1801.7965     5.7123     6.9139     4.8117   143.8233     9.0979    -0.0210     2.5065
 2617.5000   -76.0590  1802.3953     5.7899     7.8281     4.8429   141.9332     9.0891    -0.0241     2.5124
 2618.0000   -76.0666  1802.9940     5.9093     7.8244     4.8743   140.0432     9.0799    -0.0194     2.5184
 2618.5000   -76.0754  1803.5929     5.9064     7.7660     4.8714   138.7636     9.0787    -0.0133     2.5261
 2619.0000   -76.2340  1804.1917     5.8632     7.7088     4.9036   137.8186     9.0775    -0.0088     2.5221
 2619.5000   -76.2412  1804.7904     5.8608     7.5992     4.9007   138.4246     9.0606    -0.0072     2.5131
 2620.0000   -76.0954  1795.3448     5.8180     7.5957     4.8984   139.3427     9.0437    -0.0073     2.5070
 2620.5000   -75.9531  1800.3561     5.7754     7.5922     4.8623   140.5728     9.0425    -0.0135     2.5055
 2621.0000   -75.7881  1805.3574     5.7696     7.6414     4.8596   142.2729     9.0256    -0.0182     2.5040
 2621.5000   -75.6651  1810.0000     5.7303     7.7435     4.8573   144.4478     9.0244    -0.0229     2.5032
 2622.0000   -75.6742  1810.0000     5.6884     7.6864     4.8216   146.7545     9.0075    -0.0245     2.5039
 2622.5000   -75.8327  1808.0548     5.6862     7.4730     4.7861   148.6086     9.0063    -0.0230     2.5076
 2623.0000   -76.1425  1805.2657     5.6446     7.2654     4.7679   150.1507     9.0048    -0.0184     2.5174
 2623.5000   -76.1498  1802.4767     5.6423     7.0149     4.7486   150.4492     9.0037    -0.0123     2.5308
 2624.0000   -75.8307  1799.6876     5.7247     7.0193     4.7459   148.5547     9.0023    -0.0077     2.5233
 2624.5000   -75.5610  1796.8987     5.8776     7.3556     4.7437   148.5367     8.9934    -0.0155     2.5180
 2625.0000   -75.5682  1794.1096     5.9982     7.6112     4.7750   149.8180     8.9843    -0.0202     2.5120
 2625.5000   -75.4224  1791.3206     5.9959     7.5552     4.7722   150.6848     8.9831    -0.0233     2.5075
 2626.0000   -75.4314  1788.5315     5.9520     7.3964     4.8365   148.4782     8.9817    -0.0265     2.5051
 2626.5000   -75.5900  1785.7424     5.9085     7.1910     4.9016   145.3401     8.9650    -0.0296     2.5037
 2627.0000   -75.5991  1782.9534     5.8647     7.9185     4.9487   143.4500     8.9637    -0.0312     2.5044
 2627.5000   -75.4532  1780.1644     6.0274     8.6006     5.0689   142.1840     8.9625    -0.0297     2.5043
 2628.0000   -75.4623  1777.3754     6.4133     9.2131     5.1371   140.2476     8.9611    -0.0297     2.5043
 2628.5000   -75.1652  1774.5863     6.6834     9.7334     5.3155   138.3061     8.9600    -0.0313     2.5043
 2629.0000   -75.1742  1771.7755     6.6807     9.8647     5.5424   137.1334     8.9431    -0.0298     2.5059
 2629.5000   -75.3328  1770.0114     6.5860     9.7243     5.7300   136.1524     8.9419    -0.0268     2.5147
 2630.0000   -75.4931  1769.9919     6.6292     9.6516     5.7677   135.2253     8.9406    -0.0160     2.5244
 2630.5000   -75.3473  1770.0000     6.7186     9.5805     5.7644   134.8953     8.9394    -0.0050     2.5319
 2631.0000   -75.2033  1770.0000     6.7633     9.5100     5.7617   135.2281     8.9355    -0.0021     2.5371
 2631.5000   -75.2123  1770.0000     6.8077     9.4400     5.7591   136.1029     8.9212     0.0010     2.5393
 2632.0000   -75.2196  1770.0000     6.8043     9.5013     5.7561   137.0209     8.9356     0.0025     2.5401
 2632.5000   -75.2269  1770.0000     6.8490     9.4967     5.7530   137.8215     8.9342     0.0040     2.5408
 2633.0000   -75.2359  1770.0000     6.8939     9.4912     5.7504   139.1691     8.9330     0.0039     2.5415
 2633.5000   -75.2432  1770.0000     6.7955     9.4868     5.7477   140.7096     8.9318     0.0039     2.5437
 2634.0000   -75.2504  1790.0000     6.7458     9.4488     5.7054   141.0382     8.9306     0.0054     2.5489
 2634.5000   -75.4090  1788.7440     6.7902     9.4129     5.7027   140.9860     8.9291     0.0069     2.5527
 2635.0000   -75.2647  1787.3867     6.8347     9.4737     5.6607   140.7775     8.9123     0.0084     2.5564
 2635.5000   -75.1209  1786.0293     6.8795     9.4691     5.6185   140.3227     8.9111     0.0099     2.5609
 2636.0000   -75.1300  1784.6720     6.9240     9.4645     5.5387   139.3687     8.8943     0.0129     2.5661
 2636.5000   -75.2885  1783.3147     6.9212     9.4593     5.4224   138.1991     8.8774     0.0160     2.5638
 2637.0000   -75.2958  1781.9573     6.9185     9.5217     5.3454   137.1482     8.8450     0.0175     2.5630
 2637.5000   -75.1499  1780.6000     6.9639     9.5834     5.2695   138.3742     8.7760     0.0221     2.5652
 2638.0000   -75.1590  1779.2427     7.0628     9.5778     5.1940   141.1643     8.7017     0.0236     2.5682
 2638.5000   -75.1664  1777.8854     6.9095     9.4300     5.1916   143.0184     8.6536     0.0266     2.5712
 2639.0000   -75.1753  1776.5280     6.8115     8.7441     5.1534   144.5604     8.6524     0.0282     2.5786
 2639.5000   -75.1826  1775.1707     6.7149     8.0990     5.1868   144.2305     8.6668     0.0276     2.5861
 2640.0000   -75.0373  1773.8134     6.6658     8.4386     5.1844   141.6742     8.6813     0.0254     2.5913
 2640.5000   -75.1977  1772.4561     6.7096     8.6716     5.2542   139.4058     8.7113     0.0218     2.5958
 2641.0000   -75.2049  1771.0986     6.8078     8.7279     5.3243   137.8117     8.7723     0.0187     2.5980
 2641.5000   -75.2122  1769.9037     6.9886     8.7237     5.3588   136.6657     8.8024     0.0155     2.5935
 2642.0000   -75.2195  1769.1588     7.1335     8.7803     5.4316   136.0237     8.8480     0.0124     2.5873
