~VERSION INFORMATION
 VERS.                2.0:   CWLS LOG ASCII STANDARD - VERSION 2.0
 WRAP.                 NO:   ONE LINE PER DEPTH STEP
~WELL INFORMATION
#MNEM.UNIT      DATA TYPE    INFORMATION
#----------   ------------   ------------------------------
 STRT.F           72.5000:   START DEPTH
 STOP.F         2820.0000:   STOP DEPTH
 STEP.F            0.5000:   STEP LENGTH
 NULL.          -999.2500:   NO VALUE
 COMP.          INTEX OIL:   COMPANY
 WELL. INTEX OIL AX N. P. R. #51-29:   WELL
 FLD .             TEAPOT:   FIELD
 LOC .      S29 T39N R78W:   LOCATION
 CNTY.            NATRONA:   COUNTY
 STAT.            WYOMING:   STATE
 CTRY. UNITED STATES OF AMERICA:   COUNTRY
 SRVC.       SCHLUMBERGER:   SERVICE COMPANY
 DATE.        01-MAY-1966:   LOGDATE
 API .     49025094920000:   API NUMBER
~CURVE INFORMATION
#MNEM.UNIT       API CODE    CURVE DESCRIPTION
#----------   ------------   ------------------------------
 DEPT.F                  :   
 GRD .GAPI   45 310 01 00:   GAMMA RAY FROM DENSITY LOG
 CALD.IN     45 280 60 00:   CALIPER FROM DENSITY LOG
 RHOB.G/C3   45 350 01 00:   BULK DENSITY
 CORR.G/C3   45 356 01 00:   DENSITY CORRECTION
 SPR .MV     07 010 01 00:   SPONTANEOUS POTENTIAL
 ASN .OHMM   05 041 16 00:   AMPLIFIED SHORT NORMAL 16"
 ILD .OHMM   05 120 46 00:   DEEP INDUCTION RESISTIVITY
 DT  .US/F   60 520 00 00:   DELTA TIME
~PARAMETER INFORMATION
#MNEM.UNIT          VALUE    DESCRIPTION
#----------   ------------   ------------------------------
 EKB .F         5007.3000:   Kelly bushing
 EGL .F         4997.0000:   Ground level
 EDF .F            0.0000:   Drilling floor
 TD  .F         2799.0000:   Total depth
 DATE.        01-MAY-1966:   Date logged
 CLNT.            A2DTECH:   Client Code
 PD  .                 GL:   Permanent Datum
 EPD .F              4997:   Elevation Permanent Datum
 LMF .                 KB:   Log Measured From
 DMF .                 KB:   Drilling Measured From
 DAPD.F              10.3:   Feet Above Permanent Datum
 DD  .F              2798:   Depth driller
 DL  .F              2799:   Depth logger
 BLI .F              2798:   Bottom log interval
 TLI .F                88:   Top log interval
 CS1 .IN            10.75:   Casing size
 CBD1.       10.75" @ 30':   Casing driller 1
 BS1 .IN            7.875:   Bit size
 BSD1.F              2798:   Depth drilled with bit1
 DFT .           CHEM/OIL:   Type fluid in hole
 DFD .                9.5:   Density
 DFV .                 46:   Viscosity
 DFPH.                7.2:   pH
 DFL .                7.0:   Fluid loss
 MSS .         CIRCULATED:   Source of sample
 RMS .OHMM           2.28:   Rm
 MST .F                68:   Rm Meas. temp.
 RMF .OHMM           1.32:   Rmf
 MFST.F                72:   Rmf Meas. temp.
 MFSS.                 FP:   Source Rmf.
 RMB .OHMM           1.52:   Rm. at BHT
 BHT .F               102:   BHT.
 TCS .HRS             1.5:   Time Circ. stopped
 MRT .F               102:   Maximum recorded temp.
 LUN .               4507:   Logging unit number
 LUL .               CSPR:   Logging unit location
 ENGI.               HAUG:   Recorded By
 WITN.      TUTTLE/HUDSON:   Witnessed by
 ORIG.           5" PRINT:   Origin of data
 UWI .     49025094920000:   Unique Well ID
 DICO. A2D TECHNOLOGIES, INC.:   Digitizing Company
~OTHER INFORMATION
~A   DEPT      GRD       CALD       RHOB       CORR        SPR        ASN        ILD         DT   
# ...
 2745.5000   118.5640     8.5220     2.4950    -0.0140   -24.8630    11.4310     8.8410    74.6240
 2746.0000   118.1980     8.5020     2.4720    -0.0150   -25.1000    11.6940     9.0180    73.8470
 2746.5000   119.1940     8.4900     2.4770    -0.0110   -25.4460    11.6410     8.8520    74.5430
 2747.0000   121.1660     8.4780     2.4890    -0.0070   -25.6710    11.3860     8.4620    74.3440
 2747.5000   124.5000     8.4660     2.4970    -0.0030   -25.6220    11.0560     8.0630    76.7420
 2748.0000   127.7550     8.4540     2.4970    -0.0080   -25.3680    10.7020     7.7770    78.6230
 2748.5000   129.6390     8.4420     2.4980    -0.0130   -25.0800    10.4170     7.6020    79.5570
 2749.0000   130.5020     8.4300     2.4960    -0.0100   -24.8510    10.2400     7.4810    80.0560
 2749.5000   131.3400     8.4180     2.5090    -0.0030   -24.7020    10.0910     7.3730    79.8630
 2750.0000   129.6840     8.4060     2.4870    -0.0020   -24.6080    10.0070     7.2790    78.9560
 2750.5000   127.6810     8.3940     2.4940    -0.0080   -24.5690    10.1160     7.2350    77.8710
 2751.0000   127.1000     8.3850     2.5000     0.0040   -24.5990    10.3370     7.2590    76.7870
 2751.5000   127.7540     8.3720     2.5380     0.0240   -24.6880    10.5330     7.3360    75.8510
 2752.0000   124.8150     8.3590     2.5330     0.0190   -24.7790    10.7360     7.4560    77.7620
 2752.5000   116.2350     8.3450     2.5200     0.0040   -24.8720    10.9450     7.6650    77.1930
 2753.0000   107.9110     8.3310     2.4960    -0.0020   -25.1110    11.1220     8.0390    78.4190
 2753.5000   100.6290     8.3180     2.4750     0.0040   -25.5920    11.9090     8.6400    78.0950
 2754.0000    95.5770     8.3030     2.4840     0.0150   -26.1250    12.7010     9.5000    76.8400
 2754.5000    88.4540     8.2920     2.4960     0.0170   -26.5780    14.8620    10.5790    74.7370
 2755.0000    80.4490     8.2740     2.5100     0.0180   -27.4180    15.4530    11.7850    71.3330
 2755.5000    77.5300     8.2640     2.5060    -0.0100   -29.4470    18.1890    13.1190    68.1800
 2756.0000    74.3550     8.1910     2.5010     0.0060   -32.7280    21.3580    14.7700    66.6310
 2756.5000    65.3500     8.1670     2.4950     0.0000   -36.1920    27.0670    16.8550    65.7080
 2757.0000    61.4070     8.1400     2.4860     0.0060   -38.7670    27.0670    19.0750    66.2880
 2757.5000    59.3870     8.1170     2.4670     0.0220   -40.5850    30.4130    20.8710    70.0990
 2758.0000    57.4590     8.0920     2.4280     0.0280   -43.0410    31.2000    22.0060    73.4090
 2758.5000    55.3690     8.0670     2.3900     0.0140   -46.7870    32.0950    22.7750    76.2330
 2759.0000    53.3790     8.0410     2.3580     0.0000   -51.4090    32.5790    23.5440    74.4210
 2759.5000    51.3440     8.0270     2.3660     0.0040   -55.9880    34.5130    24.3050    71.0350
 2760.0000    49.3210     8.0280     2.3780     0.0100   -59.9840    36.3190    24.8500    69.1750
 2760.5000    47.8130     8.0280     2.3870     0.0140   -63.2960    36.6820    25.1980    70.1420
 2761.0000    48.0910     8.0280     2.3560     0.0070   -65.7240    37.2510    25.5760    73.4630
 2761.5000    49.1030     8.0280     2.3300     0.0030   -67.2070    37.6970    26.0230    76.7830
 2762.0000    52.0120     8.0280     2.3220     0.0110   -68.2020    36.6190    26.2310    79.6490
 2762.5000    50.6680     8.0280     2.3220     0.0140   -69.1120    35.7340    25.8690    79.5360
 2763.0000    49.7030     8.0280     2.3080     0.0100   -69.8240    34.8500    24.9570    78.3580
 2763.5000    50.1940     8.0220     2.3170     0.0190   -70.1510    33.9650    23.8270    77.1270
 2764.0000    51.1180     8.0140     2.3310     0.0430   -70.1750    33.0800    22.7860    76.7310
 2764.5000    51.3570     8.0060     2.3160     0.0240   -70.0760    31.9880    21.9080    78.3200
 2765.0000    50.8200     7.9980     2.3200     0.0270   -69.9820    31.8480    21.1660    77.6070
 2765.5000    50.3830     7.9900     2.3230     0.0230   -69.9350    31.6650    20.6130    77.0280
 2766.0000    51.5260     7.9990     2.3090     0.0100   -69.8810    31.3980    20.3110    78.1210
 2766.5000    53.5600     8.0140     2.3020     0.0060   -69.7750    31.4500    20.2020    77.2480
 2767.0000    55.6050     8.0280     2.3140     0.0320   -69.6750    31.5940    20.1550    76.3430
 2767.5000    57.6200     8.0280     2.3410     0.0490   -69.6410    31.5940    20.1560    76.6040
 2768.0000    59.6290     8.0280     2.3740     0.0570   -69.6070    32.1260    20.3180    77.2170
 2768.5000    61.7480     8.0280     2.3600     0.0410   -69.4600    32.5790    20.7420    77.4730
 2769.0000    61.1860     8.0280     2.3640     0.0450   -69.2340    33.2070    21.3920    76.0290
 2769.5000    53.1480     8.0280     2.3840     0.0600   -69.1380    34.1020    22.0980    74.6420
 2770.0000    42.7370     8.0310     2.4440     0.0660   -69.1860    34.7440    22.6150    68.7970
 2770.5000    29.7190     8.0410     2.5190     0.0510   -68.9970    39.6650    22.7470    63.7260
 2771.0000    16.3300     8.0510     2.5090     0.0250   -68.1890    40.4820    22.5060    63.3100
 2771.5000     4.5780     8.0600     2.4980     0.0130   -66.9620    41.6340    22.1350    67.1260
 2772.0000  -999.2500     8.0640     2.4700     0.0610   -66.0200    41.0430    21.9070    73.6500
 2772.5000  -999.2500     8.0160     2.4060     0.0500   -65.8780    37.8900    21.9040    77.5050
 2773.0000  -999.2500     7.9730     2.3410     0.0170   -66.4150    34.9410    22.0500    79.1150
 2773.5000  -999.2500     7.9250     2.3150     0.0220   -67.1350    34.0290    22.3350    77.3260
 2774.0000  -999.2500     7.8920     2.3250     0.0470   -67.6410    33.1690    22.9910    77.9040
 2774.5000  -999.2500     7.8680     2.3280     0.0410   -67.7890    32.7760    24.3030    77.3610
 2775.0000  -999.2500     7.8450     2.3060     0.0210   -67.6380    32.8740    26.1520    75.3880
 2775.5000  -999.2500     7.8280     2.3240     0.0380   -67.3710    34.1540    28.3090    72.6490
 2776.0000  -999.2500     7.9010     2.3430     0.0280   -67.1570    35.4250    30.5930    69.9100
 2776.5000  -999.2500     7.9390     2.3640     0.0130   -66.9670    36.7060    32.6940    68.2800
 2777.0000  -999.2500     7.8890     2.3900     0.0280   -66.6050    38.2870    35.1810    72.3030
 2777.5000  -999.2500     7.8680     2.3850     0.0200   -65.9630    38.3810    38.2330    74.9400
 2778.0000  -999.2500     7.9120     2.3670     0.0030   -65.1560    38.4840    39.8610    72.6920
 2778.5000  -999.2500     7.9490     2.4060     0.0230   -64.3670    38.2870    38.3140    69.9170
 2779.0000  -999.2500     8.0090     2.4790     0.0340   -63.6900    37.6280    34.7270    67.1870
 2779.5000  -999.2500     8.0220     2.4640     0.0390   -63.1310    36.3190    30.9630    68.0820
 2780.0000  -999.2500     8.0060     2.3510     0.0140   -62.6310    33.9190    27.4860    74.6260
 2780.5000  -999.2500     7.9920     2.2960     0.0040   -62.0700    31.3320    24.5870    81.0550
 2781.0000  -999.2500     7.9780     2.2890     0.0120   -61.3600    28.7440    22.5380    82.7230
 2781.5000  -999.2500     7.9650     2.2910     0.0120   -60.6100    25.8860    20.5330    82.9640
 2782.0000  -999.2500     7.9480     2.2940     0.0060   -60.0490    23.3730    18.0270    82.6660
 2782.5000  -999.2500     7.9640     2.2810     0.0000   -59.7050    21.3580    15.8450    82.3670
 2783.0000  -999.2500     7.9770     2.3100     0.0130   -59.3630    19.8560    14.5820    82.0680
 2783.5000  -999.2500     7.9430     2.3380     0.0350   -58.8920    18.9960    13.7730    81.7690
 2784.0000  -999.2500     7.9120     2.3550     0.0450   -58.4110    18.2010    13.0590    81.5890
 2784.5000  -999.2500     7.9470     2.3430     0.0170   -57.9200    17.5740    12.4760    81.5390
 2785.0000  -999.2500     7.9840     2.3340     0.0050   -57.0910    17.2240    11.9190    81.5610
 2785.5000  -999.2500     8.0240     2.3420     0.0150   -55.8520    16.0620    11.2870    81.8100
