~VERSION INFORMATION
 VERS.                2.0:   CWLS LOG ASCII STANDARD - VERSION 2.0
 WRAP.                 NO:   ONE LINE PER DEPTH STEP
~WELL INFORMATION
#MNEM.UNIT      DATA TYPE    INFORMATION
#----------   ------------   ------------------------------
 STRT.F            9.0000:   START DEPTH
 STOP.F         2876.0000:   STOP DEPTH
 STEP.F            0.5000:   STEP LENGTH
 NULL.          -999.2500:   NO VALUE
 COMP.    FENIX & SCISSON:   COMPANY
 WELL. FENIX & SCISSON "AX" #82-29:   WELL
 FLD .        TEAPOT DOME:   FIELD
 LOC .      S29 T39N R78W:   LOCATION
 CNTY.            NATRONA:   COUNTY
 STAT.            WYOMING:   STATE
 CTRY. UNITED STATES OF AMERICA:   COUNTRY
 SRVC.           BIRDWELL:   SERVICE COMPANY
 DATE.        12-JAN-1980:   LOGDATE
 API .     49025107980000:   API NUMBER
~CURVE INFORMATION
#MNEM.UNIT       API CODE    CURVE DESCRIPTION
#----------   ------------   ------------------------------
 DEPT.F                  :   
 GRD .GAPI   45 310 01 00:   GAMMA RAY FROM DENSITY LOG
 CALD.IN     45 280 60 00:   CALIPER FROM DENSITY LOG
 CORR.G/C3   45 356 01 00:   DENSITY CORRECTION
 RHOB.G/C3   45 350 01 00:   BULK DENSITY
 SPR .MV     07 010 01 00:   SPONTANEOUS POTENTIAL
 ILD .OHMM   07 120 46 00:   DEEP INDUCTION RESISTIVITY
 SN  .OHMM   07 220 01 00:   SHALLOW FOCUSED LOG RESISTIVITY
~PARAMETER INFORMATION
#MNEM.UNIT          VALUE    DESCRIPTION
#----------   ------------   ------------------------------
 EKB .F         4985.0000:   Kelly bushing
 EGL .F         4973.0000:   Ground level
 EDF .F         4982.0000:   Drilling floor
 TD  .F         2876.0000:   Total depth
 CLNT.            A2DTECH:   Client Code
 SL  . 1821' FEL & 414' FEL:   Surface Location
 DATE.        12-JAN-1980:   Date Logged [DD-MMM-YYYY]
 DD  .F              2870:   Depth driller
 DL  .F              2876:   Depth logger
 BLI .F              2876:   Bottom log interval
 TLI .F               320:   Top log interval
 CS1 .IN            8.625:   Casing size
 CBD1.      8.625" @ 280':   Casing driller 1
 CBL1.IN              320:   Casing logger 1
 BS1 .IN            7.875:   Bit size
 BSD1.F              2870:   Depth drilled with bit1
 DFT .            GEL MUD:   Type fluid in hole
 DFD .                8.7:   Density
 DFV .                 53:   Viscosity
 DFPH.               10.5:   pH
 DFL .               15.4:   Fluid loss
 MSS .            MUD PIT:   Source of sample
 RMS .OHMM            1.8:   Rm
 MST .F                50:   Rm Meas. temp.
 RMF .OHMM            1.4:   Rmf
 MFST.F                60:   Rmf Meas. temp.
 MFSS.               MEAS:   Source Rmf.
 RMC .OHMM            1.9:   Rmc
 MCST.F                60:   Rmc Meas. temp.
 MCSS.               MEAS:   Source Rmc.
 RMB .OHMM           0.65:   Rm. at BHT
 BHT .F               138:   BHT.
 TCS .HRS              11:   Time Circ. stopped
 MRT .F               138:   Maximum recorded temp.
 LUN .               3029:   Logging unit number
 LUL .             CASPEL:   Logging unit location
 ENGI.           T. VOLFF:   Recorded By
 WITN.          MR. AMEND:   Witnessed by
 ORIG.         2.5" PRINT:   Origin of data
 UWI .     49025107980000:   Unique Well ID
 DICO. A2D TECHNOLOGIES,INC.:   Digitizing Company
 PD  .                 GL:   Permanent Datum
 EPD .F              4973:   Elevation Permanent Datum
 LMF .                 DF:   Log Measured From
 DMF .                 KB:   Drilling Measured From
 DAPD.F                 9:   Feet Above Permanent Datum
~OTHER INFORMATION
~A    DEPT      GRD      CALD       CORR       RHOB        SPR        ILD         SN   
# ...
 1146.5000   107.2240     8.8126     0.0699     2.5529   -20.1649     8.0367     8.7836
 1147.0000   110.9334     8.8113     0.0749     2.5559   -19.8536     8.0372     8.7857
 1147.5000   111.8467     8.8402     0.0789     2.5559   -18.8567     8.0379     8.7875
 1148.0000   113.3680     8.8388     0.0685     2.5473   -18.6219     7.9264     8.7893
 1148.5000   115.1931     8.8374     0.0637     2.5443   -18.7429     7.9271     8.7912
 1149.0000   117.0183     8.8361     0.0684     2.5481   -19.6768     7.9276     8.9177
 1149.5000   117.6277     8.8347     0.0758     2.5466   -20.1268     7.9282     8.9195
 1150.0000   117.6292     8.8334     0.0818     2.5413   -18.5966     7.9288     8.9213
 1150.5000   117.3085     8.8320     0.0818     2.5391   -17.0663     7.9293     8.9231
 1151.0000   116.6112     8.8607     0.0818     2.5366   -18.5849     7.9299     8.9249
 1151.5000   114.0714     8.8594     0.0787     2.5304   -19.7985     7.9304     8.9268
 1152.0000   111.7144     8.8580     0.0696     2.5295   -18.5732     7.9309     8.9287
 1152.5000   110.9496     8.8871     0.0574     2.5337   -17.6525     7.9315     8.9305
 1153.0000   111.7782     8.8857     0.0544     2.5462   -17.6463     7.9321     8.9324
 1153.5000   114.5821     8.9147     0.0606     2.5507   -17.7164     7.9326     8.9343
 1154.0000   116.8753     8.9133     0.0664     2.5537   -17.9400     7.9332     8.9362
 1154.5000   117.0350     8.9120     0.0664     2.5536   -18.2378     7.9337     8.9384
 1155.0000   116.7328     8.9106     0.0664     2.5536   -18.2317     8.0463     8.9402
 1155.5000   114.3027     8.9092     0.0633     2.5413   -18.2244     8.0470     8.9420
 1156.0000   112.7844     8.9079     0.0602     2.5334   -18.8283     8.0475     8.9438
 1156.5000   112.1778     8.9065     0.0833     2.5519   -19.7371     8.0480     8.9457
 1157.0000   118.2585     8.9051     0.0994     2.5641   -20.9507     8.0486     8.8227
 1157.5000   118.5639     8.9038     0.0795     2.5545   -21.2498     8.0491     8.8246
 1158.0000   115.2219     8.8719     0.0675     2.5425   -20.9390     8.0497     8.8265
 1158.5000   110.6403     8.8706     0.0631     2.5477   -19.6880     8.0503     8.8284
 1159.0000   109.7537     8.8693     0.0691     2.5531   -19.0975     8.0508     8.8301
 1159.5000   113.7864     8.8376     0.0752     2.5452   -19.3971     8.0514     8.8880
 1160.0000   117.7812     8.8363     0.0782     2.5392   -18.9838     8.0519     8.9588
 1160.5000   118.3480     8.8046     0.0691     2.5419   -18.4695     8.0525     8.9610
 1161.0000   119.0729     8.7404     0.0599     2.5496   -17.5487     8.0532     8.9628
 1161.5000   119.7187     8.7111     0.0690     2.5543   -17.2378     8.0537     8.9646
 1162.0000   118.2607     8.6794     0.0781     2.5502   -18.7551     8.0542     8.9665
 1162.5000   115.9955     8.6780     0.0777     2.5466   -19.6646     8.0548     8.9683
 1163.0000   110.6896     8.6766     0.0715     2.5480   -17.5239     8.0553     8.9701
 1163.5000   106.4243     8.6753     0.0689     2.5495   -19.3473     8.0559     9.0987
 1164.0000   104.9060     8.6739     0.0719     2.5479   -19.9512     8.1702     8.8486
 1164.5000   108.2510     8.6726     0.0719     2.5448   -19.9452     8.1708     8.6910
 1165.0000   117.3710     8.7013     0.0718     2.5356   -19.6341     8.1713     8.4871
 1165.5000   123.1475     8.7000     0.0688     2.5172   -19.6281     8.1200     8.7888
 1166.0000   119.8055     8.6987     0.0643     2.5154   -18.8091     8.0587     8.8562
 1166.5000   118.8951     8.6973     0.0645     2.5293   -18.0915     8.0594     8.9837
 1167.0000   118.8966     8.6960     0.0959     2.5385   -18.0854     8.0599     8.9855
 1167.5000   118.5639     8.6947     0.0929     2.5349   -19.6024     8.1743     8.9873
 1168.0000   116.8815     8.6933     0.0686     2.5322   -20.5112     8.1748     8.9891
 1168.5000   117.4121     8.6966     0.0595     2.5461   -20.8109     8.4078     9.2470
 1169.0000   119.8513     8.7211     0.0625     2.5504   -20.8044     8.5271     9.5209
 1169.5000   121.3358     8.7285     0.0685     2.5381   -19.2741     8.6481     9.6691
 1170.0000   120.7903     8.7487     0.0745     2.5401   -18.3537     8.8038     9.7871
 1170.5000   119.6794     8.7774     0.0836     2.5452   -19.6179     9.0208     9.5180
 1171.0000   119.2128     8.7760     0.1054     2.5672   -20.4761     9.0783     9.3872
 1171.5000   119.0379     8.7747     0.1290     2.5731   -20.3932     9.2787     9.4544
 1172.0000   118.3042     8.7731     0.1130     2.5498   -19.7519     9.2794     9.7373
 1172.5000   117.3938     8.7718     0.0754     2.5505   -17.4098     9.1507     9.7980
 1173.0000   114.3558     8.7402     0.0683     2.5697   -18.6220     9.0239     9.6633
 1173.5000   112.2295     8.7085     0.0894     2.5819   -18.3098     8.8990     9.5305
 1174.0000   111.9270     8.6769     0.1046     2.5726   -17.9990     8.5331     9.5325
 1174.5000   111.6247     8.7059     0.0760     2.5588   -17.6883     8.5246     9.4014
 1175.0000   111.0182     8.7045     0.0742     2.5649   -17.6824     8.3959     9.2722
 1175.5000   110.7158     8.7032     0.0776     2.5679   -18.2863     8.1833     9.2525
 1176.0000   113.0641     8.7323     0.0893     2.5648   -19.1951     8.0699     9.1146
 1176.5000   117.9833     8.7308     0.1044     2.5647   -20.1545     8.0706     9.0210
 1177.0000   118.9269     8.7406     0.1165     2.5646   -20.7078     7.9588     9.0232
 1177.5000   115.7067     8.7583     0.1286     2.5710   -19.7104     7.9595     8.9632
 1178.0000   114.5653     8.7569     0.1377     2.5775   -19.4766     7.9600     9.0273
 1178.5000   113.6367     8.7733     0.1407     2.5721   -20.5112     7.9605     9.0292
 1179.0000   113.0122     8.7845     0.1104     2.5537   -20.8354     8.0734     9.0310
 1179.5000   113.1839     8.7830     0.0982     2.5724   -21.2854     8.0740     9.0328
 1180.0000   116.8088     8.8121     0.1257     2.5902   -20.9746     8.0745     9.2919
 1180.5000   118.6340     8.8107     0.1285     2.5932   -20.3590     8.0930     9.4252
 1181.0000   119.2434     8.8094     0.1213     2.5655   -19.4385     8.3342     9.5745
 1181.5000   116.5093     8.8080     0.1028     2.5740   -18.2132     8.5421     9.7235
 1182.0000   113.4712     8.8066     0.0902     2.5636   -17.9024     8.5941     9.8750
 1182.5000   114.3846     8.8053     0.0747     2.5424   -17.8964     8.7862     9.9781
 1183.0000   115.2979     8.8344     0.0707     2.5364   -17.8902     9.0368     9.9802
 1183.5000   116.2231     8.8329     0.0884     2.5318   -18.1898     9.0374     9.9823
 1184.0000   117.1491     8.8315     0.1010     2.5241   -19.3010     9.1656     9.9848
 1184.5000   118.3845     8.8301     0.0992     2.5393   -19.0153     9.1662     9.9868
 1185.0000   119.0122     8.8288     0.0888     2.5377   -18.0183     9.1668     9.9888
 1185.5000   119.5606     8.8272     0.0766     2.5373   -18.7732     9.1602     9.8516
 1186.0000   117.7631     8.8258     0.0705     2.5529   -18.8700     9.0404     9.8536
 1186.5000   113.1269     8.8245     0.0796     2.5528   -18.1517     9.0411     9.8555
 1187.0000   111.1884     8.7929     0.0826     2.5451   -19.0605     9.0417     9.8576
 1187.5000   112.1201     8.7916     0.0917     2.5484   -20.5790     9.0423     9.7221
 1188.0000   114.3405     8.7903     0.1038     2.5672   -19.3537     9.0430     9.7243
 1188.5000   114.0991     8.7890     0.1159     2.5761   -18.1281     9.0437     9.7264
 1189.0000   113.4924     8.7875     0.1188     2.5740   -18.4777     9.0443     9.5928
 1189.5000   115.9257     8.7862     0.0980     2.5585   -19.1066     9.0449     9.5948
 1190.0000   117.2037     8.7848     0.0794     2.5575   -19.4308     9.0456     9.5972
 1190.5000   116.5366     8.7835     0.0755     2.5473   -20.2390     9.0462     9.5991
 1191.0000   115.9302     8.7821     0.0693     2.5385   -20.5366     9.0468     9.6011
 1191.5000   115.0198     8.7808     0.0672     2.5429   -20.5293     9.0474     9.6030
