~VERSION INFORMATION
 VERS.                2.0:   CWLS LOG ASCII STANDARD - VERSION 2.0
 WRAP.                 NO:   ONE LINE PER DEPTH STEP
~WELL INFORMATION
#MNEM.UNIT      DATA TYPE    INFORMATION
#----------   ------------   ------------------------------
 STRT.F          190.0000:   START DEPTH
 STOP.F         3050.0000:   STOP DEPTH
 STEP.F            0.5000:   STEP LENGTH
 NULL.          -999.2500:   NO VALUE
 COMP.    FENIX & SCISSON:   COMPANY
 WELL. FENIX NPR 3 "AX" #86-29:   WELL
 FLD .      NPR - WILDCAT:   FIELD
 LOC .      S29 T39N R78W:   LOCATION
 CNTY.            NATRONA:   COUNTY
 STAT.            WYOMING:   STATE
 CTRY. UNITED STATES OF AMERICA:   COUNTRY
 SRVC.              WELEX:   SERVICE COMPANY
 DATE.        24-JUN-1977:   LOGDATE
 API .     49025103830000:   API NUMBER
~CURVE INFORMATION
#MNEM.UNIT       API CODE    CURVE DESCRIPTION
#----------   ------------   ------------------------------
 DEPT.F                  :   
 SPR .MV     07 010 01 00:   SPONTANEOUS POTENTIAL
 ILD .OHMM   07 120 46 00:   DEEP INDUCTION RESISTIVITY
 ILM .OHMM   07 120 44 00:   INDUCTION LOG MEDIUM RESISTIVITY
 SGRD.OHMM   07 220 05 00:   SHALLOW SHORT GUARD RESISTIVITY
 GRD .GAPI   45 310 01 00:   GAMMA RAY FROM DENSITY LOG
 CALD.IN     45 280 60 00:   CALIPER FROM DENSITY LOG
 RHOB.G/C3   45 350 01 00:   BULK DENSITY
 CORR.G/C3   45 356 01 00:   DENSITY CORRECTION
~PARAMETER INFORMATION
#MNEM.UNIT          VALUE    DESCRIPTION
#----------   ------------   ------------------------------
 EKB .F         5056.0000:   Kelly bushing
 EGL .F         5046.0000:   Ground level
 EDF .F            0.0000:   Drilling floor
 TD  .F         3051.0000:   Total depth
 DATE.        24-JUN-1977:   Date logged
 CLNT.            A2DTECH:   Client Code
 SL  . 1746' FSL & 534' FEL:   Surface Location
 PD  .                 GL:   Permanent Datum
 EPD .F              5046:   Elevation Permanent Datum
 LMF .                 KB:   Log Measured From
 DMF .                 KB:   Drilling Measured From
 DAPD.F                10:   Feet Above Permanent Datum
 DD  .F              3038:   Depth driller
 DL  .F              3051:   Depth logger
 BLI .F              3049:   Bottom log interval
 TLI .F               200:   Top log interval
 CS1 .IN            8.625:   Casing size
 CBD1.      8.625" @ 217':   Casing driller 1
 CBL1.F               213:   Casing logger 1
 BS1 .IN            7.875:   Bit size
 BSD1.F              3038:   Depth drilled with bit1
 DFT .            KCL/MUD:   Type fluid in hole
 DFD .                8.7:   Density
 DFV .                134:   Viscosity
 DFPH.                7.5:   pH
 DFL .                7.2:   Fluid loss
 MSS .           FLOWLINE:   Source of sample
 RMS .OHMM            .62:   Rm
 MST .F                82:   Rm Meas. temp.
 RMF .OHMM            .28:   Rmf
 MFST.F                82:   Rmf Meas. temp.
 RMC .OHMM            .78:   Rmc
 MCST.F                82:   Rmc Meas. temp.
 MFSS.               MEAS:   Source Rmf.
 MCSS.               MEAS:   Source Rmc.
 RMB .OHMM            .45:   Rm. at BHT
 BHT .F               111:   BHT.
 TCS .HRS               2:   Time Circ. stopped
 MRT .F               111:   Maximum recorded temp.
 LUN .               8766:   Logging unit number
 LUL .             CASPER:   Logging unit location
 ENGI.          D. LAWSON:   Recorded By
 WITN.      B. HARRINGTON:   Witnessed by
 ORIG.           5" PRINT:   Origin of data
 UWI .     49025103830000:   Unique Well ID
 DICO. A2D TECHNOLOGIES, INC.:   Digitizing Company
~OTHER INFORMATION
~A   DEPT      SPR        ILD        ILM       SGRD        GRD       CALD         RHOB      CORR  
# ...
  757.0000   -62.3660     7.6500     8.0270    10.7640    82.4480     9.4740     2.4650    -0.0010
  757.5000   -62.3230     7.6720     8.0500    11.3310    82.6750     9.4740     2.4730     0.0020
  758.0000   -62.2800     7.6940     8.0720    11.0240    82.8950     9.4740     2.4810     0.0070
  758.5000   -62.2370     7.7620     8.2730    11.4880    83.5200     9.4750     2.4890     0.0110
  759.0000   -62.1940     7.9810     8.4670    11.9360    84.1440     9.4750     2.4980     0.0150
  759.5000   -62.1510     8.2000     8.6610    12.1930    84.7690     9.4760     2.4990     0.0190
  760.0000   -62.1090     8.4190     8.8550    12.3050    85.3910     9.4770     2.4980     0.0230
  760.5000   -62.0660     8.6380     8.9340    12.0470    85.9880     9.4770     2.4980     0.0260
  761.0000   -62.0230     8.7660     8.9440    11.7620    87.0050     9.4780     2.4970     0.0290
  761.5000   -61.9810     8.7460     8.9530    11.7980    88.0610     9.4790     2.4960     0.0320
  762.0000   -61.9700     8.7290     8.9620    11.8700    89.0520     9.4790     2.4940     0.0300
  762.5000   -62.0000     8.7120     8.9720    11.9710    88.9030     9.4800     2.4910     0.0260
  763.0000   -62.0290     8.6950     8.9810    11.8640    88.5010     9.4810     2.4820     0.0230
  763.5000   -62.0580     8.6780     8.9900    11.6860    88.1050     9.4810     2.4730     0.0150
  764.0000   -62.0880     8.6620     8.9990    11.5400    87.7090     9.4820     2.4630     0.0070
  764.5000   -62.1170     8.6450     9.0100    11.5010    87.3130     9.4830     2.4540    -0.0010
  765.0000   -62.1460     8.6280     8.9800    11.4610    86.7780     9.4830     2.4500    -0.0070
  765.5000   -62.1760     8.6110     8.9390    11.4210    86.0890     9.4840     2.4520    -0.0050
  766.0000   -62.2050     8.5450     8.8980    11.3800    85.4000     9.4850     2.4540    -0.0030
  766.5000   -62.2350     8.4640     8.8580    11.3400    84.7060     9.4860     2.4570     0.0000
  767.0000   -62.2640     8.3830     8.8180    11.1750    83.9850     9.4860     2.4610     0.0020
  767.5000   -62.2940     8.3020     8.7770    10.9230    83.6170     9.4870     2.4630     0.0040
  768.0000   -62.3240     8.2220     8.7370    11.0940    83.3110     9.4880     2.4650     0.0060
  768.5000   -62.3480     8.1410     8.6860    11.3310    83.1300     9.4880     2.4670     0.0080
  769.0000   -62.2400     8.0720     8.7390    11.4350    82.8340     9.4890     2.4680     0.0100
  769.5000   -62.1300     8.2000     8.8090    10.7250    81.7750     9.4900     2.4730     0.0130
  770.0000   -62.0200     8.3110     8.8790    11.0240    80.7040     9.4900     2.4790     0.0150
  770.5000   -61.9110     8.4210     8.9490    11.5690    80.1610     9.4910     2.4830     0.0170
  771.0000   -61.8010     8.5400     9.0190    12.3050    80.0490     9.4920     2.4840     0.0190
  771.5000   -61.6910     8.6600     9.0880    12.2240    79.9400     9.4920     2.4830     0.0210
  772.0000   -61.5820     8.7810     9.1580    12.0820    79.8090     9.4930     2.4830     0.0230
  772.5000   -61.4720     8.9010     9.2280    12.2480    79.0210     9.4940     2.4830     0.0260
  773.0000   -61.3630     9.0220     9.3110    12.5670    78.1840     9.4940     2.4840     0.0280
  773.5000   -61.2530     9.1430     9.4070    12.8860    77.3540     9.4940     2.4860     0.0300
  774.0000   -61.1440     9.2630     9.5020    13.2050    76.5890     9.4940     2.4870     0.0340
  774.5000   -61.0340     9.3560     9.5980    13.3630    76.2940     9.4940     2.4890     0.0370
  775.0000   -60.9250     9.3850     9.6930    13.1420    76.4680     9.4940     2.4920     0.0410
  775.5000   -60.8150     9.4140     9.7890    13.0010    76.6610     9.4940     2.4970     0.0420
  776.0000   -60.8120     9.4430     9.8760    13.1240    76.8530     9.4940     2.4970     0.0410
  776.5000   -60.8760     9.4710     9.8680    13.2190    77.0450     9.4940     2.4960     0.0400
  777.0000   -60.9410     9.5000     9.8600    13.3630    77.2370     9.4940     2.4950     0.0390
  777.5000   -61.0070     9.5290     9.8530    13.3270    77.4220     9.4940     2.4960     0.0380
  778.0000   -61.0730     9.5580     9.8450    13.2520    77.6660     9.4940     2.5010     0.0360
  778.5000   -61.1390     9.5870     9.8380    13.1760    77.9090     9.4940     2.5070     0.0370
  779.0000   -61.2040     9.6080     9.8310    13.1010    77.8890     9.4940     2.5120     0.0390
  779.5000   -61.2700     9.4990     9.8230    13.0260    77.5310     9.4940     2.5180     0.0400
  780.0000   -61.3360     9.4130     9.8160    12.9590    77.2730     9.4940     2.5190     0.0420
  780.5000   -61.4020     9.3280     9.8090    12.8700    77.3480     9.4940     2.5170     0.0410
  781.0000   -61.4670     9.2420     9.8010    12.7800    77.4100     9.4940     2.5150     0.0390
  781.5000   -61.5330     9.1770     9.7940    12.6900    77.3560     9.4940     2.5110     0.0370
  782.0000   -61.5610     9.2060     9.7870    12.6010    76.9190     9.4940     2.5070     0.0350
  782.5000   -61.5610     9.2400     9.7430    12.5330    76.4920     9.4940     2.5010     0.0320
  783.0000   -61.5610     9.2740     9.6920    12.6770    76.0660     9.4940     2.4960     0.0300
  783.5000   -61.5610     9.3080     9.6420    12.7930    75.7160     9.4940     2.4900     0.0270
  784.0000   -61.5610     9.3470     9.5920    12.8820    76.2460     9.4940     2.4850     0.0250
  784.5000   -61.5610     9.2790     9.5410    12.7060    76.7650     9.4940     2.4830     0.0250
  785.0000   -61.5610     9.1970     9.4910    12.5340    77.2780     9.4940     2.4840     0.0260
  785.5000   -61.5610     9.1150     9.4400    12.3620    77.7890     9.4940     2.4860     0.0270
  786.0000   -61.5610     9.0320     9.3900    12.1930    78.3020     9.4940     2.4880     0.0280
  786.5000   -61.5610     8.9500     9.3390    12.1930    78.7340     9.4940     2.4900     0.0280
  787.0000   -61.5610     8.8680     9.2890    12.1930    79.0280     9.4940     2.4920     0.0280
  787.5000   -61.5610     8.7860     9.2380    12.0560    79.3160     9.4940     2.4940     0.0280
  788.0000   -61.5610     8.6860     9.1770    11.8860    79.6010     9.4940     2.4970     0.0280
  788.5000   -61.5610     8.7090     9.1980    11.6470    79.8980     9.4940     2.5000     0.0330
  789.0000   -61.5610     8.7460     9.2230    11.7560    79.7880     9.4940     2.5040     0.0370
  789.5000   -61.5610     8.7840     9.2490    11.9400    79.2080     9.4940     2.5060     0.0390
  790.0000   -61.5610     8.8210     9.2740    12.1250    78.5760     9.4940     2.5050     0.0350
  790.5000   -61.5620     8.8590     9.3000    12.3100    77.9390     9.4940     2.4980     0.0310
  791.0000   -61.5290     8.8970     9.3250    12.4950    77.3040     9.4950     2.4910     0.0270
  791.5000   -61.4870     8.9340     9.3510    12.6600    76.6690     9.4960     2.4830     0.0240
  792.0000   -61.4440     8.9720     9.3760    12.7330    76.0340     9.4960     2.4750     0.0210
  792.5000   -61.4010     9.0110     9.4020    12.8060    75.4010     9.4970     2.4670     0.0170
  793.0000   -61.3580     9.0150     9.4270    12.8820    74.7800     9.4980     2.4580     0.0130
  793.5000   -61.3150     9.0190     9.4470    12.8130    74.2600     9.4990     2.4570     0.0100
  794.0000   -61.2720     9.0230     9.4640    12.7410    73.7340     9.4990     2.4620     0.0120
  794.5000   -61.2300     9.0270     9.4820    12.6690    73.2560     9.5000     2.4670     0.0140
  795.0000   -61.1870     9.0310     9.5000    12.5970    72.9930     9.5010     2.4720     0.0150
  795.5000   -61.1830     9.0350     9.5180    12.5240    72.7420     9.5020     2.4750     0.0160
  796.0000   -61.2140     9.0390     9.5350    12.4520    72.7330     9.5020     2.4780     0.0160
  796.5000   -61.2450     9.0430     9.5530    12.4180    72.7360     9.5030     2.4810     0.0170
  797.0000   -61.2770     9.0470     9.5710    12.5460    73.1630     9.5040     2.4830     0.0180
