~VERSION INFORMATION
 VERS.                2.0:   CWLS LOG ASCII STANDARD - VERSION 2.0
 WRAP.                 NO:   ONE LINE PER DEPTH STEP
~WELL INFORMATION
#MNEM.UNIT      DATA TYPE    INFORMATION
#----------   ------------   ------------------------------
 STRT.F           36.0000:   START DEPTH
 STOP.F         3014.5000:   STOP DEPTH
 STEP.F            0.5000:   STEP LENGTH
 NULL.          -999.2500:   NO VALUE
 COMP.    TESRO PETROLEUM:   COMPANY
 WELL. TESORO N.P.R. "A" #6-21:   WELL
 FLD .             TEAPOT:   FIELD
 LOC .      S21 T39N R78W:   LOCATION
 CNTY.            NATRONA:   COUNTY
 STAT.            WYOMING:   STATE
 CTRY. UNITED STATES OF AMERICA:   COUNTRY
 SRVC.              WELEX:   SERVICE COMPANY
 DATE.        16-JUL-1968:   LOGDATE
 API .     49025100180000:   API NUMBER
~CURVE INFORMATION
#MNEM.UNIT       API CODE    CURVE DESCRIPTION
#----------   ------------   ------------------------------
 DEPT.F                  :   
 SPR .MV     05 010 01 00:   SPONTANEOUS POTENTIAL FROM RES.
 ASN .OHMM   05 041 18 00:   AMPLIFIED SHORT NORMAL 18"
 IL  .OHMM   05 120 00 00:   INDUCTION LOG
 GRD .GAPI   45 310 01 00:   GAMMA RAY FROM DENSITY LOG
 CALD.IN     45 280 60 00:   CALIPER FROM DENSITY LOG
 GDEN.CPS    45 350 30 00:   GAMMA DENS
~PARAMETER INFORMATION
#MNEM.UNIT          VALUE    DESCRIPTION
#----------   ------------   ------------------------------
 EKB .F         5002.0000:   Kelly bushing
 EGL .F         4991.0000:   Ground level
 EDF .F         5001.0000:   Drilling floor
 TD  .F         3025.0000:   Total depth
 DATE.        16-JUL-1968:   Date logged
 CLNT.            A2DTECH:   Client Code
 PD  .                 GL:   Permanent Datum
 EPD .F              4991:   Elevation Permanent Datum
 LMF .                 KB:   Log Measured From
 DMF .                 KB:   Drilling Measured From
 DD  .F              3025:   Depth driller
 DL  .F              3019:   Depth logger
 BLI .F              3014:   Bottom log interval
 TLI .F              2670:   Top log interval
 CS1 .IN            10.75:   Casing size
 CBD1.      10.75" @ 325':   Casing driller 1
 CBL1.F               325:   Casing logger 1
 BS1 .IN                9:   Bit size
 BSD1.F              3025:   Depth drilled with bit1
 DFT .     WATER BASE MUD:   Type fluid in hole
 DFD .                9.7:   Density
 DFV .                 60:   Viscosity
 DFL .                6.4:   Fluid loss
 MSS .              CIRC.:   Source of sample
 RMS .OHMM            2.2:   Rm
 MST .F                84:   Rm Meas. temp.
 RMF .OHMM            1.6:   Rmf
 MFST.F                70:   Rmf Meas. temp.
 RMC .OHMM            3.3:   Rmc
 MCST.F                68:   Rmc Meas. temp.
 MFSS.               MEAS:   Source Rmf.
 RMB .OHMM           1.55:   Rm. at BHT
 BHT .F               120:   BHT.
 MRT .F               120:   Maximum recorded temp.
 LUN .               6869:   Logging unit number
 LUL .                 NC:   Logging unit location
 ENGI.          H. STEITZ:   Recorded By
 WITN.                MAY:   Witnessed by
 ORIG.           5" PRINT:   Origin of data
 UWI .     49025100180000:   Unique Well ID
 DICO. A2D TECHNOLOGIES, INC.:   Digitizing Company
~OTHER INFORMATION
~A   DEPT      SPR        ASN           IL      GRD       CALD       GDEN   
# ...
 1648.0000   -30.6980    13.8610    10.0210    97.9150     9.4050  1097.8630
 1648.5000   -30.7760    13.6680    10.0050    96.3110     9.4020  1082.5450
 1649.0000   -30.8490    13.6140     9.9980    95.2440     9.3990  1064.7120
 1649.5000   -30.9190    13.6960    10.4150    92.8330     9.3960  1052.7830
 1650.0000   -30.9830    14.2560    11.0160    88.9080     9.3930  1041.8600
 1650.5000   -30.7610    14.8880    11.6180    86.3180     9.3900  1030.9150
 1651.0000   -30.6160    15.2890    12.2240    85.2330     9.3900  1052.2660
 1651.5000   -30.5440    15.2910    12.5010    84.5990     9.3920  1068.8199
 1652.0000   -30.4800    15.2930    12.5310    88.7940     9.3940  1082.6040
 1652.5000   -30.5720    15.0770    12.5700    95.1620     9.3960  1103.4790
 1653.0000   -30.9020    14.6890    12.5330    96.1340     9.3980  1113.4189
 1653.5000   -31.2210    14.1430    11.9430    95.9340     9.4000  1107.9250
 1654.0000   -31.5440    13.6280    10.9980    97.1540     9.4020  1099.1689
 1654.5000   -31.4370    13.3710    10.0530    98.5020     9.4030  1092.5450
 1655.0000   -31.0850    13.1070     9.4250    99.4510     9.4050  1089.5630
 1655.5000   -30.7350    12.8420     9.4160    99.4260     9.4070  1095.5270
 1656.0000   -30.4500    12.6460     9.3070    99.8870     9.4090  1091.0540
 1656.5000   -30.3920    12.5310     9.3250   100.1290     9.4110  1082.6040
 1657.0000   -30.3300    12.4880     9.3390    99.1340     9.4130  1076.7960
 1657.5000   -30.2730    12.4670     9.3520    97.9010     9.4150  1083.3140
 1658.0000   -30.3740    12.4480     9.3640    98.5210     9.4160  1073.2390
 1658.5000   -30.5100    12.4280     9.3760   101.8060     9.4180  1079.3950
 1659.0000   -30.6460    12.4100     9.3880   103.1840     9.4200  1089.5630
 1659.5000   -30.7820    12.3300     9.4010   104.5800     9.4220  1086.5811
 1660.0000   -30.8510    12.2040     9.4080   105.9750     9.4240  1082.6040
 1660.5000   -30.7960    12.0740     9.2820   107.1830     9.4260  1087.0970
 1661.0000   -30.7430    11.9410     9.1480   107.7540     9.4280  1090.6460
 1661.5000   -30.6880    11.8060     9.0140   108.4730     9.4280  1099.5780
 1662.0000   -30.7250    11.6720     8.8800   109.2620     9.4280  1110.4370
 1662.5000   -30.8120    11.5370     8.7470   108.2870     9.4280  1109.4430
 1663.0000   -30.8990    11.4030     8.6130   106.5400     9.4280  1113.2870
 1663.5000   -30.9850    11.2680     8.4790   106.3090     9.4280  1117.7930
 1664.0000   -31.0600    11.1330     8.3400   105.7380     9.4280  1120.3781
 1664.5000   -30.9690    10.9990     8.2020   103.5480     9.4280  1111.4310
 1665.0000   -30.5940    10.8640     8.0640   103.7260     9.4280  1116.8990
 1665.5000   -30.2280    10.7300     7.9250   102.9120     9.4280  1120.3781
 1666.0000   -29.8620    10.5960     7.9180   101.1960     9.4280  1119.3840
 1666.5000   -29.4990    10.5420     7.9170    99.2670     9.4280  1112.9280
 1667.0000   -29.5960    10.6660     7.9140    98.7690     9.4280  1106.0690
 1667.5000   -29.7380    10.7840     8.0320    98.4350     9.4280  1099.2111
 1668.0000   -29.8900    10.9020     8.1750    98.1740     9.4280  1096.5210
 1668.5000   -30.2670    11.0200     8.3190    98.6420     9.4280  1094.5330
 1669.0000   -30.6520    11.1370     8.4640   100.4330     9.4280  1088.5490
 1669.5000   -30.8670    11.2550     8.6080   103.6490     9.4280  1081.4510
 1670.0000   -30.7910    11.3720     8.7530   102.6210     9.4280  1073.6580
 1670.5000   -30.7170    11.4890     8.8960   100.9770     9.4280  1077.7930
 1671.0000   -30.6420    11.5880     8.9020    99.2870     9.4280  1081.6100
 1671.5000   -30.5660    11.6850     8.8890    97.4830     9.4280  1067.6940
 1672.0000   -30.4860    11.7810     8.8750    96.6720     9.4280  1074.5861
 1672.5000   -30.6560    11.8790     8.8610    96.5680     9.4280  1083.5980
 1673.0000   -30.9040    11.8910     8.8480    96.0800     9.4290  1081.6550
 1673.5000   -31.1570    11.8540     8.8340    96.2570     9.4300  1067.6940
 1674.0000   -31.1620    11.8170     8.8200    95.7840     9.4310  1072.2660
 1674.5000   -30.9830    11.7800     8.8140    95.8680     9.4330  1075.4800
 1675.0000   -30.8040    11.7440     8.7840    96.6870     9.4340  1071.1730
 1675.5000   -30.6250    11.7070     8.7530    95.7810     9.4350  1074.9050
 1676.0000   -30.4460    11.6700     8.7220    94.6700     9.4360  1083.2010
 1676.5000   -30.2770    11.6340     8.6910    94.9130     9.4380  1088.5690
 1677.0000   -30.3610    11.5970     8.6610    97.3060     9.4390  1087.8420
 1677.5000   -30.4600    11.5610     8.6300    99.2920     9.4400  1085.8920
 1678.0000   -30.5600    11.5240     8.5990    99.3760     9.4410  1083.9420
 1678.5000   -30.6610    11.4870     8.5680    97.7470     9.4430  1087.0370
 1679.0000   -30.7610    11.4500     8.5360    97.4680     9.4440  1091.2120
 1679.5000   -30.8630    11.4120     8.5120    97.3930     9.4450  1095.3870
 1680.0000   -30.8670    11.4510     8.6170    99.6580     9.4460  1098.5090
 1680.5000   -30.8230    11.5140     8.7540   100.5940     9.4480  1094.9750
 1681.0000   -30.7760    11.5770     8.8920   100.4380     9.4490  1097.7910
 1681.5000   -30.7280    11.6400     9.0290    99.7930     9.4500  1100.0551
 1682.0000   -30.6800    11.7030     9.1150    99.4180     9.4510  1097.2390
 1682.5000   -30.6330    11.7660     9.1170   100.0250     9.4530  1095.5270
 1683.0000   -30.5850    11.7150     8.9450    98.8470     9.4540  1100.5959
 1683.5000   -30.5380    11.4970     8.6490    96.3440     9.4550  1105.6660
 1684.0000   -30.4900    11.2780     8.3510    94.2700     9.4570  1110.4370
 1684.5000   -30.3700    11.0570     8.0510    94.4090     9.4580  1118.2830
 1685.0000   -30.2110    10.7120     7.7540    96.2100     9.4590  1125.6920
 1685.5000   -30.0530     9.9890     7.6960    99.8670     9.4610  1127.9320
 1686.0000   -29.8920     9.8520     7.6260   104.3120     9.4620  1124.3540
 1686.5000   -29.9180    10.2770     7.7880   107.6840     9.4630  1130.4600
 1687.0000   -30.0540    10.9850     7.9710   106.7560     9.4650  1115.9760
 1687.5000   -30.1860    11.1440     8.1600   104.9130     9.4660  1101.4910
 1688.0000   -30.3180    11.2520     8.3530   102.7750     9.4670  1102.3361
 1688.5000   -30.4500    11.3610     8.5460   100.1930     9.4630  1099.9860
 1689.0000   -30.5820    11.4040     8.7400    97.5370     9.4570  1094.5330
 1689.5000   -30.7140    11.4040     8.8160    97.0670     9.4510  1093.5389
 1690.0000   -30.8460    11.4050     8.7210    97.6030     9.4460  1098.5090
 1690.5000   -30.8500    11.4100     8.5700    98.1400     9.4400  1103.0820
 1691.0000   -30.8240    11.3000     8.4180    98.7410     9.4340  1108.1510
 1691.5000   -30.7970    11.2140     8.2610    99.3510     9.4280  1113.2209
 1692.0000   -30.7700    11.1170     8.2190    99.7770     9.4220  1118.2900
 1692.5000   -30.7430    11.1070     8.2170    99.2600     9.4170  1123.3600
 1693.0000   -30.7160    11.1390     8.2180    98.3730     9.4110  1119.0110
 1693.5000   -30.6900    11.1710     8.3250    99.7610     9.4050  1108.4490
 1694.0000   -30.6650    11.2090     8.4430   100.0490     9.3990  1098.5090
 1694.5000   -30.4160    11.4770     8.5620    98.5370     9.3930  1105.2190
 1695.0000   -30.1430    11.6040     8.6810    96.2660     9.3910  1111.5560
 1695.5000   -29.8700    11.6040     8.8000    94.4160     9.4020  1115.4080
 1696.0000   -29.5950    11.6040     8.9170    93.6890     9.4120  1109.3690
 1696.5000   -29.5050    11.6050     8.9920    96.8230     9.4220  1097.5150
 1697.0000   -29.6030    11.6080     8.8510    97.2690     9.4320  1096.5210
 1697.5000   -29.6790    11.4920     8.7110    97.5750     9.4420  1104.3831
 1698.0000   -29.8840    11.3580     8.5730    99.3170     9.4460  1113.1390
 1698.5000   -30.1170    11.2240     8.4360    99.6300     9.4420  1116.4020
 1699.0000   -30.3530    11.2060     8.4170   100.2100     9.4370  1105.5140
 1699.5000   -30.4810    11.2050     8.4080    99.4170     9.4330  1096.7000
