~VERSION INFORMATION
 VERS.                2.0:   CWLS LOG ASCII STANDARD - VERSION 2.0
 WRAP.                 NO:   ONE LINE PER DEPTH STEP
~WELL INFORMATION
#MNEM.UNIT      DATA TYPE    INFORMATION
#----------   ------------   ------------------------------
 STRT.F          190.0000:   START DEPTH
 STOP.F         2998.5000:   STOP DEPTH
 STEP.F            0.5000:   STEP LENGTH
 NULL.          -999.2500:   NO VALUE
 COMP.    FENIX & SCISSON:   COMPANY
 WELL.   FENIX "A" #52-28:   WELL
 FLD .        TEAPOT DOME:   FIELD
 LOC .      S28 T39N R78W:   LOCATION
 CNTY.            NATRONA:   COUNTY
 STAT.            WYOMING:   STATE
 CTRY. UNITED STATES OF AMERICA:   COUNTRY
 SRVC.           BIRDWELL:   SERVICE COMPANY
 DATE.        14-AUG-1977:   LOGDATE
 API .     49025104130000:   API NUMBER
~CURVE INFORMATION
#MNEM.UNIT       API CODE    CURVE DESCRIPTION
#----------   ------------   ------------------------------
 DEPT.F                  :   
 SPR .MV     05 010 01 00:   SPONTANEOUS POTENTIAL FROM RES.
 SN  .OHMM   05 040 16 00:   SHORT NORMAL 16"
 ILD .OHMM   05 120 46 00:   INDUCTION LOG DEEP
 GRD .GAPI   45 310 01 00:   GAMMA RAY FROM DENSITY LOG
 CALD.IN     45 280 60 00:   CALIPER FROM DENSITY LOG
 RHOB.G/C3   45 350 01 00:   BULK DENSITY
 CORR.G/C3   45 356 01 00:   DENSITY CORRECTION
~PARAMETER INFORMATION
#MNEM.UNIT          VALUE    DESCRIPTION
#----------   ------------   ------------------------------
 EKB .F         5026.0000:   Kelly bushing
 EGL .F         5016.0000:   Ground level
 EDF .F            0.0000:   Drilling floor
 TD  .F         3000.0000:   Total depth
 DATE.        14-AUG-1977:   Date logged
 CLNT.            A2DTECH:   Client Code
 SL  . 990' FNL & 2310' FEL:   Surface Location
 PD  .                 GL:   Permanent Datum
 EPD .F              5016:   Elevation Permanent Datum
 LMF .                 KB:   Log Measured From
 DMF .                 KB:   Drilling Measured From
 DAPD.F                10:   Feet Above Permanent Datum
 DD  .F              3000:   Depth driller
 DL  .F              3000:   Depth logger
 BLI .F              2994:   Bottom log interval
 TLI .F               214:   Top log interval
 CS1 .IN            8.625:   Casing size
 CBD1.      8.625" @ 214':   Casing driller 1
 CBL1.F               212:   Casing logger 1
 BS1 .IN            7.875:   Bit size
 BSD1.F              3000:   Depth drilled with bit1
 DFT .                KCL:   Type fluid in hole
 DFD .                8.8:   Density
 DFV .                 30:   Viscosity
 DFPH.               10.5:   pH
 DFL .               10.4:   Fluid loss
 MSS .           FLOWLINE:   Source of sample
 RMS .OHMM           0.13:   Rm
 MST .F                82:   Rm Meas. temp.
 RMF .OHMM           0.12:   Rmf
 MFST.F                72:   Rmf Meas. temp.
 RMC .OHMM           0.16:   Rmc
 MCST.F                72:   Rmc Meas. temp.
 MFSS.               MEAS:   Source Rmf.
 MCSS.               MEAS:   Source Rmc.
 TCS .HRS               4:   Time Circ. stopped
 LUN .               2958:   Logging unit number
 LUL .             CASPER:   Logging unit location
 ENGI.                LAW:   Recorded By
 WITN.         PETTINGILL:   Witnessed by
 ORIG.           5" PRINT:   Origin of data
 UWI .     49025104130000:   Unique Well ID
 DICO. A2D TECHNOLOGIES, INC.:   Digitizing Company
~OTHER INFORMATION
~A   DEPT      SPR         SN        ILD         GRD      CALD       RHOB       CORR   
# ...
 2237.5000   -22.3410     6.3050     7.2360   106.8930     8.6480     2.5510     0.0360
 2238.0000   -23.0440     6.3430     7.2780   107.8950     8.6700     2.5470     0.0340
 2238.5000   -20.4410     6.3820     7.3210   109.5130     8.6930     2.5280     0.0380
 2239.0000   -18.7020     6.4130     7.3640   107.8070     8.7170     2.5220     0.0420
 2239.5000   -18.3720     6.4400     7.4650   105.3420     8.7260     2.5240     0.0410
 2240.0000   -18.0460     6.4670     7.5400   103.0630     8.7260     2.5300     0.0360
 2240.5000   -18.9920     6.4940     7.6310   101.5760     8.7280     2.5300     0.0300
 2241.0000   -20.2930     6.5210     7.7230   100.0600     8.7300     2.5230     0.0210
 2241.5000   -21.7420     6.5480     7.8120    98.6360     8.7310     2.5060     0.0170
 2242.0000   -23.5610     6.5730     7.8490    98.6520     8.7330     2.5000     0.0220
 2242.5000   -24.1450     6.5340     7.8850   100.7270     8.7350     2.4960     0.0280
 2243.0000   -27.2510     6.4960     7.9210   103.2660     8.7360     2.4940     0.0340
 2243.5000   -27.9610     6.4580     7.9550   105.8260     8.7380     2.4950     0.0390
 2244.0000   -29.3300     6.4200     7.6660   108.3790     8.7400     2.5000     0.0390
 2244.5000   -29.8010     6.3820     7.3250   109.9640     8.7410     2.5060     0.0350
 2245.0000   -28.3500     6.3440     7.0050   109.8210     8.7430     2.5060     0.0260
 2245.5000   -25.8020     6.2740     6.9880   108.2360     8.7450     2.5050     0.0240
 2246.0000   -22.2280     6.1980     6.9680   112.5240     8.7460     2.4940     0.0300
 2246.5000   -21.5990     6.1220     6.9480   117.8130     8.7440     2.4930     0.0350
 2247.0000   -22.4390     6.1020     6.8020   122.5780     8.7410     2.4930     0.0370
 2247.5000   -23.2950     6.0870     6.5940   124.4020     8.7390     2.4930     0.0380
 2248.0000   -23.9580     6.0720     6.3860   128.7110     8.7370     2.4930     0.0400
 2248.5000   -24.0390     6.0570     6.1790   135.5330     8.7350     2.4930     0.0410
 2249.0000   -24.0840     5.8780     5.9710   136.3920     8.7330     2.4930     0.0430
 2249.5000   -23.2630     5.7130     5.8740   132.4990     8.7310     2.5030     0.0520
 2250.0000   -21.4300     5.5320     5.7910   133.3390     8.7290     2.5090     0.0460
 2250.5000   -20.8320     5.4820     5.6840   136.7390     8.7270     2.4950     0.0380
 2251.0000   -20.6250     5.5250     5.7570   140.0750     8.7250     2.4710     0.0330
 2251.5000   -19.6290     5.6100     5.8590   143.6130     8.7230     2.4620     0.0300
 2252.0000   -19.8610     5.7120     5.9890   153.3390     8.7200     2.4520     0.0280
 2252.5000   -22.0250     5.9230     6.3020   160.6570     8.7180     2.4480     0.0260
 2253.0000   -22.6880     6.1340     6.6150   158.3610     8.7160     2.4480     0.0240
 2253.5000   -22.9760     6.3460     6.9420   154.4080     8.7140     2.4490     0.0230
 2254.0000   -24.6410     6.4870     7.3990   150.3960     8.7120     2.4490     0.0310
 2254.5000   -24.7030     6.6330     7.8770   146.7040     8.7100     2.4500     0.0400
 2255.0000   -24.6110     6.5640     8.2490   146.6520     8.7080     2.4510     0.0340
 2255.5000   -24.5360     6.4740     8.0400   149.5580     8.7060     2.4530     0.0320
 2256.0000   -23.6230     6.3220     7.7720   152.7410     8.7040     2.4540     0.0310
 2256.5000   -22.4150     6.1530     7.5040   155.4770     8.7020     2.4520     0.0270
 2257.0000   -21.7650     5.9840     7.2370   158.3010     8.6990     2.4450     0.0220
 2257.5000   -21.9750     5.8150     6.8000   162.6830     8.6970     2.4350     0.0210
 2258.0000   -23.0700     5.6280     6.2580   172.0630     8.6950     2.4320     0.0240
 2258.5000   -23.9300     5.3810     5.7600   174.9710     8.6930     2.4340     0.0260
 2259.0000   -24.4360     5.1340     5.2890   172.0790     8.6910     2.4380     0.0290
 2259.5000   -24.4860     4.8870     4.8170   166.8770     8.6880     2.4520     0.0310
 2260.0000   -23.6910     4.6550     4.4420   176.4060     8.6900     2.4740     0.0330
 2260.5000   -22.3760     4.5040     4.1170   175.2630     8.7600     2.4950     0.0320
 2261.0000   -21.1030     4.3610     3.8590   170.2840     8.8290     2.5180     0.0290
 2261.5000   -20.1420     4.2190     3.7790   166.5770     8.8640     2.5410     0.0270
 2262.0000   -19.8600     4.1190     3.6990   163.5940     8.8650     2.5470     0.0250
 2262.5000   -19.8850     4.0620     3.6420   163.7190     8.8870     2.5370     0.0270
 2263.0000   -20.0530     4.0690     3.6420   158.0780     8.9660     2.5370     0.0370
 2263.5000   -20.5990     4.0760     3.6420   149.0200     9.0400     2.5410     0.0360
 2264.0000   -24.3310     4.0830     3.7320   139.6130     9.1010     2.5450     0.0290
 2264.5000   -24.4090     4.0900     3.8570   132.3130     9.0920     2.5420     0.0290
 2265.0000   -24.2400     4.0970     3.9890   130.1050     9.0860     2.5380     0.0330
 2265.5000   -24.0430     4.1070     4.0020   125.3470     9.0790     2.5440     0.0380
 2266.0000   -23.5460     4.1190     4.0160   127.0030     9.0720     2.5530     0.0400
 2266.5000   -23.4210     4.1300     4.0300   126.1770     9.0660     2.5580     0.0350
 2267.0000   -23.3760     4.1420     4.0430   130.7360     9.0590     2.5460     0.0300
 2267.5000   -22.9530     4.1530     4.0570   129.4830     9.0520     2.5530     0.0300
 2268.0000   -22.5610     4.1650     4.0710   131.3960     9.0460     2.5560     0.0210
 2268.5000   -22.4130     4.1740     4.0850   129.3050     9.0420     2.5480     0.0300
 2269.0000   -24.4370     4.1610     4.0990   131.9420     9.0440     2.5700     0.0350
 2269.5000   -24.2510     4.1510     4.1200   134.1890     9.0460     2.5880     0.0160
 2270.0000   -22.8700     4.1400     4.1410   135.5530     9.0490     2.5470     0.0170
 2270.5000   -21.5770     4.1290     4.1620   131.7380     9.0510     2.5440     0.0190
 2271.0000   -21.3220     4.1190     4.1820   136.6650     9.0530     2.5380     0.0200
 2271.5000   -20.8290     4.1080     4.2030   134.2890     9.0550     2.5380     0.0250
 2272.0000   -19.9820     4.0970     4.2240   138.1540     9.0570     2.5370     0.0300
 2272.5000   -21.9040     4.0870     4.2450   138.4920     9.0600     2.5360     0.0340
 2273.0000   -22.7930     4.0760     4.2660   134.5370     9.0620     2.5370     0.0330
 2273.5000   -23.6960     4.0620     4.2870   136.6910     9.0640     2.5360     0.0320
 2274.0000   -24.2670     4.0780     4.3080   135.2430     9.0660     2.5290     0.0320
 2274.5000   -23.5340     4.1010     4.3280   139.6930     9.0680     2.5250     0.0340
 2275.0000   -22.9400     4.1250     4.3490   143.7980     9.0700     2.5250     0.0350
 2275.5000   -22.9280     4.1490     4.3650   142.9540     9.0730     2.5270     0.0350
 2276.0000   -22.8280     4.1740     4.3410   140.8710     9.0750     2.5290     0.0330
 2276.5000   -22.4300     4.1510     4.3160   142.7150     9.0770     2.5310     0.0300
 2277.0000   -22.3570     4.1200     4.2890   134.0270     9.0790     2.5290     0.0260
 2277.5000   -23.2050     4.0580     4.1930   134.9850     9.0860     2.5220     0.0220
 2278.0000   -24.1390     3.9360     4.0620   133.4840     9.1050     2.5180     0.0190
 2278.5000   -25.0880     3.8140     3.9310   137.4490     9.1240     2.5150     0.0200
 2279.0000   -25.2900     3.6920     3.8000   132.5260     9.1430     2.5080     0.0210
 2279.5000   -25.2980     3.5700     3.5660   136.2090     9.1620     2.5040     0.0220
 2280.0000   -25.3830     3.4480     3.2540   132.7980     9.1810     2.5030     0.0240
 2280.5000   -25.8780     3.3260     2.9420   140.1900     9.2000     2.5030     0.0240
 2281.0000   -26.2870     3.2040     2.8070   140.2340     9.2180     2.5030     0.0250
 2281.5000   -26.2720     3.0820     2.7200   142.0960     9.2200     2.5030     0.0250
 2282.0000   -25.4750     3.0100     2.6500   144.8170     9.2220     2.5090     0.0260
 2282.5000   -22.2910     3.0210     2.6500   141.2120     9.2240     2.5070     0.0290
