~VERSION INFORMATION
 VERS.                2.0:   CWLS LOG ASCII STANDARD - VERSION 2.0
 WRAP.                 NO:   ONE LINE PER DEPTH STEP
~WELL INFORMATION
#MNEM.UNIT      DATA TYPE    INFORMATION
#----------   ------------   ------------------------------
 STRT.F           85.5000:   START DEPTH
 STOP.F         2750.0000:   STOP DEPTH
 STEP.F            0.5000:   STEP LENGTH
 NULL.          -999.2500:   NO VALUE
 COMP.          INTEX OIL:   COMPANY
 WELL. INTEX NPR 3 "AX" #74-20:   WELL
 FLD .             TEAPOT:   FIELD
 LOC .      S20 T39N R78W:   LOCATION
 CNTY.            NATRONA:   COUNTY
 STAT.            WYOMING:   STATE
 CTRY. UNITED STATES OF AMERICA:   COUNTRY
 SRVC.       SCHLUMBERGER:   SERVICE COMPANY
 DATE.        08-MAY-1966:   LOGDATE
 API .     49025095210000:   API NUMBER
~CURVE INFORMATION
#MNEM.UNIT       API CODE    CURVE DESCRIPTION
#----------   ------------   ------------------------------
 DEPT.F                  :   
 CALD.IN     45 280 60 00:   CALIPER FROM DENSITY LOG
 GRD .GAPI   45 310 01 00:   GAMMA RAY FROM DENSITY LOG
 RHOB.G/C3   45 350 01 00:   BULK DENSITY
 CORR.G/C3   45 356 01 00:   DENSITY CORRECTION
 SPR .MV     05 010 01 00:   SPONTANEOUS POTENTIAL FROM RES.
 ILD .OHMM   05 120 46 00:   INDUCTION LOG DEEP
 SN  .OHMM   05 040 00 00:   SHORT NORMAL
~PARAMETER INFORMATION
#MNEM.UNIT          VALUE    DESCRIPTION
#----------   ------------   ------------------------------
 EKB .F         5018.3000:   Kelly bushing
 EGL .F         5008.0000:   Ground level
 EDF .F            0.0000:   Drilling floor
 EPD .F         5008.0000:   Permanent datum
 TD  .F         2750.0000:   Total depth
 DATE.        08-MAY-1966:   Date logged
 CLNT.            A2DTECH:   Client Code
 DAPD.F              10.3:   Feet Above Permanent Datum
 DD  .F              2750:   Depth driller
 DL  .F              2749:   Depth logger
 BLI .F              2748:   Bottom log interval
 TLI .F                87:   Top log interval
 CS1 .IN            10.75:   Casing size
 CBD1.       10.75" @ 30':   Casing driller 1
 BS1 .IN            7.875:   Bit size
 BSD1.F              2750:   Depth drilled with bit1
 DFT .           OIL EMUL:   Type fluid in hole
 DFD .               10.1:   Density
 DFV .                 54:   Viscosity
 MSS .         CIRCULATED:   Source of sample
 RMS .OHMM           1.90:   Rm
 MST .F                72:   Rm Meas. temp.
 RMF .OHMM           1.15:   Rmf
 MFST.F                72:   Rmf Meas. temp.
 MFSS.                 FP:   Source Rmf.
 RMB .OHMM           1.23:   Rm. at BHT
 BHT .F               111:   BHT.
 TCS .HRS             1.5:   Time Circ. stopped
 MRT .F               111:   Maximum recorded temp.
 LUN .               4507:   Logging unit number
 LUL .               CSPR:   Logging unit location
 ENGI.               HAUG:   Recorded By
 WITN.             TUTTLE:   Witnessed by
 ORIG.        2" 5" PRINT:   Origin of data
 UWI .     49025095210000:   Unique Well ID
 DICO. A2D TECHNOLOGIES, INC.:   Digitizing Company
~OTHER INFORMATION
~A   DEPT     CALD        GRD       RHOB       CORR        SPR        ILD         SN   
# ...
 2224.0000     8.8280   113.1220     2.5940     0.0430   -51.5350     7.2090    10.2560
 2224.5000     8.8230   111.6740     2.6010     0.0510   -51.4860     7.2410    10.2710
 2225.0000     8.8180   111.6020     2.5980     0.0470   -51.4370     7.2720    10.2860
 2225.5000     8.8130   114.9640     2.5900     0.0350   -51.3880     7.3030    10.3000
 2226.0000     8.8080   116.7880     2.5600     0.0180   -51.3390     7.3350    10.3150
 2226.5000     8.8030   113.8140     2.5780     0.0130   -51.2900     7.3630    10.3290
 2227.0000     8.7970   111.1070     2.5720     0.0220   -51.2410     7.4030    10.3440
 2227.5000     8.7920   108.3770     2.5650     0.0150   -51.1920     7.3530    10.3600
 2228.0000     8.7870   105.1070     2.5770     0.0210   -51.1430     7.2310    10.3660
 2228.5000     8.7820    98.0810     2.5770     0.0280   -51.0940     7.1220    10.3080
 2229.0000     8.7760   100.2580     2.5770     0.0350   -51.0450     7.0100    10.2350
 2229.5000     8.7820   104.9380     2.5770     0.0380   -50.9960     6.8980    10.1470
 2230.0000     8.7900   103.2400     2.5690     0.0290   -50.9660     6.7870     9.7880
 2230.5000     8.7980   102.9240     2.5520     0.0200   -50.9420     6.6750     9.4770
 2231.0000     8.8060   106.8970     2.5450     0.0110   -50.9180     6.5630     9.1260
 2231.5000     8.8130   111.2690     2.5550     0.0150   -50.8930     6.4510     8.9830
 2232.0000     8.8210   115.7750     2.5640     0.0220   -50.8690     6.3390     8.9940
 2232.5000     8.8290   119.9940     2.5580     0.0150   -50.8450     6.2280     8.9940
 2233.0000     8.8370   120.3700     2.5480     0.0240   -50.8210     6.1160     8.9910
 2233.5000     8.8450   116.3340     2.5370     0.0190   -50.7960     6.0040     8.9720
 2234.0000     8.8530   112.2240     2.5420     0.0180   -50.7720     5.8920     8.7080
 2234.5000     8.8540   111.8470     2.5550     0.0290   -50.7480     5.7820     8.4720
 2235.0000     8.8540   115.1580     2.5660     0.0370   -50.7240     5.6700     8.2260
 2235.5000     8.8540   113.8710     2.5790     0.0480   -50.7000     5.5580     7.9560
 2236.0000     8.8540   113.5940     2.5730     0.0440   -50.6750     5.4500     7.8010
 2236.5000     8.8540   119.1660     2.5550     0.0330   -50.6510     5.4320     7.7980
 2237.0000     8.8540   124.5160     2.5490     0.0280   -50.6270     5.4380     7.9840
 2237.5000     8.8540   126.9020     2.5700     0.0400   -50.6030     5.4740     8.3010
 2238.0000     8.8540   125.1670     2.5840     0.0300   -50.5780     5.8980     8.5780
 2238.5000     8.8450   122.5700     2.5750     0.0300   -50.5540     6.3480     8.8630
 2239.0000     8.8380   119.1720     2.5790     0.0360   -50.5300     6.6930     9.1470
 2239.5000     8.8300   109.2490     2.5920     0.0410   -50.5060     6.7990     9.4320
 2240.0000     8.8230   110.0990     2.6000     0.0470   -50.4820     6.9600     9.7160
 2240.5000     8.8150   107.1920     2.5970     0.0510   -50.4570     7.1080     9.9630
 2241.0000     8.8150   101.9680     2.6040     0.0460   -50.4330     7.1930     9.9570
 2241.5000     8.8150    96.5060     2.5980     0.0380   -50.4090     7.1320     9.9450
 2242.0000     8.8150    97.7480     2.5860     0.0310   -50.3850     7.0730     9.9230
 2242.5000     8.8150    99.7950     2.5890     0.0310   -50.3610     7.0120     9.9080
 2243.0000     8.8150   101.8240     2.5780     0.0240   -50.3370     6.9500     9.8900
 2243.5000     8.8150   103.8100     2.5680     0.0160   -50.3120     6.8920     9.8740
 2244.0000     8.8170   105.7050     2.5850     0.0230   -50.2890     6.8220     9.8560
 2244.5000     8.8210   108.7890     2.5760     0.0310   -50.2640     6.8510     9.8400
 2245.0000     8.8240   111.5450     2.5830     0.0390   -50.2400     6.9290     9.8200
 2245.5000     8.8280   114.4280     2.6040     0.0470   -50.2170     7.0040     9.8060
 2246.0000     8.8310   116.2370     2.6070     0.0530   -50.1940     7.0790     9.7890
 2246.5000     8.8350   113.2850     2.5950     0.0490   -50.2470     7.1550     9.9050
 2247.0000     8.8380   110.4730     2.5800     0.0370   -50.3730     7.2300    10.0530
 2247.5000     8.8420   108.9900     2.5610     0.0130   -50.4950     7.3050    10.2010
 2248.0000     8.8450   107.9150     2.5770     0.0180   -50.6150     7.3810    10.3480
 2248.5000     8.8490   103.9760     2.5730     0.0290   -50.7410     7.4550    10.4930
 2249.0000     8.8520    99.8190     2.5890     0.0450   -50.8600     7.5340    10.6450
 2249.5000     8.8560    98.8920     2.6080     0.0670   -50.9680     7.6020    10.7830
 2250.0000     8.8610    99.1420     2.6170     0.0620   -50.8590     7.5830    10.9590
 2250.5000     8.8650    99.3390     2.5960     0.0520   -50.7410     7.3360    10.8820
 2251.0000     8.8700    99.9140     2.5860     0.0350   -50.6150     7.1180    10.6520
 2251.5000     8.8740   100.8770     2.5690     0.0230   -50.4930     6.8940    10.4250
 2252.0000     8.8780    99.4670     2.5830     0.0320   -50.3780     6.6760    10.2070
 2252.5000     8.8830   100.7200     2.5680     0.0300   -50.2370     6.6560     9.9660
 2253.0000     8.8870   102.4000     2.5750     0.0230   -50.3030     6.7100     9.7960
 2253.5000     8.8930   105.2280     2.5980     0.0260   -50.5350     6.7590     9.8330
 2254.0000     8.8850   109.7070     2.6190     0.0290   -50.7370     6.8070    10.5960
 2254.5000     8.8480   108.1580     2.6320     0.0300   -50.9510     6.8570    11.7050
 2255.0000     8.7530   101.8520     2.6280     0.0280   -51.1570     6.9040    13.0080
 2255.5000     8.6540    96.1590     2.6450     0.0250   -51.3640     6.9540    14.2490
 2256.0000     8.6130    88.8310     2.6240     0.0320   -51.4190     7.0010    15.1540
 2256.5000     8.6390    80.1520     2.6050     0.0360   -51.4660     7.0080    13.8840
 2257.0000     8.6840    71.7520     2.5810     0.0250   -51.5070     6.8810    12.7320
 2257.5000     8.7280    68.1710     2.5580     0.0140   -51.5540     6.7420    11.4960
 2258.0000     8.7740    80.0010     2.5690     0.0210   -51.5970     6.6000    10.3130
 2258.5000     8.8130    91.2040     2.5920     0.0340   -51.6420     6.4610     9.7650
 2259.0000     8.8200   100.7320     2.5660     0.0260   -51.6870     6.3200     9.5270
 2259.5000     8.8260   104.7190     2.5750     0.0220   -51.7310     6.1790     9.2600
 2260.0000     8.8300   104.8030     2.5590     0.0260   -51.7720     6.0400     8.9970
 2260.5000     8.8360   103.6390     2.5670     0.0350   -51.7310     5.8960     8.7230
 2261.0000     8.8400   102.6390     2.5810     0.0490   -51.6030     5.7910     8.5680
 2261.5000     8.8460   105.4290     2.5750     0.0440   -51.4780     5.7220     8.5350
 2262.0000     8.8510   105.3830     2.5710     0.0330   -51.3510     5.6480     8.4840
 2262.5000     8.8560   105.9980     2.5900     0.0380   -51.2250     5.5760     8.4400
 2263.0000     8.8610   108.9930     2.5860     0.0460   -51.0990     5.5040     8.3950
 2263.5000     8.8660   112.5660     2.5970     0.0620   -50.9730     5.4310     8.3510
 2264.0000     8.8710   110.9630     2.5830     0.0540   -50.8470     5.3590     8.3050
 2264.5000     8.8760   107.1730     2.5900     0.0470   -50.7190     5.2870     8.2610
 2265.0000     8.8810   108.1090     2.5800     0.0560   -50.5950     5.2150     8.2210
 2265.5000     8.8860   107.1620     2.5880     0.0660   -50.4650     5.1420     8.1410
 2266.0000     8.8920   109.3780     2.5980     0.0610   -50.3440     5.0720     7.9340
 2266.5000     8.8850   110.3480     2.5690     0.0340   -50.2100     4.9970     7.7200
 2267.0000     8.8660   107.3400     2.5400     0.0200   -50.1980     4.9310     7.5890
 2267.5000     8.8480   107.4720     2.5290     0.0140   -50.1990     4.8620     7.7600
 2268.0000     8.8300   109.4910     2.5290     0.0060   -50.1980     5.0390     8.0270
 2268.5000     8.8120   111.2120     2.5400     0.0140   -50.2000     5.2630     8.2800
 2269.0000     8.7940   109.3100     2.5490     0.0260   -50.2190     5.5080     8.5020
