~VERSION INFORMATION
 VERS.                2.0:   CWLS LOG ASCII STANDARD - VERSION 2.0
 WRAP.                 NO:   ONE LINE PER DEPTH STEP
~WELL INFORMATION
#MNEM.UNIT      DATA TYPE    INFORMATION
#----------   ------------   ------------------------------
 STRT.F          174.0000:   START DEPTH
 STOP.F         3492.0000:   STOP DEPTH
 STEP.F            0.5000:   STEP LENGTH
 NULL.          -999.2500:   NO VALUE
 COMP.    FENIX & SCISSON:   COMPANY
 WELL.   FENIX "AX" #18-3:   WELL
 FLD .        TEAPOT DOME:   FIELD
 LOC .       S3 T38N R78W:   LOCATION
 CNTY.            NATRONA:   COUNTY
 STAT.            WYOMING:   STATE
 CTRY. UNITED STATES OF AMERICA:   COUNTRY
 SRVC.       SCHLUMBERGER:   SERVICE COMPANY
 DATE.        09-FEB-1981:   LOGDATE
 API .     49025108630000:   API NUMBER
~CURVE INFORMATION
#MNEM.UNIT       API CODE    CURVE DESCRIPTION
#----------   ------------   ------------------------------
 DEPT.F                  :   
 CALD.IN     45 280 60 00:   CALIPER FROM DENSITY LOG
 GRD .GAPI   45 310 01 00:   GAMMA RAY FROM DENSITY LOG
 RHOB.G/C3   45 350 01 00:   BULK DENSITY
 DRHO.G/C3   45 356 01 00:   DENSITY CORRECTION
 TENR.LBS    07 635 01 00:   TENSION FROM RESISTIVITY
 SPR .MV     07 010 01 00:   SPONTANEOUS POTENTIAL
 ILM .OHMM   07 120 44 00:   INDUCTION LOG MEDIUM RESISTIVITY
 ILD .OHMM   07 120 46 00:   INDUCTION LOG DEEP RESISTIVITY
 SFLU.OHMM   07 220 01 00:   SPHERICALLY FOCUSED LOG UNAVERAGED RESISTIVITY
~PARAMETER INFORMATION
#MNEM.UNIT          VALUE    DESCRIPTION
#----------   ------------   ------------------------------
 EKB .F         5267.0000:   Kelly bushing
 EGL .F         5257.0000:   Ground level
 EDF .F            0.0000:   Drilling floor
 TD  .F         3472.0000:   Total depth
 DATE.        09-FEB-1981:   Date logged
 CLNT.            A2DTECH:   Client Code
 SL  . 669' FSL & 42' FWL:   Surface Location
 PD  .                 GL:   Permanent Datum
 DD  .F              3401:   Depth driller
 DL  .F              3472:   Depth logger
 BLI .F              3466:   Bottom log interval
 CS1 .IN            8.625:   Casing size
 CBD1.      8.625" @ 200':   Casing driller 1
 CBL1.F               196:   Casing logger 1
 BS1 .IN            7.875:   Bit size
 DFT .            KCL/GEL:   Type fluid in hole
 DFD .                  9:   Density
 DFV .                 60:   Viscosity
 DFPH.                8.5:   pH
 DFL .                 10:   Fluid loss
 MSS .            MUD/PIT:   Source of sample
 RMS .OHMM           1.88:   Rm
 MST .F                75:   Rm Meas. temp.
 RMF .OHMM           1.12:   Rmf
 MFST.F                75:   Rmf Meas. temp.
 MFSS.               MEAS:   Source Rmf.
 RMB .OHMM           1.21:   Rm. at BHT
 BHT .F               120:   BHT.
 TCS .HRS            1800:   Time Circ. stopped
 MRT .F               120:   Maximum recorded temp.
 LUN .               8043:   Logging unit number
 LUL .               CSPR:   Logging unit location
 ENGI.            CONNETT:   Recorded By
 WITN.              SCOTT:   Witnessed by
 ORIG.           5" PRINT:   Origin of data
 UWI .     49025108630000:   Unique Well ID
 DICO. A2D TECHNOLOGIES, INC.:   Digitizing Company
 DAPD.F                10:   Feet Above Permanent Datum
 BSD1.F              3401:   Depth drilled with bit1
 EPD .F              5257:   Elevation Permanent Datum
 LMF .                 KB:   Log Measured From
 DMF .                 KB:   Drilling Measured From
 TLI .F               196:   Top log interval
 TLAB.               0000:   Time logger at bottom
~OTHER INFORMATION
~A   DEPT     CALD         GRD      RHOB       DRHO       TENR        SPR        ILM        ILD       SFLU   
# ...
 2583.0000     9.1480   112.8750     2.5810     0.1050   930.9310   -36.8960     6.4080     5.7610     6.0050
 2583.5000     9.1490   111.8900     2.5720     0.1070   930.9310   -37.0100     6.4970     5.9410     5.8680
 2584.0000     9.1500   108.8650     2.5520     0.0970   930.9310   -37.1250     6.5850     6.1160     7.2480
 2584.5000     9.1520   103.0590     2.5330     0.0790   930.9310   -37.2400     6.6730     6.2020     8.9020
 2585.0000     9.1530    97.5240     2.5190     0.0580   930.9310   -37.3580     6.7620     6.3760    10.4890
 2585.5000     9.1540    95.9360     2.5130     0.0470   930.9310   -37.4870     6.8500     6.5550    10.1070
 2586.0000     9.1560   101.4360     2.5260     0.0520   930.9310   -37.6160     7.1020     6.8010     9.3200
 2586.5000     9.1570   105.9540     2.5720     0.0820   930.9310   -37.7460     7.3840     7.0820     8.5320
 2587.0000     9.1580   106.8510     2.6140     0.1210   930.9310   -37.8810     7.6660     7.3390     8.2540
 2587.5000     9.1600   103.7070     2.6550     0.1350   930.9310   -37.8760     7.9480     7.5970     8.2540
 2588.0000     9.1610   100.5960     2.6240     0.1240   930.9310   -37.8120     8.2310     7.8550     9.4060
 2588.5000     9.1620    97.5180     2.5570     0.0990   930.9310   -37.7430     8.5130     8.1130    11.1760
 2589.0000     9.1640    94.5520     2.5440     0.0670   930.9310   -37.7240     8.7230     8.3360    12.8480
 2589.5000     9.1650    92.6810     2.5340     0.0580   930.9310   -37.6600     8.7850     8.3570    13.0870
 2590.0000     9.1660    91.3690     2.5590     0.0710   930.9310   -37.5660     8.8580     8.3790    12.2890
 2590.5000     9.1680    93.5180     2.5790     0.0830   930.9310   -37.4720     8.9310     8.4070    11.0780
 2591.0000     9.1690    95.6260     2.5920     0.0810   930.9310   -37.3780     9.0040     8.3560     9.2190
 2591.5000     9.1700    96.5060     2.5720     0.0730   930.9310   -37.2810     9.0770     8.1780     9.2590
 2592.0000     9.1720    96.5430     2.5660     0.0730   930.9310   -37.1820     9.1500     8.2810     9.3450
 2592.5000     9.1730    96.7650     2.5600     0.0820   930.9310   -37.0830     9.2220     8.5030    10.2280
 2593.0000     9.1740    95.9600     2.5520     0.0980   930.9310   -36.9830     9.2950     8.7240    12.0140
 2593.5000     9.1760    94.4580     2.5410     0.0930   930.9310   -36.9010     9.3200     8.9060    13.7990
 2594.0000     9.1770    93.1280     2.5310     0.0850   930.9310   -36.7690     9.3380     8.9820    15.4500
 2594.5000     9.1780    93.3540     2.5200     0.0660   930.9310   -36.7340     9.3560     9.0580    13.8570
 2595.0000     9.1800    93.4460     2.5230     0.0530   930.9310   -36.7320     9.3740     9.1340    12.3770
 2595.5000     9.1810    92.3080     2.5280     0.0530   930.9310   -36.7330     9.3910     9.2100    11.4860
 2596.0000     9.1820    92.2440     2.5330     0.0600   930.9310   -36.7310     9.1860     8.9840    11.0860
 2596.5000     9.1820    98.7870     2.5350     0.0650   930.9310   -36.7280     8.9540     8.7170    10.4950
 2597.0000     9.1820   105.3840     2.5300     0.0640   931.2070   -36.7680     8.7220     8.4500     9.6930
 2597.5000     9.1820   110.7370     2.5260     0.0630   931.7750   -37.0440     8.4900     8.1840     8.8040
 2598.0000     9.1820   112.9880     2.5310     0.0790   932.3430   -37.2270     8.2580     7.9170     9.4810
 2598.5000     9.1820   111.5130     2.5430     0.0920   932.9100   -37.4010     8.0260     7.6500    10.8600
 2599.0000     9.1820   109.9570     2.5500     0.0950   933.4780   -37.5270     7.7470     7.3840    12.2400
 2599.5000     9.1820   110.2180     2.5500     0.0970   934.0460   -37.4900     7.4740     7.1170    12.4980
 2600.0000     9.1820   113.5390     2.5410     0.0990   934.6140   -37.3550     7.2010     6.8500    11.1700
 2600.5000     9.1820   119.8660     2.5240     0.0960   935.1810   -37.2240     6.9280     6.5830     9.2690
 2601.0000     9.1820   125.6540     2.5080     0.0910   935.7490   -37.0940     6.6550     6.3170     7.9400
 2601.5000     9.1820   134.8500     2.4970     0.0900   936.3170   -36.9630     6.3820     6.0500     7.2150
 2602.0000     9.1820   143.6160     2.4930     0.0950   936.8840   -36.8320     5.9770     5.7610     6.8640
 2602.5000     9.1820   149.8220     2.4830     0.0900   937.4520   -36.7010     6.2550     5.9700     6.5550
 2603.0000     9.1820   148.3160     2.4640     0.0590   938.0200   -36.5670     6.7920     6.3740     6.5550
 2603.5000     9.1820   139.4070     2.4480     0.0500   938.5870   -36.5350     7.3290     6.7770     7.3060
 2604.0000     9.1820   131.5040     2.4600     0.0480   939.1550   -36.5650     7.8660     7.1810    12.2400
 2604.5000     9.1820   133.4480     2.4770     0.0620   939.7230   -36.6060     8.3630     7.5850    17.1740
 2605.0000     9.1820   136.7730     2.4950     0.0750   940.2910   -36.6480     8.6040     7.9880    19.4540
 2605.5000     9.1820   141.6200     2.5020     0.0950   940.8580   -36.6900     8.8450     8.2540    17.0310
 2606.0000     9.1820   148.7520     2.5050     0.0900   941.4260   -36.7300     9.0510     8.3300    14.4770
 2606.5000     9.1820   153.8010     2.5080     0.0810   941.9940   -36.6830     8.8700     8.2100    11.9230
 2607.0000     9.1820   158.8410     2.5050     0.0770   942.5610   -36.6310     8.6800     8.0840    10.0610
 2607.5000     9.1820   163.9040     2.5020     0.0780   943.1290   -36.5790     8.4890     7.7520     8.5640
 2608.0000     9.1820   168.6610     2.4880     0.0800   943.6970   -36.5440     8.2140     7.2550     9.0620
 2608.5000     9.1820   171.2830     2.4690     0.0720   944.2640   -36.6120     7.5040     6.7590     9.9490
 2609.0000     9.1900   172.8180     2.4680     0.0610   944.8320   -36.6780     6.7940     6.2620    10.6850
 2609.5000     9.2240   173.8420     2.4960     0.0800   945.4000   -36.7330     6.0840     5.7660     9.5000
 2610.0000     9.2570   165.8640     2.5560     0.1220   945.9670   -36.6580     5.4010     5.2700     7.8530
 2610.5000     9.2910   150.5970     2.6020     0.1610   946.5350   -36.5820     5.0590     4.7730     5.7810
 2611.0000     9.3000   147.9010     2.5970     0.1490   947.1030   -36.5370     4.7100     4.2770     4.0960
 2611.5000     9.2800   139.6690     2.5760     0.1300   947.6710   -36.4520     4.3610     4.1310     4.3290
 2612.0000     9.2580   135.6850     2.5580     0.0910   948.2380   -36.3480     4.2270     4.0780     5.1110
 2612.5000     9.2260   132.9400     2.5700     0.0970   948.8060   -36.2420     4.1340     4.0260     5.7610
 2613.0000     9.2260   130.1890     2.5830     0.1120   949.3740   -36.1410     4.1740     3.9840     5.5740
 2613.5000     9.2300   127.4650     2.5930     0.1170   949.9410   -36.1230     4.2730     4.1020     5.2620
 2614.0000     9.2340   126.1440     2.5970     0.1180   950.5090   -36.0850     4.3720     4.2010     5.0170
 2614.5000     9.2380   126.6630     2.5890     0.0870   951.0770   -36.0470     4.4720     4.2990     5.2150
 2615.0000     9.2420   126.1330     2.5820     0.0800   951.6440   -36.0080     4.5710     4.3980     5.3790
 2615.5000     9.2460   125.0730     2.5810     0.0760   952.2120   -35.9700     4.6700     4.4960     5.5980
 2616.0000     9.2500   124.1540     2.5810     0.0720   952.7800   -35.9400     4.7470     4.5410     5.5730
 2616.5000     9.2540   125.7460     2.5950     0.0720   953.3480   -35.9410     4.7470     4.5540     5.5250
 2617.0000     9.2580   127.7200     2.6130     0.0800   953.9150   -35.9410     4.7470     4.5680     5.4760
 2617.5000     9.2620   127.5760     2.6280     0.0890   954.4830   -35.9410     4.7470     4.5750     5.4270
 2618.0000     9.2660   125.7510     2.6230     0.0940   955.0510   -35.9400     4.7470     4.5850     5.3780
 2618.5000     9.2700   123.7370     2.6060     0.0930   955.6180   -35.9410     4.7470     4.6070     5.2980
 2619.0000     9.2740   121.6710     2.5890     0.0900   956.1860   -35.9420     4.7470     4.6290     5.1790
