~VERSION INFORMATION
 VERS.                2.0:   CWLS LOG ASCII STANDARD - VERSION 2.0
 WRAP.                 NO:   ONE LINE PER DEPTH STEP
~WELL INFORMATION
#MNEM.UNIT      DATA TYPE    INFORMATION
#----------   ------------   ------------------------------
 STRT.F           29.5000:   START DEPTH
 STOP.F         2719.5000:   STOP DEPTH
 STEP.F            0.5000:   STEP LENGTH
 NULL.          -999.2500:   NO VALUE
 COMP.          INTEX OIL:   COMPANY
 WELL. INTEX NPR 3 "AX" #82-20:   WELL
 FLD .             TEAPOT:   FIELD
 LOC .      S20 T39N R78W:   LOCATION
 CNTY.            NATRONA:   COUNTY
 STAT.            WYOMING:   STATE
 CTRY. UNITED STATES OF AMERICA:   COUNTRY
 SRVC.       SCHLUMBERGER:   SERVICE COMPANY
 DATE.        19-MAY-1956:   LOGDATE
 API .     49025095270000:   API NUMBER
~CURVE INFORMATION
#MNEM.UNIT       API CODE    CURVE DESCRIPTION
#----------   ------------   ------------------------------
 DEPT.F                  :   
 CALD.IN     45 280 60 00:   CALIPER FROM DENSITY LOG
 GRD .GAPI   45 310 01 00:   GAMMA RAY FROM DENSITY LOG
 CORR.G/C3   45 356 01 00:   DENSITY CORRECTION
 RHOB.G/C3   45 350 01 00:   BULK DENSITY
 SPR .MV     05 010 01 00:   SPONTANEOUS POTENTIAL
 ILD .OHMM   05 120 46 00:   DEEP INDUCTION RESISTIVITY
 SN  .OHMM   05 040 00 00:   SHORT NORMAL
~PARAMETER INFORMATION
#MNEM.UNIT          VALUE    DESCRIPTION
#----------   ------------   ------------------------------
 EKB .F         5014.3000:   Kelly bushing
 EGL .F         5004.0000:   Ground level
 EDF .F            0.0000:   Drilling floor
 TD  .F         2717.0000:   Total depth
 DATE.        19-MAY-1956:   Date logged
 CLNT.            A2DTECH:   Client Code
 PD  .                 GL:   Permanent Datum
 EPD .F              5004:   Elevation Permanent Datum
 LMF .                 KB:   Log Measured From
 DMF .                 KB:   Drilling Measured From
 DAPD.F              10.3:   Feet Above Permanent Datum
 DD  .F              2717:   Depth driller
 DL  .F              2717:   Depth logger
 BLI .F              2716:   Bottom log interval
 TLI .F               100:   Top log interval
 CS1 .IN            10.75:   Casing size
 CBD1.       10.75" @ 30':   Casing driller 1
 BS1 .IN            7.875:   Bit size
 BSD1.F              2717:   Depth drilled with bit1
 DFT .        GEL/CAUSTIC:   Type fluid in hole
 DFD .                9.7:   Density
 DFV .                 35:   Viscosity
 DFPH.                7.6:   pH
 DFL .                8.8:   Fluid loss
 MSS .           FLOWLINE:   Source of sample
 RMS .OHMM           1.68:   Rm
 MST .F                58:   Rm Meas. temp.
 RMF .OHMM           1.17:   Rmf
 MFST.F                68:   Rmf Meas. temp.
 MFSS.                 FP:   Source Rmf.
 RMB .OHMM              1:   Rm. at BHT
 BHT .F               101:   BHT.
 TCS .HRS               4:   Time Circ. stopped
 MRT .F               101:   Maximum recorded temp.
 LUN .               4507:   Logging unit number
 LUL .               CSPR:   Logging unit location
 ENGI.            MANGOLD:   Recorded By
 WITN.             TUTTLE:   Witnessed by
 ORIG.           5" PRINT:   Origin of data
 UWI .     49025095270000:   Unique Well ID
 DICO. A2D TECHNOLOGIES, INC.:   Digitizing Company
~OTHER INFORMATION
~A   DEPT     CALD         GRD      CORR       RHOB        SPR        ILD         SN   
# ...
 2304.5000     9.7200    78.5370     0.0910     2.4510   -37.3500    21.2410    24.8050
 2305.0000     9.6550    78.5630     0.0820     2.4520   -37.6330    21.4650    25.6570
 2305.5000     9.6210    74.6260     0.0630     2.4520   -37.9180    21.6820    26.4450
 2306.0000     9.5860    72.3150     0.0400     2.4680   -38.2030    21.8940    26.6970
 2306.5000     9.5520    66.6270     0.0240     2.4890   -38.4900    22.0740    26.6560
 2307.0000     9.5180    62.2080     0.0610     2.5000   -38.8580    21.9590    25.8180
 2307.5000     9.4450    65.1390     0.0890     2.4980   -39.5530    21.3100    24.9380
 2308.0000     9.3590    68.1120     0.1030     2.4630   -40.2460    20.6620    24.0580
 2308.5000     9.2730    69.6840     0.1020     2.4280   -40.9360    20.0120    23.4550
 2309.0000     9.1860    66.2670     0.0940     2.3930   -41.6430    19.9360    23.2960
 2309.5000     9.1000    62.8770     0.0870     2.3730   -41.9540    19.9810    23.1310
 2310.0000     9.0140    60.4520     0.0790     2.3660   -41.6940    20.0340    22.9690
 2310.5000     8.9460    60.0410     0.0720     2.3560   -41.4370    20.1020    22.8080
 2311.0000     8.8950    59.6070     0.0630     2.3400   -41.1770    19.6550    22.6500
 2311.5000     8.8430    59.1250     0.0530     2.3270   -40.9160    19.2990    22.5080
 2312.0000     8.7910    57.4550     0.0570     2.3370   -40.6550    18.9340    22.2030
 2312.5000     8.7410    55.6780     0.0650     2.3460   -40.3940    18.5700    21.8910
 2313.0000     8.7170    53.8930     0.0730     2.3590   -40.1340    18.2060    21.5790
 2313.5000     8.7180    56.4770     0.0800     2.3760   -39.9000    17.8430    21.2660
 2314.0000     8.7170    61.2340     0.0780     2.3930   -40.0620    17.4830    20.9560
 2314.5000     8.7170    66.0590     0.0720     2.3990   -40.2830    17.2090    20.9410
 2315.0000     8.7170    67.8580     0.0790     2.4020   -40.5040    17.3760    21.0680
 2315.5000     8.7170    68.8550     0.0870     2.3960   -40.7250    17.7180    21.2130
 2316.0000     8.7170    69.8230     0.0860     2.3880   -40.9460    18.0580    21.3570
 2316.5000     8.7170    70.7740     0.0820     2.3790   -41.0910    18.4090    21.5020
 2317.0000     8.7170    71.5190     0.0870     2.3910   -41.0890    18.5210    21.6470
 2317.5000     8.7170    70.4170     0.0990     2.4090   -41.0890    18.6560    21.7920
 2318.0000     8.7170    67.8640     0.0860     2.3960   -41.0890    18.8870    21.9370
 2318.5000     8.7070    64.5510     0.0690     2.3710   -41.0890    19.1080    22.0810
 2319.0000     8.6770    61.2260     0.0430     2.3530   -41.0890    19.3260    22.2270
 2319.5000     8.6480    58.5380     0.0520     2.3580   -41.0890    19.5450    22.3730
 2320.0000     8.6190    58.5970     0.0770     2.3700   -41.0890    19.7640    22.5160
 2320.5000     8.5900    60.9060     0.0860     2.3480   -41.0890    19.9840    22.6330
 2321.0000     8.5610    63.5060     0.0860     2.3630   -41.0890    20.2040    22.6530
 2321.5000     8.5320    61.1810     0.0960     2.3800   -41.0890    20.4710    22.6860
 2322.0000     8.5200    57.2230     0.0860     2.3660   -41.0890    20.4870    22.7210
 2322.5000     8.5200    55.2690     0.0790     2.3480   -41.0870    20.4860    22.7200
 2323.0000     8.5200    57.8940     0.0720     2.3580   -40.8160    20.4860    22.8440
 2323.5000     8.5200    61.6720     0.0660     2.3810   -40.5020    20.4850    22.9960
 2324.0000     8.5200    65.5060     0.0760     2.4030   -40.1870    20.4810    23.1550
 2324.5000     8.5200    66.2690     0.0710     2.3840   -39.9190    20.4080    23.1080
 2325.0000     8.5200    68.1220     0.0640     2.3660   -40.1610    20.3950    23.0290
 2325.5000     8.5220    73.3450     0.0710     2.3670   -40.4020    20.4170    22.8930
 2326.0000     8.4970    75.1640     0.0780     2.3870   -40.6410    20.4390    22.7580
 2326.5000     8.4850    69.9750     0.0840     2.4010   -40.8790    20.4590    22.6220
 2327.0000     8.4710    69.8820     0.0800     2.3940   -41.0530    20.4750    22.7120
 2327.5000     8.4580    70.7020     0.0750     2.3840   -40.8070    20.6400    22.8480
 2328.0000     8.4450    68.6750     0.0770     2.3690   -40.5570    20.8750    22.9840
 2328.5000     8.4320    64.9470     0.0800     2.3490   -40.3080    20.8930    23.1210
 2329.0000     8.4190    61.8690     0.0820     2.3550   -40.0600    20.5750    23.2580
 2329.5000     8.4060    59.1840     0.0770     2.3620   -39.8090    20.2200    23.3900
 2330.0000     8.4060    55.6080     0.0720     2.3570   -39.5500    19.8600    23.3190
 2330.5000     8.4160    53.5660     0.0670     2.3520   -39.7650    19.5000    22.9890
 2331.0000     8.4260    55.0450     0.0650     2.3650   -40.0850    19.1410    22.6410
 2331.5000     8.4370    57.2480     0.0830     2.3830   -40.4090    18.7810    22.2960
 2332.0000     8.4470    62.2440     0.1010     2.4000   -40.7340    18.4220    21.9510
 2332.5000     8.4580    67.1850     0.1140     2.4170   -41.0590    18.0640    21.6200
 2333.0000     8.4680    72.0780     0.1030     2.4190   -41.3830    17.8170    21.5370
 2333.5000     8.4800    74.8830     0.0930     2.4100   -41.7070    18.1010    21.6480
 2334.0000     8.4440    70.0600     0.0830     2.3920   -42.0270    18.3710    21.7140
 2334.5000     8.4010    66.2260     0.0800     2.3730   -42.2210    18.6400    21.7820
 2335.0000     8.3580    63.3150     0.0870     2.3880   -41.9420    18.9090    21.8320
 2335.5000     8.3160    66.4770     0.0960     2.4010   -41.6730    19.1830    21.8310
 2336.0000     8.2980    70.3060     0.1070     2.4110   -41.4060    19.2000    21.8330
 2336.5000     8.3010    68.9410     0.1030     2.4190   -41.1390    19.2050    21.8830
 2337.0000     8.2980    66.2850     0.0940     2.4130   -40.8720    19.0690    21.9380
 2337.5000     8.2960    64.7500     0.0860     2.4150   -40.6040    18.9310    21.9880
 2338.0000     8.2940    64.6630     0.0770     2.4070   -40.3380    18.6990    21.9200
 2338.5000     8.2920    64.5780     0.0710     2.3740   -40.1330    18.4370    21.8000
 2339.0000     8.2900    64.4980     0.0800     2.3830   -40.3770    18.1750    21.5810
 2339.5000     8.2880    65.9000     0.0920     2.3990   -40.6270    17.9170    21.5330
 2340.0000     8.2860    69.1570     0.0850     2.4140   -40.8750    17.9060    21.6650
 2340.5000     8.2840    69.6170     0.0790     2.4230   -41.1200    17.9050    21.8290
 2341.0000     8.2830    66.6760     0.0890     2.3800   -41.2050    17.9040    21.9950
 2341.5000     8.2830    64.8730     0.0730     2.3800   -40.6670    17.7690    22.1620
 2342.0000     8.2880    64.2330     0.0820     2.3770   -40.1330    17.4160    22.2160
 2342.5000     8.2940    64.8700     0.0860     2.3760   -39.6470    17.0660    21.9460
 2343.0000     8.3010    67.3490     0.0660     2.3690   -39.5140    16.7160    21.6650
 2343.5000     8.3070    71.2460     0.0740     2.3770   -39.5820    16.3660    21.3840
 2344.0000     8.3130    74.9440     0.0890     2.4170   -39.7030    16.0150    21.1030
 2344.5000     8.3190    74.5060     0.0940     2.4030   -39.8270    15.6650    20.8220
 2345.0000     8.3260    74.0700     0.0940     2.4090   -39.9140    15.3350    20.5420
 2345.5000     8.3320    73.6280     0.0940     2.4210   -39.4410    15.4830    20.2640
 2346.0000     8.3380    74.4330     0.0930     2.4160   -38.8970    15.7220    20.0540
 2346.5000     8.3450    76.0730     0.0930     2.4100   -38.3480    15.9610    20.2240
 2347.0000     8.3510    74.7920     0.0930     2.4050   -37.7970    16.2000    20.5020
 2347.5000     8.3580    71.5320     0.0950     2.4090   -37.2470    16.4390    20.8980
 2348.0000     8.3780    74.7040     0.0970     2.4190   -36.7520    16.6790    21.2980
 2348.5000     8.3800    72.3020     0.0980     2.4270   -36.9090    16.9180    21.7020
 2349.0000     8.3770    69.2420     0.0990     2.4190   -37.0820    17.1570    22.1130
 2349.5000     8.3730    67.7590     0.0920     2.4100   -37.1270    17.3970    22.3310
