~VERSION INFORMATION
 VERS.                2.0:   CWLS LOG ASCII STANDARD - VERSION 2.0
 WRAP.                 NO:   ONE LINE PER DEPTH STEP
~WELL INFORMATION
#MNEM.UNIT      DATA TYPE    INFORMATION
#----------   ------------   ------------------------------
 STRT.F          700.5000:   START DEPTH
 STOP.F         3060.0000:   STOP DEPTH
 STEP.F            0.5000:   STEP LENGTH
 NULL.          -999.2500:   NO VALUE
 COMP.    FENIX & SCISSON:   COMPANY
 WELL.   FENIX "A" #23-34:   WELL
 FLD .           N P R #3:   FIELD
 LOC .      S34 T39N R78W:   LOCATION
 CNTY.            NATRONA:   COUNTY
 STAT.            WYOMING:   STATE
 CTRY. UNITED STATES OF AMERICA:   COUNTRY
 SRVC.       SCHLUMBERGER:   SERVICE COMPANY
 DATE.        23-APR-1977:   LOGDATE
 API .     49025103590000:   API NUMBER
~CURVE INFORMATION
#MNEM.UNIT       API CODE    CURVE DESCRIPTION
#----------   ------------   ------------------------------
 DEPT.F                  :   
 ILD .OHMM   07 120 46 00:   DEEP INDUCTION RESISTIVITY
 ILM .OHMM   07 120 44 00:   INDUCTION LOG MEDIUM RESISTIVITY
 LL8 .OHMM   07 220 08 00:   LATEROLOG-8 RES.
 SPR .MV     07 010 01 00:   SPONTANEOUS POTENTIAL
 GRD .GAPI   45 310 01 00:   GAMMA RAY FROM DENSITY LOG
 CALD.IN     45 280 60 00:   CALIPER FROM DENSITY LOG
 RHOB.G/C3   45 350 01 00:   BULK DENSITY
 CORR.G/C3   45 356 01 00:   DENSITY CORRECTION
~PARAMETER INFORMATION
#MNEM.UNIT          VALUE    DESCRIPTION
#----------   ------------   ------------------------------
 EKB .F         5094.0000:   Kelly bushing
 EGL .F         5082.0000:   Ground level
 EDF .F            0.0000:   Drilling floor
 EPD .F            0.0000:   Permanent datum
 TD  .F         3051.0000:   Total depth
 DATE.        23-APR-1977:   Date logged
 CLNT.            A2DTECH:   Client Code
 SL  . 990' FWL & 1650' FNL:   Surface Location
 PD  .                 GL:   Permanent Datum
 DD  .F              3050:   Depth driller
 DL  .F              3051:   Depth logger
 BLI .F              3045:   Bottom log interval
 CS1 .IN            8.625:   Casing size
 CBD1.      8.625" @ 718':   Casing driller 1
 CBL1.F               717:   Casing logger 1
 BS1 .IN            7.875:   Bit size
 DFT .                FGM:   Type fluid in hole
 DFD .                8.8:   Density
 DFV .                 34:   Viscosity
 DFPH.                8.5:   pH
 DFL .                8.2:   Fluid loss
 MSS .           FLOWLINE:   Source of sample
 RMS .OHMM           .155:   Rm
 MST .F                66:   Rm Meas. temp.
 RMF .OHMM           .152:   Rmf
 MFST.F                66:   Rmf Meas. temp.
 MFSS.               MEAS:   Source Rmf.
 RMB .OHMM           .085:   Rm. at BHT
 BHT .F               120:   BHT.
 TCS .HRS            0230:   Time Circ. stopped
 MRT .F               120:   Maximum recorded temp.
 LUN .               5642:   Logging unit number
 LUL .               CSPR:   Logging unit location
 ENGI.             TAYLOR:   Recorded By
 WITN.         HARRINGTON:   Witnessed by
 ORIG.           5" PRINT:   Origin of data
 UWI .     49025103590000:   Unique Well ID
 DICO. A2D TECHNOLOGIES, INC.:   Digitizing Company
 DAPD.                 12:   Feet Above Permanent Datum
 BSD1.               3050:   Depth drilled with bit1
 TLI .                717:   Top log interval
 TLAB.               0530:   Time logger at bottom
~OTHER INFORMATION
~A   DEPT      ILD        ILM        LL8        SPR         GRD      CALD       RHOB       CORR   
# ...
 2077.5000     5.6330     5.5180     7.7150   -79.1890   120.9370     8.7980     2.4820     0.0390
 2078.0000     5.5650     5.4050     8.9150   -79.4670   122.0520     8.8010     2.4740     0.0270
 2078.5000     5.4980     5.2910     8.3700   -79.7440   124.2040     8.8030     2.4770     0.0240
 2079.0000     5.4300     5.1770     7.3830   -80.0210   125.5910     8.8240     2.4680     0.0250
 2079.5000     5.3630     5.0630     6.5140   -80.2440   124.0440     8.8470     2.4640     0.0280
 2080.0000     5.2950     4.9490     6.3030   -80.1490   120.4330     8.8700     2.4950     0.0380
 2080.5000     5.2280     4.8350     6.1070   -80.0530   116.8150     8.8930     2.5200     0.0500
 2081.0000     5.1720     4.7220     6.2330   -79.9580   115.7700     8.9150     2.5270     0.0650
 2081.5000     5.1820     4.6730     6.6360   -79.8620   116.5100     8.9380     2.5290     0.0560
 2082.0000     5.1900     4.6730     6.5580   -79.7670   116.0280     8.9610     2.5270     0.0410
 2082.5000     5.1980     4.6820     6.5140   -79.6710   115.3200     8.9830     2.5160     0.0340
 2083.0000     5.2060     4.7370     6.6400   -79.5760   117.1600     9.0060     2.5250     0.0420
 2083.5000     5.2140     4.8040     6.8220   -79.4800   117.7050     9.0290     2.5070     0.0440
 2084.0000     5.2200     4.7450     6.6600   -79.3850   116.9310     9.0510     2.4840     0.0080
 2084.5000     5.0870     4.6680     6.4930   -79.2900   119.8930     9.0740     2.4750     0.0100
 2085.0000     4.9740     4.5880     6.3260   -79.1950   126.6860     9.0970     2.4890     0.0300
 2085.5000     4.8620     4.5010     6.1590   -79.0920   137.7840     9.1180     2.5070     0.0490
 2086.0000     4.7500     4.3870     6.0470   -79.2630   149.7990     9.1690     2.5020     0.0540
 2086.5000     4.6380     4.2720     6.0220   -79.5480   159.3860     9.2080     2.4960     0.0450
 2087.0000     4.5460     4.1580     5.9950   -79.8350   163.9030     9.2490     2.5050     0.0370
 2087.5000     4.5460     4.1070     5.7660   -80.1250   155.5580     9.2900     2.5120     0.0710
 2088.0000     4.5600     4.1450     5.5240   -80.4250   148.0860     9.3310     2.4740     0.0310
 2088.5000     4.6600     4.3410     5.3670   -80.0870   144.7120     9.3720     2.4610     0.0350
 2089.0000     4.7590     4.4950     5.5610   -79.6580   143.8990     9.3970     2.4690     0.0390
 2089.5000     4.9280     4.6580     5.7040   -79.2230   144.9820     9.4230     2.4250     0.0340
 2090.0000     5.1540     4.8200     5.8480   -78.7890   145.9150     9.4210     2.4330     0.0280
 2090.5000     5.3810     4.9830     6.5150   -78.3590   145.9390     9.3910     2.4390     0.0220
 2091.0000     5.6080     5.1460     7.0890   -78.0400   146.4640     9.3600     2.4150     0.0170
 2091.5000     5.8350     5.3090     7.1180   -77.7530   148.3590     9.3270     2.4150     0.0190
 2092.0000     6.0620     5.4720     7.2220   -77.4650   150.2950     9.3200     2.4260     0.0290
 2092.5000     6.2890     5.6350     7.8100   -77.1760   154.0970     9.3220     2.4340     0.0400
 2093.0000     6.5140     5.7980     8.2050   -76.8880   156.6990     9.3380     2.4390     0.0480
 2093.5000     6.6360     5.9580     7.9960   -76.6710   158.9400     9.3550     2.4300     0.0250
 2094.0000     6.6360     6.0970     7.7630   -76.5190   156.6500     9.3710     2.4430     0.0350
 2094.5000     6.6110     6.1640     7.9610   -76.7500   152.9440     9.3790     2.4640     0.0480
 2095.0000     6.5360     6.1590     8.3390   -76.9760   148.8550     9.3720     2.4910     0.0620
 2095.5000     6.4610     6.1220     8.6720   -77.1990   144.8570     9.3570     2.4760     0.0510
 2096.0000     6.3850     6.0840     8.2820   -77.4230   141.8670     9.3420     2.4400     0.0370
 2096.5000     6.3100     6.0420     7.8490   -77.6470   139.7830     9.3280     2.4480     0.0360
 2097.0000     6.2340     5.9670     7.2770   -77.8720   139.2400     9.3130     2.4570     0.0490
 2097.5000     6.1590     5.8910     7.3040   -78.0960   140.1260     9.2980     2.4620     0.0670
 2098.0000     6.0830     5.8160     7.3450   -78.3130   143.1490     9.2830     2.4280     0.0320
 2098.5000     6.0080     5.7410     6.6970   -78.3200   148.3670     9.2690     2.4360     0.0220
 2099.0000     5.9400     5.6650     6.5970   -77.7500   149.7950     9.2540     2.4470     0.0360
 2099.5000     5.9400     5.5900     7.2430   -77.4030   148.5290     9.2390     2.4480     0.0480
 2100.0000     5.9400     5.5140     7.9080   -77.2510   145.3630     9.2240     2.4650     0.0600
 2100.5000     5.9950     5.4390     7.9080   -77.0970   146.0100     9.2210     2.4850     0.0720
 2101.0000     6.0780     5.4170     7.1440   -76.9440   148.7330     9.2270     2.4760     0.0790
 2101.5000     6.1680     5.7140     7.1440   -76.7930   150.8820     9.2340     2.4670     0.0720
 2102.0000     6.2580     6.0440     8.0820   -76.7020   151.9220     9.2390     2.4650     0.0580
 2102.5000     6.3480     6.3370     8.4350   -76.7680   151.7380     9.2210     2.4490     0.0440
 2103.0000     6.4370     6.3950     8.3750   -76.8310   149.9700     9.1440     2.4340     0.0400
 2103.5000     6.5270     6.2950     8.2050   -76.9140   147.9020     9.0720     2.4430     0.0340
 2104.0000     6.6170     6.1640     8.3030   -77.1340   146.9820     9.0030     2.4370     0.0270
 2104.5000     6.7070     6.0320     8.3580   -77.3560   147.9600     9.0020     2.4240     0.0150
 2105.0000     6.7970     5.9950     7.7340   -77.5770   148.9500     9.0080     2.4320     0.0130
 2105.5000     6.8860     6.1000     7.4130   -77.7980   149.7650     9.0130     2.4500     0.0290
 2106.0000     6.9760     6.2550     7.9630   -78.0290   150.0550     9.0190     2.4610     0.0340
 2106.5000     7.0660     6.4090     8.7710   -77.9130   152.3670     9.0240     2.4460     0.0160
 2107.0000     7.1440     6.5630     9.1660   -77.7030   151.5490     9.0300     2.4350     0.0130
 2107.5000     7.1440     6.6970     9.5760   -77.4890   150.7730     9.0350     2.4420     0.0180
 2108.0000     7.1440     6.6970    10.0520   -77.2740   151.4950     9.0400     2.4380     0.0270
 2108.5000     7.0740     6.5970    10.0520   -77.0640   154.1120     9.0460     2.4330     0.0170
 2109.0000     6.8630     6.3080     9.4990   -76.9080   154.1750     9.0510     2.4410     0.0230
 2109.5000     6.6530     6.0190     9.0120   -77.0890   153.2860     9.0560     2.4480     0.0300
 2110.0000     6.4420     5.6800     8.5920   -77.2650   152.1930     9.0650     2.4550     0.0430
 2110.5000     6.2310     5.2970     8.3070   -77.4390   150.3900     9.0960     2.4600     0.0470
 2111.0000     6.0420     4.9140     7.8260   -77.6140   148.6130     9.1350     2.4440     0.0380
 2111.5000     5.9790     4.5880     6.7510   -77.7890   146.0930     9.1730     2.4240     0.0260
 2112.0000     5.9160     4.6950     5.4670   -77.9630   143.1050     9.2110     2.4340     0.0240
 2112.5000     5.8530     4.8820     6.3680   -78.1380   142.1160     9.2490     2.4430     0.0500
 2113.0000     5.7910     5.0780     7.5730   -78.3130   143.2390     9.2930     2.4270     0.0170
 2113.5000     5.7250     5.1250     8.6230   -78.4870   145.5480     9.3550     2.4410     0.0240
 2114.0000     5.7250     5.0670     8.6720   -78.6630   147.8070     9.4190     2.4460     0.0380
 2114.5000     5.7250     4.9910     8.4460   -78.8390   149.4210     9.4820     2.4310     0.0310
 2115.0000     5.7250     4.9150     8.0350   -78.8440   147.5370     9.5430     2.4460     0.0250
 2115.5000     5.7250     4.8390     7.5510   -78.8160   147.2490     9.6420     2.4630     0.0340
 2116.0000     5.3750     4.7600     7.2290   -78.7870   146.5450     9.7480     2.4630     0.0210
 2116.5000     4.9850     4.5200     6.8340   -78.7570   145.6110     9.8580     2.4640     0.0300
 2117.0000     4.8040     4.2050     6.1360   -78.7280   145.1170     9.9150     2.4670     0.0360
 2117.5000     4.7930     4.0320     5.4170   -78.7010   144.3770     9.9270     2.4960     0.0530
