~VERSION INFORMATION
 VERS.                2.0:   CWLS LOG ASCII STANDARD - VERSION 2.0
 WRAP.                 NO:   ONE LINE PER DEPTH STEP
~WELL INFORMATION
#MNEM.UNIT      DATA TYPE    INFORMATION
#----------   ------------   ------------------------------
 STRT.F           34.0000:   START DEPTH
 STOP.F         2909.0000:   STOP DEPTH
 STEP.F            0.5000:   STEP LENGTH
 NULL.          -999.2500:   NO VALUE
 COMP.   TESORO PETROLEUM:   COMPANY
 WELL. TESORO NPR "A" #3-28:   WELL
 FLD .             TEAPOT:   FIELD
 LOC .      S28 T39N R78W:   LOCATION
 CNTY.            NATRONA:   COUNTY
 STAT.            WYOMING:   STATE
 CTRY. UNITED STATES OF AMERICA:   COUNTRY
 SRVC.              WELEX:   SERVICE COMPANY
 DATE.        22-JUL-1968:   LOGDATE
 API .     49025102620000:   API NUMBER
~CURVE INFORMATION
#MNEM.UNIT       API CODE    CURVE DESCRIPTION
#----------   ------------   ------------------------------
 DEPT.F                  :   
 GRD .GAPI   45 310 01 00:   GAMMA RAY FROM DENSITY LOG
 SPR .MV     05 010 01 00:   SPONTANEOUS POTENTIAL FROM RES.
 ASN .OHMM   05 041 16 00:   AMPLIFIED SHORT NORMAL 16"
 ILD .OHMM   05 120 46 00:   INDUCTION LOG DEEP
~PARAMETER INFORMATION
#MNEM.UNIT          VALUE    DESCRIPTION
#----------   ------------   ------------------------------
 EKB .F         5050.0000:   Kelly bushing
 EGL .F         5039.0000:   Ground level
 EDF .F            0.0000:   Drilling floor
 EPD .F         5039.0000:   Permanent datum
 TD  .F         2906.0000:   Total depth
 CLNT.            A2DTECH:   Client Code
 DATE.       22-JULY-1968:   Date Logged [DD-MMM-YYYY]
 DD  .F              2906:   Depth driller
 DL  .F              2906:   Depth logger
 BLI .F              2901:   Bottom log interval
 TLI .F               356:   Top log interval
 CS1 .              10.75:   Casing size
 CBD1.      10.75" @ 356':   Casing driller 1
 CBL1.IN              356:   Casing logger 1
 BS1 .IN                9:   Bit size
 DFT .     WATER BASE MUD:   Type fluid in hole
 DFD .                9.6:   Density
 DFV .                 60:   Viscosity
 DFPH.                9.0:   pH
 DFL .                  6:   Fluid loss
 MSS .               CTRC:   Source of sample
 RMS .OHMM            2.1:   Rm
 MST .F                74:   Rm Meas. temp.
 RMF .OHMM            1.6:   Rmf
 MFST.F                71:   Rmf Meas. temp.
 MFSS.               MEAS:   Source Rmf.
 RMC .OHMM            3.0:   Rmc
 MCST.F                66:   Rmc Meas. temp.
 RMB .OHMM            1.3:   Rm. at BHT
 BHT .F               120:   BHT.
 MRT .F               120:   Maximum recorded temp.
 LUN .               6869:   Logging unit number
 ORIG.         2.5" PRINT:   Origin of data
 UWI .     49025102620000:   Unique Well ID
 DICO. A2D TECHNOLOGIES, INC.:   Digitizing Company
 LUL .          NEWCASTLE:   Logging unit location
~OTHER INFORMATION
~A   DEPT      GRD        SPR         ASN         ILD 
# ...
 1713.0000    81.7281   -30.9853     9.9193     8.0526
 1713.5000    78.3462   -30.9623     9.8580     8.3173
 1714.0000    73.8160   -30.9394    10.0091     8.5426
 1714.5000    70.3987   -30.9165     9.9318     8.7087
 1715.0000    70.0813   -30.8935     9.8556     8.6961
 1715.5000    71.5044   -30.8706     9.8547     8.4682
 1716.0000    74.6084   -30.8477     9.8540     8.4666
 1716.5000    77.2176   -30.8247     9.8533     8.4651
 1717.0000    78.3724   -30.8018     9.8525     8.4636
 1717.5000    78.0000   -30.7789     9.8518     8.6199
 1718.0000    77.4419   -30.7559    10.0030     8.7760
 1718.5000    76.6708   -30.7330    10.1543     8.9322
 1719.0000    75.3788   -30.7101    10.3278     9.0884
 1719.5000    73.5015   -30.6871    10.9334     9.1083
 1720.0000    68.9911   -30.6642    11.2766     9.2431
 1720.5000    64.1045   -30.6413    11.6711     9.0836
 1721.0000    63.9977   -30.6183    11.2670     8.9243
 1721.5000    67.1212   -30.5954    11.0023     8.7650
 1722.0000    72.7674   -30.5725    10.5360     8.6057
 1722.5000    75.4293   -30.5487    10.2216     8.5226
 1723.0000    76.5718   -31.4922    10.0574     8.4448
 1723.5000    77.3505   -32.1223     9.9643     8.4429
 1724.0000    78.4251   -32.1254     9.8408     8.4414
 1724.5000    79.8662   -31.7571     9.7772     8.2822
 1725.0000    82.1940   -31.5043     9.7492     8.2806
 1725.5000    84.2270   -31.1939     9.8163     8.1214
 1726.0000    84.2884   -31.0783     9.8390     8.1198
 1726.5000    83.3243   -30.7477     9.8794     8.1183
 1727.0000    82.1541   -30.7367     9.9109     7.9590
 1727.5000    79.9568   -31.0737     9.9131     7.9574
 1728.0000    78.4552   -31.5241     9.8497     7.9558
 1728.5000    78.8356   -31.8406     9.8046     7.9543
 1729.0000    79.5916   -32.4706     9.7430     7.9527
 1729.5000    79.5952   -32.7871     9.6815     7.9511
 1730.0000    77.3418   -32.7901     9.6200     7.9495
 1730.5000    75.8408   -32.4797     9.6193     7.8644
 1731.0000    77.3692   -31.8558     9.6185     7.7883
 1731.5000    78.4815   -31.5453     9.6786     7.7868
 1732.0000    79.6791   -31.4984     9.6458     7.7853
 1732.5000    81.0095   -31.1676     9.5823     7.7837
 1733.0000    81.8778   -30.9275     9.4885     7.6245
 1733.5000    80.3768   -30.9310     9.3872     7.6230
 1734.0000    81.8208   -31.0658     9.2610     7.6214
 1734.5000    83.5521   -31.4027     9.1044     7.6141
 1735.0000    85.3039   -32.0532     8.9782     7.4605
 1735.5000    86.7882   -32.5116     8.8367     7.3013
 1736.0000    86.0395   -32.5146     8.7125     7.2997
 1736.5000    86.4193   -32.5176     8.5766     7.2981
 1737.0000    87.5515   -31.8937     8.4847     7.2408
 1737.5000    89.0599   -31.5831     8.3624     7.1372
 1738.0000    92.4491   -30.9593     8.3616     7.0599
 1738.5000    96.2145   -30.9624     8.3609     6.9764
 1739.0000    93.7567   -30.9920     8.3602     6.8167
 1739.5000    91.1383   -31.0462     8.3589     6.8152
 1740.0000    84.5393   -31.1005     7.9838     6.6559
 1740.5000    81.5583   -31.1547     7.6391     6.6544
 1741.0000    81.0910   -31.2090     7.3669     6.4952
 1741.5000    80.3197   -31.2632     7.1094     6.1782
 1742.0000    79.3626   -31.9251     6.8675     6.0189
 1742.5000    77.3854   -32.5551     6.6366     5.6940
 1743.0000    78.7536   -32.5581     6.3273     5.3669
 1743.5000    80.9091   -32.2477     5.9963     4.8822
 1744.0000    83.8427   -31.9372     5.7645     4.3975
 1744.5000    82.3417   -31.6268     5.6769     4.1183
 1745.0000    81.2168   -31.5726     6.1321     4.1167
 1745.5000    80.0919   -31.2419     6.3745     4.2508
 1746.0000    79.3432   -30.6954     6.4346     4.6646
 1746.5000    80.0992   -30.5805     6.4946     4.9884
 1747.0000    80.4790   -30.5276     6.6155     5.3719
 1747.5000    80.8715   -31.1781     7.0134     6.0013
 1748.0000    81.2740   -31.8286     7.4614     6.7884
 1748.5000    81.0119   -32.2795     8.2373     7.5756
 1749.0000    77.3794   -32.2826     8.7411     7.7319
 1749.5000    69.5191   -32.2856     8.9522     7.5725
 1750.0000    65.4539   -32.2887     8.8399     7.4132
 1750.5000    66.8826   -32.2917     8.5073     7.2339
 1751.0000    68.1274   -31.9811     8.3863     6.7593
 1751.5000    69.2433   -31.6708     8.4946     6.4322
 1752.0000    70.7366   -31.6447     8.4924     6.3028
 1752.5000    73.7496   -31.3634     8.3091     6.3012
 1753.0000    73.0008   -31.3668     8.1260     6.3596
 1753.5000    73.0044   -31.3699     8.0949     6.4558
 1754.0000    74.6029   -31.3730     8.1550     6.6120
 1754.5000    76.5930   -31.0627     8.6709     6.7003
 1755.0000    78.3825   -30.9143     9.0045     6.9240
 1755.5000    78.2852   -30.7555     9.1558     7.0804
 1756.0000    78.6658   -30.7592     9.1854     7.2366
 1756.5000    79.8333   -30.7622     9.1894     7.3926
 1757.0000    80.9311   -30.7653     9.2210     7.3911
 1757.5000    82.4394   -31.0818     9.2525     7.3896
 1758.0000    82.0668   -31.0848     9.2737     7.3880
 1758.5000    81.6941   -31.4013     9.2728     7.3864
 1759.0000    82.0840   -31.4044     9.3024     7.3849
 1759.5000    83.7030   -31.7210     9.3180     7.2255
 1760.0000    85.6931   -31.7241     9.3313     7.2240
 1760.5000    86.2232   -31.4135     9.3000     7.2224
 1761.0000    86.3725   -31.0208     9.1777     7.0631
 1761.5000    88.0666   -30.6902     8.9642     6.9038
 1762.0000    92.4183   -30.4822     8.6595     6.8202
 1762.5000    93.7624   -30.4859     8.4460     6.7429
 1763.0000    94.1421   -30.6530     8.3845     6.5833
 1763.5000    95.2742   -31.4332     8.4154     6.5818
 1764.0000    92.6446   -31.7497     8.4438     6.4225
 1764.5000    89.2027   -32.0663     8.4327     6.2633
 1765.0000    87.3355   -32.0693     8.2549     6.1040
 1765.5000    87.4745   -31.7587     7.9191     5.9448
 1766.0000    89.3644   -31.4484     7.7198     5.9390
 1766.5000    92.6626   -30.8245     7.5199     5.7698
 1767.0000    89.2765   -30.5140     7.2710     5.4427
 1767.5000    90.4145   -30.5173     7.0205     5.3075
 1768.0000    92.2990   -30.5204     6.9552     5.3060
 1768.5000    95.6882   -30.5235     7.4338     5.6740
 1769.0000    99.4535   -30.6218     7.5546     5.9979
 1769.5000   102.0903   -30.9588     7.6451     6.3218
 1770.0000   105.6046   -31.4733     9.0425     6.4038
 1770.5000   109.6666   -31.7899     9.2001     6.2442
 1771.0000   116.1258   -32.2832     8.7371     5.9272
 1771.5000   120.9289   -32.7372     8.2396     5.7679
 1772.0000   122.4226   -32.7403     7.8930     5.4509
 1772.5000   122.2257   -32.5766     7.3363     5.2917
 1773.0000   120.9261   -32.1266     6.9712     5.1324
 1773.5000   120.8239   -31.6766     7.2166     5.2886
 1774.0000   123.5665   -31.2266     7.9114     5.2998
 1774.5000   126.2033   -30.7766     8.8794     5.8351
 1775.0000   128.4640   -29.9112    10.5243     7.3521
 1775.5000   129.2201   -29.3133    12.0433     8.8691
 1776.0000   129.1537   -29.4504    13.1064    10.2166
 1776.5000   128.7461   -30.4346    14.0210    11.1262
 1777.0000   127.9623   -31.4190    14.4858    12.0347
 1777.5000   126.2507   -31.9619    14.6695    12.4501
 1778.0000   127.6586   -32.4639    15.1114    12.7740
 1778.5000   133.3812   -32.4671    15.4664    12.8439
 1779.0000   142.0368   -32.1573    15.8375    12.9998
 1779.5000   146.1783   -31.8464    15.4713    13.1560
 1780.0000   142.0440   -30.9095    15.4508    13.3123
 1780.5000   137.8486   -30.5991    15.7636    13.4685
 1781.0000   131.0668   -30.2886    16.4421    13.7823
 1781.5000   123.6293   -30.6051    17.0493    14.0962
 1782.0000   116.3094   -30.6082    17.5045    14.4101
 1782.5000   110.8913   -30.9431    17.6557    14.4085
 1783.0000   105.2010   -31.5549    17.1990    14.3785
 1783.5000   107.6527   -31.8715    16.5904    14.0515
 1784.0000   108.5943   -31.8746    16.2857    13.6761
 1784.5000   107.8910   -31.8778    15.8234    13.3391
 1785.0000   104.0122   -31.8809    15.6611    12.9127
 1785.5000    95.8163   -31.7435    15.3716    12.8218
