~VERSION INFORMATION
 VERS.                2.0:   CWLS LOG ASCII STANDARD - VERSION 2.0
 WRAP.                 NO:   ONE LINE PER DEPTH STEP
~WELL INFORMATION
#MNEM.UNIT      DATA TYPE    INFORMATION
#----------   ------------   ------------------------------
 STRT.F           50.0000:   START DEPTH
 STOP.F         2832.5000:   STOP DEPTH
 STEP.F            0.5000:   STEP LENGTH
 NULL.          -999.2500:   NO VALUE
 COMP.    FENIX & SCISSON:   COMPANY
 WELL. FENIX NPR 3 "AX" #87-20:   WELL
 FLD .              N P R:   FIELD
 LOC .      S20 T39N R78W:   LOCATION
 CNTY.            NATRONA:   COUNTY
 STAT.            WYOMING:   STATE
 CTRY. UNITED STATES OF AMERICA:   COUNTRY
 SRVC.           BIRDWELL:   SERVICE COMPANY
 DATE.        01-AUG-1978:   LOGDATE
 API .     49025106780000:   API NUMBER
~CURVE INFORMATION
#MNEM.UNIT       API CODE    CURVE DESCRIPTION
#----------   ------------   ------------------------------
 DEPT.F                  :   
 CALD.IN     45 280 60 00:   CALIPER FROM DENSITY LOG
 CORR.G/C3   45 356 01 00:   DENSITY CORRECTION
 GRD .GAPI   45 310 01 00:   GAMMA RAY FROM DENSITY LOG
 RHOB.G/C3   45 350 01 00:   BULK DENSITY
 SPR .MV     05 010 01 00:   SPONTANEOUS POTENTIAL
 ILD .OHMM   05 120 46 00:   DEEP INDUCTION RESISTIVITY
 SN  .OHMM   05 040 00 00:   SHORT NORMAL
~PARAMETER INFORMATION
#MNEM.UNIT          VALUE    DESCRIPTION
#----------   ------------   ------------------------------
 EKB .F         5007.0000:   Kelly bushing
 EGL .F         4997.0000:   Ground level
 EDF .F            0.0000:   Drilling floor
 EPD .F            0.0000:   Permanent datum
 TD  .F         2832.0000:   Total depth
 DATE.        01-AUG-1978:   Date logged
 CLNT.            A2DTECH:   Client Code
 SL  . 940' FSL & 200' FEL:   Surface Location
 PD  .                 GL:   Permanent Datum
 DD  .F              2825:   Depth driller
 DL  .F              2832:   Depth logger
 BLI .F              2826:   Bottom log interval
 CS1 .IN            8.625:   Casing size
 CBD1.      8.625" @ 140':   Casing driller 1
 CBL1.F               240:   Casing logger 1
 BS1 .IN            7.875:   Bit size
 DFT .            KCL/GEL:   Type fluid in hole
 DFD .                  9:   Density
 DFV .                 34:   Viscosity
 DFL .                  8:   Fluid loss
 MSS .           FLOWLINE:   Source of sample
 RMS .OHMM            1.5:   Rm
 MST .F                70:   Rm Meas. temp.
 RMF .OHMM            .70:   Rmf
 MFST.F                72:   Rmf Meas. temp.
 RMC .OHMM            2.2:   Rmc
 MCST.F                75:   Rmc Meas. temp.
 MFSS.               MEAS:   Source Rmf.
 TCS .HRS               6:   Time Circ. stopped
 LUN .               3007:   Logging unit number
 LUL .               CASP:   Logging unit location
 ENGI.            POINTER:   Recorded By
 WITN.              AMEND:   Witnessed by
 ORIG.           5" PRINT:   Origin of data
 UWI .     49025106780000:   Unique Well ID
 DICO. A2D TECHNOLOGIES, INC.:   Digitizing Company
 DAPD.                 10:   Feet Above Permanent Datum
 BSD1.F              2825:   Depth drilled with bit1
 LMF .                 KB:   Log Measured From
 DMF .                 KB:   Drilling Measured From
 TLI .F               140:   Top log interval
~OTHER INFORMATION
~A   DEPT     CALD       CORR         GRD      RHOB        SPR        ILD         SN   
# ...
 2416.0000     7.6410     0.2800    79.8180     2.5510   -24.0800    17.0090    18.0860
 2416.5000     7.4710     0.2440    80.0370     2.5560   -24.2930    17.0700    18.3020
 2417.0000     7.4680     0.2210    80.1890     2.4920   -24.3870    17.1200    18.5890
 2417.5000     7.4640     0.2220    85.0680     2.4270   -24.4830    17.3900    18.8760
 2418.0000     7.4610     0.2410    90.2760     2.4220   -24.5780    17.7370    19.1060
 2418.5000     7.4580     0.2400    85.5480     2.4590   -24.6570    18.0840    19.1920
 2419.0000     7.4550     0.2260    83.4590     2.4710   -24.7000    18.4200    19.2980
 2419.5000     7.4690     0.2090    78.5550     2.4720   -24.7450    18.6430    19.4040
 2420.0000     7.5540     0.2050    74.3960     2.4510   -24.7910    18.8590    19.5100
 2420.5000     7.6370     0.2040    73.7160     2.4390   -24.8390    19.4590    19.6160
 2421.0000     7.8200     0.2050    73.4190     2.4270   -24.8730    19.5190    19.7220
 2421.5000     7.7600     0.2050    68.8900     2.4240   -24.9600    19.5760    19.8090
 2422.0000     7.6900     0.2130    69.8570     2.4250   -25.0500    19.6370    19.7220
 2422.5000     7.6510     0.2330    71.1720     2.4330   -24.9050    19.2980    19.6360
 2423.0000     7.6740     0.2520    71.2690     2.4580   -24.7050    18.9290    19.5490
 2423.5000     7.6990     0.2610    70.7940     2.5330   -24.5000    18.5590    19.4590
 2424.0000     7.6980     0.2400    68.2610     2.6000   -24.5350    18.2420    19.1280
 2424.5000     7.5030     0.2030    65.8590     2.6050   -24.6700    18.1820    18.7830
 2425.0000     7.6560     0.1480    66.3680     2.5510   -24.8070    18.1210    18.4380
 2425.5000     7.6740     0.1610    69.2570     2.4850   -24.9420    17.7500    18.0930
 2426.0000     7.5560     0.1800    69.3650     2.4520   -24.9920    16.9640    17.7580
 2426.5000     7.6890     0.1820    71.2290     2.4740   -24.6940    16.9830    17.7940
 2427.0000     7.8090     0.1780    74.2780     2.4890   -24.7590    17.0140    17.8770
 2427.5000     7.8330     0.1830    78.1220     2.4730   -24.8840    17.0440    17.9600
 2428.0000     7.8550     0.1900    78.4830     2.4480   -25.0140    17.0750    18.0430
 2428.5000     7.8660     0.1920    73.2200     2.4450   -25.0350    17.1050    18.0860
 2429.0000     7.7970     0.1920    72.6260     2.4430   -24.9810    17.3830    18.1990
 2429.5000     7.7250     0.1920    72.6400     2.4380   -24.9280    17.9050    18.4240
 2430.0000     7.6690     0.1920    72.2960     2.4310   -24.8750    18.2520    18.6490
 2430.5000     7.7040     0.1920    71.1910     2.4190   -24.8520    18.2520    18.8740
 2431.0000     7.8780     0.2010    70.5690     2.4190   -24.8520    18.2520    19.1060
 2431.5000     8.0110     0.2020    70.5620     2.4360   -24.8500    18.2200    18.9660
 2432.0000     8.0590     0.2110    71.4580     2.4570   -24.8510    18.1360    18.7220
 2432.5000     8.0860     0.2270    73.7950     2.4610   -24.8820    18.0530    18.4780
 2433.0000     8.0830     0.2430    76.0830     2.4980   -24.0440    17.9690    18.2340
 2433.5000     8.0820     0.2380    77.9250     2.5930   -23.4740    17.7360    17.9890
 2434.0000     7.7110     0.1820    78.6140     2.5720   -23.4690    17.3090    17.7580
 2434.5000     7.7120     0.1320    79.3280     2.5220   -23.4650    16.8820    17.4400
 2435.0000     7.7630     0.1280    79.7250     2.4730   -23.4200    16.3980    17.0680
 2435.5000     8.0570     0.1490    80.8670     2.4250   -23.3540    15.4630    16.6960
 2436.0000     8.0560     0.1750    84.9700     2.4260   -23.2880    14.2580    16.5050
 2436.5000     8.0330     0.1920    87.4590     2.4550   -23.1410    14.3050    16.5050
 2437.0000     8.0090     0.1910    85.4120     2.5040   -22.9630    14.3890    16.5050
 2437.5000     7.9850     0.1830    83.4270     2.5280   -22.7880    14.2580    16.5050
 2438.0000     7.9650     0.1780    81.0970     2.5070   -22.7180    14.4390    16.6320
 2438.5000     8.0240     0.1760    77.5410     2.5020   -23.0150    14.5560    16.9850
 2439.0000     8.0140     0.1700    76.8420     2.5100   -23.3120    14.6730    17.3370
 2439.5000     8.0000     0.1600    76.5620     2.5050   -23.6120    14.7890    17.7580
 2440.0000     7.9850     0.1580    76.3100     2.4950   -23.5920    15.5210    17.7300
 2440.5000     8.0540     0.1590    75.9980     2.4950   -23.5060    16.2350    17.6610
 2441.0000     8.1010     0.1590    72.4680     2.4990   -23.4180    16.3550    17.5960
 2441.5000     8.0150     0.1600    70.8870     2.5030   -23.3310    15.6050    16.3510
 2442.0000     7.9280     0.1600    74.0080     2.5040   -23.2660    14.7890    15.1610
 2442.5000     7.9120     0.1590    76.9010     2.4870   -23.2680    13.1050    13.9720
 2443.0000     7.9560     0.1650    76.8890     2.4720   -23.2680    11.9170    13.1610
 2443.5000     7.9860     0.1910    76.8830     2.4450   -23.2210    11.1140    12.8930
 2444.0000     8.0220     0.2240    76.8870     2.4310   -22.8380    10.3100    11.9660
 2444.5000     8.0450     0.2630    81.0920     2.4610   -22.4500     9.5660    10.9580
 2445.0000     8.0420     0.2650    90.7220     2.5300   -22.2790     9.1750     9.9490
 2445.5000     8.0390     0.2460   100.4490     2.5640   -22.2770     8.7840     9.4400
 2446.0000     8.0360     0.2300   105.8650     2.5540   -22.2770     8.3940     9.1190
 2446.5000     8.0340     0.2280   108.5870     2.5420   -22.2770     8.2940     8.8610
 2447.0000     8.0310     0.2260   111.5960     2.5440   -22.2770     8.2710     8.8760
 2447.5000     8.0280     0.2140   113.5090     2.5690   -22.2770     8.2360     8.8890
 2448.0000     8.0260     0.1860   112.1780     2.5690   -22.2770     8.3280     8.9010
 2448.5000     8.0130     0.1870   114.2780     2.5380   -22.3020     8.3970     8.9140
 2449.0000     7.9940     0.1920   114.8260     2.5250   -22.3580     8.4660     8.9260
 2449.5000     7.9750     0.2090   117.2920     2.5250   -22.4150     8.5350     8.9430
 2450.0000     7.9550     0.2230   118.3390     2.5490   -22.4730     8.5430     8.9390
 2450.5000     7.9540     0.2210   111.1080     2.5690   -22.4760     8.5430     8.9230
 2451.0000     8.1180     0.2170   111.0160     2.5780   -22.4750     8.5430     8.9080
 2451.5000     8.2150     0.2010   111.7600     2.5750   -22.4750     8.5430     8.8930
 2452.0000     8.2010     0.1980   116.9520     2.5560   -22.4750     8.5430     8.8770
 2452.5000     8.1600     0.2050   120.8140     2.5360   -22.4750     8.5430     8.8620
 2453.0000     8.1440     0.2190   121.5300     2.5330   -22.4750     8.5430     8.8470
 2453.5000     8.1420     0.2230   117.6190     2.5500   -22.4750     8.5430     8.8310
 2454.0000     8.2310     0.2100   103.7260     2.5680   -22.4750     8.5430     8.8160
 2454.5000     8.1750     0.2030   102.9460     2.5490   -22.4750     8.5410     8.8010
 2455.0000     8.0740     0.2030   103.0280     2.5300   -22.4750     8.5450     8.7860
 2455.5000     7.9720     0.2020   103.9910     2.5280   -22.4750     8.3140     8.6950
 2456.0000     8.1340     0.2020   104.7390     2.5290   -22.4750     8.1340     8.5700
 2456.5000     8.1150     0.2070   101.8190     2.5280   -22.4750     8.0130     8.4450
 2457.0000     8.0830     0.2140    98.6460     2.5270   -22.4750     8.0290     8.3880
 2457.5000     8.0510     0.2050    98.4680     2.5800   -22.4750     8.0420     8.4010
 2458.0000     8.0180     0.1810   103.2230     2.5570   -22.4750     8.0560     8.4100
 2458.5000     7.9780     0.1730   104.9220     2.5310   -22.4750     8.0700     8.4200
 2459.0000     7.9410     0.1990   103.1950     2.5230   -22.4750     8.0830     8.4290
 2459.5000     7.8130     0.2110    99.0650     2.5500   -22.4750     8.0970     8.4380
 2460.0000     7.7330     0.1990    97.0850     2.6030   -22.4750     8.1110     8.4480
 2460.5000     7.9370     0.1480   103.3380     2.6290   -22.4750     8.1240     8.4570
 2461.0000     7.8280     0.1120   103.5930     2.5990   -22.4750     8.1380     8.4650
