~VERSION INFORMATION
 VERS.                2.0:   CWLS LOG ASCII STANDARD - VERSION 2.0
 WRAP.                 NO:   ONE LINE PER DEPTH STEP
~WELL INFORMATION
#MNEM.UNIT      DATA TYPE    INFORMATION
#----------   ------------   ------------------------------
 STRT.F           14.0000:   START DEPTH
 STOP.F         3246.0000:   STOP DEPTH
 STEP.F            0.5000:   STEP LENGTH
 NULL.          -999.2500:   NO VALUE
 COMP.   LAWRENCE ALLISON:   COMPANY
 WELL. LAWRENCE "34X" #11:   WELL
 FLD .             N.P.R.:   FIELD
 LOC .      S34 T38N R78W:   LOCATION
 CNTY.            NATRONA:   COUNTY
 STAT.            WYOMING:   STATE
 CTRY. UNITED STATES OF AMERICA:   COUNTRY
 SRVC.      DRESSER ATLAS:   SERVICE COMPANY
 DATE.        02-MAY-1985:   LOGDATE
 API .     49025110530001:   API NUMBER
~CURVE INFORMATION
#MNEM.UNIT       API CODE    CURVE DESCRIPTION
#----------   ------------   ------------------------------
 DEPT.F                  :   
 CNC .DEC    42 890 03 00:   NEUTRON POROSITY
 CALD.IN     45 280 60 00:   CALIPER FROM DENSITY LOG
 CORR.G/C3   45 356 01 00:   DENSITY CORRECTION
 RHOB.G/C3   45 350 01 00:   BULK DENSITY
 GRR .GAPI   07 310 01 00:   GAMMA RAY FROM RESISTIVITY
 SPR .MV     07 010 01 00:   SPONTANEOUS POTENTIAL FROM RES.
 TENR.LBS    06 635 01 00:   TENSION FROM RESISTIVITY
 RILD.OHMM   07 120 46 00:   DEEP INDUCTION RESISTIVITY
 RILM.OHMM   07 120 44 00:   INDUCTION LOG MEDIUM RESISTIVITY
 RFOC.OHMM   07 220 04 00:   RESISTIVITY FOCUSED LOG RES.
~PARAMETER INFORMATION
#MNEM.UNIT          VALUE    DESCRIPTION
#----------   ------------   ------------------------------
 EKB .F         5099.0000:   Kelly bushing
 TD  .F         3239.0000:   Total depth
 CLNT.            A2DTECH:   Client Code
 PD  .                 GL:   Permanent Datum
 EPD .F              5087:   Elevation Permanent Datum
 LMF .                 KB:   Log Measured From
 DMF .                 KB:   Drilling Measured From
 DAPD.F                12:   Feet Above Permanent Datum
 DATE.        02-MAY-1985:   Date Logged [DD-MMM-YYYY]
 DD  .F              3239:   Depth driller
 DL  .F              3242:   Depth logger
 BLI .F              3294:   Bottom log interval
 CS1 .IN            8.625:   Casing size
 CBD1.      8.625" @ 487':   Casing driller 1
 CBL1.F               487:   Casing logger 1
 BS1 .IN            7.875:   Bit size
 BSD1.F              3239:   Depth drilled with bit1
 DFT .            KCL GEL:   Type fluid in hole
 DFD .                9.1:   Density
 DFV .                 35:   Viscosity
 DFPH.                  8:   pH
 DFL .                9.8:   Fluid loss
 MSS .           FLOWLINE:   Source of sample
 RMS .OHMM           0.27:   Rm
 MST .F                68:   Rm Meas. temp.
 RMF .OHMM           0.20:   Rmf
 MFST.F                68:   Rmf Meas. temp.
 MFSS.               MEAS:   Source Rmf.
 RMC .OHMM           0.34:   Rmc
 MCST.F                68:   Rmc Meas. temp.
 MCSS.               CALC:   Source Rmc.
 RMB .OHMM           0.15:   Rm. at BHT
 BHT .F               126:   BHT.
 TCS .HRS               3:   Time Circ. stopped
 MRT .F               126:   Maximum recorded temp.
 LUN .               6274:   Logging unit number
 LUL .               GLTE:   Logging unit location
 ENGI.       MACK/EDWARDS:   Recorded By
 WITN.             STRONG:   Witnessed by
 ORIG.           5" PRINT:   Origin of data
 UWI .     49025110260000:   Unique Well ID
 DICO. A2D TECHNOLOGIES, INC.:   Digitizing Company
~OTHER INFORMATION
~A   DEPT      CNC       CALD       CORR       RHOB        GRR        SPR       TENR       RILD       RILM       RFOC   
# ...
 1387.5000  -999.2500  -999.2500  -999.2500  -999.2500    74.3010   -72.3027   -83.6312     6.3146     6.1718     6.2373
 1388.0000  -999.2500  -999.2500  -999.2500  -999.2500    75.0051   -72.2795   -85.0984     6.3219     6.1808     6.2475
 1388.5000  -999.2500  -999.2500  -999.2500  -999.2500    76.1581   -72.2563   -86.5653     6.3285     6.1454     6.2557
 1389.0000  -999.2500  -999.2500  -999.2500  -999.2500    75.5165   -72.2331   -72.9039     6.3360     6.1544     6.2639
 1389.5000  -999.2500  -999.2500  -999.2500  -999.2500    73.7622   -72.3595   -74.7376     6.2997     6.1617     6.2721
 1390.0000  -999.2500  -999.2500  -999.2500  -999.2500    73.3374   -72.5101   -76.2045     6.3070     6.1679     6.2803
 1390.5000  -999.2500  -999.2500  -999.2500  -999.2500    75.3947   -72.3073   -85.2360     6.3159     6.1761     6.2450
 1391.0000  -999.2500  -999.2500  -999.2500  -999.2500    77.4441   -72.2840   -86.7028     6.3231     6.1834     6.2102
 1391.5000  -999.2500  -999.2500  -999.2500  -999.2500    77.6999   -72.1111   -88.1700     6.3304     6.1462     6.1774
 1392.0000  -999.2500  -999.2500  -999.2500  -999.2500    77.2829   -72.0879   -89.6369     6.2938     6.1552     6.1429
 1392.5000  -999.2500  -999.2500  -999.2500  -999.2500    75.9530   -72.2144   -83.5398     6.3010     6.0328     6.0226
 1393.0000  -999.2500  -999.2500  -999.2500  -999.2500    74.4390   -72.4905   -77.4424     6.1783     5.6405     5.8677
 1393.5000  -999.2500  -999.2500  -999.2500  -999.2500    73.1173   -72.6170   -79.2761     6.1001     5.2696     5.7528
 1394.0000  -999.2500  -999.2500  -999.2500  -999.2500    74.0536   -72.9172   -65.6147     5.9315     5.0612     5.6049
 1394.5000  -999.2500  -999.2500  -999.2500  -999.2500    74.9819   -73.3133   -51.5861     5.7060     4.9630     5.4970
 1395.0000  -999.2500  -999.2500  -999.2500  -999.2500    74.5650   -73.2900   -53.4198     5.6339     5.0731     5.4285
 1395.5000  -999.2500  -999.2500  -999.2500  -999.2500    73.9239   -73.2668   -62.4513     5.5610     5.2216     5.4374
 1396.0000  -999.2500  -999.2500  -999.2500  -999.2500    73.2825   -73.0939   -63.9182     5.6861     5.4118     5.5973
 1396.5000  -999.2500  -999.2500  -999.2500  -999.2500    72.8658   -72.9209   -65.4312     5.8527     5.6170     5.8422
 1397.0000  -999.2500  -999.2500  -999.2500  -999.2500    74.2505   -72.5983   -67.2191     6.0242     5.8959     6.0979
 1397.5000  -999.2500  -999.2500  -999.2500  -999.2500    74.5062   -72.2755   -68.6860     6.2008     6.0685     6.2772
 1398.0000  -999.2500  -999.2500  -999.2500  -999.2500    73.4166   -71.7775   -70.1532     6.2513     6.1603     6.3291
 1398.5000  -999.2500  -999.2500  -999.2500  -999.2500    73.2160   -71.3252   -64.0557     6.3035     6.2535     6.4703
 1399.0000  -999.2500  -999.2500  -999.2500  -999.2500    74.1523   -71.1523   -65.5229     6.2653     6.3043     6.4341
 1399.5000  -999.2500  -999.2500  -999.2500  -999.2500    75.3048   -71.2814   -74.5541     6.2309     6.3117     6.4429
 1400.0000  -999.2500  -999.2500  -999.2500  -999.2500    75.3363   -71.6068   -68.4570     6.2380     6.2755     6.4085
 1400.5000  -999.2500  -999.2500  -999.2500  -999.2500    74.9194   -71.6872   -69.9697     6.2448     6.1965     6.4169
 1401.0000  -999.2500  -999.2500  -999.2500  -999.2500    73.8377   -71.8084   -71.4993     6.2958     6.1610     6.3789
 1401.5000  -999.2500  -999.2500  -999.2500  -999.2500    73.1965   -71.7783   -73.0673     6.3911     6.1701     6.4331
 1402.0000  -999.2500  -999.2500  -999.2500  -999.2500    71.6560   -71.6108   -74.6354     6.5294     6.1773     6.4422
 1402.5000  -999.2500  -999.2500  -999.2500  -999.2500    70.7819   -71.5827   -76.2034     6.5812     6.2275     6.4506
 1403.0000  -999.2500  -999.2500  -999.2500  -999.2500    71.9409   -72.0041   -77.9497     6.5405     6.2705     6.4592
 1403.5000  -999.2500  -999.2500  -999.2500  -999.2500    71.7470   -71.9733   -79.4484     6.5940     6.3175     6.5598
 1404.0000  -999.2500  -999.2500  -999.2500  -999.2500    71.3289   -72.1046   -80.9475     6.6049     6.3430     6.6140
 1404.5000  -999.2500  -999.2500  -999.2500  -999.2500    71.1345   -72.2236   -82.4461     6.6545     6.4843     6.7615
 1405.0000  -999.2500  -999.2500  -999.2500  -999.2500    71.8386   -72.1990   -83.9637     6.7540     6.6288     6.8647
 1405.5000  -999.2500  -999.2500  -999.2500  -999.2500    72.7727   -72.1744   -85.8187     6.8076     6.7297     6.9695
 1406.0000  -999.2500  -999.2500  -999.2500  -999.2500    74.5967   -72.1497   -87.3174     6.8611     6.7850     7.0759
 1406.5000  -999.2500  -999.2500  -999.2500  -999.2500    75.0679   -71.9745   -88.8160     7.0127     6.7939     7.1839
 1407.0000  -999.2500  -999.2500  -999.2500  -999.2500    73.0879   -71.7951   -90.3151     7.0684     6.8045     7.2254
 1407.5000  -999.2500  -999.2500  -999.2500  -999.2500    71.9895   -71.4711   -83.8750     7.2267     6.8131     7.2502
 1408.0000  -999.2500  -999.2500  -999.2500  -999.2500    73.3727   -71.2968   -85.7485     7.2832     6.8218     7.3098
 1408.5000  -999.2500  -999.2500  -999.2500  -999.2500    74.7489   -70.9728   -72.1186     7.2903     6.8305     7.3191
 1409.0000  -999.2500  -999.2500  -999.2500  -999.2500    74.7862   -70.7985   -66.0533     7.2974     6.8392     7.2779
 1409.5000  -999.2500  -999.2500  -999.2500  -999.2500    74.5847   -71.3727   -67.9269     7.3045     6.8479     7.2369
 1410.0000  -999.2500  -999.2500  -999.2500  -999.2500    74.8468   -71.7972   -69.4255     7.1921     6.8093     7.1961
 1410.5000  -999.2500  -999.2500  -999.2500  -999.2500    76.2225   -72.0720   -70.9246     7.1182     6.8201     7.0595
 1411.0000  -999.2500  -999.2500  -999.2500  -999.2500    78.4949   -72.0413   -79.9876     7.0272     6.7349     7.0175
 1411.5000  -999.2500  -999.2500  -999.2500  -999.2500    78.5417   -72.0167   -81.4866     6.9854     6.6949     6.8842
 1412.0000  -999.2500  -999.2500  -999.2500  -999.2500    75.3722   -71.9921   -82.9853     6.9939     6.6572     6.8930
 1412.5000  -999.2500  -999.2500  -999.2500  -999.2500    72.0912   -71.9675   -76.9200     7.0007     6.6678     6.9019
 1413.0000  -999.2500  -999.2500  -999.2500  -999.2500    67.8614   -71.7933   -78.7936     7.0075     6.6762     6.9127
 1413.5000  -999.2500  -999.2500  -999.2500  -999.2500    66.7631   -71.6846   -80.2922     7.0143     6.6848     6.9215
 1414.0000  -999.2500  -999.2500  -999.2500  -999.2500    68.8189   -71.5882   -81.7913     7.0697     6.7475     6.9785
 1414.5000  -999.2500  -999.2500  -999.2500  -999.2500    71.9883   -71.4139   -83.2899     7.1381     6.8445     7.0847
 1415.0000  -999.2500  -999.2500  -999.2500  -999.2500    70.4491   -71.3893   -84.7890     7.1829     6.9008     7.1425
 1415.5000  -999.2500  -999.2500  -999.2500  -999.2500    68.9099   -71.3648   -86.2877     7.2415     6.9096     7.2017
 1416.0000  -999.2500  -999.2500  -999.2500  -999.2500    69.1720   -71.4960   -80.2220     7.4010     6.9664     7.3115
 1416.5000  -999.2500  -999.2500  -999.2500  -999.2500    69.8749   -71.7650   -74.5317     7.4082     7.0237     7.3739
 1417.0000  -999.2500  -999.2500  -999.2500  -999.2500    70.5779   -72.0395   -68.0912     7.5093     7.0326     7.3832
 1417.5000  -999.2500  -999.2500  -999.2500  -999.2500    72.8504   -72.1646   -69.9647     7.6314     7.0418     7.3990
 1418.0000  -999.2500  -999.2500  -999.2500  -999.2500    75.7955   -72.1339   -71.4638     7.6388     7.1018     7.5052
 1418.5000  -999.2500  -999.2500  -999.2500  -999.2500    76.2742   -71.9596   -88.0910     7.6745     7.1602     7.5669
 1419.0000  -999.2500  -999.2500  -999.2500  -999.2500    75.6212   -71.9350   -97.1544     7.7625     7.1693     7.6288
 1419.5000  -999.2500  -999.2500  -999.2500  -999.2500    74.7654   -71.7607   -98.6761     7.8241     7.1784     7.6389
 1420.0000  -999.2500  -999.2500  -999.2500  -999.2500    74.1306   -71.4367  -100.5266     7.8317     7.2374     7.7020
 1420.5000  -999.2500  -999.2500  -999.2500  -999.2500    72.5914   -71.2620   -94.0865     7.8939     7.2466     7.7675
