~VERSION INFORMATION
 VERS.                2.0:   CWLS LOG ASCII STANDARD - VERSION 2.0
 WRAP.                 NO:   ONE LINE PER DEPTH STEP
~WELL INFORMATION
#MNEM.UNIT      DATA TYPE    INFORMATION
#----------   ------------   ------------------------------
 STRT.F          494.0000:   START DEPTH
 STOP.F         4999.5000:   STOP DEPTH
 STEP.F            0.5000:   STEP LENGTH
 NULL.          -999.2500:   NO VALUE
 COMP.    FENIX & SCISSON:   COMPANY
 WELL.  FENIX "LX" #26-23:   WELL
 FLD . MPR #3 (TEAPOT DOME):   FIELD
 LOC .      S23 T38N R78W:   LOCATION
 CNTY.            NATRONA:   COUNTY
 STAT.            WYOMING:   STATE
 CTRY. UNITED STATES OF AMERICA:   COUNTRY
 SRVC.       SCHLUMBERGER:   SERVICE COMPANY
 DATE.        11-AUG-1978:   LOGDATE
 API .     49025107340000:   API NUMBER
~CURVE INFORMATION
#MNEM.UNIT       API CODE    CURVE DESCRIPTION
#----------   ------------   ------------------------------
 DEPT.F                  :   
 NPHI.DEC    42 890 03 00:   NEUTRON POROSITY SANDSTONE
 TEND.LBS    45 635 01 00:   TENSION FORM DENSITY LOG
 GRD .GAPI   45 310 01 00:   GAMMA RAY FROM DENSITY LOG
 CALD.IN     45 280 60 00:   CALIPER FROM DENSITY LOG
 DRHO.G/C3   45 356 01 00:   DENSITY CORRECTION
 RHOB.G/C3   45 350 01 00:   BULK DENSITY
 SPR .MV     07 010 01 00:   SPONTANEOUS POTENTIAL
 TENR.LBS    07 635 01 00:   TENSION FROM RESISTIVITY LOG
 ILD .OHMM   07 120 46 00:   INDUCTION LOG DEEP RESISTIVITY
 ILM .OHMM   07 120 44 00:   INDUCTION LOG MEDIUM RESISTIVITY
 SFL .OHMM   07 220 01 00:   SPHERICALLY FOCUSED LOG RESISITIVITY
~PARAMETER INFORMATION
#MNEM.UNIT          VALUE    DESCRIPTION
#----------   ------------   ------------------------------
 EKB .F         5335.0000:   Kelly bushing
 EGL .F         5325.0000:   Ground level
 EDF .F            0.0000:   Drilling floor
 EPD .F         5325.0000:   Permanent datum
 TD  .F         5000.0000:   Total depth
 CLNT.            A2DTECH:   Client Code
 SL  . 1600' FSL & 903' FWL:   Surface Location
 PD  .                 GL:   Permanent Datum
 LMF .                 KB:   Log Measured From
 DMF .                 KB:   Drilling Measured From
 DAPD.F                10:   Feet Above Permanent Datum
 DATE.        11-AUG-1978:   Date Logged [DD-MMM-YYYY]
 DD  .F              5000:   Depth driller
 DL  .F              4998:   Depth logger
 BLI .F              4992:   Bottom log interval
 TLI .F               525:   Top log interval
 CS1 .IN            9.625:   Casing size
 CBD1.      9.625" @ 521':   Casing driller 1
 CBL1.F               521:   Casing logger 1
 BS1 .IN             8.75:   Bit size
 BSD1.F              5000:   Depth drilled with bit1
 DFD .                9.1:   Density
 MSS .            MUD PIT:   Source of sample
 RMS .OHMM          0.897:   Rm
 MST .F                64:   Rm Meas. temp.
 RMF .OHMM          0.821:   Rmf
 MFST.F                64:   Rmf Meas. temp.
 MFSS.               MEAS:   Source Rmf.
 BHT .F               135:   BHT.
 TCS .HRS              03:   00:   Time Circ. stopped
 TLAB.HRS              09:   00:   Time logger at bottom
 MRT .F               135:   Maximum recorded temp.
 LUL .               CSPR:   Logging unit location
 ENGI.              CRAIG:   Recorded By
 ORIG.           5" PRINT:   Origin of data
 UWI .     49025107340000:   Unique Well ID
 DICO. A2D TECHNOLOGIES, INC.:   Digitizing Company
 DFV .                 40:   Viscosity
 DFPH.                 12:   pH
 DFL .                  4:   Fluid loss
~OTHER INFORMATION
~A  DEPTH     NPHI       TEND        GRD       CALD       DRHO       RHOB        SPR       TENR        ILD        ILM        SFL
# ...
 2293.5000     0.2921  1588.1202    94.3301    11.9374     0.0896     2.5288   -25.6185  1214.7289     7.7262     7.2156     7.6381
 2294.0000     0.2816  1588.5714    96.1994    11.7709     0.0480     2.5198   -25.4622  1215.6361     7.8330     7.1176     7.6362
 2294.5000     0.2683  1589.0226    98.6898    11.6196     0.0412     2.5220   -25.6044  1216.3695     7.7776     7.0697     7.4775
 2295.0000     0.2641  1589.4738   100.5591    11.5591     0.0453     2.5227   -26.3418  1201.4159     7.6696     7.0711     7.3733
 2295.5000     0.2635  1589.9622   103.6720    11.5138     0.0624     2.5250   -26.6332  1217.8369     7.6156     7.0236     7.3213
 2296.0000     0.2632  1590.3932   104.6096    11.4685     0.0828     2.5371   -26.9254  1187.5625     7.6146     6.9764     7.4731
 2296.5000     0.2626  1590.8270   103.6839    11.4762     0.0964     2.5498   -27.3653  1172.7925     7.5610     6.9781     7.5235
 2297.0000     0.2620  1591.2782   102.1370    11.5597     0.1177     2.5618   -27.5075  1189.2131     7.5075     6.9795     7.4183
 2297.5000     0.2614  1591.7295   101.2112    11.6508     0.1668     2.5852   -27.4987  1189.9469     7.3013     7.0295     7.2644
 2298.0000     0.2891  1592.2251    99.9764    11.7721     0.2288     2.5980   -27.3423  1206.2017     7.1502     7.1292     7.1632
 2298.5000     0.3000  1592.6559    99.9823    11.9086     0.2341     2.5756   -27.3353  1207.1014     7.0998     7.1309     7.0633
 2299.0000     0.2904  1593.0869    99.3656    12.1663     0.1774     2.5061   -27.3282  1207.8350     7.0987     7.1914     7.0616
 2299.5000     0.2819  1593.5338    98.7504    12.2726     0.1491     2.4752   -27.3384  1208.5687     7.1471     7.2838     7.0602
 2300.0000     0.2741  1594.0568    97.5141    12.1364     0.2341     2.5226   -27.4633  1178.2213     7.3471     7.3360     7.0492
 2300.5000     0.2759  1594.4878    95.9525    12.0153     0.2432     2.5610   -27.6037  1177.1901     7.2964     7.3941     6.9865
 2301.0000     0.2928  1594.8872    95.0120    12.1746     0.2485     2.5632   -27.5966  1163.7062     7.2964     7.4417     7.0084
 2301.5000     0.3000  1588.6260    94.0714    12.1823     0.2295     2.5233   -27.5895  1179.7595     7.3471     7.4952     7.0559
 2302.0000     0.2850  1580.7518    94.9922    11.9703     0.1372     2.4638   -27.4314  1195.7028     7.5536     7.4967     7.1533
 2302.5000     0.2748  1581.7891    97.1574    11.8644     0.1659     2.4843   -27.1258  1196.1423     7.7123     7.4982     7.2518
 2303.0000     0.2736  1591.4745   100.0744    11.8645     0.2272     2.5376   -26.9695  1213.1180     7.7123     7.5000     7.4030
 2303.5000     0.2784  1579.9742   103.1120    12.0238     0.2385     2.5564   -26.6639  1228.1389     7.7660     7.4492     7.5573
 2304.0000     0.2874  1580.1514   106.4463    12.0770     0.2340     2.5511   -26.6567  1212.9647     7.9842     7.4511     7.6616
 2304.5000     0.2883  1580.3284   105.8164    12.0165     0.1689     2.5164   -26.6480  1197.9001     8.2087     7.4526     7.8213
 2305.0000     0.2829  1580.4701   102.9507    11.8348     0.1402     2.5315   -26.6409  1182.9457     8.2087     7.3513     7.9843
 2305.5000     0.2688  1580.6117    98.6538    11.5623     0.1439     2.5827   -26.7849  1167.8813     7.9291     7.3019     8.0387
 2306.0000     0.2547  1580.7533    96.1605    11.3770     0.1500     2.6061   -26.6451  1168.4305     7.5536     7.2030     7.8180
 2306.5000     0.2517  1580.9304    96.1517    11.3465     0.1711     2.6121   -27.0859  1168.8701     7.3471     7.1542     7.6033
 2307.0000     0.2565  1581.0720    97.7040    11.3464     0.2084     2.6136   -27.6772  1184.8135     7.2964     7.1560     7.4461
 2307.5000     0.2776  1581.2136    99.2397    11.3765     0.2346     2.6113   -28.2686  1185.3629     7.3471     7.2076     7.3938
 2308.0000     0.2920  1581.3534    99.8521    11.5582     0.2361     2.5857   -29.1571  1185.8022     7.3471     7.2593     7.3419
 2308.5000     0.2812  1581.5323    99.8411    11.8459     0.1582     2.5277   -29.7485  1186.2418     7.5015     7.2607     7.3478
 2309.0000     0.2637  1581.6740    99.8323    11.6488     0.1105     2.4979   -30.0428  1186.6813     7.6062     7.1373     7.4937
 2309.5000     0.2589  1581.8156    98.2685    11.5274     0.1052     2.5179   -29.7373  1202.6356     7.7123     7.1368     7.5974
 2310.0000     0.2586  1581.9573    96.0858    11.4667     0.1551     2.5571   -29.1332  1203.1740     7.5536     7.0870     7.7020
 2310.5000     0.2668  1582.1052    95.4581    11.4514     0.1703     2.5684   -28.8291  1203.6135     7.3471     6.9890     7.7545
 2311.0000     0.2677  1582.2760    98.5527    11.4664     0.1597     2.5645   -28.2264  1204.0530     7.1462     6.9403     7.6466
 2311.5000     0.2671  1582.4176   101.3367    11.4814     0.1498     2.5706   -27.9223  1204.4962     6.9992     6.9397     7.5405
 2312.0000     0.2716  1582.5592   103.5018    11.5267     0.1695     2.5887   -27.3182  1205.0417     6.9509     6.9392     7.3847
 2312.5000     0.2734  1582.7363   104.1164    11.5871     0.1747     2.5826   -27.1648  1205.4813     7.1462     6.9388     7.1821
 2313.0000     0.2686  1582.8572   102.2420    11.6324     0.1429     2.5646   -27.6069  1205.9208     7.3471     6.9383     7.0823
 2313.5000     0.2629  1583.0195   101.3012    11.5868     0.1112     2.5450   -27.7493  1190.8525     7.5015     6.8899     7.1802
 2314.0000     0.2620  1583.1613   102.2245    11.4200     0.1217     2.5653   -27.5940  1175.7920     7.3471     6.8894     7.3297
 2314.5000     0.2789  1583.3083   102.5262    11.3820     0.1724     2.5743   -27.1394  1191.8452     7.1462     6.8890     7.3796
 2315.0000     0.2837  1583.4799   101.5836    11.4197     0.1792     2.5608   -26.6861  1192.2847     7.0969     6.8885     7.2268
 2315.5000     0.2852  1575.3529   100.9534    11.4650     0.1557     2.5294   -26.2327  1208.2281     7.1462     6.8879     7.0774
 2316.0000     0.2678  1568.7218   100.3215    11.4800     0.1391     2.5254   -25.9284  1208.6821     7.2460     6.8875     7.0277
 2316.5000     0.2666  1553.8297    99.6916    11.4950     0.1655     2.5630   -25.7722  1209.2169     7.2964     6.8870     7.1756
 2317.0000     0.2687  1553.9850    99.0617    11.5554     0.1837     2.5781   -25.6174  1209.6564     7.1959     6.8866     7.1730
 2317.5000     0.2835  1554.1483    98.1005    11.6159     0.1897     2.5818   -25.6117  1210.0957     7.1462     6.9340     7.0735
 2318.0000     0.2853  1539.2482    97.1786    11.7067     0.1791     2.5570   -26.0539  1195.0315     7.1462     6.9335     6.9754
 2318.5000     0.2840  1539.3986    97.4804    11.7217     0.1054     2.5313   -26.3467  1211.0847     7.1959     6.9813     6.9744
 2319.0000     0.2862  1539.5710    99.3349    11.7064     0.1140     2.5456   -27.0860  1195.9104     7.2964     7.0782     7.1196
 2319.5000     0.2928  1539.7128   101.1401    11.6759     0.1435     2.5863   -27.4405  1196.4596     7.5015     7.1270     7.2179
 2320.0000     0.2919  1539.8496   103.0419    11.6455     0.1647     2.6209   -27.8308  1196.8993     7.7123     7.1761     7.3685
 2320.5000     0.2806  1540.0000   105.2070    11.5544     0.1615     2.5946   -28.4124  1181.9447     7.7660     7.2758     7.5219
 2321.0000     0.2751  1540.1504   106.4404    11.3876     0.1109     2.5539   -29.0038  1182.3842     7.7660     7.3258     7.5731
 2321.5000     0.2763  1540.3147   106.4316    11.3420     0.1011     2.5434   -29.4445  1182.8235     7.8814     7.2746     7.5719
 2322.0000     0.2799  1540.4563   104.5573    11.3873     0.1404     2.5775   -29.5939  1183.2632     7.9291     7.1244     7.5709
 2322.5000     0.2808  1540.6016   102.6852    11.4326     0.1654     2.6066   -30.0288  1183.8125     7.9291     7.1240     7.5177
 2323.0000     0.2799  1555.8126    99.5708    11.4627     0.1652     2.6021   -29.8740  1184.2520     7.8743     7.0743     7.3621
 2323.5000     0.2845  1555.9542    97.6986    11.4777     0.1426     2.5697   -29.5698  1184.6913     7.7605     7.0737     7.3103
