~VERSION INFORMATION
 VERS.                2.0:   CWLS LOG ASCII STANDARD - VERSION 2.0
 WRAP.                 NO:   ONE LINE PER DEPTH STEP
~WELL INFORMATION
#MNEM.UNIT      DATA TYPE    INFORMATION
#----------   ------------   ------------------------------
 STRT.F           80.0000:   START DEPTH
 STOP.F         2730.0000:   STOP DEPTH
 STEP.F            0.5000:   STEP LENGTH
 NULL.          -999.2500:   NO VALUE
 COMP.          U.S. NAVY:   COMPANY
 WELL. US NPR 3 "AX" #57-20:   WELL
 FLD .             TEAPOT:   FIELD
 LOC .      S20 T39N R78W:   LOCATION
 CNTY.            NATRONA:   COUNTY
 STAT.            WYOMING:   STATE
 CTRY. UNITED STATES OF AMERICA:   COUNTRY
 SRVC.       SCHLUMBERGER:   SERVICE COMPANY
 DATE.        31-JUL-1964:   LOGDATE
 API .     49025066320000:   API NUMBER
~CURVE INFORMATION
#MNEM.UNIT       API CODE    CURVE DESCRIPTION
#----------   ------------   ------------------------------
 DEPT.F                  :   
 SPR .MV     01 010 01 00:   SPONTANEOUS POTENTIAL FROM RES.
 LN  .OHMM   01 060 39 00:   LONG NORMAL 39"
 ASN .OHMM   01 041 16 00:   AMPLIFIED SHORT NORMAL 16"
 LAT .OHMM   01 070 00 00:   LATERAL
 GRN .GAPI   35 310 30 00:   GAMMA RAY
 NEUT.NAPI   35 330 01 00:   NEUTRON
~PARAMETER INFORMATION
#MNEM.UNIT          VALUE    DESCRIPTION
#----------   ------------   ------------------------------
 EKB .F         5019.0000:   Kelly bushing
 EGL .F         5011.0000:   Ground level
 TD  .F         2696.0000:   Total depth
 DATE.        31-JUL-1964:   Date logged
 CLNT.            A2DTECH:   Client Code
 PD  .                 GL:   Permanent Datum
 EPD .F              5011:   Elevation Permanent Datum
 LMF .                 KB:   Log Measured From
 DMF .                 KB:   Drilling Measured From
 DAPD.F                 8:   Feet Above Permanent Datum
 DD  .F              2690:   Depth driller
 DL  .F              2696:   Depth logger
 BLI .F              2695:   Bottom log interval
 TLI .F                82:   Top log interval
 CS1 .IN            12.25:   Casing size
 CBD1.       12.25" @ 15':   Casing driller 1
 BS1 .IN               11:   Bit size
 BSD1.F              2690:   Depth drilled with bit1
 DFT .                GEL:   Type fluid in hole
 MSS .           FLOWLINE:   Source of sample
 RMS .OHMM           2.48:   Rm
 MST .F                83:   Rm Meas. temp.
 RMF .OHMM           1.87:   Rmf
 MFST.F                83:   Rmf Meas. temp.
 MFSS.                 FP:   Source Rmf.
 MCSS.                 FP:   Source Rmc.
 TCS .HRS               4:   Time Circ. stopped
 LUN .               3527:   Logging unit number
 LUL .               CSPR:   Logging unit location
 ENGI.            WINKLER:   Recorded By
 WITN.          GORGENSEN:   Witnessed by
 ORIG.         2.5" PRINT:   Origin of data
 UWI .     49025066320000:   Unique Well ID
 DICO.   A2D TECHNOLOGIES:   Digitizing Company
~OTHER INFORMATION
~A   DEPT      SPR         LN        ASN        LAT        GRN       NEUT   
# ...
 2004.0000   -35.4920     9.2380    10.7520     6.6990  -999.2500  -999.2500
 2004.5000   -35.5830     9.4740    10.9790     6.6400  -999.2500  -999.2500
 2005.0000   -35.6910     9.7010    11.4640     6.5850  -999.2500  -999.2500
 2005.5000   -35.7260     9.9580    11.9460     6.5310  -999.2500  -999.2500
 2006.0000   -35.6620    10.1280    12.4360     6.4700  -999.2500  -999.2500
 2006.5000   -35.6110    10.1580    12.9210     6.4350  -999.2500  -999.2500
 2007.0000   -35.5540    10.2150    13.4100     6.4340  -999.2500  -999.2500
 2007.5000   -35.4990    10.2580    13.8930     6.4920  -999.2500  -999.2500
 2008.0000   -35.4440    10.3450    14.3970     6.6880  -999.2500  -999.2500
 2008.5000   -35.3890    10.5230    14.6930     6.8790  -999.2500  -999.2500
 2009.0000   -35.3340    10.6980    14.4990     7.0760  -999.2500  -999.2500
 2009.5000   -35.2790    10.8770    14.3170     7.2690  -999.2500  -999.2500
 2010.0000   -35.2240    11.0530    14.1140     7.4680  -999.2500  -999.2500
 2010.5000   -35.1680    11.2310    13.9250     7.6180  -999.2500  -999.2500
 2011.0000   -35.1130    11.4070    13.7280     7.6210  -999.2500  -999.2500
 2011.5000   -35.0590    11.5850    13.5330     7.6250  -999.2500  -999.2500
 2012.0000   -35.0010    11.7600    13.3740     7.6220  -999.2500  -999.2500
 2012.5000   -34.9770    11.9400    13.3690     7.6250  -999.2500  -999.2500
 2013.0000   -35.0320    12.1170    13.3740     7.6230  -999.2500  -999.2500
 2013.5000   -35.0850    12.2600    13.4660     7.6270  -999.2500  -999.2500
 2014.0000   -35.1410    12.1750    13.5490     7.6230  -999.2500  -999.2500
 2014.5000   -35.1960    12.0900    13.6380     7.6260  -999.2500  -999.2500
 2015.0000   -35.2510    11.9960    13.7220     7.6510  -999.2500  -999.2500
 2015.5000   -35.3060    11.9090    13.8100     7.9760  -999.2500  -999.2500
 2016.0000   -35.3610    11.8170    13.8950     8.3020  -999.2500  -999.2500
 2016.5000   -35.4170    11.7280    13.9820     8.6390  -999.2500  -999.2500
 2017.0000   -35.4710    11.6380    14.0690     8.9660  -999.2500  -999.2500
 2017.5000   -35.5270    11.5490    14.1510     9.2980  -999.2500  -999.2500
 2018.0000   -35.5810    11.4580    14.1500     9.6310  -999.2500  -999.2500
 2018.5000   -35.6380    11.3690    14.0330     9.9580  -999.2500  -999.2500
 2019.0000   -35.6930    11.2780    13.9030    10.2960  -999.2500  -999.2500
 2019.5000   -35.7300    11.1890    13.7720    10.6200  -999.2500  -999.2500
 2020.0000   -35.6230    11.0940    13.6430    10.9590  -999.2500  -999.2500
 2020.5000   -35.5210    11.0310    13.5120    10.9890  -999.2500  -999.2500
 2021.0000   -35.4120    10.9650    13.3840    10.9920  -999.2500  -999.2500
 2021.5000   -35.3090    10.9010    13.2520    11.0100  -999.2500  -999.2500
 2022.0000   -35.2030    10.8350    13.1240    11.0420  -999.2500  -999.2500
 2022.5000   -35.0980    10.7710    12.9790    11.0680  -999.2500  -999.2500
 2023.0000   -34.9920    10.7060    12.8360    11.0960  -999.2500  -999.2500
 2023.5000   -34.8880    10.6410    12.6680    11.1260  -999.2500  -999.2500
 2024.0000   -34.7810    10.5760    12.5050    11.1510  -999.2500  -999.2500
 2024.5000   -34.6770    10.5110    12.3390    11.1770  -999.2500  -999.2500
 2025.0000   -34.5780    10.4460    12.1740    11.0440  -999.2500  -999.2500
 2025.5000   -34.5710    10.3800    12.0090    10.8420  -999.2500  -999.2500
 2026.0000   -34.5700    10.3150    11.8440    10.6520  -999.2500  -999.2500
 2026.5000   -34.5710    10.2510    11.6790    10.4540  -999.2500  -999.2500
 2027.0000   -34.5700    10.1840    11.5140    10.3930  -999.2500  -999.2500
 2027.5000   -34.5710    10.1240    11.3460    10.3780  -999.2500  -999.2500
 2028.0000   -34.5700    10.0540    11.1910    10.3400  -999.2500  -999.2500
 2028.5000   -34.5700     9.9760    11.0010    10.3080  -999.2500  -999.2500
 2029.0000   -34.5700     9.9040    10.8960    10.2780  -999.2500  -999.2500
 2029.5000   -34.5700     9.8300    10.3920    10.2380  -999.2500  -999.2500
 2030.0000   -34.5700     9.7570     9.9700    10.2240  -999.2500  -999.2500
 2030.5000   -34.5700     9.6850     9.8700    10.0520  -999.2500  -999.2500
 2031.0000   -34.5700     9.6090     9.7220     9.7580  -999.2500  -999.2500
 2031.5000   -34.5700     9.5420     9.5860     9.4890  -999.2500  -999.2500
 2032.0000   -34.5700     9.4290     9.4880     9.2230  -999.2500  -999.2500
 2032.5000   -34.5700     9.2770     9.4260     8.9310  -999.2500  -999.2500
 2033.0000   -34.5700     9.1330     9.3550     8.8330  -999.2500  -999.2500
 2033.5000   -34.5700     8.9860     9.3360     8.9170  -999.2500  -999.2500
 2034.0000   -34.5700     8.8400     9.3630     8.9740  -999.2500  -999.2500
 2034.5000   -34.5700     8.6930     9.3970     9.0420  -999.2500  -999.2500
 2035.0000   -34.5700     8.5500     9.3260     9.1050  -999.2500  -999.2500
 2035.5000   -34.5700     8.3930     9.0460     9.1690  -999.2500  -999.2500
 2036.0000   -34.5700     8.3030     8.6920     9.2370  -999.2500  -999.2500
 2036.5000   -34.5700     8.2950     8.3370     9.2920  -999.2500  -999.2500
 2037.0000   -34.5700     8.2730     7.9740     9.3840  -999.2500  -999.2500
 2037.5000   -34.5700     8.2570     7.6320     9.2500  -999.2500  -999.2500
 2038.0000   -34.5700     8.2390     7.2350     8.7890  -999.2500  -999.2500
 2038.5000   -34.5700     8.2210     7.0100     8.3780  -999.2500  -999.2500
 2039.0000   -34.5700     8.2040     7.0580     7.8790  -999.2500  -999.2500
 2039.5000   -34.5700     8.1850     6.9810     7.6860  -999.2500  -999.2500
 2040.0000   -34.5700     8.1680     7.5820     8.0010  -999.2500  -999.2500
 2040.5000   -34.5700     8.1510     8.4650     8.2520  -999.2500  -999.2500
 2041.0000   -34.5700     8.1300     8.3060     8.5330  -999.2500  -999.2500
 2041.5000   -34.5700     8.1510     8.3690     8.8100  -999.2500  -999.2500
 2042.0000   -34.5700     8.2680     8.3740     9.0040  -999.2500  -999.2500
 2042.5000   -34.5700     8.3830     8.4810     9.0430  -999.2500  -999.2500
 2043.0000   -34.5700     8.5010     8.7440     9.1920  -999.2500  -999.2500
 2043.5000   -34.5700     8.6170     9.0030     9.3330  -999.2500  -999.2500
 2044.0000   -34.5700     8.7340     9.2730     9.4820  -999.2500  -999.2500
 2044.5000   -34.5700     8.8510     9.5400     9.6280  -999.2500  -999.2500
 2045.0000   -34.5700     8.9670     9.7590     9.7730  -999.2500  -999.2500
 2045.5000   -34.5700     9.0850     9.8310     9.9210  -999.2500  -999.2500
 2046.0000   -34.5700     9.2020     9.8690    10.0700  -999.2500  -999.2500
 2046.5000   -34.5700     9.2960     9.7680    10.1720  -999.2500  -999.2500
 2047.0000   -34.5700     9.2460     9.7100     9.9780  -999.2500  -999.2500
 2047.5000   -34.5700     9.1960     9.9390     9.8260  -999.2500  -999.2500
 2048.0000   -34.5700     9.1400    10.1670     9.9410  -999.2500  -999.2500
 2048.5000   -34.5700     9.0890    10.4160    10.0710  -999.2500  -999.2500
 2049.0000   -34.5700     9.0350    10.7930    10.2020  -999.2500  -999.2500
 2049.5000   -34.5700     8.9810    11.1770    10.3320  -999.2500  -999.2500
 2050.0000   -34.5700     8.9290    11.4200    10.4620  -999.2500  -999.2500
 2050.5000   -34.5700     8.8750    11.3250    10.5850  -999.2500  -999.2500
 2051.0000   -34.5700     8.8230    10.5420    10.5930  -999.2500  -999.2500
 2051.5000   -34.5700     8.7680     9.7010    10.5930  -999.2500  -999.2500
 2052.0000   -34.5700     8.7080     9.4010    10.5720  -999.2500  -999.2500
 2052.5000   -34.5700     8.5280     9.1620    10.5520  -999.2500  -999.2500
 2053.0000   -34.5700     8.3380     8.9140    10.5290  -999.2500  -999.2500
 2053.5000   -34.5700     8.1340     8.8910    10.5070  -999.2500  -999.2500
 2054.0000   -34.5700     8.0780     8.8820    10.4860  -999.2500  -999.2500
 2054.5000   -34.5700     8.0230     8.8840    10.4630  -999.2500  -999.2500
 2055.0000   -34.5680     7.9850     8.6260    10.4440  -999.2500  -999.2500
 2055.5000   -34.5750     7.9180     8.3230    10.4180  -999.2500  -999.2500
