~VERSION INFORMATION
 VERS.                2.0:   CWLS LOG ASCII STANDARD - VERSION 2.0
 WRAP.                 NO:   ONE LINE PER DEPTH STEP
~WELL INFORMATION
#MNEM.UNIT      DATA TYPE    INFORMATION
#----------   ------------   ------------------------------
 STRT.F          670.0000:   START DEPTH
 STOP.F         3440.0000:   STOP DEPTH
 STEP.F            0.5000:   STEP LENGTH
 NULL.          -999.2500:   NO VALUE
 COMP.    FENIX & SCISSON:   COMPANY
 WELL.   FENIX "A" #57-33:   WELL
 FLD .             NPR #3:   FIELD
 LOC .      S33 T39N R78W:   LOCATION
 CNTY.            NATRONA:   COUNTY
 STAT.            WYOMING:   STATE
 CTRY. UNITED STATES OF AMERICA:   COUNTRY
 SRVC.       SCHLUMBERGER:   SERVICE COMPANY
 DATE.        27-APR-1977:   LOGDATE
 API .     49025103600000:   API NUMBER
~CURVE INFORMATION
#MNEM.UNIT       API CODE    CURVE DESCRIPTION
#----------   ------------   ------------------------------
 DEPT.F                  :   
 SPR .MV     11 010 01 00:   SPONTANEOUS POTENTIAL FROM RES.
 MSFL.OHMM   11 270 04 00:   MICRO SPHERICALLY FOCUSED
 LLD .OHMM   11 220 10 00:   LATEROLOG LOG DEEP
 LLS .OHMM   11 220 09 00:   LATEROLOG LOG SHALLOW
 CALD.IN     45 280 60 00:   CALIPER FROM DENSITY LOG
 DRHO.G/C3   45 356 01 00:   DENSITY CORRECTION
 NPHI.DEC    42 890 03 00:   NEUTRON POROSITY SANDSTONE
 RHOB.G/C3   45 350 01 00:   BULK DENSITY
 GRD .GAPI   45 310 01 00:   GAMMA RAY FROM RESISTIVITY
~PARAMETER INFORMATION
#MNEM.UNIT          VALUE    DESCRIPTION
#----------   ------------   ------------------------------
 EKB .F         5183.0000:   Kelly bushing
 EGL .F         5172.0000:   Ground level
 EDF .F            0.0000:   Drilling floor
 TD  .F         3424.0000:   Total depth
 DATE.        27-APR-1977:   Date logged
 CLNT.            A2DTECH:   Client Code
 SL  . 990' FSL & 2310' FEL:   Surface Location
 PD  .                 GL:   Permanent Datum
 EPD .F              5172:   Elevation Permanent Datum
 LMF .                 KB:   Log Measured From
 DMF .                 KB:   Drilling Measured From
 DAPD.F                11:   Feet Above Permanent Datum
 DD  .F              3421:   Depth driller
 DL  .F              3424:   Depth logger
 BLI .F              3423:   Bottom log interval
 TLI .F               764:   Top log interval
 CS1 .IN            8.625:   Casing size
 CBD1.      8.625" @ 711':   Casing driller 1
 BS1 .IN            7.875:   Bit size
 BSD1.F              3421:   Depth drilled with bit1
 DFT .            KCL MUD:   Type fluid in hole
 DFD .                9.5:   Density
 DFV .                 41:   Viscosity
 DFPH.                  8:   pH
 DFL .               10.8:   Fluid loss
 MSS .            MUD PIT:   Source of sample
 RMS .OHMM           0.26:   Rm
 MST .F                74:   Rm Meas. temp.
 RMF .OHMM           0.21:   Rmf
 MFST.F                74:   Rmf Meas. temp.
 RMC .OHMM            .09:   Rmc
 MCST.F                74:   Rmc Meas. temp.
 MFSS.               MEAS:   Source Rmf.
 MCSS.               CALC:   Source Rmc.
 RMB .OHMM           0.15:   Rm. at BHT
 BHT .F               126:   BHT.
 TCS .HRS            0900:   Time Circ. stopped
 TLAB.HRS            1430:   Time logger at bottom
 MRT .F               126:   Maximum recorded temp.
 LUN .               7711:   Logging unit number
 LUL .               CSPR:   Logging unit location
 ENGI.             SAYLER:   Recorded By
 WITN.         PETTINGILL:   Witnessed by
 ORIG.           5" PRINT:   Origin of data
 UWI .     49025103600000:   Unique Well ID
 DICO. A2D TECHNOLOGIES, INC.:   Digitizing Company
~OTHER INFORMATION
~A   DEPT      SPR       MSFL        LLD        LLS         CALD      DRHO        NPHI       RHOB      GRD   
# ...
 1217.5000   -26.1080    11.9140    10.5400    11.2880     9.7150     0.0110     0.2810     2.5650   116.2440
 1218.0000   -26.0020    12.2090    10.8380    11.4250     9.7180     0.0130     0.2750     2.5630   118.6310
 1218.5000   -25.8950    11.9860    11.0680    11.5620     9.7200     0.0190     0.2780     2.5720   120.1380
 1219.0000   -25.7890    12.1700    11.2400    11.7000     9.7230     0.0290     0.2800     2.5800   120.4490
 1219.5000   -25.6820    12.4350    11.2920    11.7680     9.7260     0.0270     0.2720     2.5840   120.4290
 1220.0000   -25.5760    12.4190    11.3390    11.6510     9.7280     0.0230     0.2650     2.5670   119.6110
 1220.5000   -25.5020    12.3880    11.3870    11.6330     9.7310     0.0190     0.2600     2.5810   117.5130
 1221.0000   -25.5370    12.3560    11.4480    11.6150     9.7330     0.0150     0.2640     2.5780   115.0450
 1221.5000   -25.5700    12.3210    11.3420    11.5960     9.7360     0.0130     0.2680     2.5740   115.5550
 1222.0000   -25.6030    12.4180    11.1910    11.5780     9.7390     0.0170     0.2720     2.5840   116.4570
 1222.5000   -25.6360    12.5260    11.0400    11.5590     9.7410     0.0210     0.2770     2.5830   115.6700
 1223.0000   -25.6690    12.6330    10.9340    11.4480     9.7440     0.0230     0.2800     2.5870   115.8650
 1223.5000   -25.7020    12.6660    11.1440    11.3910     9.7460     0.0250     0.2860     2.5950   117.1970
 1224.0000   -25.7350    12.0030    11.2400    11.3440     9.7490     0.0270     0.2920     2.5990   117.7860
 1224.5000   -25.7670    11.4940    10.8420    11.1720     9.7520     0.0270     0.2960     2.5870   118.7000
 1225.0000   -25.8000    11.1370    10.4430    10.9820     9.7540     0.0210     0.2980     2.5780   121.1930
 1225.5000   -25.8330    11.7040    10.1590    10.7350     9.7570     0.0170     0.2860     2.5690   122.9480
 1226.0000   -25.8660    12.0970    10.2080    10.7750     9.7590     0.0120     0.2780     2.5680   121.9710
 1226.5000   -25.8930    11.9210    10.2530    10.8540     9.7620     0.0100     0.2810     2.5660   120.2080
 1227.0000   -25.8530    11.6700    10.2970    10.9330     9.7650     0.0080     0.2880     2.5580   119.4920
 1227.5000   -25.8110    11.3440    10.3410    11.0110     9.7670     0.0070     0.2950     2.5580   118.7270
 1228.0000   -25.7700    11.3700    10.3860    11.0350     9.7700     0.0100     0.2980     2.5590   119.6730
 1228.5000   -25.7300    11.4070    10.4300    10.9050     9.7730     0.0110     0.3000     2.5600   121.4650
 1229.0000   -25.7110    11.4480    10.4430    10.7600     9.7750     0.0150     0.3000     2.5620   121.7500
 1229.5000   -25.8280    11.2590    10.2890    10.6150     9.7750     0.0260     0.2970     2.5710   121.6270
 1230.0000   -25.9440    10.9890    10.1180    10.4700     9.7750     0.0240     0.2990     2.5720   122.5140
 1230.5000   -26.0660    10.7180     9.9470    10.3260     9.7750     0.0140     0.2990     2.5690   123.7930
 1231.0000   -25.9610    10.6370     9.7930    10.2530     9.7750     0.0060     0.2990     2.5590   125.0780
 1231.5000   -25.7870    10.8960     9.7930    10.3130     9.7750     0.0040     0.2960     2.5500   126.1070
 1232.0000   -25.6100    11.0350    10.1250    10.4330     9.7750     0.0120     0.2940     2.5560   125.1330
 1232.5000   -25.4340    10.9780    10.3480    10.5530     9.7750     0.0140     0.2900     2.5670   122.8280
 1233.0000   -25.2570    10.9270    10.2060    10.6370     9.7750     0.0090     0.2850     2.5640   120.6430
 1233.5000   -25.1020    10.8750    10.0770    10.5160     9.7630     0.0120     0.2830     2.5720   119.6520
 1234.0000   -25.2190    10.8230     9.9480    10.4890     9.7480     0.0210     0.2860     2.5810   120.1940
 1234.5000   -25.3540    10.7710     9.8830    10.4620     9.7320     0.0220     0.2890     2.5800   123.0020
 1235.0000   -25.4890    10.7350     9.9710    10.4430     9.7170     0.0190     0.2940     2.5780   125.4640
 1235.5000   -25.6230    10.8850    10.0680    10.5480     9.7010     0.0160     0.3000     2.5830   126.1960
 1236.0000   -25.7580    11.0350    10.1650    10.6370     9.6830     0.0150     0.2960     2.5740   125.1240
 1236.5000   -25.8920    11.1380    10.2530    10.7100     9.6630     0.0140     0.2940     2.5700   123.4080
 1237.0000   -26.0280    11.2320    10.2260    10.8150     9.6430     0.0050     0.2950     2.5660   121.6640
 1237.5000   -26.1590    11.3260    10.1720    10.9200     9.6220    -0.0040     0.2950     2.5620   122.0650
 1238.0000   -26.2670    11.4200    10.1170    11.0350     9.6200    -0.0030     0.2950     2.5650   120.8520
 1238.5000   -26.4890    11.4480    10.0630    10.8700     9.6280     0.0070     0.2950     2.5760   115.7110
 1239.0000   -26.4860    10.9850    10.0080    10.7400     9.6370     0.0120     0.2950     2.5840   114.3550
 1239.5000   -26.4860    10.7350     9.9540    10.6110     9.6450     0.0050     0.2990     2.5810   116.4980
 1240.0000   -26.4690    10.7890     9.8830    10.4820     9.6540     0.0080     0.2990     2.5840   119.8770
 1240.5000   -26.7680    10.9680     9.9630    10.4430     9.6620     0.0120     0.2990     2.5890   123.2620
 1241.0000   -26.9630    11.1470    10.1590    10.5480     9.6710     0.0150     0.2990     2.5870   123.2660
 1241.5000   -27.1630    11.3440    10.0820    10.6370     9.6790     0.0090     0.2960     2.5760   123.0540
 1242.0000   -27.3610    11.2000     9.9290    10.4810     9.6880     0.0100     0.2940     2.5610   123.2020
 1242.5000   -27.4760    10.9130     9.7750    10.2590     9.6950     0.0140     0.2940     2.5730   122.8620
 1243.0000   -27.2590    10.5400     9.6210    10.0370     9.6930     0.0180     0.2980     2.5700   122.3190
 1243.5000   -27.0340    10.6430     9.4670     9.7930     9.6900     0.0200     0.3000     2.5650   122.8660
 1244.0000   -26.8110    10.8490     9.2680     9.9010     9.6880     0.0220     0.3000     2.5710   122.8360
 1244.5000   -26.5860    11.1370     9.4830    10.0550     9.6850     0.0220     0.2990     2.5790   123.7800
 1245.0000   -26.5400    11.0860     9.7900    10.2090     9.6830     0.0150     0.2990     2.5740   124.3150
 1245.5000   -26.6850    11.0140    10.0660    10.3480     9.6800     0.0080     0.2990     2.5670   122.8580
 1246.0000   -26.8290    10.9340     9.8510    10.2700     9.6780     0.0060     0.2990     2.5640   121.2020
 1246.5000   -26.9730    11.0830     9.5440    10.1600     9.6750     0.0110     0.2990     2.5760   120.4430
 1247.0000   -27.1180    11.3810     9.2680    10.0490     9.6920     0.0150     0.2970     2.5780   121.5490
 1247.5000   -27.2620    11.7680     9.2680     9.9380     9.7120     0.0190     0.2940     2.5810   124.7650
 1248.0000   -27.4060    11.6290     9.3880     9.8830     9.7320     0.0190     0.2920     2.5950   127.8460
 1248.5000   -27.5510    11.4310     9.5210     9.9490     9.7520     0.0180     0.2940     2.5860   130.4370
 1249.0000   -27.6790    11.2320     9.6140    10.0090     9.7730     0.0220     0.2990     2.5880   131.5230
 1249.5000   -27.6450    10.9340     9.5650    10.0680     9.7930     0.0240     0.3000     2.5930   130.6650
 1250.0000   -27.5980    11.1370     9.5200    10.1280     9.8030     0.0190     0.2970     2.5910   128.7840
 1250.5000   -27.5510    11.3440     9.4750    10.1880     9.8110     0.0180     0.2920     2.5870   126.4950
 1251.0000   -27.5030    11.5960     9.4290    10.2530     9.8200     0.0240     0.2870     2.6090   124.2090
 1251.5000   -27.4560    12.3210     9.3840    10.2080     9.8290     0.0200     0.2900     2.6210   122.3610
 1252.0000   -27.4080    12.0580     9.3530    10.1450     9.8340     0.0240     0.2880     2.6180   121.7590
 1252.5000   -27.3610    11.5370     9.3680    10.0810     9.8300     0.0230     0.2920     2.6040   121.4850
 1253.0000   -27.3230    11.0170     9.3850    10.0180     9.8270     0.0130     0.2870     2.5790   120.3080
 1253.5000   -27.4430    10.3480     9.4010     9.9740     9.8230     0.0060     0.2930     2.5750   120.6260
