~VERSION INFORMATION
 VERS.                2.0:   CWLS LOG ASCII STANDARD - VERSION 2.0
 WRAP.                 NO:   ONE LINE PER DEPTH STEP
~WELL INFORMATION
#MNEM.UNIT      DATA TYPE    INFORMATION
#----------   ------------   ------------------------------
 STRT.F          500.0000:   START DEPTH
 STOP.F         2517.0000:   STOP DEPTH
 STEP.F            0.5000:   STEP LENGTH
 NULL.          -999.2500:   NO VALUE
 COMP.    FENIX & SCISSON:   COMPANY
 WELL. FENIX & SCISSON SHX #46-33:   WELL
 FLD .  TEAPOT DOME NPR-3:   FIELD
 LOC .      S33 T39N R78W:   LOCATION
 CNTY.            NATRONA:   COUNTY
 STAT.            WYOMING:   STATE
 CTRY. UNITED STATES OF AMERICA:   COUNTRY
 SRVC.           BIRDWELL:   SERVICE COMPANY
 DATE.        04-APR-1979:   LOGDATE
 API .     49025107670000:   API NUMBER
~CURVE INFORMATION
#MNEM.UNIT       API CODE    CURVE DESCRIPTION
#----------   ------------   ------------------------------
 DEPT.F                  :   
 GRD .GAPI   45 310 01 00:   GAMMA RAY FROM DENSITY LOG
 CALD.IN     45 280 60 00:   CALIPER FROM DENSITY LOG
 CORR.G/C3   45 356 01 00:   DENSITY CORRECTION
 RHOB.G/C3   45 350 01 00:   BULK DENSITY
~PARAMETER INFORMATION
#MNEM.UNIT          VALUE    DESCRIPTION
#----------   ------------   ------------------------------
 EKB .F         5217.0000:   Kelly bushing
 EGL .F         5207.0000:   Ground level
 EDF .F            0.0000:   Drilling floor
 TD  .F         2630.0000:   Total depth
 CLNT.            A2DTECH:   Client Code
 SL  . 1955' FSL & 1970' FWL:   Surface Location
 PD  .                 GL:   Permanent Datum
 EPD .F              5207:   Elevation Permanent Datum
 LMF .                 KB:   Log Measured From
 DMF .                 KB:   Drilling Measured From
 DAPD.                 10:   Feet Above Permanent Datum
 DATE.        04-APR-1979:   Date Logged [DD-MMM-YYYY]
 DD  .F              2630:   Depth driller
 DL  .F              2517:   Depth logger
 BLI .F              2517:   Bottom log interval
 TLI .F               504:   Top log interval
 CS1 .              9.625:   Casing size
 CBD1.      9.625" @ 300':   Casing driller 1
 CBL1.IN              306:   Casing logger 1
 BS1 .IN            7.875:   Bit size
 BSD1.F              2630:   Depth drilled with bit1
 DFT .                OIL:   Type fluid in hole
 LUL .             CASPER:   Logging unit location
 ENGI.            ROLLINS:   Recorded By
 ORIG.           5" PRINT:   Origin of data
 UWI .     49025107670000:   Unique Well ID
 DICO. A2D TECHNOLOGIES ,INC.:   Digitizing Company
 WITN.              AMUND:   Witnessed by
~OTHER INFORMATION
~A   DEPT      GRD       CALD       CORR       RHOB   
# ...
 2179.0000    56.2377     9.2713     0.1921     2.5840
 2179.5000    57.7327     9.1965     0.1997     2.5833
 2180.0000    60.2676     9.2425     0.2014     2.5750
 2180.5000    57.3047     9.2885     0.2015     2.5548
 2181.0000    53.8960     9.3036     0.2137     2.5495
 2181.5000    53.1619     9.2443     0.2394     2.5654
 2182.0000    54.9773     9.2449     0.2635     2.5790
 2182.5000    57.8357     9.2305     0.2532     2.5836
 2183.0000    60.0236     9.2161     0.2232     2.5716
 2183.5000    58.7906     9.2169     0.2068     2.5558
 2184.0000    57.3013     9.2175     0.2024     2.5491
 2184.5000    55.6385     9.2181     0.2057     2.5477
 2185.0000    52.9290     9.2486     0.2300     2.5598
 2185.5000    54.2751     9.2941     0.2557     2.5854
 2186.0000    59.1874     9.3245     0.2553     2.5945
 2186.5000    61.8708     9.2354     0.2376     2.5592
 2187.0000    60.9882     9.2059     0.2348     2.5584
 2187.5000    60.1055     9.2067     0.2490     2.5615
 2188.0000    59.6664     9.2073     0.2673     2.5601
 2188.5000    60.8661     9.2078     0.2929     2.5330
 2189.0000    57.3089     9.1933     0.3161     2.5278
 2189.5000    56.2754     9.1941     0.3622     2.5482
 2190.0000    59.4068     9.1947     0.3984     2.6024
 2190.5000    60.8994     9.1953     0.3870     2.6150
 2191.0000    55.4127     9.2258     0.3187     2.5694
 2191.5000    53.0441     9.2563     0.2985     2.5476
 2192.0000    55.4304     9.2569     0.2805     2.5349
 2192.5000    58.4110     9.2276     0.2623     2.5237
 2193.0000    59.4600     9.1683     0.2575     2.5260
 2193.5000    59.9146     9.1389     0.2667     2.5456
 2194.0000    56.2087     9.1246     0.2728     2.5532
 2194.5000    54.4345     9.1252     0.2760     2.5259
 2195.0000    54.4434     9.1407     0.2927     2.5086
 2195.5000    55.4924     9.0959     0.3680     2.5052
 2196.0000    59.5131     9.0511     0.4674     2.5181
 2196.5000    60.7107     9.0227     0.4961     2.5749
 2197.0000    61.3139     9.0383     0.4721     2.6043
 2197.5000    60.5798     9.0688     0.4196     2.6085
 2198.0000    57.6169     9.0995     0.3732     2.5762
 2198.5000    56.1399     9.1750     0.3553     2.5476
 2199.0000    55.4058     9.2205     0.3734     2.5251
 2199.5000    57.1977     9.3558     0.3916     2.5252
 2200.0000    59.7325     9.6558     0.3677     2.5147
 2200.5000    61.0826     9.3420     0.3633     2.5132
 2201.0000    61.5497     9.0432     0.3650     2.5246
 2201.5000    61.4945     9.0287     0.3561     2.5299
 2202.0000    53.6767     9.0594     0.3306     2.5081
 2202.5000    49.2279     9.1198     0.3292     2.5134
 2203.0000    48.7888     9.1953     0.3264     2.5082
 2203.5000    48.9485     9.2108     0.2964     2.5098
 2204.0000    51.9291     9.2264     0.2522     2.5091
 2204.5000    54.6126     9.2270     0.2240     2.4918
 2205.0000    53.7299     9.2185     0.2141     2.4701
 2205.5000    53.2928     9.2099     0.2244     2.4295
 2206.0000    55.3822     9.1802     0.2593     2.4220
 2206.5000    56.8769     9.1806     0.3949     2.4597
 2207.0000    56.8858     9.1959     0.4336     2.4785
 2207.5000    55.8546     9.1961     0.4554     2.5064
 2208.0000    54.0804     9.1964     0.4841     2.5697
 2208.5000    53.0491     9.1967     0.4437     2.6074
 2209.0000    52.9093     9.1970     0.3716     2.5811
 2209.5000    52.9183     9.1973     0.3191     2.5616
 2210.0000    57.2363     9.1976     0.2681     2.5345
 2210.5000    61.1154     9.1829     0.2307     2.4902
 2211.0000    62.0089     9.1982     0.2594     2.4885
 2211.5000    61.2457     9.2135     0.3122     2.5144
 2212.0000    58.2724     9.2737     0.3228     2.5393
 2212.5000    56.5003     9.1542     0.3245     2.5529
 2213.0000    53.8276     9.1096     0.3171     2.5544
 2213.5000    52.9893     9.1099     0.3112     2.5537
 2214.0000    52.7010     9.1102     0.3068     2.5507
 2214.5000    52.7551     9.0955     0.3054     2.5264
 2215.0000    54.7003     9.0958     0.3402     2.5178
 2215.5000    55.7272     9.0961     0.3899     2.5452
 2216.0000    59.4253     9.0964     0.4036     2.5982
 2216.5000    61.8115     9.0967     0.3902     2.6202
 2217.0000    62.2640     9.0970     0.3287     2.6119
 2217.5000    61.5321     9.0973     0.2987     2.5911
 2218.0000    60.7981     9.0976     0.2823     2.5766
 2218.5000    59.3211     9.0979     0.2765     2.5719
 2219.0000    56.9525     9.0832     0.2766     2.5534
 2219.5000    55.6241     9.0835     0.2872     2.5360
 2220.0000    55.4822     9.0688     0.3160     2.5168
 2220.5000    56.0876     9.0692     0.3462     2.5138
 2221.0000    57.1366     9.0695     0.3824     2.5184
 2221.5000    55.6596     9.0848     0.3946     2.5576
 2222.0000    50.6165     9.1001     0.4022     2.6065
 2222.5000    48.3965     9.1153     0.3753     2.6231
 2223.0000    47.5139     9.1156     0.3077     2.5781
 2223.5000    46.9262     9.0860     0.2537     2.5292
 2224.0000    46.6379     9.0863     0.2223     2.5134
 2224.5000    49.0264     9.1464     0.2059     2.5075
 2225.0000    55.1274     9.2515     0.1940     2.5083
 2225.5000    55.7306     9.2369     0.1866     2.5083
 2226.0000    55.5909     9.1922     0.1807     2.5152
 2226.5000    52.4795     9.1775     0.1793     2.5416
 2227.0000    50.1109     9.1779     0.2021     2.5439
 2227.5000    49.8204     9.1931     0.2037     2.5334
 2228.0000    52.3575     9.2084     0.1963     2.5109
 2228.5000    54.7438     9.2237     0.1919     2.5019
 2229.0000    55.4956     9.2240     0.1996     2.5004
 2229.5000    57.7333     9.1644     0.2539     2.5185
 2230.0000    59.6738     9.1198     0.2916     2.5397
 2230.5000    60.2771     9.0752     0.3083     2.5849
 2231.0000    59.0972     9.0755     0.3144     2.6128
 2231.5000    58.6581     9.0907     0.3176     2.6429
 2232.0000    59.7094     9.1060     0.3042     2.6497
 2232.5000    61.7985     9.1070     0.2502     2.6114
 2233.0000    62.6989     9.0916     0.2172     2.5806
 2233.5000    62.4106     9.0769     0.1918     2.5543
 2234.0000    57.2189     9.0922     0.1799     2.5318
 2234.5000    51.1356     9.0935     0.1785     2.5341
 2235.0000    49.6586     9.1078     0.1907     2.5387
 2235.5000    50.7076     9.0931     0.2059     2.5417
 2236.0000    54.1340     9.0784     0.2270     2.5689
 2236.5000    57.2633     9.0281     0.2392     2.5938
 2237.0000    59.5010     8.9144     0.2408     2.5953
 2237.5000    60.4014     8.8548     0.2365     2.5826
 2238.0000    60.4103     8.8701     0.2366     2.5811
 2238.5000    60.7163     8.9303     0.2580     2.5985
 2239.0000    62.0625     9.0204     0.2944     2.6046
 2239.5000    63.5572     9.0506     0.3307     2.6144
 2240.0000    64.6062     9.0359     0.3545     2.6333
 2240.5000    65.0633     9.0363     0.3591     2.6566
 2241.0000    64.7578     9.0366     0.3561     2.6657
 2241.5000    62.0779     9.0369     0.3437     2.6680
 2242.0000    60.6201     9.0372     0.3005     2.6380
 2242.5000    61.2701     9.0524     0.2703     2.6147
 2243.0000    62.9213     9.0527     0.2603     2.6035
 2243.5000    64.7376     9.0381     0.2591     2.5990
 2244.0000    68.0654     9.0084     0.2653     2.5998
 2244.5000    70.4811     8.9788     0.2651     2.6006
 2245.0000    68.8311     8.9640     0.2656     2.5992
 2245.5000    67.8089     8.9345     0.2747     2.6045
 2246.0000    60.8517     8.9347     0.2899     2.6071
 2246.5000    58.7781     8.9800     0.3021     2.5820
 2247.0000    58.6384     9.0252     0.3218     2.5708
 2247.5000    58.0552     9.0554     0.3399     2.5754
 2248.0000    57.4697     9.0575     0.3476     2.6010
 2248.5000    60.4503     9.0410     0.3462     2.6259
 2249.0000    61.4993     9.0114     0.3358     2.6357
 2249.5000    61.3596     8.9967     0.3074     2.6358
 2250.0000    60.1798     9.0269     0.2835     2.6328
 2250.5000    57.5141     9.0576     0.2520     2.6193
 2251.0000    57.0750     9.1332     0.2296     2.6035
 2251.5000    57.6804     9.1939     0.2162     2.5900
