~VERSION INFORMATION
 VERS.                2.0:   CWLS LOG ASCII STANDARD - VERSION 2.0
 WRAP.                 NO:   ONE LINE PER DEPTH STEP
~WELL INFORMATION
#MNEM.UNIT      DATA TYPE    INFORMATION
#----------   ------------   ------------------------------
 STRT.F            0.0000:   START DEPTH
 STOP.F         2775.5000:   STOP DEPTH
 STEP.F            0.5000:   STEP LENGTH
 NULL.          -999.2500:   NO VALUE
 COMP.          U.S. NAVY:   COMPANY
 WELL.   U.S. "A" #107-29:   WELL
 FLD .        TEAPOT DOME:   FIELD
 LOC .      S29 T39N R78W:   LOCATION
 CNTY.            NATRONA:   COUNTY
 STAT.            WYOMING:   STATE
 CTRY. UNITED STATES OF AMERICA:   COUNTRY
 SRVC.         MCCULLOUGH:   SERVICE COMPANY
 DATE.        07-SEP-1966:   LOGDATE
 API .     49025095920000:   API NUMBER
~CURVE INFORMATION
#MNEM.UNIT       API CODE    CURVE DESCRIPTION
#----------   ------------   ------------------------------
 DEPT.F                  :   
 GR  .GAPI   30 310 01 00:   GAMMA RAY
 CALI.IN     70 280 01 00:   CALIPER
~PARAMETER INFORMATION
#MNEM.UNIT          VALUE    DESCRIPTION
#----------   ------------   ------------------------------
 EKB .F            0.0000:   Kelly bushing
 EGL .F            0.0000:   Ground level
 EDF .F            0.0000:   Drilling floor
 EPD .F            0.0000:   Permanent datum
 TD  .F         2777.5000:   Total depth
 DATE.        07-SEP-1966:   Date logged
 CLNT.            A2DTECH:   Client Code
 PD  .                 GL:   Permanent Datum
 LMF .                 GL:   Log Measured From
 DMF .                 GL:   Drilling Measured From
 DL  .F            2777.5:   Depth logger
 BLI .F              2776:   Bottom log interval
 TLI .F              2200:   Top log interval
 CS1 .IN                5:   Casing size
 CBD1.         5" @ 2722':   Casing driller 1
 DFT .              WATER:   Type fluid in hole
 RMB .OHMM           .053:   Rm. at BHT
 TCS .HRS             1.5:   Time Circ. stopped
 LUN .               1460:   Logging unit number
 ENGI.        FITZSIMMONS:   Recorded By
 WITN.             TUTTLE:   Witnessed by
 ORIG.           5" PRINT:   Origin of data
 UWI .     49025095920000:   Unique Well ID
 DICO. A2D TECHNOLOGIES, INC.:   Digitizing Company
~OTHER INFORMATION
~A    DEPT      GR         CALI 
# ...
  486.0000  -999.2500     7.1240
  486.5000  -999.2500     7.1230
  487.0000  -999.2500     7.1230
  487.5000  -999.2500     7.1220
  488.0000  -999.2500     7.1220
  488.5000  -999.2500     7.1220
  489.0000  -999.2500     7.1310
  489.5000  -999.2500     7.1390
  490.0000  -999.2500     7.1480
  490.5000  -999.2500     7.1570
  491.0000  -999.2500     7.1770
  491.5000  -999.2500     7.2110
  492.0000  -999.2500     7.2260
  492.5000  -999.2500     7.2400
  493.0000  -999.2500     7.2490
  493.5000  -999.2500     7.2420
  494.0000  -999.2500     7.2360
  494.5000  -999.2500     7.2300
  495.0000  -999.2500     7.2230
  495.5000  -999.2500     7.2050
  496.0000  -999.2500     7.1740
  496.5000  -999.2500     7.1430
  497.0000  -999.2500     7.1110
  497.5000  -999.2500     7.1010
  498.0000  -999.2500     7.1000
  498.5000  -999.2500     7.0990
  499.0000  -999.2500     7.0980
  499.5000  -999.2500     7.0970
  500.0000  -999.2500     7.0960
  500.5000  -999.2500     7.0950
  501.0000  -999.2500     7.0940
  501.5000  -999.2500     7.0930
  502.0000  -999.2500     7.0940
  502.5000  -999.2500     7.1050
  503.0000  -999.2500     7.1150
  503.5000  -999.2500     7.1240
  504.0000  -999.2500     7.1340
  504.5000  -999.2500     7.1440
  505.0000  -999.2500     7.1440
  505.5000  -999.2500     7.1150
  506.0000  -999.2500     7.1120
  506.5000  -999.2500     7.1120
  507.0000  -999.2500     7.1120
  507.5000  -999.2500     7.1120
  508.0000  -999.2500     7.1120
  508.5000  -999.2500     7.1120
  509.0000  -999.2500     7.1120
  509.5000  -999.2500     7.1120
  510.0000  -999.2500     7.1120
  510.5000  -999.2500     7.1120
  511.0000  -999.2500     7.1120
  511.5000  -999.2500     7.1110
  512.0000  -999.2500     7.1200
  512.5000  -999.2500     7.1370
  513.0000  -999.2500     7.1610
  513.5000  -999.2500     7.1640
  514.0000  -999.2500     7.1660
  514.5000  -999.2500     7.1680
  515.0000  -999.2500     7.1700
  515.5000  -999.2500     7.1710
  516.0000  -999.2500     7.1730
  516.5000  -999.2500     7.1750
  517.0000  -999.2500     7.1770
  517.5000  -999.2500     7.1790
  518.0000  -999.2500     7.1800
  518.5000  -999.2500     7.1970
  519.0000  -999.2500     7.2160
  519.5000  -999.2500     7.2350
  520.0000  -999.2500     7.2540
  520.5000  -999.2500     7.2730
  521.0000  -999.2500     7.2930
  521.5000  -999.2500     7.3120
  522.0000  -999.2500     7.3180
  522.5000  -999.2500     7.3160
  523.0000  -999.2500     7.3140
  523.5000  -999.2500     7.3120
  524.0000  -999.2500     7.3110
  524.5000  -999.2500     7.2640
  525.0000  -999.2500     7.2200
  525.5000  -999.2500     7.1920
  526.0000  -999.2500     7.1640
  526.5000  -999.2500     7.1420
  527.0000  -999.2500     7.1510
  527.5000  -999.2500     7.1590
  528.0000  -999.2500     7.1670
  528.5000  -999.2500     7.1750
  529.0000  -999.2500     7.1830
  529.5000  -999.2500     7.1910
  530.0000  -999.2500     7.2000
  530.5000  -999.2500     7.1990
  531.0000  -999.2500     7.1980
  531.5000  -999.2500     7.1970
  532.0000  -999.2500     7.1950
  532.5000  -999.2500     7.1940
  533.0000  -999.2500     7.1930
  533.5000  -999.2500     7.1910
  534.0000  -999.2500     7.1930
  534.5000  -999.2500     7.1980
  535.0000  -999.2500     7.2030
  535.5000  -999.2500     7.2070
  536.0000  -999.2500     7.2120
  536.5000  -999.2500     7.2170
  537.0000  -999.2500     7.2220
  537.5000  -999.2500     7.2260
  538.0000  -999.2500     7.2340
  538.5000  -999.2500     7.2550
  539.0000  -999.2500     7.2730
  539.5000  -999.2500     7.2710
  540.0000  -999.2500     7.2410
  540.5000  -999.2500     7.2110
  541.0000  -999.2500     7.1820
  541.5000  -999.2500     7.1900
  542.0000  -999.2500     7.2010
  542.5000  -999.2500     7.2540
  543.0000  -999.2500     7.3120
  543.5000  -999.2500     7.3360
  544.0000  -999.2500     7.3310
  544.5000  -999.2500     7.3260
  545.0000  -999.2500     7.3200
  545.5000  -999.2500     7.3240
  546.0000  -999.2500     7.3300
  546.5000  -999.2500     7.3360
  547.0000  -999.2500     7.3420
  547.5000  -999.2500     7.3490
  548.0000  -999.2500     7.3570
  548.5000  -999.2500     7.3660
  549.0000  -999.2500     7.3620
  549.5000  -999.2500     7.3120
  550.0000  -999.2500     7.2470
  550.5000  -999.2500     7.1880
  551.0000  -999.2500     7.1440
  551.5000  -999.2500     7.1080
  552.0000  -999.2500     7.0810
  552.5000  -999.2500     7.0800
  553.0000  -999.2500     7.0780
  553.5000  -999.2500     7.0760
  554.0000  -999.2500     7.0740
  554.5000  -999.2500     7.0720
  555.0000  -999.2500     7.0790
  555.5000  -999.2500     7.0880
  556.0000  -999.2500     7.1060
  556.5000  -999.2500     7.1300
  557.0000  -999.2500     7.1540
  557.5000  -999.2500     7.1710
  558.0000  -999.2500     7.1710
  558.5000  -999.2500     7.1710
  559.0000  -999.2500     7.1710
  559.5000  -999.2500     7.1720
  560.0000  -999.2500     7.1880
  560.5000  -999.2500     7.2050
  561.0000  -999.2500     7.2000
  561.5000  -999.2500     7.1850
  562.0000  -999.2500     7.1690
  562.5000  -999.2500     7.1540
  563.0000  -999.2500     7.1370
  563.5000  -999.2500     7.1150
  564.0000  -999.2500     7.0920
  564.5000  -999.2500     7.0840
  565.0000  -999.2500     7.0870
  565.5000  -999.2500     7.0900
  566.0000  -999.2500     7.0930
  566.5000  -999.2500     7.0960
  567.0000  -999.2500     7.0990
  567.5000  -999.2500     7.0940
  568.0000  -999.2500     7.0610
  568.5000  -999.2500     7.0550
  569.0000  -999.2500     7.0590
  569.5000  -999.2500     7.0620
  570.0000  -999.2500     7.0660
  570.5000  -999.2500     7.0700
  571.0000  -999.2500     7.0740
  571.5000  -999.2500     7.0770
  572.0000  -999.2500     7.0820
  572.5000  -999.2500     7.0630
  573.0000  -999.2500     7.0420
  573.5000  -999.2500     7.0450
  574.0000  -999.2500     7.0480
  574.5000  -999.2500     7.0500
  575.0000  -999.2500     7.0530
  575.5000  -999.2500     7.0550
  576.0000  -999.2500     7.0580
  576.5000  -999.2500     7.0600
  577.0000  -999.2500     7.0630
  577.5000  -999.2500     7.0650
  578.0000  -999.2500     7.0680
  578.5000  -999.2500     7.0700
  579.0000  -999.2500     7.0790
  579.5000  -999.2500     7.1170
  580.0000  -999.2500     7.1550
  580.5000  -999.2500     7.1920
  581.0000  -999.2500     7.2060
  581.5000  -999.2500     7.2010
  582.0000  -999.2500     7.1880
  582.5000  -999.2500     7.1190
  583.0000  -999.2500     7.0950
  583.5000  -999.2500     7.0840
  584.0000  -999.2500     7.0860
  584.5000  -999.2500     7.0880
  585.0000  -999.2500     7.0910
  585.5000  -999.2500     7.0910
  586.0000  -999.2500     7.0890
  586.5000  -999.2500     7.0880
  587.0000  -999.2500     7.0860
  587.5000  -999.2500     7.0850
  588.0000  -999.2500     7.0830
  588.5000  -999.2500     7.0810
  589.0000  -999.2500     7.0800
  589.5000  -999.2500     7.0780
  590.0000  -999.2500     7.0770
  590.5000  -999.2500     7.0750
  591.0000  -999.2500     7.0740
  591.5000  -999.2500     7.0720
  592.0000  -999.2500     7.0700
  592.5000  -999.2500     7.0690
  593.0000  -999.2500     7.0670
  593.5000  -999.2500     7.0660
  594.0000  -999.2500     7.0640
  594.5000  -999.2500     7.0630
  595.0000  -999.2500     7.0620
  595.5000  -999.2500     7.0620
  596.0000  -999.2500     7.0620
  596.5000  -999.2500     7.0620
  597.0000  -999.2500     7.0620
  597.5000  -999.2500     7.0620
  598.0000  -999.2500     7.0620
  598.5000  -999.2500     7.0670
  599.0000  -999.2500     7.0740
  599.5000  -999.2500     7.0820
  600.0000  -999.2500     7.0970
  600.5000  -999.2500     7.1130
  601.0000  -999.2500     7.1590
  601.5000  -999.2500     7.1720
  602.0000  -999.2500     7.1750
  602.5000  -999.2500     7.1770
  603.0000  -999.2500     7.1790
  603.5000  -999.2500     7.1810
  604.0000  -999.2500     7.1830
  604.5000  -999.2500     7.1860
  605.0000  -999.2500     7.1880
  605.5000  -999.2500     7.1900
  606.0000  -999.2500     7.1970
  606.5000  -999.2500     7.2070
  607.0000  -999.2500     7.2000
