~VERSION INFORMATION
 VERS.                2.0:   CWLS LOG ASCII STANDARD - VERSION 2.0
 WRAP.                 NO:   ONE LINE PER DEPTH STEP
~WELL INFORMATION
#MNEM.UNIT      DATA TYPE    INFORMATION
#----------   ------------   ------------------------------
 STRT.F          207.0000:   START DEPTH
 STOP.F         3130.0000:   STOP DEPTH
 STEP.F            0.5000:   STEP LENGTH
 NULL.          -999.2500:   NO VALUE
 COMP. FENIX & SCISSON U.S. NAVY:   COMPANY
 WELL.    FENIX "A" #61-3:   WELL
 FLD .             NPR #3:   FIELD
 LOC .       S3 T38N R78W:   LOCATION
 CNTY.            NATRONA:   COUNTY
 STAT.            WYOMING:   STATE
 CTRY. UNITED STATES OF AMERICA:   COUNTRY
 SRVC.              WELEX:   SERVICE COMPANY
 DATE.        13-MAY-1977:   LOGDATE
 API .     49025103630000:   API NUMBER
~CURVE INFORMATION
#MNEM.UNIT       API CODE    CURVE DESCRIPTION
#----------   ------------   ------------------------------
 DEPT.F                  :   
 SPR .MV     07 010 01 00:   SPONTANEOUS POTENTIAL
 SFLU.OHMM   07 220 01 00:   SPHERICALLY FOCUSED LOG UNAVERAGED RESISTIVITY
 ILD .OHMM   07 120 46 00:   INDUCTION LOG DEEP RESISTIVITY
 ILM .OHMM   07 120 44 00:   INDUCTION LOG MEDIUM RESISTIVITY
 CALD.IN     45 280 60 00:   CALIPER FROM DENSITY LOG
 GRD .GAPI   45 310 01 00:   GAMMA RAY FROM DENSITY LOG
 RHOB.G/C3   45 350 01 00:   BULK DENSITY
 CORR.G/C3   45 356 01 00:   DENSITY CORRECTION
~PARAMETER INFORMATION
#MNEM.UNIT          VALUE    DESCRIPTION
#----------   ------------   ------------------------------
 EKB .F         5109.0000:   Kelly bushing
 EGL .F         5099.0000:   Ground level
 EDF .F            0.0000:   Drilling floor
 TD  .F         3130.0000:   Total depth
 DATE.        13-MAY-1977:   Date logged
 CLNT.            A2DTECH:   Client Code
 SL  . 330' FNL & 1650' FEL:   Surface Location
 PD  .                 GL:   Permanent Datum
 EPD .F              5099:   Elevation Permanent Datum
 LMF .                 KB:   Log Measured From
 DMF .                 KB:   Drilling Measured From
 DAPD.F                10:   Feet Above Permanent Datum
 DD  .F              3126:   Depth driller
 DL  .F              3129:   Depth logger
 BLI .F              3127:   Bottom log interval
 TLI .F               210:   Top log interval
 CS1 .IN            8.625:   Casing size
 CBD1.      8.625" @ 200':   Casing driller 1
 CBL1.F               216:   Casing logger 1
 BS1 .IN            7.875:   Bit size
 BSD1.F              3126:   Depth drilled with bit1
 DFT .            KCL MUD:   Type fluid in hole
 DFD .                9.1:   Density
 DFV .                 32:   Viscosity
 DFPH.                  8:   pH
 DFL .                8.4:   Fluid loss
 MSS .           FLOWLINE:   Source of sample
 RMS .OHMM            .29:   Rm
 MST .F                68:   Rm Meas. temp.
 RMF .OHMM            .28:   Rmf
 MFST.F                68:   Rmf Meas. temp.
 RMC .OHMM            .43:   Rmc
 MCST.F                68:   Rmc Meas. temp.
 MFSS.           FANN KIT:   Source Rmf.
 MCSS.           FANN KIT:   Source Rmc.
 RMB .OHMM            .16:   Rm. at BHT
 BHT .F               123:   BHT.
 TCS .HRS             2.5:   Time Circ. stopped
 MRT .F               123:   Maximum recorded temp.
 LUN .               9685:   Logging unit number
 LUL .           BRIGHTON:   Logging unit location
 ENGI.          T. JOYNER:   Recorded By
 WITN.      B. HARRINGTON:   Witnessed by
 ORIG.           5" PRINT:   Origin of data
 UWI .     49025103630000:   Unique Well ID
 DICO. A2D TECHNOLOGIES, INC.:   Digitizing Company
~OTHER INFORMATION
~A   DEPT      SPR       SFLU        ILD        ILM       CALD        GRD       RHOB       CORR   
# ...
  976.5000   -33.4669     8.8047     7.3246     7.6694     9.4210   106.3241     2.4877     0.0248
  977.0000   -33.5229     8.6437     7.0593     7.5987     9.4210   107.5099     2.4877     0.0228
  977.5000   -33.5788     8.4078     6.8667     7.4596     9.4210   108.3004     2.4877     0.0227
  978.0000   -33.6347     8.4073     6.7411     7.3908     9.4210   108.6957     2.4877     0.0227
  978.5000   -33.6906     8.4064     6.6176     7.2555     9.4210   108.6957     2.4854     0.0187
  979.0000   -33.7465     8.1771     6.6174     7.1227     9.4210   108.3004     2.4804     0.0147
  979.5000   -33.8024     8.1017     6.5561     7.0570     9.4210   107.1146     2.4744     0.0126
  980.0000   -33.8584     8.1011     6.5560     6.9919     9.4210   105.9289     2.4696     0.0106
  980.5000   -33.9064     8.1006     6.4358     6.9274     9.4407   105.1383     2.4706     0.0106
  981.0000   -33.9063     8.1001     6.3180     6.8635     9.4605   105.1383     2.4716     0.0105
  981.5000   -34.1070     8.1744     6.2599     6.8002     9.4407   105.5336     2.4706     0.0105
  982.0000   -34.1077     8.1739     6.2020     6.7998     9.4407   105.9289     2.4626     0.0105
  982.5000   -34.1083     8.2489     6.2017     6.7371     9.4407   105.9289     2.4626     0.0104
  983.0000   -34.1090     8.3247     6.2013     6.7366     9.4407   104.7431     2.4666     0.0124
  983.5000   -34.1096     8.4011     6.1440     6.7362     9.4407   103.9526     2.4716     0.0124
  984.0000   -34.1103     8.4782     6.2579     6.7981     9.4605   103.1621     2.4766     0.0163
  984.5000   -34.1110     8.5561     6.4325     6.9239     9.4407   102.3715     2.4815     0.0123
  985.0000   -33.9120     8.5556     6.5516     7.0521     9.4407   101.2258     2.4835     0.0163
  985.5000   -34.1123     8.5550     6.6118     7.1168     9.4407   100.3953     2.4875     0.0163
  986.0000   -34.1129     8.5544     6.7341     7.1821     9.4407   103.1621     2.4905     0.0162
  986.5000   -34.3133     8.3212     6.7959     7.1817     9.4210   104.3478     2.4905     0.0182
  987.0000   -34.3139     8.3975     6.7956     7.2477     9.4210   104.3478     2.4905     0.0182
  987.5000   -34.3146     8.4744     6.7951     7.2472     9.4407   104.3478     2.4903     0.0181
  988.0000   -34.1156     8.5522     6.7947     7.2467     9.4407   103.5573     2.4952     0.0201
  988.5000   -34.1163     8.5517     6.7943     7.1141     9.4407   103.1621     2.4962     0.0201
  989.0000   -34.1169     8.5511     6.7317     7.0485     9.4407   103.1621     2.4952     0.0200
  989.5000   -33.9178     8.6296     6.6696     6.9835     9.4407   103.5573     2.4934     0.0180
  990.0000   -34.1181     8.4717     6.6081     6.9191     9.4605   104.3478     2.4914     0.0180
  990.5000   -34.1188     8.3935     6.4870     6.8553     9.4407   105.1383     2.4884     0.0159
  991.0000   -34.3191     8.2399     6.3683     6.7921     9.4407   105.9289     2.4814     0.0119
  991.5000   -34.3197     8.0891     6.3097     6.6678     9.4605   105.5336     2.4734     0.0019
  992.0000   -34.5200     8.0145     6.2514     6.6063     9.4407   104.3478     2.4694     0.0039
  992.5000   -34.1214     7.8679     6.2511     6.5453     9.4605   103.9526     2.4764     0.0058
  993.0000   -34.1221     7.8674     6.1934     6.5451     9.4407   103.5573     2.4794     0.0118
  993.5000   -34.1227     7.8668     6.1930     6.5447     9.4407   103.5573     2.4844     0.0158
  994.0000   -34.1234     8.2367     6.1926     6.5442     9.4803   103.9526     2.4893     0.0157
  994.5000   -34.1241     8.5450     6.1923     6.5438     9.4605   103.5573     2.4873     0.0177
  995.0000   -33.9251     8.6234     6.1919     6.6037     9.4803   102.3715     2.4873     0.0117
  995.5000   -34.1254     8.6228     6.2486     6.6033     9.4605   101.9763     2.4853     0.0117
  996.0000   -33.9264     8.7020     6.3643     6.6640     9.4605   101.9763     2.4803     0.0136
  996.5000   -34.1267     8.7819     6.4227     6.7251     9.4407   102.8398     2.4753     0.0116
  997.0000   -34.1274     8.8625     6.4817     6.8496     9.4407   103.7032     2.4743     0.0136
  997.5000   -34.1280     8.8620     6.5413     6.9124     9.4407   104.7431     2.4773     0.0115
  998.0000   -33.7295     8.8614     6.5408     6.9760     9.4407   104.3478     2.4773     0.0115
  998.5000   -33.7301     8.8608     6.6620     7.1052     9.4407   103.7680     2.4773     0.0115
  999.0000   -33.3315     8.8602     6.7231     7.2364     9.4605   103.1881     2.4773     0.0074
  999.5000   -33.3321     8.9415     6.7848     7.2361     9.4605   102.6083     2.4773     0.0094
 1000.0000   -33.5324     9.1070     6.8470     7.2357     9.5198   102.0284     2.4760     0.0094
 1000.5000   -33.5332     9.1063     6.8981     7.2351     9.4811   101.4485     2.4769     0.0094
 1001.0000   -33.5331     9.1065     6.9738     7.2352     9.4810   100.9328     2.4791    -0.0005
 1001.5000   -33.5334     9.1061     7.0380     7.2351     9.4814   100.4189     2.4821     0.0015
 1002.0000   -33.5338     9.1060     7.0378     7.2348     9.5213    99.2810     2.4861     0.0056
 1002.5000   -33.5342     9.1058     7.1027     7.2346     9.5019    99.2889     2.4971     0.0096
 1003.0000   -33.5344     9.0221     7.1680     7.2344     9.4826    99.6921     2.4991     0.0097
 1003.5000   -33.5348     8.9393     7.0372     7.2342     9.4632   100.0952     2.4971     0.0097
 1004.0000   -33.7348     8.9390     7.0370     7.1020     9.4637   100.8937     2.4942     0.0098
 1004.5000   -33.5357     8.8568     6.9085     7.1019     9.4443   100.9016     2.4912     0.0058
 1005.0000   -33.7355     9.0211     6.9083     7.0366     9.4447   100.9094     2.4872     0.0059
 1005.5000   -33.7358     9.0209     6.8448     6.9720     9.4648   101.3126     2.4832     0.0059
 1006.0000   -33.7362     9.1040     6.8446     6.8446     9.4850   100.9252     2.4803     0.0060
 1006.5000   -33.7365     9.0204     6.7196     6.7817     9.4854   100.9331     2.4773     0.0020
 1007.0000   -33.7368     9.1035     6.7815     6.7816     9.4858    99.7552     2.4753     0.0001
 1007.5000   -33.9368     9.3581     6.8441     6.8440     9.4862    99.7631     2.4733    -0.0018
 1008.0000   -34.1368     9.3580     7.1005     6.9710     9.4866    99.7710     2.4714    -0.0018
 1008.5000   -33.9375     9.2965     7.2321     7.2321     9.4870    99.3836     2.4694    -0.0017
 1009.0000   -33.7382     9.2354     7.2988     7.4344     9.5071    99.3915     2.4756    -0.0017
 1009.5000   -33.9382     9.1747     7.2986     7.5028     9.5075    99.7946     2.4804    -0.0017
 1010.0000   -33.7389     9.1144     7.2315     7.5027     9.5277   100.5931     2.4784    -0.0016
 1010.5000   -33.9389     9.0545     7.0993     7.5024     9.5281   100.9962     2.4775    -0.0016
 1011.0000   -33.9392     8.9950     7.0993     7.4335     9.5285   101.3994     2.4815    -0.0015
 1011.5000   -34.1392     8.9359     6.9696     7.3652     9.5289   104.1374     2.4815     0.0086
 1012.0000   -34.1395     8.8531     6.9694     7.2976     9.5095   101.8105     2.4757     0.0086
 1012.5000   -34.1399     8.8530     6.9692     7.2305     9.5099   101.3831     2.4737     0.0106
 1013.0000   -34.1402     8.8528     6.9690     7.2303     9.5103   102.5768     2.4758     0.0147
 1013.5000   -34.3402     8.9344     6.9689     7.2301     9.5107   102.9800     2.4798     0.0127
 1014.0000   -34.1409     9.0167     6.9686     7.1637     9.5111   102.9878     2.4838     0.0148
 1014.5000   -34.1412     9.0165     6.9684     7.0978     9.4917   102.2052     2.4888     0.0148
 1015.0000   -34.1416     9.0163     6.9683     7.1634     9.4723   102.2131     2.4888     0.0169
 1015.5000   -34.1419     9.0161     6.9680     7.1632     9.4727   102.6162     2.4888     0.0129
 1016.0000   -34.3419     9.0158     6.9679     7.1629     9.4731   103.8100     2.4889     0.0149
 1016.5000   -34.3423     9.0156     6.9677     7.1627     9.4538   103.8178     2.4889     0.0150
