~VERSION INFORMATION
 VERS.                2.0:   CWLS LOG ASCII STANDARD - VERSION 2.0
 WRAP.                 NO:   ONE LINE PER DEPTH STEP
~WELL INFORMATION
#MNEM.UNIT      DATA TYPE    INFORMATION
#----------   ------------   ------------------------------
 STRT.F            0.5000:   START DEPTH
 STOP.F         3195.0000:   STOP DEPTH
 STEP.F            0.5000:   STEP LENGTH
 NULL.          -999.2500:   NO VALUE
 COMP.   TESORO PETROLEUM:   COMPANY
 WELL. TESORO NPR 3 "A" #15-10:   WELL
 FLD .        TEAPOT DOME:   FIELD
 LOC .      S10 T38N R78W:   LOCATION
 CNTY.            NATRONA:   COUNTY
 STAT.            WYOMING:   STATE
 CTRY. UNITED STATES OF AMERICA:   COUNTRY
 SRVC.       SCHLUMBERGER:   SERVICE COMPANY
 DATE.        03-JUL-1969:   LOGDATE
 API .     49025600130000:   API NUMBER
~CURVE INFORMATION
#MNEM.UNIT       API CODE    CURVE DESCRIPTION
#----------   ------------   ------------------------------
 DEPT.F                  :   
 SPR .MV     05 010 01 00:   SPONTANEOUS POTENTIAL FROM RES.
 ASN .OHMM   05 041 16 00:   AMPLIFIED SHORT NORMAL 16"
 ILD .OHMM   05 120 46 00:   INDUCTION LOG DEEP
 CALD.IN     45 280 60 00:   CALIPER FROM DENSITY LOG
 GRD .GAPI   45 310 01 00:   GAMMA RAY FROM DENSITY LOG
 RHOB.G/C3   45 350 01 00:   BULK DENSITY
~PARAMETER INFORMATION
#MNEM.UNIT          VALUE    DESCRIPTION
#----------   ------------   ------------------------------
 EKB .F         5250.0000:   Kelly bushing
 EGL .F         5237.0000:   Ground level
 EDF .F            0.0000:   Drilling floor
 TD  .F         3200.0000:   Total depth
 CLNT.            A2DTECH:   Client Code
 SL  . 990' FWL & 1980' FSL:   Surface Location
 PD  .                 GL:   Permanent Datum
 EPD .F              5237:   Elevation Permanent Datum
 LMF .                 KB:   Log Measured From
 DMF .                 KB:   Drilling Measured From
 DAPD.F                13:   Feet Above Permanent Datum
 DATE.        03-JUL-1969:   Date Logged [DD-MMM-YYYY]
 DD  .F              3200:   Depth driller
 DL  .F              3196:   Depth logger
 BLI .F              3195:   Bottom log interval
 TLI .F               676:   Top log interval
 CS1 .IN            10.75:   Casing size
 CBD1.      10.75" @ 675':   Casing driller 1
 CBL1.F               676:   Casing logger 1
 BS1 .IN            6.125:   Bit size
 BSD1.F              3200:   Depth drilled with bit1
 DFT .      FRESH GEL MUD:   Type fluid in hole
 DFD .                9.5:   Density
 DFV .                 46:   Viscosity
 DFPH.                9.5:   pH
 DFL .                6.4:   Fluid loss
 MSS .           FLOWLINE:   Source of sample
 RMS .OHMM           2.05:   Rm
 MST .F                76:   Rm Meas. temp.
 RMF .OHMM           1.49:   Rmf
 MFST.F                78:   Rmf Meas. temp.
 MFSS.               MEAS:   Source Rmf.
 RMB .OHMM           1.34:   Rm. at BHT
 BHT .F               116:   BHT.
 TCS .HRS               2:   Time Circ. stopped
 MRT .F               116:   Maximum recorded temp.
 LUN .               4507:   Logging unit number
 LUL .               CSPR:   Logging unit location
 ENGI.             KNOBEL:   Recorded By
 WITN.                MAY:   Witnessed by
 ORIG.        2" 5" PRINT:   Origin of data
 UWI .     49025600130000:   Unique Well ID
 DICO. A2D TECHNOLOGIES, INC.:   Digitizing Company
~OTHER INFORMATION
~A    DEPT     SPR          ASN      ILD       CALD        GRD       RHOB   
# ...
 1092.5000   -27.0165     8.7205     7.2168  -999.2500  -999.2500  -999.2500
 1093.0000   -26.8737     8.7242     7.2190  -999.2500  -999.2500  -999.2500
 1093.5000   -26.8182     8.7288     7.2216  -999.2500  -999.2500  -999.2500
 1094.0000   -26.8172     8.7340     7.2236  -999.2500  -999.2500  -999.2500
 1094.5000   -26.8167     8.7379     7.2258  -999.2500  -999.2500  -999.2500
 1095.0000   -26.8039     8.7526     7.2283  -999.2500  -999.2500  -999.2500
 1095.5000   -27.0325     8.8990     7.2304  -999.2500  -999.2500  -999.2500
 1096.0000   -26.9966     8.9031     7.2326  -999.2500  -999.2500  -999.2500
 1096.5000   -27.2113     8.9076     7.1593  -999.2500  -999.2500  -999.2500
 1097.0000   -27.2214     8.9124     7.1620  -999.2500  -999.2500  -999.2500
 1097.5000   -27.4011     8.9924     7.0884  -999.2500  -999.2500  -999.2500
 1098.0000   -27.4058     9.0727     7.1022  -999.2500  -999.2500  -999.2500
 1098.5000   -27.4072     9.0774     7.1686  -999.2500  -999.2500  -999.2500
 1099.0000   -27.2006     9.0818     7.1707  -999.2500  -999.2500  -999.2500
 1099.5000   -26.9968     9.0863     7.2485  -999.2500  -999.2500  -999.2500
 1100.0000   -26.9841     9.0909     7.2256  -999.2500  -999.2500  -999.2500
 1100.5000   -26.9581     9.2437     7.2508  -999.2500  -999.2500  -999.2500
 1101.0000   -26.9326     9.2446     7.2585  -999.2500  -999.2500  -999.2500
 1101.5000   -26.9073     9.2457     7.4018  -999.2500  -999.2500  -999.2500
 1102.0000   -26.8816     9.2468     7.4018  -999.2500  -999.2500  -999.2500
 1102.5000   -26.8565     9.2479     7.4018  -999.2500  -999.2500  -999.2500
 1103.0000   -26.8377     9.2489     7.4018  -999.2500  -999.2500  -999.2500
 1103.5000   -26.9920     9.2500     7.4018  -999.2500  -999.2500  -999.2500
 1104.0000   -26.8326     9.2512     7.5085  -999.2500  -999.2500  -999.2500
 1104.5000   -26.8138     9.2522     7.5529  -999.2500  -999.2500  -999.2500
 1105.0000   -26.8132     9.2532     7.5529  -999.2500  -999.2500  -999.2500
 1105.5000   -26.8350     9.2544     7.5529  -999.2500  -999.2500  -999.2500
 1106.0000   -27.0545     9.2554     7.5529  -999.2500  -999.2500  -999.2500
 1106.5000   -27.2628     9.2829     7.5529  -999.2500  -999.2500  -999.2500
 1107.0000   -27.6098     9.4090     7.6284  -999.2500  -999.2500  -999.2500
 1107.5000   -27.9015     9.5618     7.6618  -999.2500  -999.2500  -999.2500
 1108.0000   -27.9886     9.6393     7.7039  -999.2500  -999.2500  -999.2500
 1108.5000   -28.2006     9.7323     7.7039  -999.2500  -999.2500  -999.2500
 1109.0000   -28.1926     9.8680     7.7941  -999.2500  -999.2500  -999.2500
 1109.5000   -28.2006    10.0208     7.9026  -999.2500  -999.2500  -999.2500
 1110.0000   -27.8567    10.0505     8.0841  -999.2500  -999.2500  -999.2500
 1110.5000   -27.7993    10.1743     8.1571  -999.2500  -999.2500  -999.2500
 1111.0000   -27.7988    10.2512     8.1571  -999.2500  -999.2500  -999.2500
 1111.5000   -27.7996    10.3279     8.1855  -999.2500  -999.2500  -999.2500
 1112.0000   -27.7996    10.3290     8.3082  -999.2500  -999.2500  -999.2500
 1112.5000   -27.7996    10.3301     8.3082  -999.2500  -999.2500  -999.2500
 1113.0000   -27.7996    10.3314     8.4096  -999.2500  -999.2500  -999.2500
 1113.5000   -27.7996    10.3322     8.4592  -999.2500  -999.2500  -999.2500
 1114.0000   -27.7996    10.3333     8.4592  -999.2500  -999.2500  -999.2500
 1114.5000   -27.7996    10.3345     8.4592  -999.2500  -999.2500  -999.2500
 1115.0000   -27.7996    10.3355     8.4592  -999.2500  -999.2500  -999.2500
 1115.5000   -27.7996    10.3366     8.4592  -999.2500  -999.2500  -999.2500
 1116.0000   -27.7996    10.3377     8.4592  -999.2500  -999.2500  -999.2500
 1116.5000   -27.7996    10.2632     8.3556  -999.2500  -999.2500  -999.2500
 1117.0000   -27.7996    10.1883     8.2945  -999.2500  -999.2500  -999.2500
 1117.5000   -27.7996    10.1768     8.1571  -999.2500  -999.2500  -999.2500
 1118.0000   -27.7996    10.0390     8.1173  -999.2500  -999.2500  -999.2500
 1118.5000   -27.7999    10.0401     7.9690  -999.2500  -999.2500  -999.2500
 1119.0000   -27.8002     9.8651     7.8550  -999.2500  -999.2500  -999.2500
 1119.5000   -27.7942     9.7327     7.7039  -999.2500  -999.2500  -999.2500
 1120.0000   -27.6185     9.5888     7.4925  -999.2500  -999.2500  -999.2500
 1120.5000   -27.5145     9.4383     7.3929  -999.2500  -999.2500  -999.2500
 1121.0000   -27.4280     9.3485     7.4018  -999.2500  -999.2500  -999.2500
 1121.5000   -27.3369     9.2890     7.4018  -999.2500  -999.2500  -999.2500
 1122.0000   -27.2475     9.2900     7.5529  -999.2500  -999.2500  -999.2500
 1122.5000   -27.0140     9.2911     7.5529  -999.2500  -999.2500  -999.2500
 1123.0000   -27.0126     9.2980     7.5529  -999.2500  -999.2500  -999.2500
 1123.5000   -27.0137     9.4449     7.5529  -999.2500  -999.2500  -999.2500
 1124.0000   -27.0138     9.4459     7.5529  -999.2500  -999.2500  -999.2500
 1124.5000   -27.0140     9.4470     7.5529  -999.2500  -999.2500  -999.2500
 1125.0000   -27.0149     9.4481     7.5529  -999.2500  -999.2500  -999.2500
 1125.5000   -27.0036     9.5251     7.5529  -999.2500  -999.2500  -999.2500
 1126.0000   -27.0914     9.5260     7.5529  -999.2500  -999.2500  -999.2500
 1126.5000   -27.0120     9.4512     7.5529  -999.2500  -999.2500  -999.2500
 1127.0000   -27.0132     9.4525     7.6284  -999.2500  -999.2500  -999.2500
 1127.5000   -27.0137     9.4534     7.6152  -999.2500  -999.2500  -999.2500
 1128.0000   -27.0138     9.3586     7.5529  -999.2500  -999.2500  -999.2500
 1128.5000   -27.0138     9.3041     7.5067  -999.2500  -999.2500  -999.2500
 1129.0000   -27.0138     9.1537     7.4018  -999.2500  -999.2500  -999.2500
 1129.5000   -27.0138     9.1548     7.2508  -999.2500  -999.2500  -999.2500
 1130.0000   -26.9931     9.0800     7.2508  -999.2500  -999.2500  -999.2500
 1130.5000   -26.9547     9.0055     7.1386  -999.2500  -999.2500  -999.2500
 1131.0000   -26.9161     9.0065     7.0997  -999.2500  -999.2500  -999.2500
 1131.5000   -26.8775     9.0076     7.1752  -999.2500  -999.2500  -999.2500
 1132.0000   -26.8390     9.0086     7.2236  -999.2500  -999.2500  -999.2500
 1132.5000   -26.8004     9.0099     7.2508  -999.2500  -999.2500  -999.2500
 1133.0000   -26.7619     9.0108     7.2508  -999.2500  -999.2500  -999.2500
 1133.5000   -26.7233     9.0253     7.3263  -999.2500  -999.2500  -999.2500
 1134.0000   -26.6850     9.0888     7.4018  -999.2500  -999.2500  -999.2500
 1134.5000   -26.6472     9.1656     7.4018  -999.2500  -999.2500  -999.2500
 1135.0000   -26.6169     9.1919     7.4018  -999.2500  -999.2500  -999.2500
 1135.5000   -26.4738     9.3232     7.4773  -999.2500  -999.2500  -999.2500
 1136.0000   -26.4284     9.4720     7.5529  -999.2500  -999.2500  -999.2500
 1136.5000   -26.6024     9.6616     7.5529  -999.2500  -999.2500  -999.2500
 1137.0000   -26.6244     9.7929     7.6284  -999.2500  -999.2500  -999.2500
 1137.5000   -26.6206     9.9297     7.7039  -999.2500  -999.2500  -999.2500
 1138.0000   -26.6216     9.9308     7.7236  -999.2500  -999.2500  -999.2500
 1138.5000   -26.6243    10.0833     7.8550  -999.2500  -999.2500  -999.2500
 1139.0000   -26.7931    10.0845     7.9305  -999.2500  -999.2500  -999.2500
 1139.5000   -26.6770    10.0856     8.0687  -999.2500  -999.2500  -999.2500
 1140.0000   -26.8686    10.0866     8.1571  -999.2500  -999.2500  -999.2500
 1140.5000   -26.9588    10.0876     8.1571  -999.2500  -999.2500  -999.2500
 1141.0000   -27.0457    10.0888     8.0060  -999.2500  -999.2500  -999.2500
 1141.5000   -27.1322    10.0900     7.9843  -999.2500  -999.2500  -999.2500
 1142.0000   -27.2190    10.0909     7.9300  -999.2500  -999.2500  -999.2500
 1142.5000   -27.3060    10.0072     7.8550  -999.2500  -999.2500  -999.2500
 1143.0000   -27.3953    10.0174     7.9305  -999.2500  -999.2500  -999.2500
 1143.5000   -27.3396    10.0184     8.0060  -999.2500  -999.2500  -999.2500
 1144.0000   -27.2586    10.0953     8.0060  -999.2500  -999.2500  -999.2500
