~VERSION INFORMATION
 VERS.                2.0:   CWLS LOG ASCII STANDARD - VERSION 2.0
 WRAP.                 NO:   ONE LINE PER DEPTH STEP
~WELL INFORMATION
#MNEM.UNIT      DATA TYPE    INFORMATION
#----------   ------------   ------------------------------
 STRT.F           85.5000:   START DEPTH
 STOP.F         3267.0000:   STOP DEPTH
 STEP.F            0.5000:   STEP LENGTH
 NULL.          -999.2500:   NO VALUE
 COMP. LAWRENCE ALLISON & ASSOCIATES:   COMPANY
 WELL. LAWRENCE "X" #78-33:   WELL
 FLD .           N P R #3:   FIELD
 LOC .      S33 T39N R78W:   LOCATION
 CNTY.            NATRONA:   COUNTY
 STAT.            WYOMING:   STATE
 CTRY. UNITED STATES OF AMERICA:   COUNTRY
 SRVC.      DRESSER ATLAS:   SERVICE COMPANY
 DATE.        04-FEB-1986:   LOGDATE
 API .     49025110630000:   API NUMBER
~CURVE INFORMATION
#MNEM.UNIT       API CODE    CURVE DESCRIPTION
#----------   ------------   ------------------------------
 DEPT.F                  :   
 CNC .DEC    42 890 03 00:   NEUTRON PORISITY SANDSTONE
 DEN .G/C3   45 350 01 00:   BULK DENSITY
 DCOR.G/C3   45 356 01 00:   DENSITY CORRECTION
 TEND.LBS    45 635 01 00:   TENSION FROM DENSITY LOG
 GRR .GAPI   07 310 01 00:   GAMMA RAY FROM RESISTIVITY
 CALR.IN     07 280 01 00:   CALIPER FROM RESISTIVITY
 RILM.OHMM   07 120 44 00:   INDUCTION LOG MEDIUM RESISTIVITY
 RILD.OHMM   07 120 46 00:   DEEP INDUCTION RESISTIVITY
 RFOC.OHMM   07 220 04 00:   RESISTIVITY FOCUSED LOG RES.
 TENR.LBS    07 635 01 00:   TENSION FROM RESISTIVITY
 DT  .US/F   60 520 00 00:   DELTA TIME
 TENS.LBS    60 635 01 00:   TENSION FROM SONIC
 SPR .MV     07 010 01 00:   SPONTANEOUS POTENTIAL
~PARAMETER INFORMATION
#MNEM.UNIT          VALUE    DESCRIPTION
#----------   ------------   ------------------------------
 EKB .F            0.0000:   Kelly bushing
 EGL .F         5150.0000:   Ground level
 EDF .F         5161.0000:   Drilling floor
 TD  .F         3260.0000:   Total depth
 DATE.        04-FEB-1986:   Date logged
 CLNT.            A2DTECH:   Client Code
 SL  . 1200' FEL & 650' FEL:   Surface Location
 PD  .                 GL:   Permanent Datum
 DD  .F              3260:   Depth driller
 DL  .F              3260:   Depth logger
 BLI .F              3258:   Bottom log interval
 CS1 .IN            8.625:   Casing size
 CBD1.      8.625" @ 566':   Casing driller 1
 CBL1.F               566:   Casing logger 1
 BS1 .IN            7.875:   Bit size
 DFT .        POLYMER-KCL:   Type fluid in hole
 DFD .                9.0:   Density
 DFV .                 36:   Viscosity
 DFPH.                8.5:   pH
 DFL .                 14:   Fluid loss
 MSS .           FLOWLINE:   Source of sample
 RMS .OHMM          0.367:   Rm
 MST .F                65:   Rm Meas. temp.
 RMF .OHMM          0.275:   Rmf
 MFST.F                65:   Rmf Meas. temp.
 RMC .OHMM          0.459:   Rmc
 MCST.F                65:   Rmc Meas. temp.
 MFSS.               CALC:   Source Rmf.
 RMB .OHMM          0.227:   Rm. at BHT
 BHT .F               105:   BHT.
 TCS .HRS               6:   Time Circ. stopped
 MRT .F               105:   Maximum recorded temp.
 LUN .               6274:   Logging unit number
 LUL .           GILLETTE:   Logging unit location
 ENGI.             MILLER:   Recorded By
 WITN.             STRONG:   Witnessed by
 ORIG.           5" PRINT:   Origin of data
 UWI .     49025110630000:   Unique Well ID
 DICO. A2D TECHNOLOGIES, INC.:   Digitizing Company
 DAPD.                 11:   Feet Above Permanent Datum
 BSD1.               3260:   Depth drilled with bit1
 MCSS.               CALC:   Source Rmc.
 EPD .F              5150:   Elevation Permanent Datum
 LMF .                 KB:   Log Measured From
 DMF .                 KB:   Drilling Measured From
 TLI .                566:   Top log interval
~OTHER INFORMATION
~A   DEPT      CNC        DEN       DCOR       TEND         GRR      CALR       RILM       RILD       RFOC       TENR         DT       TENS        SPR   
# ...
 2867.5000     0.2510     2.5260     0.0340   -83.6690   114.7850     8.8430     4.4360     4.5430     6.1160   -23.8390    89.0060    -8.0830   -70.8550
 2868.0000     0.2520     2.5250     0.0370   -93.7100   113.0720     8.8400     4.3550     4.4990     6.1530   -25.0000    89.0500    -5.3220   -71.0430
 2868.5000     0.2660     2.5250     0.0370  -103.6490   112.7420     8.8350     4.3550     4.4550     6.1810   -18.6640    89.3110   -10.1650   -70.7140
 2869.0000     0.2800     2.5250     0.0300  -113.9110   113.6290     8.8340     4.3550     4.4110     5.9340   -12.7360    89.8530   -16.0120   -70.3210
 2869.5000     0.2800     2.5260     0.0180  -107.6390   114.7700     8.8370     4.3550     4.3960     5.7380    -6.8080    90.3090   -21.8590   -70.1070
 2870.0000     0.2750     2.5260     0.0120  -101.1570   113.3240     8.8400     4.3150     4.4060     5.6370    -0.8800    90.5300   -15.1430   -70.0570
 2870.5000     0.2800     2.5260     0.0190   -94.6750   110.8430     8.8430     4.2760     4.4150     5.8330     5.0000    90.5530     5.0000   -70.0910
 2871.0000     0.2780     2.5240     0.0210   -88.1920   111.8790     8.8460     4.2890     4.4240     6.0240     1.3820    90.3500     0.6330   -70.0730
 2871.5000     0.2770     2.5220     0.0200   -84.2700   115.0900     8.8490     4.3050     4.4330     6.1810    -3.1090    90.1900    -3.5080   -70.0790
 2872.0000     0.2820     2.5200     0.0120   -86.2580   118.3860     8.8520     4.3200     4.4410     6.0630    -7.6000    90.3500    -7.6500   -70.0800
 2872.5000     0.2860     2.5190     0.0070   -88.2460   120.4860     8.8540     4.3310     4.4500     5.9630   -12.0910    90.8650   -11.7920   -70.0770
 2873.0000     0.2870     2.5280     0.0150   -90.2340   119.6930     8.8570     4.3420     4.4590     5.8640   -15.0000    91.3120   -15.9330   -70.0790
 2873.5000     0.2880     2.5360     0.0350   -92.2220   117.7230     8.8600     4.3550     4.4670     5.7640   -15.0000    91.5880   -20.0750   -70.0800
 2874.0000     0.2920     2.5460     0.0550   -92.1080   118.1980     8.8630     4.3310     4.4760     5.6370    -9.2250    91.7140   -24.2170   -70.0780
 2874.5000     0.2970     2.5550     0.0680   -85.0090   118.4420     8.8660     4.3220     4.4850     5.7300    -3.0500    91.6280   -10.3450   -70.0450
 2875.0000     0.3020     2.5610     0.0550   -77.9090   113.7080     8.8690     4.3340     4.4930     5.8870     5.0000    91.5410     7.7270   -70.0050
 2875.5000     0.3060     2.5640     0.0450   -75.2100   111.8150     8.8720     4.3470     4.5020     6.0690    -8.9430    91.4550     5.1000   -69.9520
 2876.0000     0.3000     2.5660     0.0500   -79.3510   117.0170     8.8790     4.3550     4.5110     6.2380   -35.0000    91.3680   -11.4670   -69.9290
 2876.5000     0.2900     2.5640     0.0700   -83.4930   121.4210     8.8890     4.3840     4.5190     6.1510   -14.8400    91.7250   -21.7880   -69.8650
 2877.0000     0.2740     2.5610     0.0710   -87.6340   122.3050     8.8990     4.3870     4.4690     6.0700     8.2130    92.2010    -4.2470   -69.6990
 2877.5000     0.2720     2.5580     0.0540   -91.7760   120.3540     8.9100     4.3690     4.4230     5.9880    35.0000    92.6770    13.2940   -69.4880
 2878.0000     0.2720     2.5560     0.0350   -99.3230   118.3670     8.9200     4.3550     4.3760     5.9050    17.2570    93.1540    30.8350   -69.3020
 2878.5000     0.2810     2.5510     0.0400  -109.9730   119.5510     8.9300     4.2280     4.3300     5.8230    -3.9140    93.6500    10.8820   -69.2700
 2879.0000     0.2890     2.5470     0.0510  -120.6220   121.2730     8.9410     4.1250     4.2830     5.7420   -25.0000    93.5790   -20.7450   -69.2940
 2879.5000     0.2890     2.5420     0.0730  -114.9330   122.5110     8.9520     4.0760     4.2370     5.8140   -23.6950    93.5040   -30.9050   -69.2800
 2880.0000     0.2790     2.5350     0.0570  -101.6800   123.0800     8.9570     4.0580     4.1900     5.9020   -22.3950    93.4300   -23.4500   -69.2830
 2880.5000     0.2880     2.5260     0.0270   -88.4270   121.6030     8.9600     4.0260     4.1440     6.0120   -21.0950    93.3500   -15.9950   -69.2900
 2881.0000     0.3150     2.5170     0.0060   -81.9470   120.8790     8.9650     3.9710     4.0970     5.8880   -19.7950    93.7500    -8.5400   -69.3790
 2881.5000     0.3420     2.5170     0.0060   -79.2610   120.9460     8.9690     3.9000     4.0500     5.7260   -18.4950    94.2110    -6.8000   -69.5220
 2882.0000     0.3600     2.5300     0.0100   -76.5750   119.7100     8.9740     3.8260     4.0040     5.5850   -17.1950    94.6500   -10.2280   -69.6180
 2882.5000     0.3090     2.5400     0.0180   -73.8880   119.2550     8.9780     3.7590     3.9570     5.5850   -15.8950    94.6500   -13.6550   -69.7690
 2883.0000     0.2940     2.5380     0.0260   -71.2020   120.4030     8.9830     3.7290     3.9110     5.5850   -14.3710    94.6500   -17.0830   -69.8650
 2883.5000     0.2820     2.5360     0.0340   -68.5160   122.1350     8.9870     3.7030     3.8640     5.5850   -12.3550    94.6500   -20.5100   -69.7170
 2884.0000     0.2900     2.5280     0.0280   -65.8290   123.5090     8.9910     3.6900     3.8180     5.5340   -10.3390    94.7580   -23.9380   -69.5130
 2884.5000     0.2940     2.5180     0.0200   -63.7300   123.0530     8.9960     3.6900     3.8270     5.3290    -8.3220    94.9750   -22.4900   -69.3490
 2885.0000     0.2980     2.5080     0.0050   -65.3590   120.1230     8.9990     3.7110     3.8640     5.0290    -6.3060    95.1930   -18.8540   -69.1590
 2885.5000     0.3020     2.5010     0.0010   -66.9880   117.9350     9.0050     3.7430     3.8960     4.9090    -4.2900    95.3870   -15.2170   -68.9800
 2886.0000     0.3030     2.4990     0.0030   -68.6180   117.8710     9.0080     3.7750     3.9210     5.1080    -2.2730    95.5230   -11.5800   -68.8040
 2886.5000     0.2980     2.4980     0.0220   -70.2470   115.7280     9.0130     3.8120     3.9470     5.3430    -0.2570    95.6500    -7.9440   -68.6160
 2887.0000     0.2800     2.4970     0.0470   -71.8770   113.6250     9.0330     3.8570     3.9720     5.3980     1.7590    95.6910    -4.3070   -68.4930
 2887.5000     0.2640     2.4930     0.0530   -73.5060   116.7260     9.0520     3.9010     3.9980     5.3420     3.7760    95.7820    -0.6710   -68.4840
 2888.0000     0.2710     2.4880     0.0240   -75.1360   121.6920     9.0670     3.9450     4.0230     5.2850     2.8440    95.7480     2.9660   -68.4910
 2888.5000     0.2870     2.4830    -0.0290   -76.7650   121.2150     9.0850     3.9850     4.0480     5.3830    -2.6440    95.3500     3.7120   -68.4870
 2889.0000     0.2910     2.4840    -0.0270   -78.3940   115.1980     9.0990     4.0180     4.0740     5.5140    -5.0000    95.0440     0.7880   -68.4890
 2889.5000     0.2900     2.4920    -0.0080   -80.0240   109.4500     9.1120     4.0460     4.0990     5.6840    -5.0000    94.7490    -2.1350   -68.4880
 2890.0000     0.2890     2.5000     0.0210   -81.6530   107.2840     9.1260     4.0090     4.1240     5.7420    -6.0440    94.4530    -5.0590   -68.4880
 2890.5000     0.2980     2.5090     0.0200   -83.2830   110.8340     9.1380     4.0280     4.1500     5.6290    -7.1420    94.1580    -7.9820   -68.3760
 2891.0000     0.2980     2.5140     0.0200   -79.7480   116.2320     9.1510     4.0460     4.1750     5.5310    -8.2400    93.8630   -10.9060   -68.1780
 2891.5000     0.2980     2.5160     0.0200   -74.6070   116.0580     9.1640     4.0460     4.1980     5.4830    -9.3380    93.5680   -13.8290   -67.9870
 2892.0000     0.2980     2.5080     0.0190   -69.4660   111.4790     9.1770     4.0460     4.2510     5.6180   -10.4360    93.4870   -13.3440   -67.7410
 2892.5000     0.2860     2.5050     0.0160   -64.3250   108.5940     9.1900     4.1440     4.3250     5.7950   -11.5330    93.5500   -10.5830   -67.4830
 2893.0000     0.2850     2.5110     0.0150   -59.1840   109.7940     9.2030     4.2760     4.4260     5.5720   -12.6310    93.3040    -7.8220   -67.1930
