~VERSION INFORMATION
 VERS.                2.0:   CWLS LOG ASCII STANDARD - VERSION 2.0
 WRAP.                 NO:   ONE LINE PER DEPTH STEP
~WELL INFORMATION
#MNEM.UNIT      DATA TYPE    INFORMATION
#----------   ------------   ------------------------------
 STRT.F            0.0000:   START DEPTH
 STOP.F         4030.0000:   STOP DEPTH
 STEP.F            0.5000:   STEP LENGTH
 NULL.          -999.2500:   NO VALUE
 COMP.  FENIX AND SCISSON:   COMPANY
 WELL.  FENIX "LX" #33-10:   WELL
 FLD . TEAPOT DOME (NPR #3):   FIELD
 LOC .      S10 T38N R78W:   LOCATION
 CNTY.            NATRONA:   COUNTY
 STAT.            WYOMING:   STATE
 CTRY. UNITED STATES OF AMERICA:   COUNTRY
 SRVC.       SCHLUMBERGER:   SERVICE COMPANY
 DATE.        03-APR-1978:   LOGDATE
 API .     49025105980000:   API NUMBER
~CURVE INFORMATION
#MNEM.UNIT       API CODE    CURVE DESCRIPTION
#----------   ------------   ------------------------------
 DEPT.F                  :   
 SPR .MV     07 010 01 00:   SPONTANEOUS POTENTIAL
 ILD .OHMM   07 120 46 00:   DEEP INDUCTION RESISTIVITY
 SFL .OHMM   07 220 01 00:   SHALLOW FOCUSED LOG RESISTIVITY
 ILM .OHMM   07 120 44 00:   INDUCTION LOG MEDIUM RESISTIVITY
 NPHI.DEC    42 890 03 00:   NEUTRON POROSITY SANDSTONE
 GRD .GAPI   45 310 01 00:   GAMMA RAY FROM DENSITY LOG
 CALD.IN     45 280 60 00:   CALIPER FROM DENSITY LOG
 RHOB.G/C3   45 350 01 00:   BULK DENSITY
 CORR.G/C3   45 356 01 00:   DENSITY CORRECTION
~PARAMETER INFORMATION
#MNEM.UNIT          VALUE    DESCRIPTION
#----------   ------------   ------------------------------
 EKB .F         5232.0000:   Kelly bushing
 EGL .F         5222.0000:   Ground level
 EDF .F            0.0000:   Drilling floor
 EPD .F         5222.0000:   Permanent datum
 TD  .F         4040.0000:   Total depth
 DATE.        03-APR-1978:   Date logged
 CLNT.            A2DTECH:   Client Code
 SL  . 1700' FNL & 1700' FWL:   Surface Location
 PD  .                 GL:   Permanent Datum
 DD  .F              4040:   Depth driller
 DL  .F              4031:   Depth logger
 BLI .F              4025:   Bottom log interval
 CS1 .IN            8.625:   Casing size
 CBD1.      8.625" @ 503':   Casing driller 1
 CBL1.F               504:   Casing logger 1
 BS1 .IN            7.875:   Bit size
 DFT .           CHEM GEL:   Type fluid in hole
 DFD .                9.5:   Density
 DFV .                 43:   Viscosity
 DFPH.               11.5:   pH
 DFL .                4.4:   Fluid loss
 MSS .            MUD PIT:   Source of sample
 RMS .OHMM           1.16:   Rm
 MST .F                80:   Rm Meas. temp.
 RMF .OHMM           0.93:   Rmf
 MFST.F                80:   Rmf Meas. temp.
 RMC .OHMM           1.74:   Rmc
 MCST.F                80:   Rmc Meas. temp.
 MFSS.               MEAS:   Source Rmf.
 RMB .OHMM          0.742:   Rm. at BHT
 BHT .F               125:   BHT.
 TCS .HRS            0800:   Time Circ. stopped
 MRT .F               125:   Maximum recorded temp.
 LUN .               7660:   Logging unit number
 LUL .                GLT:   Logging unit location
 ENGI.            TOEPPER:   Recorded By
 WITN.           MCGINLEY:   Witnessed by
 ORIG.         2.5" PRINT:   Origin of data
 UWI .     49025105980000:   Unique Well ID
 DICO. A2D TECHNOLOGIES, INC.:   Digitizing Company
 DAPD.                 10:   Feet Above Permanent Datum
 BSD1.               4040:   Depth drilled with bit1
 MCSS.               CALC:   Source Rmc.
 LMF .                 KB:   Log Measured From
 DMF .                 KB:   Drilling Measured From
 TLI .                504:   Top log interval
 TLAB.               1000:   Time logger at bottom
~OTHER INFORMATION
~A    DEPT     SPR        ILD        SFL        ILM       NPHI         GRD      CALD       RHOB       CORR   
# ...
 3759.5000   -26.4430     1.6410     2.7460     1.9320     0.4000   129.9490     8.6510     2.4310     0.1870
 3760.0000   -26.5180     1.6930     2.5050     1.9900     0.4150   129.2200     8.5830     2.3940     0.1530
 3760.5000   -26.4870     1.7450     2.5180     2.0480     0.4310   129.3190     8.4390     2.3730     0.2480
 3761.0000   -26.4910     1.8330     2.5560     2.1230     0.4420   129.5980     8.8470     2.3650     0.2420
 3761.5000   -26.4960     1.8200     2.5990     2.0840     0.4520   125.9070     8.7050     2.2950     0.1950
 3762.0000   -26.4940     1.7790     2.5460     2.0380     0.4620   122.7110     8.3030     2.2520     0.2440
 3762.5000   -26.4840     1.7520     2.4410     1.9370     0.4720   122.3050     8.4100     2.2140     0.2190
 3763.0000   -26.6610     1.7040     2.3360     1.9190     0.4790   126.3760     8.7750     2.1660     0.1700
 3763.5000   -27.1690     1.6550     2.2310     1.9000     0.4830   130.2330     9.2040     2.2020     0.1080
 3764.0000   -27.2980     1.6110     2.1260     1.8810     0.4590   133.8750     8.8990     2.2760     0.1210
 3764.5000   -27.2910     1.6240     2.0090     1.8670     0.4350   137.1510     8.1280     2.3490     0.1480
 3765.0000   -27.2890     1.6680     2.2120     1.8990     0.4160   132.7100     8.1680     2.4350     0.1740
 3765.5000   -27.2900     1.7110     2.4410     1.9670     0.4180   127.8920     8.2420     2.4150     0.2060
 3766.0000   -27.2890     1.7670     2.6710     2.0350     0.4210   120.3540     8.2770     2.4520     0.1690
 3766.5000   -27.2940     2.0630     2.7820     2.3540     0.4040    94.5600     8.1430     2.4260     0.1270
 3767.0000   -27.2790     2.4560     2.9130     3.3570     0.3640    73.4950     8.0380     2.3770     0.0800
 3767.5000   -27.3010     3.0830     3.0110     4.3600     0.3080    51.6520     7.9210     2.3570     0.0500
 3768.0000   -27.3310     4.3740    22.8350     5.3620     0.2470    34.7300     7.8930     2.3410     0.0460
 3768.5000   -28.3200     5.6650    45.9010     6.3650     0.2120    21.3580     7.9180     2.3230     0.0410
 3769.0000   -29.4390     6.9550    68.9680     7.3680     0.2120    15.8530     7.9380     2.3020     0.0360
 3769.5000   -30.5870    11.4130    92.0340     7.9770     0.2120    15.7490     7.9570     2.2700     0.0350
 3770.0000   -31.7020    28.3010   123.4380    23.5900     0.2120    15.4740     7.9780     2.2780     0.0330
 3770.5000   -32.8420    45.1880   117.0090    42.1040     0.2090    14.8990     7.9980     2.3380     0.0840
 3771.0000   -33.8380    62.0760   106.9410    60.6170     0.2020    15.1590     8.0180     2.3320     0.0780
 3771.5000   -34.0340    88.6620    96.8720    79.1310     0.1960    18.8970     8.0380     2.3450     0.0740
 3772.0000   -34.4050    85.2550    87.0470    97.1980     0.1900    23.2320     8.0370     2.3670     0.0670
 3772.5000   -34.4310    77.2510    86.0730    86.2620     0.1840    27.6170     8.0090     2.3980     0.0620
 3773.0000   -34.6610    69.2480    84.5080    75.5820     0.1780    31.8340     7.9860     2.4300     0.0560
 3773.5000   -34.4110    61.2450    78.7650    64.9030     0.1720    38.9060     7.9690     2.4610     0.0490
 3774.0000   -34.4720    53.2420    70.4010    54.2240     0.1660    50.0380     8.0240     2.4910     0.0550
 3774.5000   -33.6960    45.2380    62.0370    43.5450     0.1590    60.9770     8.0720     2.5220     0.0750
 3775.0000   -33.2130    37.2350    56.6860    32.8660     0.1720    72.0000     8.1230     2.5350     0.0680
 3775.5000   -32.7410    29.2320    55.9930    22.1870     0.1860    83.2170     8.1740     2.5190     0.0490
 3776.0000   -32.3120    21.2280    47.6560    18.5580     0.2170    93.9060     8.2220     2.4780     0.0400
 3776.5000   -31.8050    13.2250    40.6890    16.7450     0.2490   104.2250     8.2780     2.4910     0.0460
 3777.0000   -31.3990    10.5970    33.7220    14.9030     0.2810   108.3260     8.2790     2.4420     0.0610
 3777.5000   -30.1740     9.4220    26.7550    12.7820     0.3000   108.8740     8.2760     2.3970     0.0700
 3778.0000   -30.0610     8.2480    19.7890    10.6260     0.3580   108.7100     8.2710     2.3470     0.0840
 3778.5000   -29.1060     7.2760    12.8220     8.4700     0.4090   102.6390     8.2670     2.2860    -0.0080
 3779.0000   -29.2240     7.1440     8.3820     7.8310     0.3790    97.8410     8.2620     2.3340     0.0070
 3779.5000   -29.2570     7.1440     8.2760     8.0120     0.3300    92.5720     8.2580     2.4380     0.0160
 3780.0000   -29.4270     7.2350    12.2800     8.1980     0.2500    89.6810     8.2540     2.5340     0.0330
 3780.5000   -29.4320     7.4870    15.1800     8.3840     0.2080    87.0850     8.2490     2.5260     0.0410
 3781.0000   -29.7290     7.8250    14.8350     8.8760     0.2030    83.9460     8.2450     2.5100     0.0230
 3781.5000   -29.5720     8.6060    14.3790     9.4690     0.1980    83.1250     8.2410     2.4960     0.0100
 3782.0000   -29.2930     9.3860    13.9220    10.0610     0.1930    83.8750     8.2430     2.5070     0.0180
 3782.5000   -28.9660    10.1670    13.3470    10.6530     0.1880    84.9110     8.2440     2.5370     0.0290
 3783.0000   -28.8920    10.9480    13.6930    11.2460     0.1820    92.8170     8.2870     2.5630     0.0410
 3783.5000   -28.7520    11.4050    14.7180    11.5220     0.1950   105.7540     8.3320     2.5710     0.0520
 3784.0000   -28.5880    11.5220    15.7440    10.9620     0.2120   118.1690     8.3780     2.5530     0.0490
 3784.5000   -28.4960    10.6110    16.6410    10.1960     0.2280   130.2710     8.4240     2.5270     0.0250
 3785.0000   -28.1680     9.6290    14.7070     9.4300     0.2430   139.5110     8.4680     2.5320     0.0350
 3785.5000   -27.2890     8.6480    12.9880     8.6650     0.2540   133.9710     8.5160     2.5210     0.0760
 3786.0000   -26.8800     7.6660    11.2680     7.8310     0.2700   129.5510     8.5600     2.5040     0.1450
 3786.5000   -26.5820     6.6850     9.5480     7.9770     0.2930   124.8440     8.6020     2.5380     0.2400
 3787.0000   -26.1160     5.7030     7.8280     6.4990     0.3270   116.9490     8.7450     2.5160     0.2350
 3787.5000   -26.1020     4.7220     6.2810     5.5210     0.3680   106.3680     9.1140     2.4660     0.2190
 3788.0000   -26.0140     3.7400     5.1240     4.4950     0.4280   104.2600     9.5170     2.4740     0.2400
 3788.5000   -25.6620     2.8490     4.0720     3.4470     0.4160   102.3930     9.5700     2.5100     0.1830
 3789.0000   -25.2620     2.6960     2.9020     3.0320     0.4020   100.7070     9.3020     2.5410     0.1990
 3789.5000   -25.3810     2.5550     2.7880     2.9010     0.3870    98.9590     9.0830     2.5700     0.1220
 3790.0000   -25.7360     2.4150     2.6960     2.7690     0.3730    97.1510     8.6060     2.5990     0.1280
 3790.5000   -25.7520     2.2850     2.9710     2.6470     0.3580    95.4430     8.2660     2.6330     0.1830
 3791.0000   -26.1420     2.3310     3.2820     2.7600     0.3580    94.2330     8.3430     2.5910     0.1640
 3791.5000   -26.0890     2.4980     3.5940     2.8640     0.3580    96.2910     8.3590     2.5400     0.0870
 3792.0000   -25.9430     2.6650     3.8240     2.9680     0.3470    97.9830     8.3120     2.4960     0.0960
 3792.5000   -25.4370     2.8320     3.7200     3.0670     0.3290    99.8580     8.2460     2.6050     0.1560
 3793.0000   -25.2890     2.9560     3.6010     2.9950     0.3080   101.6570     8.2810     2.5840     0.2300
 3793.5000   -25.3010     2.9560     3.4880     2.9700     0.3490   103.4670     8.3860     2.5320     0.2200
 3794.0000   -25.2990     2.9560     3.3620     2.9450     0.4110   105.2650     8.4860     2.4770     0.2000
 3794.5000   -25.2980     2.9020     3.2800     2.9210     0.4080   107.1280     8.5850     2.4500     0.1810
 3795.0000   -25.2990     2.7800     3.1820     2.8840     0.4000   108.8730     8.6900     2.4780     0.1660
 3795.5000   -25.2990     2.6630     3.0850     2.8080     0.3930   110.5230     8.7610     2.5060     0.1820
