~VERSION INFORMATION
 VERS.                2.0:   CWLS LOG ASCII STANDARD - VERSION 2.0
 WRAP.                 NO:   ONE LINE PER DEPTH STEP
~WELL INFORMATION
#MNEM.UNIT      DATA TYPE    INFORMATION
#----------   ------------   ------------------------------
 STRT.F          404.0000:   START DEPTH
 STOP.F         2919.0000:   STOP DEPTH
 STEP.F            0.5000:   STEP LENGTH
 NULL.          -999.2500:   NO VALUE
 COMP.    FENIX & SCISSON:   COMPANY
 WELL. FENIX & SCISSON "AX" #27-21:   WELL
 FLD .             NPR #3:   FIELD
 LOC .      S21 T39N R78W:   LOCATION
 CNTY.            NATRONA:   COUNTY
 STAT.            WYOMING:   STATE
 CTRY. UNITED STATES OF AMERICA:   COUNTRY
 SRVC.       SCHLUMBERGER:   SERVICE COMPANY
 DATE.        21-APR-1977:   LOGDATE
 API .     49025103730000:   API NUMBER
~CURVE INFORMATION
#MNEM.UNIT       API CODE    CURVE DESCRIPTION
#----------   ------------   ------------------------------
 DEPT.F                  :   
 SPR .MV     07 010 01 00:   SPONTANEOUS POTENTIAL
 ILM .OHMM   07 120 44 00:   INDUCTION LOG MEDIUM RESISTIVITY
 ILD .OHMM   07 120 46 00:   DEEP INDUCTION RESISTIVITY
 LL8 .OHMM   07 220 08 00:   LATEROLOG-8 RES.
 GRN .GAPI   35 310 01 00:   GAMMA RAY
 CALD.IN     45 280 60 00:   CALIPER FROM DENSITY LOG
 GRD .GAPI   45 310 01 00:   GAMMA RAY FROM DENSITY LOG
 CORR.G/C3   45 356 01 00:   DENSITY CORRECTION
 RHOB.G/C3   45 350 01 00:   BULK DENSITY
~PARAMETER INFORMATION
#MNEM.UNIT          VALUE    DESCRIPTION
#----------   ------------   ------------------------------
 EKB .F         5004.0000:   Kelly bushing
 EGL .F         4994.0000:   Ground level
 TD  .F         2920.0000:   Total depth
 CLNT.            A2DTECH:   Client Code
 SL  . 991' FWL & 1090' FSL:   Surface Location
 DATE.        21-APR-1977:   Date Logged [DD-MMM-YYYY]
 DD  .F              2920:   Depth driller
 DL  .F              2920:   Depth logger
 BLI .F              2914:   Bottom log interval
 TLI .F               419:   Top log interval
 CS1 .              8.625:   Casing size
 CBD1.      8.625" @ 425':   Casing driller 1
 CBL1.IN              419:   Casing logger 1
 BS1 .IN            7.875:   Bit size
 BSD1.F              2920:   Depth drilled with bit1
 DFT .                FGM:   Type fluid in hole
 DFD .                9.0:   Density
 DFV .                 34:   Viscosity
 DFPH.                8.0:   pH
 DFL .                8.0:   Fluid loss
 MSS .                PIT:   Source of sample
 RMS .OHMM          0.158:   Rm
 MST .F                72:   Rm Meas. temp.
 RMF .OHMM          0.158:   Rmf
 MFST.F                72:   Rmf Meas. temp.
 MFSS.               MEAS:   Source Rmf.
 RMB .OHMM          0.102:   Rm. at BHT
 BHT .F               112:   BHT.
 TCS .HRS            0500:   Time Circ. stopped
 TLAB.HRS            0700:   Time logger at bottom
 MRT .F               112:   Maximum recorded temp.
 LUN .               5642:   Logging unit number
 LUL .               CSPR:   Logging unit location
 ENGI.             TAYLOR:   Recorded By
 WITN.          PETTINGIL:   Witnessed by
 ORIG.      2.5" 5" PRINT:   Origin of data
 UWI .     49025103730000:   Unique Well ID
 DICO. A2D TECHNOLOGIES, INC.:   Digitizing Company
 PD  .                 GL:   Permanent Datum
 EPD .F              4994:   Elevation Permanent Datum
 LMF .                 KB:   Log Measured From
 DMF .                 KB:   Drilling Measured From
 DAPD.F                10:   Feet Above Permanent Datum
~OTHER INFORMATION
~A   DEPT      SPR        ILM        ILD        LL8        GRN       CALD         GRD      CORR       RHOB   
# ...
 2886.0000   -66.6186     3.4584     3.4630     3.9774  -999.2500     8.0606    85.3356     0.0072     2.4428
 2886.5000   -66.9072     3.4116     3.3903     3.9232  -999.2500     8.0612    87.4568     0.0027     2.4294
 2887.0000   -67.1964     3.3192     3.3032     3.9235  -999.2500     8.0617    87.1246     0.0088     2.4353
 2887.5000   -67.4851     3.2742     3.2581     3.8700  -999.2500     8.0623    91.8771     0.0253     2.4606
 2888.0000   -67.7732     3.2298     3.1698     3.8703  -999.2500     8.0629    91.9170     0.0449     2.4994
 2888.5000   -68.0619     3.1424     3.1265     3.8705  -999.2500     8.0635    86.2480     0.0615     2.5098
 2889.0000   -68.6481     3.0998     3.1265     3.9246  -999.2500     8.0641    82.6917     0.0450     2.4993
 2889.5000   -68.3416     3.1002     3.0838     3.9793  -999.2500     8.0647    79.7287     0.0465     2.4844
 2890.0000   -67.7374     3.1007     3.0209     3.9796  -999.2500     8.0653    78.8427     0.0285     2.4679
 2890.5000   -67.4308     3.1011     3.0002     4.0679  -999.2500     8.0659    79.7376     0.0121     2.4574
 2891.0000   -67.1242     3.0591     2.9592     4.1812  -999.2500     8.0665    82.7094     0.0151     2.4544
 2891.5000   -67.1152     3.0595     2.9592     3.8607  -999.2500     8.0671    88.3518     0.0241     2.4539
 2892.0000   -66.8086     3.0599     2.9188     3.5382  -999.2500     8.0677    91.9171     0.0287     2.4573
 2892.5000   -66.7997     3.0603     2.9188     3.4682  -999.2500     8.0683    90.4379     0.0242     2.4583
 2893.0000   -66.7907     3.0608     2.9188     3.4935  -999.2500     8.0689    88.0684     0.0182     2.4468
 2893.5000   -66.7817     3.0612     2.9188     3.5907  -999.2500     8.0694    87.7568     0.0258     2.4453
 2894.0000   -66.7728     3.0616     2.9188     3.8466  -999.2500     8.0700    87.1871     0.0378     2.4601
 2894.5000   -67.0614     3.0620     2.9188     3.9017  -999.2500     8.0706    85.1143     0.0349     2.4512
 2895.0000   -67.0525     3.0624     2.9592     3.7965  -999.2500     8.0712    86.6025     0.0394     2.4541
 2895.5000   -67.3411     3.0629     2.9592     3.6942  -999.2500     8.0718    90.1677     0.0455     2.4615
 2896.0000   -67.3321     3.0633     2.9592     3.7402  -999.2500     8.0724    93.4363     0.0457     2.4660
 2896.5000   -67.3232     2.9804     2.9032     3.9210  -999.2500     8.0730    92.2538     0.0410     2.4629
 2897.0000   -67.6118     2.9399     2.8248     3.9834  -999.2500     8.0736    90.4778     0.0396     2.4539
 2897.5000   -67.9005     2.7826     2.7346     3.6889  -999.2500     8.0742    90.1855     0.0351     2.4420
 2898.0000   -68.1905     2.7449     2.6511     3.4343  -999.2500     8.0748    90.1899     0.0231     2.4270
 2898.5000   -68.1802     2.6706     2.6021     3.2515  -999.2500     8.0754    90.7879     0.0186     2.4076
 2899.0000   -68.1712     2.6343     2.5318     3.1799  -999.2500     8.0760    92.5727     0.0337     2.4040
 2899.5000   -68.1622     2.5631     2.5092     3.0942  -999.2500     8.0766    94.6543     0.0428     2.4224
 2900.0000   -68.1533     2.5283     2.5092     3.0246  -999.2500     8.0475    94.9555     0.0158     2.4311
 2900.5000   -67.8467     2.5638     2.5092     3.0383  -999.2500     8.0481    93.4734     0.0098     2.4267
 2901.0000   -67.8377     2.5998     2.5439     3.1798  -999.2500     8.0487    92.5883     0.0083     2.4292
 2901.5000   -67.8288     2.6362     2.5792     3.4058  -999.2500     8.0493  -999.2500     0.0223     2.4428
 2902.0000   -67.8198     2.7103     2.6149     3.5209  -999.2500     8.0498  -999.2500     0.0402     2.4698
 2902.5000   -68.1101     2.7483     2.6511     3.4130  -999.2500     8.0504  -999.2500     0.0491     2.4847
 2903.0000   -68.0995     2.7868     2.6877     3.3095  -999.2500     8.0510  -999.2500     0.0505     2.4866
 2903.5000   -68.0905     2.7233     2.6511     3.1976  -999.2500     8.0516  -999.2500     0.0334     2.4754
 2904.0000   -68.2618     2.6456     2.6054     3.2734  -999.2500     8.0522  -999.2500     0.0248     2.4569
 2904.5000   -68.3720     2.5679     2.5350     3.5431  -999.2500     8.0530  -999.2500     0.0236     2.4432
 2905.0000   -68.8344     2.4902     2.4665     3.4939  -999.2500     8.0539  -999.2500     0.0234     2.4478
 2905.5000   -69.4181     2.4125     2.3999     3.2264  -999.2500     8.0549  -999.2500     0.0222     2.4317
 2906.0000   -70.0020     2.3348     2.2960     3.0058  -999.2500     8.0558  -999.2500     0.0237     2.4223
 2906.5000   -70.6054     2.2571     2.2104     2.8463  -999.2500     8.0567  -999.2500     0.0261     2.4256
 2907.0000   -70.1974     2.2209     2.1276     2.6952  -999.2500     8.0577  -999.2500     0.0384     2.4325
 2907.5000   -69.7893     2.3016     2.2311     2.5660  -999.2500     8.0586  -999.2500     0.0467     2.4419
 2908.0000   -69.6429     2.3791     2.3245     2.9200  -999.2500     8.0596  -999.2500     0.0479     2.4548
 2908.5000   -69.2628     2.4794     2.4178     3.2094  -999.2500     8.0605  -999.2500     0.0390     2.4677
 2909.0000   -68.9663     2.5839     2.5112     3.3815  -999.2500     8.0615  -999.2500     0.0251     2.4463
 2909.5000   -68.7500     2.6772     2.6046     3.4325  -999.2500     8.0624  -999.2500     0.0127     2.4145
 2910.0000   -68.6705     2.7679     2.6979     3.5280  -999.2500     8.0633  -999.2500     0.0105     2.4167
 2910.5000   -68.3741     2.8847     2.7913     3.5767  -999.2500     8.0643  -999.2500     0.0152     2.4337
 2911.0000   -68.1548     3.0115     2.8794     3.6762  -999.2500     8.0652  -999.2500     0.0364     2.4642
 2911.5000   -68.1548     3.1380     2.8860     3.7772  -999.2500     8.0662  -999.2500     0.0491     2.4873
 2912.0000   -68.1548     3.3153     2.8925     3.8314  -999.2500     8.0671  -999.2500     0.0478     2.4988
 2912.5000   -68.1548     3.5025     2.8991     3.9919  -999.2500     8.0680  -999.2500     0.0367     2.4975
 2913.0000   -68.1548     3.7004     2.9057     4.3967  -999.2500     8.0690  -999.2500     0.0313     2.4965
 2913.5000   -68.1548     3.9342     2.9122     4.9779  -999.2500     8.0699  -999.2500     0.0325     2.5091
 2914.0000   -68.1548     4.0964     2.9188     5.4827  -999.2500     8.0709  -999.2500     0.0476     2.5280
 2914.5000  -999.2500  -999.2500  -999.2500  -999.2500  -999.2500     8.0718  -999.2500     0.0544     2.5408
 2915.0000  -999.2500  -999.2500  -999.2500  -999.2500  -999.2500     8.0727  -999.2500     0.0532     2.5469
 2915.5000  -999.2500  -999.2500  -999.2500  -999.2500  -999.2500     8.0737  -999.2500     0.0494     2.5336
 2916.0000  -999.2500  -999.2500  -999.2500  -999.2500  -999.2500     8.0746  -999.2500     0.0449     2.5095
 2916.5000  -999.2500  -999.2500  -999.2500  -999.2500  -999.2500     8.0756  -999.2500     0.0555     2.4960
 2917.0000  -999.2500  -999.2500  -999.2500  -999.2500  -999.2500     8.0765  -999.2500     0.0708     2.4923
 2917.5000  -999.2500  -999.2500  -999.2500  -999.2500  -999.2500     8.0458  -999.2500     0.0888     2.4968
 2918.0000  -999.2500  -999.2500  -999.2500  -999.2500  -999.2500     7.8832  -999.2500     0.1011     2.5073
 2918.5000  -999.2500  -999.2500  -999.2500  -999.2500  -999.2500     7.7804  -999.2500     0.0975     2.5057
 2919.0000  -999.2500  -999.2500  -999.2500  -999.2500  -999.2500     7.7211  -999.2500     0.0758     2.4811
