~VERSION INFORMATION
 VERS.                2.0:   CWLS LOG ASCII STANDARD - VERSION 2.0
 WRAP.                 NO:   ONE LINE PER DEPTH STEP
~WELL INFORMATION
#MNEM.UNIT      DATA TYPE    INFORMATION
#----------   ------------   ------------------------------
 STRT.F            0.0000:   START DEPTH
 STOP.F         5670.0000:   STOP DEPTH
 STEP.F            0.5000:   STEP LENGTH
 NULL.          -999.2500:   NO VALUE
 COMP.          INTEX OIL:   COMPANY
 WELL.    INTEX TP #71-15:   WELL
 FLD .             TEAPOT:   FIELD
 LOC .      S15 T38N R78W:   LOCATION
 CNTY.            NATRONA:   COUNTY
 STAT.            WYOMING:   STATE
 CTRY. UNITED STATES OF AMERICA:   COUNTRY
 SRVC.       SCHLUMBERGER:   SERVICE COMPANY
 DATE.        05-AUG-1966:   LOGDATE
 API .     49025097110000:   API NUMBER
~CURVE INFORMATION
#MNEM.UNIT       API CODE    CURVE DESCRIPTION
#----------   ------------   ------------------------------
 DEPT.F                  :   
 GRD .GAPI   45 310 01 00:   GAMMA RAY FROM DENSITY LOG
 CALD.IN     45 280 60 00:   CALIPER FROM DENSITY LOG
 CORR.G/C3   45 356 01 00:   DENSITY CORRECTION
 RHOB.G/C3   45 350 01 00:   BULK DENSITY
 SPR .MV     05 010 01 00:   SPONTANEOUS POTENTIAL FROM RES.
 ASN .OHMM   05 041 16 00:   AMPLIFIED SHORT NORMAL 16"
 ILD .OHMM   05 120 46 00:   INDUCTION LOG DEEP RESISTIVITY
~PARAMETER INFORMATION
#MNEM.UNIT          VALUE    DESCRIPTION
#----------   ------------   ------------------------------
 EKB .F         5247.5500:   Kelly bushing
 EGL .F         5236.1000:   Ground level
 EDF .F            0.0000:   Drilling floor
 EPD .F         5236.1000:   Permanent datum
 TD  .F         5670.0000:   Total depth
 CLNT.            A2DTECH:   Client Code
 SL  . 610' FNL & 710' FEL:   Surface Location
 PD  .                 GL:   Permanent Datum
 LMF .                 KB:   Log Measured From
 DMF .                 KB:   Drilling Measured From
 DAPD.F             11.45:   Feet Above Permanent Datum
 DATE.        05-AUG-1966:   Date Logged [DD-MMM-YYYY]
 DD  .F              5665:   Depth driller
 DL  .F              5670:   Depth logger
 BLI .F              5669:   Bottom log interval
 TLI .F              5551:   Top log interval
 CS1 .IN            10.75:   Casing size
 CBD1.    10.75" @ 567.9':   Casing driller 1
 CBL1.F               569:   Casing logger 1
 BS1 .IN           8.9375:   Bit size
 BSD1.F              5665:   Depth drilled with bit1
 DFT .            DEXTRID:   Type fluid in hole
 DFD .                9.4:   Density
 DFV .                 59:   Viscosity
 DFPH.                7.5:   pH
 DFL .                8.2:   Fluid loss
 MSS .           FLOWLINE:   Source of sample
 RMS .OHMM           1.80:   Rm
 MST .F                72:   Rm Meas. temp.
 RMF .OHMM           1.00:   Rmf
 MFST.F                82:   Rmf Meas. temp.
 MFSS.               MEAS:   Source Rmf.
 BHT .F               163:   BHT.
 TCS .HRS               3:   Time Circ. stopped
 MRT .F               163:   Maximum recorded temp.
 LUN .               4507:   Logging unit number
 LUL .               CSPR:   Logging unit location
 ENGI.            MANGOLD:   Recorded By
 ORIG.      2.5" 5" PRINT:   Origin of data
 UWI .     49025097110000:   Unique Well ID
 DICO. A2D TECHNOLOGIES, INC.:   Digitizing Company
~OTHER INFORMATION
~A    DEPT      GRD      CALD       CORR       RHOB        SPR        ASN        ILD   
# ...
 3822.0000    88.1403    14.9590     0.0507     2.0387   -50.2688     3.7267     2.6342
 3822.5000    89.8657    14.8888     0.1989     2.0791   -50.2597     3.6376     2.5650
 3823.0000    89.8563    13.0544     0.2280     2.2004   -50.2524     3.4736     2.4959
 3823.5000    89.2943    12.6866     0.2166     2.2421   -50.2451     3.3544     2.4272
 3824.0000    88.8082    13.9773     0.1805     2.2313   -50.2378     3.3549     2.4335
 3824.5000    88.4820    15.1767     0.1769     2.1638   -50.2307     3.3105     2.4390
 3825.0000    88.4731    15.5050     0.1761     2.1510   -50.2232     3.1913     2.4445
 3825.5000    88.2492    15.3635     0.1562     2.1478   -50.2158     3.1155     2.4500
 3826.0000    85.6882    14.9843     0.1414     2.1142   -50.2083     3.0577     2.4554
 3826.5000    80.8096    14.9552     0.1519     1.9792   -50.1995     3.0881     2.5355
 3827.0000    75.4117    14.5672     0.1668     1.9279   -50.1922     3.2231     2.6157
 3827.5000    73.6066    13.7313     0.1475     1.9224   -50.1849     3.2832     2.6959
 3828.0000    75.3943    11.4627     0.1535     1.9280   -50.0288     3.1790     2.7761
 3828.5000    79.4275    11.2464     0.1773     1.9743   -49.8727     3.2692     2.8573
 3829.0000    85.2571    12.4478     0.1714     1.9879   -49.5678     3.5387     2.8627
 3829.5000    87.9430    13.0746     0.1581     2.0015   -49.5605     3.7036     2.9415
 3830.0000    88.8325    13.2239     0.1745     2.0388   -49.5532     3.7638     2.8723
 3830.5000    87.7976    12.5373     0.2146     2.2221   -49.8438     3.7792     2.8032
 3831.0000    85.0814    11.7910     0.2191     2.2653   -49.9851     3.7798     2.7208
 3831.5000    83.3180    11.4613     0.2073     2.2769   -49.9777     3.8400     2.5586
 3832.0000    82.5090    11.5404     0.2073     2.2784   -49.9702     3.9152     2.5224
 3832.5000    83.2563    12.8227     0.2089     2.2764   -49.9613     3.7811     2.4533
 3833.0000    84.8315    13.4412     0.1903     2.2575   -49.9540     3.6021     2.5022
 3833.5000    86.9418    14.6923     0.1575     2.2208   -49.9985     3.4830     2.5392
 3834.0000    88.7845    14.5158     0.1541     2.1391   -50.0893     3.2891     2.6202
 3834.5000    87.4024    14.4179     0.1891     2.1340   -50.0810     3.1251     2.7750
 3835.0000    79.3099    14.7801     0.1973     2.1336   -50.0737     3.0807     2.8545
 3835.5000    83.7922    15.6635     0.1865     2.0335   -50.3658     3.1918     2.9352
 3836.0000    84.2335    15.7612     0.1755     2.0096   -50.5055     3.4703     3.1086
 3836.5000    83.3256    15.5174     0.1884     2.0171   -50.6470     3.6950     3.1705
 3837.0000    82.4187    14.9071     0.1729     2.0650   -50.7887     3.9495     3.3638
 3837.5000    86.4519    14.2388     0.1606     2.2158   -50.9301     3.9799     3.4799
 3838.0000    91.4262    11.7015     0.2317     2.3178   -50.9226     3.9653     3.6236
 3838.5000    95.0037    11.1045     0.2451     2.2421   -50.9152     4.1302     3.7635
 3839.0000    96.3700    11.8209     0.2466     2.1653   -50.7575     4.3250     3.8418
 3839.5000    96.7464    12.3582     0.2180     2.0831   -50.6014     4.4584     4.0251
 3840.0000    94.9098    12.3662     0.1676     2.1280   -50.4453     4.4454     4.0663
 3840.5000    91.1977    11.7910     0.1247     2.2580   -50.1404     4.3861     4.1107
 3841.0000    88.4594    11.3433     0.1207     2.2700   -49.9843     4.4464     4.1908
 3841.5000    88.3361    11.1638     0.1440     2.2700   -49.9770     4.6860     4.1962
 3842.0000    90.8745    11.1343     0.1721     2.2853   -49.9697     4.9406     4.2768
 3842.5000    92.7171    11.1343     0.1921     2.4057   -49.9624     5.1054     4.3912
 3843.0000    96.2319    11.1689     0.2101     2.4540   -49.8065     5.1806     4.4366
 3843.5000    98.4687    11.2300     0.1951     2.4217   -49.7991     5.3754     4.5168
 3844.0000    99.8073    11.3512     0.1544     2.3900   -49.7917     5.3459     4.5612
 3844.5000    94.8585    11.6959     0.1547     2.3804   -49.7842     5.3463     4.7098
 3845.0000    93.5025    11.9925     0.1625     2.3823   -49.9260     5.4365     4.7583
 3845.5000    94.3920    12.1791     0.1628     2.3989   -50.0670     5.6253     4.9307
 3846.0000    98.4469    12.0426     0.1180     2.4184   -50.3560     5.8859     5.0672
 3846.5000   105.7248    11.5085     0.0369     2.4715   -50.4975     6.0059     5.1235
 3847.0000   108.7953    11.0071     0.0217     2.5362   -50.6390     6.2605     5.3025
 3847.5000   110.2474    10.6567     0.0161     2.5596   -50.7805     6.6495     5.4573
 3848.0000   111.5271    10.6460     0.0131     2.5694   -50.7732     6.9190     5.6120
 3848.5000   113.1762    10.6866     0.0117     2.5634   -50.6171     6.9791     5.6922
 3849.0000   116.3412    10.7164     0.0114     2.5590   -50.3122     6.8900     5.6978
 3849.5000   120.5101    10.7164     0.0311     2.5635   -50.3049     6.9054     5.6298
 3850.0000   118.5629    10.7164     0.0504     2.5725   -50.1488     6.9507     5.6352
 3850.5000   116.8131    10.6866     0.0594     2.5830   -50.2903     6.7423     5.4155
 3851.0000   119.4415    10.6567     0.0891     2.5935   -50.1339     6.7131     5.4223
 3851.5000   121.2292    10.6567     0.1485     2.5830   -49.9763     6.6690     5.2785
 3852.0000   120.7714    10.6567     0.1367     2.5166   -49.9690     6.5950     5.1347
 3852.5000   120.3135    10.6567     0.1376     2.4855   -49.8129     6.4313     5.0656
 3853.0000   120.3048    10.6940     0.1864     2.4744   -49.8056     6.1928     4.9218
 3853.5000   119.8470    10.8615     0.2035     2.4532   -49.7983     5.9993     4.8526
 3854.0000   118.0419    11.4454     0.2238     2.4196   -49.7910     5.7128     4.6284
 3854.5000   115.7128    12.1157     0.2347     2.3746   -49.6175     5.5502     4.4031
 3855.0000   112.8740    12.3582     0.2453     2.3469   -49.4639     5.4486     4.2720
 3855.5000   106.6450    11.8209     0.2361     2.3301   -49.6042     5.2849     4.2789
 3856.0000   101.8383    12.0072     0.1858     2.3075   -49.7440     5.1361     4.3559
 3856.5000   101.8293    12.1929     0.1357     2.2866   -49.8841     5.0769     4.5883
 3857.0000   101.4938    12.2687     0.1372     2.2829   -50.1730     5.1675     4.8177
 3857.5000    97.2082    11.9790     0.0929     2.2889   -50.4619     5.4821     5.1963
 3858.0000    88.6333    11.1343     0.0220     2.3757   -50.7485     5.9462     5.5002
 3858.5000    79.0053    10.5970     0.0083     2.5661   -50.8908     6.5000     5.6550
 3859.0000    75.7348    10.3582     0.0129     2.5957   -50.8799     7.0987     5.5849
 3859.5000    76.6243    10.2687     0.0183     2.5603   -50.8711     7.6714     5.4343
 3860.0000    82.0048    10.2627     0.0737     2.5250   -50.7136     7.8774     5.1503
 3860.5000    93.6728    10.4179     0.1925     2.4789   -50.7048     7.1608     4.8981
 3861.0000   100.4006    11.0448     0.1947     2.3728   -50.3984     6.6862     4.4150
 3861.5000   104.8829    11.6119     0.1496     2.3146   -50.0921     5.9722     4.0474
 3862.0000   107.1197    11.8209     0.2053     2.3445   -49.9345     5.0063     3.7543
 3862.5000   108.0092    11.9440     0.2283     2.3190   -49.7768     4.6676     3.3867
 3863.0000   104.8396    12.2710     0.2168     2.3117   -49.6190     4.5636     3.0936
 3863.5000    97.8883    13.5041     0.1913     2.3491   -49.4597     4.4000     2.9496
 3864.0000    96.3054    14.1361     0.1968     2.3745   -49.3021     4.1167     2.8806
 3864.5000    96.4261    14.3424     0.2198     2.3731   -49.2934     3.9978     2.9608
 3865.0000    97.3429    14.4732     0.2256     2.3596   -49.2846     3.9687     2.9664
 3865.5000    98.2598    14.6267     0.1902     2.2790   -49.4269     3.9843     3.0466
 3866.0000   100.7125    14.7690     0.1752     2.2282   -49.4159     4.0299     3.1278
 3866.5000   103.7175    14.8401     0.2127     2.2297   -49.4077     4.0456     3.1333
 3867.0000   106.5791    14.6154     0.2367     2.2985   -49.3988     4.0314     3.1387
