~VERSION INFORMATION
 VERS.                2.0:   CWLS LOG ASCII STANDARD - VERSION 2.0
 WRAP.                 NO:   ONE LINE PER DEPTH STEP
~WELL INFORMATION
#MNEM.UNIT      DATA TYPE    INFORMATION
#----------   ------------   ------------------------------
 STRT.F          196.5000:   START DEPTH
 STOP.F         3202.0000:   STOP DEPTH
 STEP.F            0.5000:   STEP LENGTH
 NULL.          -999.2500:   NO VALUE
 COMP.    FENIX & SCISSON:   COMPANY
 WELL.   FENIX "AX" #26-3:   WELL
 FLD .              NPR-3:   FIELD
 LOC .       S3 T38N R78W:   LOCATION
 CNTY.            NATRONA:   COUNTY
 STAT.            WYOMING:   STATE
 CTRY. UNITED STATES OF AMERICA:   COUNTRY
 SRVC.              WELEX:   SERVICE COMPANY
 DATE.        19-JUN-1977:   LOGDATE
 API .     49025103800000:   API NUMBER
~CURVE INFORMATION
#MNEM.UNIT       API CODE    CURVE DESCRIPTION
#----------   ------------   ------------------------------
 DEPT.F                  :   
 CALD.IN     45 280 60 00:   CALIPER FROM DENSITY LOG
 GRD .GAPI   45 310 01 00:   GAMMA RAY FROM DENSITY LOG
 RHOB.G/C3   45 350 01 00:   BULK DENSITY
 CORR.G/C3   45 356 01 00:   DENSITY CORRECTION
 SPR .MV     07 010 01 00:   SPONTANEOUS POTENTIAL
 ILD .OHMM   07 120 46 00:   DEEP INDUCTION RESISTIVITY
 ILM .OHMM   07 120 44 00:   INDUCTION LOG MEDIUM RESISTIVITY
 SGRD.OHMM   07 220 05 00:   SHALLOW SHORT GUARD RESISTIVITY
~PARAMETER INFORMATION
#MNEM.UNIT          VALUE    DESCRIPTION
#----------   ------------   ------------------------------
 EKB .F         5231.0000:   Kelly bushing
 EGL .F         5221.0000:   Ground level
 EDF .F            0.0000:   Drilling floor
 TD  .F         3204.0000:   Total depth
 CLNT.            A2DTECH:   Client Code
 SL  . 1320' FSL & 740' FWL:   Surface Location
 PD  .                 GL:   Permanent Datum
 EPD .F              5221:   Elevation Permanent Datum
 LMF .                 KB:   Log Measured From
 DMF .                 KB:   Drilling Measured From
 DAPD.F                10:   Feet Above Permanent Datum
 DATE.        19-JUN-1977:   Date Logged [DD-MMM-YYYY]
 DD  .F              3200:   Depth driller
 DL  .F              3204:   Depth logger
 BLI .F              3202:   Bottom log interval
 TLI .F               220:   Top log interval
 CS1 .IN            8.625:   Casing size
 CBD1.      8.625" @ 220':   Casing driller 1
 CBL1.F               220:   Casing logger 1
 BS1 .IN            7.875:   Bit size
 BSD1.F              3200:   Depth drilled with bit1
 DFT .                KCL:   Type fluid in hole
 DFD .                9.1:   Density
 RMS .OHMM           1.19:   Rm
 MST .F                65:   Rm Meas. temp.
 TCS .HRS               4:   Time Circ. stopped
 MRT .F               115:   Maximum recorded temp.
 LUN .               8766:   Logging unit number
 ENGI.          T. JOYNER:   Recorded By
 WITN.         PETTINGILL:   Witnessed by
 ORIG.           5" PRINT:   Origin of data
 UWI .     49025103800000:   Unique Well ID
 DICO. A2D TECHNOLOGIES, INC.:   Digitizing Company
 DFPH.                7.5:   pH
 DFL .                4.2:   Fluid loss
 MSS .            MUD PIT:   Source of sample
 RMF .OHMM           1.19:   Rmf
 MFST.F                65:   Rmf Meas. temp.
 MFSS.               MEAS:   Source Rmf.
 RMC .OHMM           2.01:   Rmc
 MCST.F                65:   Rmc Meas. temp.
 MCSS.               MEAS:   Source Rmc.
 RMB .OHMM            .67:   Rm. at BHT
 BHT .F               115:   BHT.
~OTHER INFORMATION
~A   DEPT     CALD         GRD      RHOB       CORR        SPR        ILD        ILM       SGRD   
# ...
 1209.0000     9.4364    82.5325     2.4298     0.0137   -54.1860     8.8047    10.1256    10.8032
 1209.5000     9.4390    79.3070     2.4277     0.0130   -54.1130     8.9321    10.1331    10.8815
 1210.0000     9.4564    84.1054     2.4278     0.0123   -53.9485     9.0012    10.2110    11.0407
 1210.5000     9.4590    80.8691     2.4287     0.0117   -53.9327     9.0695    10.2185    11.1238
 1211.0000     9.4318    85.9755     2.4288     0.0110   -53.8513     9.0868    10.2972    11.2076
 1211.5000     9.4494    87.8336     2.4289     0.0111   -53.7506     9.2076    10.3050    11.4487
 1212.0000     9.4677    81.0105     2.4268     0.0111   -53.5858     9.2138    10.3143    11.6950
 1212.5000     9.4373    80.7569     2.4240     0.0097   -53.5688     9.2200    10.2489    11.7831
 1213.0000     9.4578    82.8807     2.4210     0.0090   -53.5485     9.2262    10.3376    11.7902
 1213.5000     9.4753    79.3689     2.4189     0.0084   -53.5318     9.2324    10.4405    11.7161
 1214.0000     9.4333    78.5101     2.4169     0.0092   -53.3672     9.3025    10.5095    11.5629
 1214.5000     9.4359    80.3366     2.4178     0.0100   -53.3184     9.3088    10.5172    11.5701
 1215.0000     9.4979    76.8249     2.4186     0.0108   -53.1879     9.3152    10.4520    11.8206
 1215.5000     9.4857    76.2632     2.4188     0.0109   -53.1693     9.3216    10.3884    11.7448
 1216.0000     9.4883    80.7644     2.4181     0.0110   -53.1538     9.2651    10.3990    11.5927
 1216.5000     9.5058    77.8470     2.4175     0.0111   -53.1368     9.2713    10.4074    11.5997
 1217.0000     9.4496    79.3764     2.4169     0.0104   -53.1194     9.2768    10.3441    11.7679
 1217.5000     9.4819    80.3115     2.4178     0.0112   -52.9548     9.2838    10.3804    12.1043
 1218.0000     9.4993    77.6383     2.4186     0.0113   -52.9379     9.2900    10.4349    12.1116
 1218.5000     9.4574    78.0320     2.4202     0.0121   -52.7729     9.2963    10.4433    11.9530
 1219.0000     9.4302    81.0473     2.4208     0.0122   -52.7527     9.3024    10.4518    11.7965
 1219.5000     9.4626    82.5658     2.4212     0.0123   -52.7361     9.3088    10.4592    11.6420
 1220.0000     9.4652    77.5682     2.4214     0.0123   -52.7194     9.3152    10.4679    11.8110
 1220.5000     9.4083    80.2863     2.4216     0.0124   -52.7049     9.3216    10.6230    11.8184
 1221.0000     9.4704    80.0218     2.4224     0.0125   -52.6879     9.4007    10.6317    11.8389
 1221.5000     9.4736    77.9960     2.4233     0.0126   -52.6694     9.4866    10.6403    11.9159
 1222.0000     9.4762    77.1471     2.4241     0.0126   -52.5059     9.6689    10.7227    12.0056
 1222.5000     9.4788    78.9747     2.4258     0.0127   -52.4889     9.7422    10.8060    12.0960
 1223.0000     9.4659    79.0529     2.4274     0.0128   -52.3236     9.8839    10.8149    12.3563
 1223.5000     9.4388    79.9640     2.4283     0.0129   -52.3069    10.0277    10.9762    12.8859
 1224.0000     9.4420    79.1160     2.4276     0.0129   -52.2899    10.1735    11.0613    13.7191
 1224.5000     9.4446    76.1878     2.4248     0.0130   -52.2729    10.2507    11.3021    14.4061
 1225.0000     9.4621    79.5002     2.4219     0.0131   -52.2528    10.3284    11.3113    14.6235
 1225.5000     9.4647    78.0579     2.4197     0.0132   -52.5320    10.4788    11.7184    14.8272
 1226.0000     9.4525    74.5353     2.4199     0.0132   -52.5153    10.4860    11.9735    14.8381
 1226.5000     9.4557    78.1449     2.4223     0.0133   -52.6466    10.4945    12.3191    14.8471
 1227.0000     9.4583    76.4054     2.4254     0.0134   -52.9258    10.5016    12.5006    14.8549
 1227.5000     9.4758    75.8443     2.4263     0.0135   -53.2050    10.4725    12.5108    14.8658
 1228.0000     9.4932    78.8699     2.4264     0.0135   -53.6321    10.4418    12.5210    14.6689
 1228.5000     9.4661    75.2445     2.4288     0.0136   -53.6161    10.3060    12.3113    14.4768
 1229.0000     9.4538    78.0762     2.4319     0.0129   -53.7587    10.3859    12.0143    14.1912
 1229.5000     9.4565    78.7032     2.4335     0.0123   -53.8780    10.3213    11.7158    13.9071
 1230.0000     9.4591    76.0722     2.4344     0.0108   -53.8600    10.2576    11.4057    13.5370
 1230.5000     9.4623    79.6927     2.4338     0.0087   -54.1398    10.1243    11.2974    13.2700
 1231.0000     9.4649    78.8447     2.4331     0.0080   -54.2840    10.0616    11.0896    13.0962
 1231.5000     9.4675    75.0249     2.4337     0.0073   -54.4016     9.9993    10.8936    12.7477
 1232.0000     9.4701    75.9600     2.4349     0.0074   -54.6228     9.8692    10.7704    12.4943
 1232.5000     9.4727    79.5696     2.4373     0.0082   -54.6656     9.7408    10.5825    13.2272
 1233.0000     9.4753    73.9394     2.4396     0.0083   -54.7928     9.6141    10.4046    13.9704
 1233.5000     9.4779    72.8216     2.4420     0.0099   -54.7774     9.5545    10.2701    14.5692
 1234.0000     9.4657    76.1341     2.4444     0.0114   -54.7604     9.4954    10.1374    15.0893
 1234.5000     9.4832    70.8393     2.4453     0.0130   -54.7433     9.5034    10.2180    15.2006
 1235.0000     9.4864    68.7917     2.4461     0.0146   -54.7261     9.5098    10.2972    13.4369
 1235.5000     9.4735    73.0066     2.4463     0.0139   -54.7093     9.5162    10.3770    12.3775
 1236.0000     9.4612    70.0784     2.4464     0.0132   -54.6923     9.3924    10.4574    12.2999
 1236.5000     9.4489    68.0416     2.4443     0.0118   -54.6720     9.3989    10.4659    12.3074
 1237.0000     9.4367    68.6795     2.4414     0.0111   -54.6553     9.2764    10.4744    12.2278
 1237.5000     9.4399    71.4461     2.4393     0.0112   -54.6413     9.1557    10.3390    12.0599
 1238.0000     9.4425    69.0638     2.4379     0.0113   -54.7741     9.0366    10.3474    11.8302
 1238.5000     9.4452    70.3625     2.4365     0.0114   -54.7533     8.9206    10.2136    11.5968
 1239.0000     9.4478    73.9165     2.4374     0.0114   -54.7382     8.9266    10.0817    11.4449
 1239.5000     9.4510    76.3374     2.4383     0.0123   -54.7200     8.9321    10.0131    11.2175
 1240.0000     9.4684    79.3527     2.4407     0.0123   -54.7033     8.9383     9.8929    11.0706
 1240.5000     9.4710    81.4765     2.4438     0.0132   -54.6871     8.9446     9.9009    10.9744
 1241.0000     9.4588    80.3313     2.4469     0.0140   -54.6701     8.9506     9.8387    10.7825
 1241.5000     9.4614    79.1861     2.4485     0.0141   -54.6531     8.9568     9.8487    10.7148
 1242.0000     9.4640    79.5268     2.4487     0.0141   -54.6361     8.9629     9.7195    10.5036
 1242.5000     9.4666    81.3534     2.4488     0.0142   -54.6609     8.9691     9.7069    10.4363
 1243.0000     9.4692    81.9913     2.4467     0.0143   -54.7500     8.9753     9.6697    10.4427
 1243.5000     9.4724    80.5272     2.4423     0.0144   -54.7330     8.9815     9.6780    10.4504
 1244.0000     9.4899    79.4038     2.4379     0.0129   -54.7160     9.1134     9.6190    10.4567
 1244.5000     9.4776    80.6360     2.4358     0.0130   -54.6990     9.1196     9.5600    10.6083
 1245.0000     9.4647    78.9073     2.4352     0.0123   -54.7140     9.1257     9.5026    10.6148
 1245.5000     9.4525    78.3456     2.4361     0.0117   -54.8159     9.1949     9.4448    10.6212
 1246.0000     9.4706    83.7492     2.4370     0.0117   -54.7959     9.2011     9.4544    10.6276
 1246.5000     9.4732    83.4956     2.4362     0.0111   -54.7785     9.1426     9.4608    10.4882
 1247.0000     9.4461    82.3504     2.4320     0.0111   -54.7618     9.0237     9.4697    10.4226
 1247.5000     9.4785    82.9883     2.4299     0.0105   -54.7448     8.9076     9.4102    10.3209
 1248.0000     9.4816    84.5177     2.4285     0.0105   -54.7271     8.7918     9.4198    10.2219
 1248.5000     9.4687    84.5612     2.4279     0.0106   -54.7310     8.7375     9.4274    10.0894
 1249.0000     9.4720    83.6731     2.4303     0.0107   -54.8047     8.6834     9.4351     9.9573
