~VERSION INFORMATION
 VERS.                2.0:   CWLS LOG ASCII STANDARD - VERSION 2.0
 WRAP.                 NO:   ONE LINE PER DEPTH STEP
~WELL INFORMATION
#MNEM.UNIT      DATA TYPE    INFORMATION
#----------   ------------   ------------------------------
 STRT.F           42.0000:   START DEPTH
 STOP.F         4542.0000:   STOP DEPTH
 STEP.F            0.5000:   STEP LENGTH
 NULL.          -999.2500:   NO VALUE
 COMP. LAWRENCE ALLISON & ASSOC.:   COMPANY
 WELL. ALLISON NPR 3 #86-27:   WELL
 FLD .                NPR:   FIELD
 LOC .      S27 T39N R78W:   LOCATION
 CNTY.            NATRONA:   COUNTY
 STAT.            WYOMING:   STATE
 CTRY. UNITED STATES OF AMERICA:   COUNTRY
 SRVC.      DRESSER ATLAS:   SERVICE COMPANY
 DATE.        20-MAR-1985:   LOGDATE
 API .     49025110190000:   API NUMBER
~CURVE INFORMATION
#MNEM.UNIT       API CODE    CURVE DESCRIPTION
#----------   ------------   ------------------------------
 DEPT.F                  :   
 CALD.IN     45 280 60 00:   CALIPER FROM DENSITY LOG
 TEND.LBS    45 635 01 00:   TENSION FROM DENSITY LOG
 CORR.G/C3   45 356 01 00:   DENSITY CORRECTION
 RHOB.G/C3   45 350 01 00:   BULK DENSITY
 CNC .DEC    42 890 03 00:   NEUTRON PORISITY SANDSTONE
 TENR.LBS    07 635 01 00:   TENSION FROM RESISTIVITY
 GRR .GAPI   07 310 01 00:   GAMMA RAY FROM RESISTIVITY
 SFL .OHMM   07 220 01 00:   SHALLOW FOCUSED LOG RESISTIVITY
 ILD .OHMM   07 120 46 00:   DEEP INDUCTION RESISTIVITY
 ILM .OHMM   07 120 44 00:   INDUCTION LOG MEDIUM RESISTIVITY
 TENS.LBS    60 635 01 00:   TENSION FROM SONIC LOG
 DT  .US/F   60 520 00 00:   DELTA TIME
 CALS.IN     60 280 50 00:   CALIPER FROM SONIC LOG
 GRS .GAPI   60 310 01 00:   GAMMA RAY FROM SONIC LOG
~PARAMETER INFORMATION
#MNEM.UNIT          VALUE    DESCRIPTION
#----------   ------------   ------------------------------
 EKB .F         5095.0000:   Kelly bushing
 EGL .F         5083.0000:   Ground level
 EDF .F            0.0000:   Drilling floor
 TD  .F         4545.0000:   Total depth
 DATE.        20-MAR-1985:   Date logged
 CLNT.            A2DTECH:   Client Code
 SL  . 292' FEL & 1975' FWL:   Surface Location
 PD  .                 GL:   Permanent Datum
 EPD .F              5083:   Elevation Permanent Datum
 LMF .                 KB:   Log Measured From
 DMF .                 KB:   Drilling Measured From
 DAPD.F                12:   Feet Above Permanent Datum
 DD  .F              4545:   Depth driller
 DL  .F              4533:   Depth logger
 BLI .F              4534:   Bottom log interval
 TLI .F              1045:   Top log interval
 CS1 .IN            8.625:   Casing size
 CBD1.     8.625" @ 1033':   Casing driller 1
 CBL1.F              1045:   Casing logger 1
 BS1 .IN            7.875:   Bit size
 BSD1.F              4545:   Depth drilled with bit1
 DFT .    GEL/KCL/STA/FLO:   Type fluid in hole
 DFD .                9.1:   Density
 DFV .                 30:   Viscosity
 DFPH.                  8:   pH
 DFL .                 12:   Fluid loss
 MSS .           MUD/TANK:   Source of sample
 RMS .OHMM            .46:   Rm
 MST .F                74:   Rm Meas. temp.
 RMF .OHMM            .37:   Rmf
 MFST.F                72:   Rmf Meas. temp.
 RMC .OHMM            .58:   Rmc
 MCST.F                74:   Rmc Meas. temp.
 MFSS.               MEAS:   Source Rmf.
 MCSS.               CALC:   Source Rmc.
 RMB .OHMM            .25:   Rm. at BHT
 BHT .F               138:   BHT.
 TCS .HRS             4.5:   Time Circ. stopped
 MRT .F               138:   Maximum recorded temp.
 LUN .            HL-6274:   Logging unit number
 LUL .           GILLETTE:   Logging unit location
 ENGI.             RAUTIO:   Recorded By
 WITN.             STRONG:   Witnessed by
 ORIG.           5" PRINT:   Origin of data
 UWI .     49025110190000:   Unique Well ID
 DICO. A2D TECHNOLOGIES, INC.:   Digitizing Company
~OTHER INFORMATION
~A   DEPT     CALD       TEND       CORR       RHOB        CNC       TENR        GRR        SFL        ILD        ILM       TENS         DT        CALS        GRS  
# ...
 2908.5000    10.0170     7.0190     0.0000     2.4730     0.2980    58.1510   113.3000     4.9270     5.2320     4.9500  -999.2500  -999.2500  -999.2500  -999.2500
 2909.0000    10.0190     5.1790     0.0080     2.4810     0.2770    58.1510   113.7800     4.7700     5.3300     5.0170  -999.2500  -999.2500  -999.2500  -999.2500
 2909.5000    10.0200     3.3380     0.0080     2.5020     0.2580    58.1510   106.0500     5.7330     5.6170     5.2140  -999.2500  -999.2500  -999.2500  -999.2500
 2910.0000    10.0220     1.4970     0.0180     2.5200     0.2390    56.2620    95.3880     6.7520     5.9030     5.4110  -999.2500  -999.2500  -999.2500  -999.2500
 2910.5000    10.0230    -0.4990     0.0350     2.5410     0.2310    53.7570    84.7510     7.9350     6.1900     5.6090  -999.2500  -999.2500  -999.2500  -999.2500
 2911.0000    10.0250    -7.5000     0.0430     2.5480     0.2320    51.2520    79.9040     7.8030     6.4760     5.8060  -999.2500  -999.2500  -999.2500  -999.2500
 2911.5000    10.0260   -15.1470     0.0370     2.5500     0.2360    48.7480    81.7480     7.5380     6.7630     6.0030  -999.2500  -999.2500  -999.2500  -999.2500
 2912.0000    10.0270   -22.7930     0.0190     2.5480     0.2430    46.2430    82.4410     7.1660     7.0500     6.2000  -999.2500  -999.2500  -999.2500  -999.2500
 2912.5000    10.0290   -30.4390     0.0150     2.5460     0.2580    43.7380    82.7290     7.2060     7.1910     6.3970  -999.2500  -999.2500  -999.2500  -999.2500
 2913.0000    10.0300   -38.0850     0.0370     2.5470     0.2570    41.2330    83.2810     7.2740     7.2330     6.5940  -999.2500  -999.2500  -999.2500  -999.2500
 2913.5000    10.0320   -40.4190     0.0480     2.5480     0.2550    38.7280    82.6010     7.3420     7.2990     6.9050  -999.2500  -999.2500  -999.2500  -999.2500
 2914.0000    10.0330   -40.4190     0.0280     2.5430     0.2560    36.2230    80.1350     7.4360     7.2400     6.8170  -999.2500  -999.2500  -999.2500  -999.2500
 2914.5000    10.0350   -40.4190    -0.0190     2.5320     0.2600    33.7180    77.5490     7.2340     7.0990     6.6130  -999.2500  -999.2500  -999.2500  -999.2500
 2915.0000    10.0360   -40.4190    -0.0290     2.5220     0.2620    31.2130    79.2300     6.9110     6.9580     6.4320  -999.2500  -999.2500  -999.2500  -999.2500
 2915.5000    10.0350   -40.4190    -0.0240     2.5140     0.2610    28.7080    83.2170     6.4130     6.8170     6.2890  -999.2500  -999.2500  -999.2500  -999.2500
 2916.0000    10.0340   -40.4190    -0.0050     2.5220     0.2570    26.2030    84.4690     6.4830     6.6760     6.2620  -999.2500  -999.2500  -999.2500  -999.2500
 2916.5000    10.0330   -40.4190     0.0130     2.5310     0.2520    23.6980    83.6290     6.6380     6.5350     6.2360  -999.2500  -999.2500  -999.2500  -999.2500
 2917.0000    10.0320   -40.4190     0.0250     2.5360     0.2530    21.1930    83.4240     6.8710     6.3940     6.2100  -999.2500  -999.2500  -999.2500  -999.2500
 2917.5000    10.0310   -40.4190     0.0300     2.5320     0.2540    18.6880    84.3480     6.8440     6.2530     6.1800  -999.2500  -999.2500  -999.2500  -999.2500
 2918.0000    10.0300   -40.4190     0.0170     2.5260     0.2560    16.1830    85.3880     6.6250     6.1800     6.2930  -999.2500  -999.2500  -999.2500  -999.2500
 2918.5000    10.0290   -40.4190     0.0030     2.5260     0.2580    13.6780    86.3510     6.2950     6.3230     6.4210  -999.2500  -999.2500  -999.2500  -999.2500
 2919.0000    10.0280   -40.4190     0.0040     2.5360     0.2590    11.1730    86.1310     6.4750     6.5300     6.5490  -999.2500  -999.2500  -999.2500  -999.2500
 2919.5000    10.0270   -40.4190     0.0080     2.5470     0.2520     8.6680    84.5640     6.8330     6.7370     6.6780  -999.2500  -999.2500  -999.2500  -999.2500
 2920.0000    10.0260   -40.4190     0.0120     2.5520     0.2380     6.1630    81.2350     7.1910     6.9440     6.8060  -999.2500  -999.2500  -999.2500  -999.2500
 2920.5000    10.0250   -40.4190     0.0160     2.5490     0.2410     3.6580    79.3690     7.5500     7.1660     6.9340  -999.2500  -999.2500  -999.2500  -999.2500
 2921.0000    10.0240   -40.4190     0.0200     2.5420     0.2520     1.1530    78.6870     7.8600     7.2920     7.0620  -999.2500  -999.2500  -999.2500  -999.2500
 2921.5000    10.0230   -40.4190     0.0240     2.5310     0.2550    -1.4910    78.6240     7.9440     7.4360     7.1900  -999.2500  -999.2500  -999.2500  -999.2500
 2922.0000    10.0220   -40.4190     0.0290     2.5260     0.2550     1.6630    78.6470     8.0060     7.4000     7.2990  -999.2500  -999.2500  -999.2500  -999.2500
 2922.5000    10.0210   -40.4190     0.0230     2.5250     0.2390     5.0030    79.6160     7.5370     7.3620     7.2300  -999.2500  -999.2500  -999.2500  -999.2500
 2923.0000    10.0200   -40.4190     0.0060     2.5320     0.2480     8.3430    80.7270     7.1280     7.3240     7.1700  -999.2500  -999.2500  -999.2500  -999.2500
 2923.5000    10.0190   -40.4190     0.0050     2.5400     0.2590    11.6830    81.7390     7.1660     7.2860     7.1090  -999.2500  -999.2500  -999.2500  -999.2500
 2924.0000    10.0180   -40.4190     0.0100     2.5440     0.2650    15.0230    83.6720     7.0900     7.2490     7.0490  -999.2500  -999.2500  -999.2500  -999.2500
 2924.5000    10.0160   -40.4190     0.0120     2.5340     0.2600    18.3900    85.3000     7.0340     7.2110     6.9890  -999.2500  -999.2500  -999.2500  -999.2500
 2925.0000    10.0150   -40.4190    -0.0180     2.5240     0.2570    18.0400    86.9520     7.1670     7.1660     6.9290  -999.2500  -999.2500  -999.2500  -999.2500
 2925.5000    10.0140   -40.4190    -0.0170     2.5140     0.2570    17.6870    87.0220     7.2990     7.1660     6.8690  -999.2500  -999.2500  -999.2500  -999.2500
 2926.0000    10.0130   -40.4190     0.0010     2.5150     0.2480    17.3340    85.9920     7.5370     7.1660     6.8080  -999.2500  -999.2500  -999.2500  -999.2500
 2926.5000    10.0120   -40.4190     0.0140     2.5150     0.2340    16.9820    84.6940     7.8600     7.1660     6.7480  -999.2500  -999.2500  -999.2500  -999.2500
 2927.0000    10.0110   -39.7210     0.0130     2.5160     0.2420    16.6290    83.5580     7.6480     7.1660     6.6880  -999.2500  -999.2500  -999.2500  -999.2500
 2927.5000    10.0100   -38.8330     0.0030     2.5230     0.2490    16.2760    84.5290     7.3110     7.0670     6.6280  -999.2500  -999.2500  -999.2500  -999.2500
 2928.0000    10.0090   -37.9460    -0.0080     2.5300     0.2510    15.9240    85.4730     6.9730     6.9480     6.5670  -999.2500  -999.2500  -999.2500  -999.2500
 2928.5000    10.0080   -37.0580    -0.0180     2.5360     0.2430    15.5710    85.8130     6.6550     6.8300     6.5070  -999.2500  -999.2500  -999.2500  -999.2500
 2929.0000    10.0070   -36.1710    -0.0300     2.5330     0.2320    15.2180    82.9130     6.9260     6.7110     6.4470  -999.2500  -999.2500  -999.2500  -999.2500
 2929.5000    10.0060   -35.2830    -0.0220     2.5320     0.2370    14.8660    80.7950     7.1660     6.5930     6.3870  -999.2500  -999.2500  -999.2500  -999.2500
 2930.0000    10.0050   -34.3950    -0.0130     2.5320     0.2450    14.5130    81.7850     7.1660     6.4740     6.2950  -999.2500  -999.2500  -999.2500  -999.2500
 2930.5000    10.0040   -33.5080    -0.0140     2.5320     0.2590    14.1600    83.3180     6.9510     6.4130     6.3200  -999.2500  -999.2500  -999.2500  -999.2500
 2931.0000    10.0030   -32.6200    -0.0070     2.5300     0.2630    13.8080    84.9680     6.7070     6.4130     6.3710  -999.2500  -999.2500  -999.2500  -999.2500
 2931.5000    10.0020   -31.7330     0.0050     2.5230     0.2650    13.4550    85.8240     6.2950     6.4130     6.4210  -999.2500  -999.2500  -999.2500  -999.2500
 2932.0000    10.0010   -30.8450     0.0070     2.5170     0.2670    13.1020    85.1450     6.3640     6.4610     6.4720  -999.2500  -999.2500  -999.2500  -999.2500
 2932.5000    10.0000   -29.9580     0.0090     2.5180     0.2670    12.7500    84.9940     6.5850     6.5290     6.5230  -999.2500  -999.2500  -999.2500  -999.2500
