~VERSION INFORMATION
 VERS.                2.0:   CWLS LOG ASCII STANDARD - VERSION 2.0
 WRAP.                 NO:   ONE LINE PER DEPTH STEP
~WELL INFORMATION
#MNEM.UNIT      DATA TYPE    INFORMATION
#----------   ------------   ------------------------------
 STRT.F           46.0000:   START DEPTH
 STOP.F         2736.5000:   STOP DEPTH
 STEP.F            0.5000:   STEP LENGTH
 NULL.          -999.2500:   NO VALUE
 COMP.          INTEX OIL:   COMPANY
 WELL. INTEX NPR 3 "AX" #72-20:   WELL
 FLD .             TEAPOT:   FIELD
 LOC .      S20 T39N R78W:   LOCATION
 CNTY.            NATRONA:   COUNTY
 STAT.            WYOMING:   STATE
 CTRY. UNITED STATES OF AMERICA:   COUNTRY
 SRVC.       SCHLUMBERGER:   SERVICE COMPANY
 DATE.        11-MAY-1966:   LOGDATE
 API .     49025095110000:   API NUMBER
~CURVE INFORMATION
#MNEM.UNIT       API CODE    CURVE DESCRIPTION
#----------   ------------   ------------------------------
 DEPT.F                  :   
 SPR .MV     05 010 01 00:   SPONTANEOUS POTENTIAL FROM RES.
 ILD .OHMM   05 120 46 00:   INDUCTION LOG DEEP
 ASN .OHMM   05 041 16 00:   AMPLIFIED SHORT NORMAL 16"
 CALD.IN     45 280 60 00:   CALIPER FROM DENSITY LOG
 CORR.G/C3   45 356 01 00:   DENSITY CORRECTION
 RHOB.G/C3   45 350 01 00:   BULK DENSITY
 GRD .GAPI   45 310 01 00:   GAMMA RAY FROM DENSITY LOG
~PARAMETER INFORMATION
#MNEM.UNIT          VALUE    DESCRIPTION
#----------   ------------   ------------------------------
 EKB .F         5042.3000:   Kelly bushing
 EGL .F         5032.0000:   Ground level
 EDF .F            0.0000:   Drilling floor
 EPD .F         5032.0000:   Permanent datum
 TD  .F         2740.0000:   Total depth
 DATE.        11-MAY-1966:   Date logged
 CLNT.            A2DTECH:   Client Code
 DAPD.F              10.3:   Feet Above Permanent Datum
 DD  .F              2740:   Depth driller
 DL  .F              2737:   Depth logger
 BLI .F              2736:   Bottom log interval
 TLI .F                88:   Top log interval
 CS1 .IN            10.75:   Casing size
 CBD1.       10.75" @ 24':   Casing driller 1
 BS1 .IN            7.875:   Bit size
 BSD1.F              2740:   Depth drilled with bit1
 DFT .           OIL EMUL:   Type fluid in hole
 DFD .                9.8:   Density
 DFV .                 58:   Viscosity
 MSS .         CIRCULATED:   Source of sample
 RMS .OHMM           3.04:   Rm
 MST .F                54:   Rm Meas. temp.
 RMF .OHMM           1.95:   Rmf
 MFST.F                55:   Rmf Meas. temp.
 MFSS.                 FR:   Source Rmf.
 RMB .OHMM           1.64:   Rm. at BHT
 BHT .F               100:   BHT.
 TCS .HRS               4:   Time Circ. stopped
 MRT .F               100:   Maximum recorded temp.
 LUN .               4507:   Logging unit number
 LUL .               CSPR:   Logging unit location
 ENGI.               HAUG:   Recorded By
 WITN.             TUTTLE:   Witnessed by
 ORIG.        2" 5" PRINT:   Origin of data
 UWI .     49025095110000:   Unique Well ID
 DICO. A2D TECHNOLOGIES, INC.:   Digitizing Company
~OTHER INFORMATION
~A   DEPT      SPR        ILD        ASN       CALD       CORR       RHOB         GRD  
# ...
 2184.5000   -29.9290     7.1800    10.1170     9.2330     0.0370     2.4990   124.4750
 2185.0000   -29.9630     7.0440    10.0380     9.2370     0.0450     2.4990   122.5920
 2185.5000   -29.9590     6.9650     9.9870     9.2410     0.0590     2.5100   122.1190
 2186.0000   -29.9600     6.9640     9.9450     9.2450     0.0470     2.5020   122.6760
 2186.5000   -29.9600     6.9500     9.8970     9.2460     0.0160     2.4850   123.1400
 2187.0000   -29.9600     6.9410     9.9080     9.2370     0.0090     2.4750   125.6890
 2187.5000   -29.9600     6.9310     9.9610     9.2290     0.0120     2.4810   128.7830
 2188.0000   -29.9600     6.9200    10.0140     9.2200     0.0270     2.4900   131.7970
 2188.5000   -29.9600     6.9110    10.0290     9.2120     0.0230     2.5000   131.4830
 2189.0000   -29.9600     6.9000     9.9920     9.2030     0.0360     2.5090   132.1910
 2189.5000   -29.9600     6.8900     9.9640     9.1950     0.0390     2.5160   132.5690
 2190.0000   -29.9600     6.8800     9.9820     9.1860     0.0240     2.4950   131.2330
 2190.5000   -29.9600     6.8700     9.9940     9.1780     0.0190     2.4790   129.4110
 2191.0000   -29.9600     6.8600     9.9620     9.1690     0.0220     2.4970   127.6360
 2191.5000   -29.9600     6.8500     9.8540     9.1610     0.0240     2.5060   126.0370
 2192.0000   -29.9600     6.8400     9.8460     9.1520     0.0210     2.4950   127.5090
 2192.5000   -29.9600     6.8300     9.8820     9.1430     0.0140     2.4840   131.5060
 2193.0000   -29.9600     6.8200     9.9130     9.1350     0.0170     2.4730   130.8790
 2193.5000   -29.9600     6.8090     9.9510     9.1260     0.0260     2.4730   127.5430
 2194.0000   -29.9600     6.8000     9.9210     9.1180     0.0310     2.4920   123.9910
 2194.5000   -29.9600     6.7890     9.8460     9.1090     0.0270     2.4900   123.9760
 2195.0000   -29.9600     6.7760     9.8420     9.1010     0.0230     2.4900   124.0810
 2195.5000   -29.9600     6.7000     9.8330     9.0920     0.0240     2.4880   124.3880
 2196.0000   -29.9600     6.6010     9.7220     9.0830     0.0280     2.4900   124.7090
 2196.5000   -29.9600     6.5030     9.5220     9.0750     0.0250     2.4950   124.4720
 2197.0000   -29.9600     6.4050     9.2170     9.0660     0.0220     2.4980   128.4570
 2197.5000   -29.9600     6.3070     8.8960     9.0580     0.0190     2.5010   135.1400
 2198.0000   -29.9600     6.2090     8.8230     9.0510     0.0140     2.4890   139.7250
 2198.5000   -29.9610     6.1110     8.9450     9.0500     0.0100     2.4750   138.4870
 2199.0000   -29.9560     6.0130     9.0410     9.0480     0.0170     2.4690   136.8080
 2199.5000   -29.9680     5.9150     9.0830     9.0470     0.0230     2.4700   135.6850
 2200.0000   -29.8660     5.8170     8.8150     9.0460     0.0280     2.4680   131.9380
 2200.5000   -29.6780     5.7210     8.5360     9.0450     0.0330     2.4980   130.3410
 2201.0000   -29.5070     5.6200     8.3010     9.0440     0.0270     2.4910   130.0240
 2201.5000   -29.3350     5.5270     8.1290     9.0430     0.0210     2.4700   130.5950
 2202.0000   -29.1560     5.4310     7.9840     9.0410     0.0200     2.4600   134.7420
 2202.5000   -28.9900     5.5480     7.8160     9.0400     0.0250     2.4730   140.9410
 2203.0000   -28.8170     5.7400     7.8560     9.0390     0.0290     2.4860   147.1320
 2203.5000   -28.9580     5.9280     8.0810     9.0380     0.0330     2.5040   150.4460
 2204.0000   -29.2080     6.1150     8.2610     9.0370     0.0360     2.5140   143.8490
 2204.5000   -29.4600     6.3040     8.6780     9.0360     0.0410     2.4950   133.9910
 2205.0000   -29.6990     6.4900     8.9920     9.0340     0.0380     2.4990   126.8800
 2205.5000   -29.9430     6.6790     9.3250     9.0330     0.0320     2.4960   125.1340
 2206.0000   -29.9580     6.8660     9.6040     9.0320     0.0250     2.4930   125.5210
 2206.5000   -29.9620     7.0500     9.9150     9.0310     0.0300     2.5060   126.1480
 2207.0000   -29.9570     7.2580    10.0480     9.0300     0.0300     2.5190   126.8030
 2207.5000   -29.9600     7.3460    10.0340     9.0280     0.0240     2.5250   127.4380
 2208.0000   -29.9590     7.2380    10.0380     9.0270     0.0190     2.5260   127.1160
 2208.5000   -29.9600     7.1530    10.0380     9.0260     0.0220     2.5060   124.3740
 2209.0000   -29.9600     7.0620    10.0370     9.0250     0.0220     2.5000   121.5120
 2209.5000   -29.9600     6.9670    10.0390     9.0240     0.0280     2.4960   120.1540
 2210.0000   -29.9600     6.8800    10.0400     9.0230     0.0060     2.4770   120.5780
 2210.5000   -29.9600     6.7900    10.0350     9.0210     0.0130     2.4680   120.8220
 2211.0000   -29.9600     6.8650    10.0510     9.0200     0.0230     2.4790   121.3220
 2211.5000   -29.9600     6.9580     9.9040     9.0190     0.0310     2.4890   123.2230
 2212.0000   -29.9600     7.0540     9.6840     9.0180     0.0270     2.4950   122.8250
 2212.5000   -29.9600     7.1460     9.7590     9.0170     0.0130     2.4890   121.7260
 2213.0000   -29.9600     7.2410     9.8870     9.0150     0.0100     2.4850   123.2610
 2213.5000   -29.9600     7.3340     9.9250     9.0140     0.0150     2.4820   124.4010
 2214.0000   -29.9600     7.4280     9.9200     9.0130     0.0260     2.4900   123.2810
 2214.5000   -29.9600     7.5220     9.9230     9.0120     0.0370     2.5030   122.0480
 2215.0000   -29.9600     7.6130     9.9200     9.0110     0.0400     2.5130   122.9670
 2215.5000   -29.9600     7.7180     9.9360     9.0100     0.0430     2.5210   123.9050
 2216.0000   -29.9600     7.7160     9.9620     9.0080     0.0280     2.5130   125.0390
 2216.5000   -29.9600     7.5960     9.9870     9.0070     0.0170     2.4950   124.6450
 2217.0000   -29.9590     7.4910    10.0100     9.0060     0.0160     2.4920   122.5100
 2217.5000   -29.9610     7.3820    10.0350     9.0050     0.0170     2.4990   121.0580
 2218.0000   -29.9590     7.2730    10.0630     9.0040     0.0200     2.4970   122.3060
 2218.5000   -29.9570     7.1650    10.0370     9.0020     0.0220     2.4880   125.2380
 2219.0000   -29.8800     7.0560     9.8850     9.0010     0.0250     2.4790   127.9510
 2219.5000   -29.7860     6.9450     9.7260     9.0000     0.0270     2.4840   129.5520
 2220.0000   -29.6910     6.8220     9.6220     8.9990     0.0330     2.4920   129.2970
 2220.5000   -29.5980     6.7010     9.5870     8.9980     0.0390     2.5080   129.0810
 2221.0000   -29.5030     6.5880     9.5470     8.9970     0.0440     2.5220   127.3140
 2221.5000   -29.4100     6.5640     9.4830     8.9950     0.0500     2.5330   125.7370
 2222.0000   -29.3170     6.5440     9.3940     8.9940     0.0410     2.5250   125.3150
 2222.5000   -29.2180     6.5280     9.3270     8.9930     0.0260     2.5190   124.5150
 2223.0000   -29.1450     6.5080     9.2980     8.9920     0.0190     2.5130   125.3480
 2223.5000   -29.1040     6.4910     9.3310     8.9910     0.0150     2.5080   122.5990
 2224.0000   -29.0590     6.4720     9.3670     8.9890     0.0170     2.4960   121.4050
 2224.5000   -29.0140     6.4540     9.4070     8.9880     0.0200     2.4880   121.6620
 2225.0000   -28.9700     6.4340     9.4430     8.9870     0.0130     2.4800   121.9920
 2225.5000   -28.9240     6.4190     9.4790     8.9860     0.0070     2.4710   123.1600
 2226.0000   -28.8770     6.3990     9.4480     8.9850     0.0070     2.4630   124.3070
 2226.5000   -28.8410     6.3730     9.2720     8.9830     0.0150     2.4640   126.0250
 2227.0000   -28.7730     6.2420     8.9870     8.9820     0.0230     2.4770   128.5750
 2227.5000   -28.9190     6.1300     8.7770     8.9810     0.0260     2.4960   131.7510
 2228.0000   -29.2180     6.0090     8.6310     8.9800     0.0250     2.4850   134.9550
 2228.5000   -29.4920     5.8940     8.5870     8.9790     0.0240     2.4920   137.2350
 2229.0000   -29.5090     5.7760     8.5470     8.9770     0.0230     2.5010   137.0250
 2229.5000   -29.4280     5.6590     8.5090     8.9760     0.0220     2.4950   132.9370
