~VERSION INFORMATION
 VERS.                2.0:   CWLS LOG ASCII STANDARD - VERSION 2.0
 WRAP.                 NO:   ONE LINE PER DEPTH STEP
~WELL INFORMATION
#MNEM.UNIT      DATA TYPE    INFORMATION
#----------   ------------   ------------------------------
 STRT.F            0.0000:   START DEPTH
 STOP.F         5576.0000:   STOP DEPTH
 STEP.F            0.5000:   STEP LENGTH
 NULL.          -999.2500:   NO VALUE
 COMP.      FLUCOR DANIEL:   COMPANY
 WELL.  FLUCOR "X" #76-10:   WELL
 FLD .          N.P.R. #3:   FIELD
 LOC .      S10 T38N R78W:   LOCATION
 CNTY.            NATRONA:   COUNTY
 STAT.            WYOMING:   STATE
 CTRY. UNITED STATES OF AMERICA:   COUNTRY
 SRVC. ATLAS WIRELINE SERVICES:   SERVICE COMPANY
 DATE.        16-MAR-1995:   LOGDATE
 API .     49025226860000:   API NUMBER
~CURVE INFORMATION
#MNEM.UNIT       API CODE    CURVE DESCRIPTION
#----------   ------------   ------------------------------
 DEPT.F                  :   
 CNC .DEC    42 890 01 00:   NEUTRON POROSITY LIMESTONE
 CALD.IN     45 280 60 00:   CALIPER FROM DENSITY LOG
 ZDEN.G/C3   45 350 01 00:   BULK DENSITY
 ZCOR.G/C3   45 356 01 00:   DENSITY CORRECTION
 RILD.OHMM   07 120 46 00:   INDUCTION LOG DEEP RESISTIVITY
 RILM.OHMM   07 120 44 00:   INDUCTION LOG MEDIUM RESISTIVITY
 RS  .OHMM   11 220 10 00:   RESISTIVITY SHALLOW
 RD  .OHMM   11 220 09 00:   RESISTIVITY DEEP
 GRR .GAPI   07 310 01 00:   GAMMA RAY
 TENR.LBS    07 635 01 00:   TENSION FROM RESISTIVITY
~PARAMETER INFORMATION
#MNEM.UNIT          VALUE    DESCRIPTION
#----------   ------------   ------------------------------
 EKB .F         5191.0000:   Kelly bushing
 EGL .F         5101.0000:   Ground level
 EDF .F         5190.0000:   Drilling floor
 TD  .F         5582.0000:   Total depth
 CLNT.            A2DTECH:   Client Code
 SL  . 1896' FSL & 832' FEL:   Surface Location
 PD  .                 GL:   Permanent Datum
 EPD .F              5181:   Elevation Permanent Datum
 LMF .                 KB:   Log Measured From
 DMF .                 KB:   Drilling Measured From
 DAPD.F                10:   Feet Above Permanent Datum
 DATE.        16-MAR-1995:   Date Logged [DD-MMM-YYYY]
 DD  .F              5582:   Depth driller
 DL  .F              5578:   Depth logger
 BLI .F              5566:   Bottom log interval
 TLI .F               518:   Top log interval
 CS1 .IN            8.625:   Casing size
 CBD1.      8.625" @ 519':   Casing driller 1
 CBL1.F               518:   Casing logger 1
 BS1 .IN             8.75:   Bit size
 BSD1.F              5582:   Depth drilled with bit1
 DFT .               LSND:   Type fluid in hole
 DFD .               10.1:   Density
 DFV .                 52:   Viscosity
 DFPH.                9.5:   pH
 DFL .                7.2:   Fluid loss
 MSS .           FLOWLINE:   Source of sample
 RMS .OHMM          0.536:   Rm
 MST .F                70:   Rm Meas. temp.
 RMF .OHMM          0.415:   Rmf
 MFST.F                70:   Rmf Meas. temp.
 MFSS.               MEAS:   Source Rmf.
 RMC .OHMM          0.646:   Rmc
 MCST.F                70:   Rmc Meas. temp.
 MCSS.               MEAS:   Source Rmc.
 RMB .OHMM          0.228:   Rm. at BHT
 BHT .F               165:   BHT.
 TCS .HRS             6.5:   Time Circ. stopped
 MRT .F               165:   Maximum recorded temp.
 LUN .            HL-6530:   Logging unit number
 LUL .             CASPER:   Logging unit location
 ENGI.      PAT RASMUSSEN:   Recorded By
 WITN.        GARY STRONG:   Witnessed by
 ORIG.           5" PRINT:   Origin of data
 UWI .     49025226860000:   Unique Well ID
 DICO. A2D TECHNOLOGIES, INC.:   Digitizing Company
~OTHER INFORMATION
~A  DEPTH      CNC       CALD       ZDEN       ZCOR       RILD       RILM         RS         RD        GRR       TENR
# ...
 1842.5000     0.3313    11.1208     2.4863     0.0337  -999.2500  -999.2500     8.8746    10.9119   119.8167   -50.3542
 1843.0000     0.3326    11.0793     2.4886     0.0291  -999.2500  -999.2500     8.8699    11.0604   120.7404   -50.1374
 1843.5000     0.3353    11.0498     2.4901     0.0261  -999.2500  -999.2500     8.8650    11.0550   123.4793   -49.9205
 1844.0000     0.3386    11.0445     2.4901     0.0245  -999.2500  -999.2500     8.8595    11.0506   125.3091   -49.6993
 1844.5000     0.3405    11.0327     2.4908     0.0230  -999.2500  -999.2500     8.8548    11.0451   126.2298   -57.0055
 1845.0000     0.3405    11.0319     2.4924     0.0245  -999.2500  -999.2500     8.8502    11.0408   120.1838   -64.2532
 1845.5000     0.3393    11.0310     2.4915     0.0277  -999.2500  -999.2500     8.8444    11.0364   116.2560   -64.0363
 1846.0000     0.3381    11.0299     2.4877     0.0380  -999.2500  -999.2500     8.8397    11.0321   112.6313   -56.3006
 1846.5000     0.3375    11.0291     2.4854     0.0425  -999.2500  -999.2500     8.8979    10.9511   115.6732   -56.0837
 1847.0000     0.3333    11.0282     2.4846     0.0440  -999.2500  -999.2500     9.0796    11.0233   118.7152   -48.3459
 1847.5000     0.3284    11.0120     2.4869     0.0409  -999.2500  -999.2500     9.0736    11.1722   119.3328   -48.0769
 1848.0000     0.3278    10.9959     2.4891     0.0364  -999.2500  -999.2500     9.1333    11.3254   117.5292   -47.8600
 1848.5000     0.3266    10.9799     2.4906     0.0303  -999.2500  -999.2500     9.1273    11.3198   116.6288   -47.6431
 1849.0000     0.3206    10.9790     2.4906     0.0227  -999.2500  -999.2500     9.0593    11.3142   115.7314   -47.4263
 1849.5000     0.3121    10.9630     2.4913     0.0150  -999.2500  -999.2500     9.0544    11.3098   116.9581   -47.2094
 1850.0000     0.3158    10.9621     2.4943     0.0136  -999.2500  -999.2500     9.1588    11.4341   118.7879   -46.9925
 1850.5000     0.3109    10.9611     2.4981     0.0188  -999.2500  -999.2500     9.3008    11.7431   118.2032   -49.0587
 1851.0000     0.3073    10.9602     2.5056     0.0249  -999.2500  -999.2500     9.4275    11.9434   115.7960   -51.8496
 1851.5000     0.3067    10.9593     2.5147     0.0311  -999.2500  -999.2500     9.5559    11.9377   113.9949   -54.6405
 1852.0000     0.3158    10.9734     2.5238     0.0360  -999.2500  -999.2500     9.5513    11.9319   112.1938   -57.4314
 1852.5000     0.3176    10.9726     2.5305     0.0438  -999.2500  -999.2500     9.6814    12.0117   111.9078   -60.2223
 1853.0000     0.3161    10.9717     2.5313     0.0555  -999.2500  -999.2500     9.6767    11.9227   113.4443   -63.0132
 1853.5000     0.3171    10.9709     2.5154     0.0630  -999.2500  -999.2500     9.4075    11.9170   115.5826   -65.8041
 1854.0000     0.3259    10.9698     2.4767     0.0630  -999.2500  -999.2500     9.2574    11.5855   119.3091   -68.3586
 1854.5000     0.3456    10.9082     2.4457     0.0735  -999.2500  -999.2500     9.0151    11.1851   124.1058   -53.1442
 1855.0000     0.3632    10.8467     2.4335     0.1127  -999.2500  -999.2500     9.0116    11.1022   127.4563   -45.4840
 1855.5000     0.3644    10.7548     2.4320     0.1232  -999.2500  -999.2500     9.3261    11.1754   127.5572   -45.3384
 1856.0000     0.3498    10.6766     2.4600     0.1111  -999.2500  -999.2500     9.6524    11.4863   124.3875   -45.1658
 1856.5000     0.3444    10.6314     2.4819     0.0823  -999.2500  -999.2500     9.7839    11.7240   120.5420   -45.0244
 1857.0000     0.3401    10.6154     2.4963     0.0641  -999.2500  -999.2500    10.0551    11.8836   121.4682   -44.8872
 1857.5000     0.3372    10.5993     2.5023     0.0565  -999.2500  -999.2500    10.1930    12.0455   123.6065   -52.2604
 1858.0000     0.3359    10.5985     2.5099     0.0564  -999.2500  -999.2500    10.3318    12.3794   123.0218   -52.0836
 1858.5000     0.3390    10.6128     2.5197     0.0564  -999.2500  -999.2500    10.3258    12.7225   122.4285   -59.4963
 1859.0000     0.3427    10.6122     2.5242     0.0563  -999.2500  -999.2500    10.3219    12.8970   122.4499   -59.3233
 1859.5000     0.3451    10.6124     2.5234     0.0563  -999.2500  -999.2500    10.0347    12.1918   122.1636   -59.1729
 1860.0000     0.3451    10.6127     2.5151     0.0577  -999.2500  -999.2500     9.3395    11.5274   119.4580   -59.0226
 1860.5000     0.3442    10.6129     2.4998     0.0561  -999.2500  -999.2500     8.9699    11.1291   117.0508   -58.8722
 1861.0000     0.3427    10.6131     2.4923     0.0515  -999.2500  -999.2500     8.9052    11.2024   115.2497   -58.7218
 1861.5000     0.3402    10.6133     2.4946     0.0485  -999.2500  -999.2500     9.0886    11.3550   115.8728   -58.5714
 1862.0000     0.3376    10.6135     2.4991     0.0439  -999.2500  -999.2500     9.2115    11.5096   118.3184   -58.4211
 1862.5000     0.3348    10.6137     2.4975     0.0408  -999.2500  -999.2500     9.1441    11.5844   115.9112   -58.2707
 1863.0000     0.3321    10.6139     2.4968     0.0377  -999.2500  -999.2500     9.0771    11.4985   113.5041   -58.1203
 1863.5000     0.3276    10.6142     2.4990     0.0346  -999.2500  -999.2500     8.9475    11.3353   112.6120   -57.9699
 1864.0000     0.3222    10.6144     2.5028     0.0331  -999.2500  -999.2500     8.8204    11.0927   112.6334   -57.8196
 1864.5000     0.3258    10.6146     2.4995     0.0315  -999.2500  -999.2500     8.5699    10.7124   112.0444   -57.6692
 1865.0000     0.3343    10.6148     2.4823     0.0239  -999.2500  -999.2500     8.1636    10.4871   111.1481   -57.5188
 1865.5000     0.3401    10.6150     2.4717     0.0419  -999.2500  -999.2500     7.9919    10.2632   110.2604   -57.3684
 1866.0000     0.3429    10.6152     2.4641     0.0373  -999.2500  -999.2500     7.8784     9.9800   111.7968   -57.2181
 1866.5000     0.3459    10.6154     2.4603     0.0263  -999.2500  -999.2500     7.8746     9.9761   112.1169   -57.0677
 1867.0000     0.3477    10.6157     2.4587     0.0176  -999.2500  -999.2500     7.9826    10.1120   111.5280   -56.9173
 1867.5000     0.3480    10.6159     2.4580     0.0145  -999.2500  -999.2500     8.0905    10.2487   112.4546   -56.7669
 1868.0000     0.3489    10.6161     2.4587     0.0129  -999.2500  -999.2500     7.9749    10.2447   113.9906   -56.6166
 1868.5000     0.3526    10.6163     2.4556     0.0144  -999.2500  -999.2500     7.8617    10.0993   116.1289   -56.4662
 1869.0000     0.3571    10.6165     2.4526     0.0173  -999.2500  -999.2500     7.7501     9.8174   117.3581   -56.3158
 1869.5000     0.3587    10.6167     2.4503     0.0188  -999.2500  -999.2500     7.6393     9.8136   116.9460   -56.1654
 1870.0000     0.3575    10.6169     2.4495     0.0203  -999.2500  -999.2500     7.6364     9.8053   114.0632   -56.0150
 1870.5000     0.3478    10.6172     2.4484     0.0232  -999.2500  -999.2500     7.7404     9.9425   112.5651   -55.8647
 1871.0000     0.3387    10.6163     2.4620     0.0247  -999.2500  -999.2500     7.9557    10.1482   111.6727   -55.7143
 1871.5000     0.3351    10.6082     2.4658     0.0261  -999.2500  -999.2500     8.0640    10.3583   114.1187   -55.5639
 1872.0000     0.3472    10.5985     2.4650     0.0230  -999.2500  -999.2500     8.1732    10.4993   117.4691   -55.4135
 1872.5000     0.3552    10.5837     2.4581     0.0184  -999.2500  -999.2500     8.2844    10.4942   118.0879   -55.2632
 1873.0000     0.3593    10.5863     2.4589     0.0123  -999.2500  -999.2500     8.2804    10.4902   115.9880   -55.1128
 1873.5000     0.3524    10.5888     2.4672     0.0092  -999.2500  -999.2500     8.2198    10.4851   115.3991   -54.9624
 1874.0000     0.3503    10.5914     2.4717     0.0122  -999.2500  -999.2500     8.0461    10.4084   116.0265   -54.8120
 1874.5000     0.3503    10.5940     2.4708     0.0182  -999.2500  -999.2500     7.8769    10.2606   115.1344   -54.6617
 1875.0000     0.3515    10.5965     2.4656     0.0227  -999.2500  -999.2500     7.7113     9.9742   114.5454   -54.5113
 1875.5000     0.3524    10.5991     2.4587     0.0241  -999.2500  -999.2500     7.6541     9.7645   113.9550   -54.3609
