~VERSION INFORMATION
 VERS.                2.0:   CWLS LOG ASCII STANDARD - VERSION 2.0
 WRAP.                 NO:   ONE LINE PER DEPTH STEP
~WELL INFORMATION
#MNEM.UNIT      DATA TYPE    INFORMATION
#----------   ------------   ------------------------------
 STRT.F          170.5000:   START DEPTH
 STOP.F         3160.0000:   STOP DEPTH
 STEP.F            0.5000:   STEP LENGTH
 NULL.          -999.2500:   NO VALUE
 COMP.  FENIX AND SCISSON:   COMPANY
 WELL.    FENIX "A" #85-3:   WELL
 FLD .       TEA POT DOME:   FIELD
 LOC .       S3 T38N R78W:   LOCATION
 CNTY.            NATRONA:   COUNTY
 STAT.            WYOMING:   STATE
 CTRY. UNITED STATES OF AMERICA:   COUNTRY
 SRVC.           BIRDWELL:   SERVICE COMPANY
 DATE.        20-DEC-1977:   LOGDATE
 API .     49025104450000:   API NUMBER
~CURVE INFORMATION
#MNEM.UNIT       API CODE    CURVE DESCRIPTION
#----------   ------------   ------------------------------
 DEPT.F                  :   
 CALD.IN     45 280 60 00:   CALIPER FROM DENSITY LOG
 GRD .GAPI   45 310 01 00:   GAMMA RAY FROM DENSITY LOG
 RHOB.G/C3   45 350 01 00:   BULK DENSITY
 CORR.G/C3   45 356 01 00:   DENSITY CORRECTION
 SPR .MV     05 010 01 00:   SPONTANEOUS POTENTIAL
 SN  .OHMM   05 040 00 00:   SHORT NORMAL
 ILD .OHMM   05 120 46 00:   DEEP INDUCTION RESISTIVITY
~PARAMETER INFORMATION
#MNEM.UNIT          VALUE    DESCRIPTION
#----------   ------------   ------------------------------
 EKB .F         5165.0000:   Kelly bushing
 EGL .F         5155.0000:   Ground level
 TD  .F         3151.0000:   Total depth
 DATE.        20-DEC-1977:   Date logged
 CLNT.            A2DTECH:   Client Code
 SL  . 2000' FSL & 100'FEL:   Surface Location
 PD  .                 GL:   Permanent Datum
 EPD .F              5155:   Elevation Permanent Datum
 LMF .                 KB:   Log Measured From
 DMF .                 KB:   Drilling Measured From
 DAPD.F                10:   Feet Above Permanent Datum
 DD  .F              3150:   Depth driller
 DL  .F              3151:   Depth logger
 BLI .F              3146:   Bottom log interval
 TLI .F               200:   Top log interval
 CS1 .IN            8.625:   Casing size
 CBD1.      8.625" @ 223':   Casing driller 1
 BS1 .IN            7.875:   Bit size
 BSD1.F              3150:   Depth drilled with bit1
 DFT .                KCL:   Type fluid in hole
 DFD .                8.9:   Density
 DFV .                 40:   Viscosity
 DFPH.                 11:   pH
 DFL .                7.2:   Fluid loss
 MSS .           FLOWLINE:   Source of sample
 RMS .OHMM            0.4:   Rm
 MST .F                62:   Rm Meas. temp.
 RMF .OHMM           0.48:   Rmf
 MFST.F                63:   Rmf Meas. temp.
 RMC .OHMM           0.52:   Rmc
 MCST.F                63:   Rmc Meas. temp.
 MFSS.               MEAS:   Source Rmf.
 MCSS.               MEAS:   Source Rmc.
 TCS .HRS             3.5:   Time Circ. stopped
 MRT .F               118:   Maximum recorded temp.
 LUN .               2958:   Logging unit number
 LUL .             CASPER:   Logging unit location
 ENGI.             MILLER:   Recorded By
 WITN.         HERRINGTON:   Witnessed by
 ORIG.           5" PRINT:   Origin of data
 UWI .     49025104450000:   Unique Well ID
 DICO. A2D TECHNOLOGIES, INC.:   Digitizing Company
~OTHER INFORMATION
~A   DEPT     CALD        GRD       RHOB        CORR       SPR         SN        ILD   
# ...
 1399.0000    11.5125    69.0302     2.5610     0.0200   -56.4353     9.6962     8.0634
 1399.5000    11.5132    67.4436     2.5540     0.0130   -56.4310     9.6986     8.0649
 1400.0000    11.5139    67.6481     2.5451     0.0090   -56.4268     9.6997     8.1412
 1400.5000    11.4961    67.8557     2.5471     0.0055   -56.4218     9.8841     8.0796
 1401.0000    11.4957    68.4635     2.5482     0.0051   -56.6170     9.8850     8.0701
 1401.5000    11.4767    69.0679     2.5482     0.0051   -56.6130     9.7951     8.1465
 1402.0000    11.4975    69.2772     2.5472     0.0042   -56.6090     9.7716     8.2240
 1402.5000    11.4983    70.2801     2.5433     0.0032   -56.6050     9.7483     8.2260
 1403.0000    11.4793    70.4877     2.5403     0.0032   -56.7993     9.7250     8.1522
 1403.5000    11.4801    71.8907     2.5464     0.0033   -56.7953     9.7017     8.2298
 1404.0000    11.4810    71.8992     2.5524     0.0043   -56.7913     9.6786     8.1560
 1404.5000    11.4819    71.5092     2.5575     0.0094   -56.7873     9.6554     8.0074
 1405.0000    11.4628    70.5215     2.5665     0.0154   -56.7833     9.6323     8.2355
 1405.5000    11.4637    70.3308     2.5646     0.0165   -56.9776     9.6093     8.2374
 1406.0000    11.4446    70.3392     2.5636     0.0185   -57.1718     9.5863     8.1636
 1406.5000    11.4455    70.1484     2.5626     0.0166   -57.1678     9.5522     8.1655
 1407.0000    11.4467    70.3561     2.5547     0.0116   -57.1638     9.5531     8.1674
 1407.5000    11.4473    70.3646     2.5507     0.0066   -57.1598     9.5540     8.1693
 1408.0000    11.4479    70.3730     2.5457     0.0087   -57.3541     9.5702     8.0961
 1408.5000    11.4488    70.7816     2.5568     0.0157   -57.5483     9.5864     8.0979
 1409.0000    11.4298    69.9897     2.5618     0.0138   -57.5443     9.6027     8.1750
 1409.5000    11.4506    67.6089     2.5639     0.0168   -57.7386     9.6190     8.1017
 1410.0000    11.4514    67.8166     2.5699     0.0229   -57.5363     9.6353     8.2547
 1410.5000    11.4324    69.2198     2.5730     0.0239   -57.5324     9.6516     8.1807
 1411.0000    11.4332    70.2245     2.5630     0.0179   -57.3301     9.6680     8.1826
 1411.5000    11.4341    70.2329     2.5500     0.0130   -57.3261     9.6844     8.1845
 1412.0000    11.4151    71.0384     2.5410     0.0110   -57.1239     9.7009     8.1864
 1412.5000    11.4159    71.2444     2.5471     0.0090   -57.1199     9.7173     8.1130
 1413.0000    11.3969    71.6514     2.5491     0.0061   -57.1159     9.7338     8.1149
 1413.5000    11.3977    72.0584     2.5442     0.0051   -56.9145     9.7503     8.1168
 1414.0000    11.3986    73.0632     2.5392     0.0081   -56.9105     9.7668     8.0440
 1414.5000    11.3795    72.8724     2.5513     0.0132   -56.7082     9.7834     8.0459
 1415.0000    11.3804    72.4823     2.5543     0.0152   -56.7042     9.8000     8.0478
 1415.5000    11.3813    71.6937     2.5594     0.0203   -56.7003     9.8166     8.0496
 1416.0000    11.3821    70.3073     2.5654     0.0234   -56.6963     9.8333     8.0511
 1416.5000    11.3631    69.5186     2.5564     0.0204   -56.6923     9.8500     8.0530
 1417.0000    11.3839    69.5271     2.5495     0.0174   -56.4900     9.6862     8.1296
 1417.5000    11.3848    69.9358     2.5475     0.0165   -56.2878     9.7784     8.1315
 1418.0000    11.3856    68.5476     2.5475     0.0175   -56.4820     9.7807     8.1334
 1418.5000    11.3863    67.3603     2.5476     0.0155   -56.2798     9.7829     8.1353
 1419.0000    11.3872    67.9666     2.5466     0.0136   -56.0776     9.8774     8.1372
 1419.5000    11.3881    69.1707     2.5476     0.0146   -55.8753     9.8779     8.1391
 1420.0000    11.3690    69.9763     2.5507     0.0197   -55.8713     9.8797     8.1410
 1420.5000    11.3898    70.1841     2.5497     0.0097   -55.8674     9.8547     8.0680
 1421.0000    11.3907    70.1925     2.5518     0.0097   -55.8634     9.8298     8.0699
 1421.5000    11.3915    69.0052     2.5558     0.0118   -55.8594     9.7975     7.9975
 1422.0000    11.4123    68.2165     2.5689     0.0168   -55.4589     9.7989     7.9994
 1422.5000    11.4132    68.2249     2.5739     0.0189   -55.8514     9.8012     8.0013
 1423.0000    11.4141    67.8347     2.5690     0.0179   -55.8474     9.8034     8.0031
 1423.5000    11.4349    66.8466     2.5520     0.0059   -55.8434     9.7156     8.0050
 1424.0000    11.4357    66.2555     2.5320    -0.0031   -55.8394     9.7183     8.0068
 1424.5000    11.4366    66.4632     2.5260    -0.0041   -55.8354     9.8103     8.0087
 1425.0000    11.4375    65.6777     2.5260    -0.0070   -55.8314     9.8121     7.9369
 1425.5000    11.4583    71.4644     2.5201    -0.0050   -56.0257     9.8144     7.9388
 1426.0000    11.4591    67.2857     2.5241    -0.0019   -56.0217     9.8167     7.9406
 1426.5000    11.4600    65.6996     2.5382     0.0051   -56.2159     9.8194     7.8694
 1427.0000    11.4808    66.3059     2.5503     0.0112   -56.4110     9.8217     7.8712
 1427.5000    11.4817    67.1116     2.5553     0.0122   -56.6052     9.7328     7.8731
 1428.0000    11.4826    68.7146     2.5483     0.0053   -56.7995     9.7359     7.8749
 1428.5000    11.5034    69.5203     2.5404     0.0023   -56.7955     9.6487     7.8767
 1429.0000    11.5041    70.7247     2.5364     0.0023   -56.7915     9.5617     7.8786
 1429.5000    11.5049    71.9291     2.5424     0.0134   -56.7875     9.6531     7.8079
 1430.0000    11.5257    72.7349     2.5545     0.0124   -56.7835     9.5657     7.8098
 1430.5000    11.5266    72.1447     2.5495     0.0095   -56.9778     9.4800     7.8112
 1431.0000    11.5474    71.3559     2.5466     0.0085   -56.9738     9.3950     7.8855
 1431.5000    11.5482    71.1650     2.5436     0.0065   -56.9698     9.3112     7.8874
 1432.0000    11.5491    71.1735     2.5527     0.0166   -56.9658     9.3134     7.8892
 1432.5000    11.5300    71.1819     2.5657     0.0197   -56.9618     9.3156     7.8910
 1433.0000    11.5109    70.9911     2.5658     0.0167   -56.9578     9.2321     7.8929
 1433.5000    11.4919    70.9978     2.5508     0.0147   -56.7556     9.2334     7.8947
 1434.0000    11.4529    70.8070     2.5518     0.0178   -56.7516     9.2355     7.9698
 1434.5000    11.4338    70.6167     2.5639     0.0219   -56.7476     9.2385     7.9717
 1435.0000    11.4347    72.2200     2.5599     0.0138   -56.5453     9.2407     7.9002
 1435.5000    11.4356    72.8265     2.5479     0.0099   -56.5413     9.2428     7.9021
 1436.0000    11.4166    73.2337     2.5480     0.0089   -56.5373     9.3307     7.9773
 1436.5000    11.3975    73.2422     2.5530     0.0150   -56.5334     9.3325     7.9791
 1437.0000    11.3984    72.6526     2.5551     0.0180   -56.5294     9.2488     7.9810
 1437.5000    11.3992    72.6611     2.5541     0.0151   -56.3271     9.2514     7.9094
 1438.0000    11.4001    72.4702     2.5541     0.0131   -56.3231     9.1685     7.8385
 1438.5000    11.4010    72.2793     2.5542     0.0111   -56.3191     9.1706     7.8403
 1439.0000    11.4018    70.6929     2.5542     0.0122   -56.3151     9.1727     7.7700
 1439.5000    11.4027    69.9039     2.5593     0.0132   -56.1129     9.2600     7.7719
 1440.0000    11.4233    68.9155     2.5603     0.0132   -56.1089     9.2622     7.7022
 1440.5000    11.4242    68.3258     2.5583     0.0153   -56.1049     9.2643     7.8476
 1441.0000    11.4251    68.9323     2.5524     0.0133   -56.2992     9.2665     7.8495
 1441.5000    11.4259    68.7414     2.5484     0.0134   -56.0977     9.1834     7.7791
 1442.0000    11.4268    67.5536     2.5555     0.0144   -56.0937     9.1856     7.7093
 1442.5000    11.4476    68.1602     2.5505     0.0134   -56.2880     9.1877     7.7827
 1443.0000    11.4286    69.1655     2.5535     0.0145   -56.2840     9.1898     7.7845
 1443.5000    11.4294    69.1739     2.5586     0.0135   -56.4783     9.1915     7.7863
 1444.0000    11.4303    69.1807     2.5536     0.0126   -56.2760     9.1937     7.7165
