~VERSION INFORMATION
 VERS.                2.0:   CWLS LOG ASCII STANDARD - VERSION 2.0
 WRAP.                 NO:   ONE LINE PER DEPTH STEP
~WELL INFORMATION
#MNEM.UNIT      DATA TYPE    INFORMATION
#----------   ------------   ------------------------------
 STRT.F            0.0000:   START DEPTH
 STOP.F         3504.0000:   STOP DEPTH
 STEP.F            0.5000:   STEP LENGTH
 NULL.          -999.2500:   NO VALUE
 COMP. LAWRENCE-ALLISON AND ASSOCIATES:   COMPANY
 WELL. LAWRENCE "TX" #16-34:   WELL
 FLD .              NPR 3:   FIELD
 LOC .      S34 T39N R78W:   LOCATION
 CNTY.            NATRONA:   COUNTY
 STAT.            WYOMING:   STATE
 CTRY. UNITED STATES OF AMERICA:   COUNTRY
 SRVC.       SCHLUMBERGER:   SERVICE COMPANY
 DATE.        10-APR-1982:   LOGDATE
 API .     49025108970000:   API NUMBER
~CURVE INFORMATION
#MNEM.UNIT       API CODE    CURVE DESCRIPTION
#----------   ------------   ------------------------------
 DEPT.F                  :   
 SPR .MV     07 010 01 00:   SPONTANEOUS POTENTIAL
 ILD .OHMM   07 120 46 00:   DEEP INDUCTION RESISTIVITY
 SFLU.OHMM   07 220 01 00:   SPHERICALLY FOCUSED LOG UNAVERAGED RESISTIVITY
 TENR.LBS    07 635 01 00:   TENSION FROM RESISTIVITY
 ILM .OHMM   07 120 44 00:   INDUCTION LOG MEDIUM RESISTIVITY
 GRD .GAPI   45 310 01 00:   GAMMA RAY FROM DENSITY LOG
 CALD.IN     45 280 60 00:   CALIPER FROM DENSITY LOG
 RHOB.G/C3   45 350 01 00:   BULK DENSITY
 CORR.G/C3   45 356 01 00:   DENSITY CORRECTION
 TEND.LBS    45 635 01 00:   TENSION FROM DENSITY LOG
 NPHI.DEC    42 890 03 00:   NEUTRON POROSITY SANDSTONE
~PARAMETER INFORMATION
#MNEM.UNIT          VALUE    DESCRIPTION
#----------   ------------   ------------------------------
 EKB .F         5149.0000:   Kelly bushing
 EGL .F         5139.0000:   Ground level
 EDF .F            0.0000:   Drilling floor
 TD  .F         3500.0000:   Total depth
 DATE.        10-APR-1982:   Date logged
 CLNT.            A2DTECH:   Client Code
 SL  . 1406' FSL & 423' FWL:   Surface Location
 PD  .                 GL:   Permanent Datum
 EPD .F              5139:   Elevation Permanent Datum
 LMF .                 KB:   Log Measured From
 DMF .                 KB:   Drilling Measured From
 DAPD.F                10:   Feet Above Permanent Datum
 DD  .F              3500:   Depth driller
 DL  .F              3497:   Depth logger
 BLI .F              3491:   Bottom log interval
 TLI .F               658:   Top log interval
 CS1 .IN            9.625:   Casing size
 CBD1.      9.625" @ 632':   Casing driller 1
 CBL1.F               658:   Casing logger 1
 BS1 .IN             8.75:   Bit size
 BSD1.F              3500:   Depth drilled with bit1
 DFT .           SPUD MUD:   Type fluid in hole
 DFD .                  9:   Density
 DFV .                 44:   Viscosity
 DFPH.                 10:   pH
 DFL .                  7:   Fluid loss
 MSS .           FLOWLINE:   Source of sample
 RMS .OHMM              2:   Rm
 MST .F                53:   Rm Meas. temp.
 RMF .OHMM            1.9:   Rmf
 MFST.F                53:   Rmf Meas. temp.
 RMC .OHMM            1.5:   Rmc
 MCST.F                53:   Rmc Meas. temp.
 MFSS.               MEAS:   Source Rmf.
 MCSS.               CALC:   Source Rmc.
 RMB .OHMM              1:   Rm. at BHT
 BHT .F               106:   BHT.
 TCS .HRS            1100:   Time Circ. stopped
 TLAB.HRS            1330:   Time logger at bottom
 MRT .F               106:   Maximum recorded temp.
 LUN .               8151:   Logging unit number
 LUL .                GLT:   Logging unit location
 ENGI.            NEUFFER:   Recorded By
 WITN.           JENNINGS:   Witnessed by
 ORIG.           5" PRINT:   Origin of data
 UWI .     49025108970000:   Unique Well ID
 DICO. A2D TECHNOLOGIES, INC.:   Digitizing Company
~OTHER INFORMATION
~A    DEPT     SPR        ILD       SFLU       TENR        ILM        GRD       CALD       RHOB       CORR       TEND       NPHI   
# ...
 3446.5000   -13.6640     5.6340     9.4400  1778.2220     6.1520   159.4030     7.6670     2.4440     0.0480  1876.0480     0.2840
 3447.0000   -13.2110     6.0040     9.5770  1778.2220     6.4870   160.5230     7.6670     2.4430     0.0600  1876.5070     0.3010
 3447.5000   -12.7590     6.3750     9.6680  1778.2220     6.6910   158.8970     7.6670     2.3970     0.0630  1876.9659     0.3150
 3448.0000   -12.3100     6.7450     8.9120  1778.2220     7.1120   155.8790     7.6670     2.3560     0.0410  1877.4260     0.3330
 3448.5000   -12.4130     7.1160     7.9690  1778.2220     7.5090   151.4820     7.6670     2.3360     0.0260  1877.8850     0.3470
 3449.0000   -12.7610     7.4860     8.3970  1778.2220     7.9050   149.7510     7.6670     2.3580     0.0190  1878.3450     0.3300
 3449.5000   -13.1070     7.8560    10.2870  1778.2220     8.3020   149.2280     7.6670     2.4050     0.0210  1878.8040     0.2920
 3450.0000   -13.4540     8.0430    12.3070  1778.2220     8.5830   149.1350     7.6670     2.4340     0.0190  1879.2629     0.2790
 3450.5000   -13.6280     8.3040    13.7530  1778.2220     9.0630  -999.2500     7.6670     2.4380     0.0170  1879.7230     0.2720
 3451.0000   -13.6280     8.4220    14.5720  1778.2220     9.5800  -999.2500     7.6670     2.4210     0.0170  1880.1820     0.2720
 3451.5000   -13.6300     8.2770    16.9500  1778.2220     9.5800  -999.2500     7.6670     2.4100     0.0180  1880.6420     0.2750
 3452.0000   -13.6310     7.6670    18.5810  1778.2220     8.8060  -999.2500     7.6670     2.4020     0.0350  1881.1010     0.2780
 3452.5000   -13.6260     7.0580    16.0690  1778.2220     7.7210  -999.2500     7.6670     2.3960     0.0710  1881.5601     0.2810
 3453.0000   -13.3170     6.4480    11.5090  1778.2220     7.1360  -999.2500     7.6670     2.3630     0.0650  1882.0200     0.2770
 3453.5000   -12.8680     5.9920     7.6500  1778.2220     7.4570  -999.2500     7.6670     2.3210     0.0360  1882.4790     0.2710
 3454.0000   -13.2890     6.4560     6.3900  1778.2220     7.7320  -999.2500     7.6600     2.3160     0.0080  1882.9390     0.2700
 3454.5000   -13.9070     7.0060    12.1390  1778.2220     7.9690  -999.2500     7.6420     2.3710     0.0200  1883.3979     0.2730
 3455.0000   -14.5290     6.6850    17.2200  1778.2220     7.7470  -999.2500     7.6250     2.4260     0.0460  1883.8571     0.2780
 3455.5000   -14.7280     6.3410    20.5600  1778.2220     7.3330  -999.2500     7.6070     2.4640     0.0720  1884.3170     0.2800
 3456.0000   -14.1600     5.9980    16.8690  1778.2220     6.9190  -999.2500     7.5890     2.4720     0.0800  1884.7760     0.2780
 3456.5000   -13.5890     5.6310    14.3540  1778.2220     6.4130  -999.2500     7.5710     2.4490     0.0640  1885.2360     0.2750
 3457.0000   -13.0160     5.2200    11.8390  1778.2220     5.8750  -999.2500     7.5850     2.4280     0.0540  1885.6949     0.2720
 3457.5000   -12.4420     4.8090     9.3240  1778.2220     5.3380  -999.2500     7.6060     2.3750     0.0510  1886.1541     0.2740
 3458.0000   -11.8740     4.3980     6.8090  1778.2220     4.8000  -999.2500     7.6270     2.3010     0.0470  1886.6140     0.2780
 3458.5000   -12.0040     3.9860     4.2940  1778.2220     4.2620  -999.2500     7.6470     2.2160     0.0080  1887.0730     0.2860
 3459.0000   -12.2710     3.6400     3.7130  1778.2220     3.9240  -999.2500     7.6470     2.2230    -0.0020  1887.5330     0.2930
 3459.5000   -12.5380     3.6120     6.0470  1778.2220     3.9240  -999.2500     7.6470     2.2750    -0.0020  1887.9919     0.2950
 3460.0000   -12.8040     3.5970     7.6810  1778.2220     3.9240  -999.2500     7.6470     2.3220     0.0070  1888.4510     0.2950
 3460.5000   -13.0690     3.5810     6.5090  1778.2220     3.9340  -999.2500     7.6470     2.3000     0.0080  1888.9110     0.2960
 3461.0000   -13.2360     3.5650     4.8940  1778.2220     3.9600  -999.2500     7.6470     2.2530     0.0020  1889.3700     0.2960
 3461.5000   -13.1220     3.5490     5.8810  1778.2220     3.9970  -999.2500     7.6470     2.2870     0.0050  1889.8300     0.2960
 3462.0000   -12.9400     3.5330     7.2020  1778.2220     3.9870  -999.2500     7.6470     2.3380     0.0490  1890.2889     0.2960
 3462.5000   -12.7570     3.5140     5.7140  1778.2220     3.9700  -999.2500     7.6470     2.3630     0.1010  1890.7480     0.2960
 3463.0000   -12.6780     3.5390     3.8530  1778.2220     3.9540  -999.2500     7.6130     2.3020     0.0720  1891.2080     0.2970
 3463.5000   -12.7630     3.5690     3.7130  1778.2220     3.9370  -999.2500     7.5750     2.1880     0.0350  1891.6670     0.2970
 3464.0000   -12.8470     3.6000     5.9050  1778.2220     3.9240  -999.2500     7.5370     2.2090     0.0160  1892.1260     0.2970
 3464.5000   -12.9320     3.7760     7.6110  1778.2220     4.0190  -999.2500     7.4980     2.3010     0.1080  1892.5861     0.2970
 3465.0000   -13.0170     4.0430     6.8990  1778.2220     4.2170  -999.2500     7.4800     2.4630     0.1900  1893.0450     0.2970
 3465.5000   -13.1010     4.3090     5.8820  1778.2220     4.5130  -999.2500     7.4670     2.5460     0.2460  1893.5050  -999.2500
 3466.0000   -13.1860     4.5760     5.8290  1778.2220     4.8080  -999.2500     7.4540     2.5730  -999.2500  1893.9640  -999.2500
 3466.5000   -13.2710     4.8430     6.9850  1778.2220     5.1040  -999.2500     7.4410     2.5730  -999.2500  1894.4230  -999.2500
 3467.0000   -13.3560     5.1090     8.2600  1778.2220     5.4000  -999.2500     7.4280  -999.2500  -999.2500  1894.8831  -999.2500
 3467.5000   -13.4410     5.3650     8.2300  1778.2220     5.5890  -999.2500     7.4160  -999.2500  -999.2500  1895.3420  -999.2500
 3468.0000   -13.5260     5.4150     8.1700  1778.2220     5.6180  -999.2500  -999.2500  -999.2500  -999.2500  1895.8020  -999.2500
 3468.5000   -13.6110     5.3650     8.1100  1778.2220     5.5250  -999.2500  -999.2500  -999.2500  -999.2500  1896.2610  -999.2500
 3469.0000   -13.6950     5.2290     8.0500  1778.2220     5.3590  -999.2500  -999.2500  -999.2500  -999.2500  1896.7200  -999.2500
 3469.5000   -13.7790     5.0770     7.9900  1778.2220     5.1840  -999.2500  -999.2500  -999.2500  -999.2500  1897.1801  -999.2500
 3470.0000   -13.7350     4.8900     7.5150  1778.2220     5.0000  -999.2500  -999.2500  -999.2500  -999.2500  1897.6390  -999.2500
 3470.5000   -13.5370     4.7120     6.7100  1778.2220     4.8150  -999.2500  -999.2500  -999.2500  -999.2500  1898.0990  -999.2500
 3471.0000   -13.3400     4.5460     5.5820  1778.2220     4.7170  -999.2500  -999.2500  -999.2500  -999.2500  1898.5580  -999.2500
 3471.5000   -13.1420     4.5460     4.6150  1778.2220     4.6110  -999.2500  -999.2500  -999.2500  -999.2500  1899.0170  -999.2500
 3472.0000   -12.9440     4.0260     5.1560  1778.2220     4.3850  -999.2500  -999.2500  -999.2500  -999.2500  1899.4771  -999.2500
 3472.5000   -12.7460     3.5790     6.7510  1778.2220     4.1590  -999.2500  -999.2500  -999.2500  -999.2500  1899.9360  -999.2500
 3473.0000   -12.5480     3.3010     6.9420  1778.2220     3.8630  -999.2500  -999.2500  -999.2500  -999.2500  1900.0000  -999.2500
 3473.5000   -12.3490     2.9860     5.7210  1778.2220     3.3870  -999.2500  -999.2500  -999.2500  -999.2500  1900.0000  -999.2500
 3474.0000   -12.1510     2.6700     4.5950  1778.2220     2.9120  -999.2500  -999.2500  -999.2500  -999.2500  1900.0000  -999.2500
 3474.5000   -11.9540     2.3550     3.4690  1778.2220     2.4370  -999.2500  -999.2500  -999.2500  -999.2500  1900.0000  -999.2500
 3475.0000   -11.7570     2.1980     2.4540  1778.2220     2.2180  -999.2500  -999.2500  -999.2500  -999.2500  1900.0000  -999.2500
 3475.5000   -11.6800     2.1380     2.1700  1778.2220     2.3060  -999.2500  -999.2500  -999.2500  -999.2500  1900.0000  -999.2500
 3476.0000   -11.7650     2.2490     2.0230  1778.2220     2.4800  -999.2500  -999.2500  -999.2500  -999.2500  1900.0000  -999.2500
 3476.5000   -11.8470     2.3500     3.9410  1778.2220     2.6550  -999.2500  -999.2500  -999.2500  -999.2500  1900.0000  -999.2500
