~VERSION INFORMATION
 VERS.                2.0:   CWLS LOG ASCII STANDARD - VERSION 2.0
 WRAP.                 NO:   ONE LINE PER DEPTH STEP
~WELL INFORMATION
#MNEM.UNIT      DATA TYPE    INFORMATION
#----------   ------------   ------------------------------
 STRT.F            4.0000:   START DEPTH
 STOP.F         5696.0000:   STOP DEPTH
 STEP.F            0.5000:   STEP LENGTH
 NULL.          -999.2500:   NO VALUE
 COMP.       FLUOR DANIEL:   COMPANY
 WELL.   FLUOR "X" #72-10:   WELL
 FLD .             NPR #3:   FIELD
 LOC .      S10 T38N R78W:   LOCATION
 CNTY.            NATRONA:   COUNTY
 STAT.            WYOMING:   STATE
 CTRY. UNITED STATES OF AMERICA:   COUNTRY
 SRVC.      WESTERN ATLAS:   SERVICE COMPANY
 DATE.        26-SEP-1996:   LOGDATE
 API .     49025228080000:   API NUMBER
~CURVE INFORMATION
#MNEM.UNIT       API CODE    CURVE DESCRIPTION
#----------   ------------   ------------------------------
 DEPT.F                  :   
 GRR .GAPI   07 310 01 00:   GAMMA RAY FROM RESISTIVITY
 SPR .MV     07 010 01 00:   SPONTANEOUS POTENTIAL
 CALR.IN     07 280 01 00:   CALIPER FROM RESISTIVITY
 RD  .OHMM   07 220 10 00:   RESISTIVITY DEEP
 RS  .OHMM   07 220 09 00:   RESISTIVITY SHALLOW
 TENR.LBS    07 635 01 00:   TENSION FROM RESISTIVITY
~PARAMETER INFORMATION
#MNEM.UNIT          VALUE    DESCRIPTION
#----------   ------------   ------------------------------
 EKB .F         5178.0000:   Kelly bushing
 EGL .F         5168.0000:   Ground level
 EDF .F         5177.0000:   Drilling floor
 TD  .F         5698.0000:   Total depth
 CLNT.            A2DTECH:   Client Code
 SL  . 687' FNL & 1002' FEL:   Surface Location
 PD  .                 GL:   Permanent Datum
 EPD .F              5168:   Elevation Permanent Datum
 LMF .                 KB:   Log Measured From
 DMF .                 KB:   Drilling Measured From
 DAPD.F                10:   Feet Above Permanent Datum
 DATE.        26-SEP-1996:   Date Logged [DD-MMM-YYYY]
 DD  .F              5698:   Depth driller
 DL  .F              5697:   Depth logger
 BLI .F              5685:   Bottom log interval
 CS1 .IN            9.625:   Casing size
 CBD1.      9.625" @ 526':   Casing driller 1
 CBL1.F               526:   Casing logger 1
 BS1 .IN             8.75:   Bit size
 BSD1.F              5698:   Depth drilled with bit1
 DFT .               CHEM:   Type fluid in hole
 DFD .                9.1:   Density
 DFV .                 60:   Viscosity
 DFPH.                9.5:   pH
 DFL .                7.6:   Fluid loss
 MSS .               CIRC:   Source of sample
 RMS .OHMM           0.82:   Rm
 MST .F                64:   Rm Meas. temp.
 RMF .OHMM           0.64:   Rmf
 MFST.F                64:   Rmf Meas. temp.
 MFSS.               CALC:   Source Rmf.
 RMC .OHMM           1.08:   Rmc
 MCST.F                64:   Rmc Meas. temp.
 MCSS.               CALC:   Source Rmc.
 RMB .OHMM           0.29:   Rm. at BHT
 BHT .F               183:   BHT.
 TCS .HRS               5:   Time Circ. stopped
 MRT .F               183:   Maximum recorded temp.
 LUN .            HL-6530:   Logging unit number
 LUL .             CASPER:   Logging unit location
 ENGI.           BROWNLOW:   Recorded By
 ORIG.        2" 5" PRINT:   Origin of data
 UWI .     49025228080000:   Unique Well ID
 WITN.              HARDY:   Witnessed by
 DICO. A2D TECHNOLOGIES, INC.:   Digitizing Company
~OTHER INFORMATION
~A  DEPTH      GRR        SPR       CALR         RD         RS       TENR
# ...
 2552.0000    71.5876   -50.3894     8.7334    23.1486    19.6099   -47.4075
 2552.5000    71.9176   -50.6800     8.7197    23.9692    19.6163   -69.3163
 2553.0000    73.4486   -50.9636     8.7215    24.8182    20.1733   -84.2033
 2553.5000    74.3819   -51.3977     8.7074    25.8762    21.3298   -84.0274
 2554.0000    72.2929   -51.6848     8.7092    27.1669    22.2420   -68.0801
 2554.5000    72.6172   -51.9754     8.7109    26.0069    21.6163   -53.7259
 2555.0000    76.2598   -52.4095     8.7275    24.1188    20.5874   -46.0891
 2555.5000    77.1931   -52.5460     8.7289    22.3472    19.3775   -53.4483
 2556.0000    75.1042   -52.5283     8.7455    21.7357    18.5925   -75.7927
 2556.5000    66.9820   -52.2130     8.7470    21.7559    18.8583   -83.1483
 2557.0000    64.2897   -52.0482     8.7485    22.0393    18.8632   -75.4762
 2557.5000    64.9214   -51.8800     8.7551    21.8870    18.6082   -60.3430
 2558.0000    66.4523   -52.0200     8.7667    21.2882    18.1050   -52.6710
 2558.5000    67.3800   -52.1565     8.7682    20.4205    17.6142   -60.0266
 2559.0000    68.0060   -52.1386     8.7699    20.1392    17.3761   -74.8784
 2559.5000    69.8442   -51.9705     8.7713    20.5626    17.5016   -82.2340
 2560.0000    71.1338   -51.8058     8.7727    21.7357    17.8753   -82.0582
 2560.5000    69.9526   -51.6411     8.7594    23.6221    18.6397   -81.9175
 2561.0000    68.1307   -51.1747     8.7606    25.6722    20.1226   -81.7768
 2561.5000    66.3900   -50.7057     8.7622    27.9003    22.0889   -74.1379
 2562.0000    64.9072   -50.5409     8.7636    28.8847    23.9464   -66.4678
 2562.5000    63.4244   -50.6774     8.7499    28.6851    23.4594   -58.8309
 2563.0000    66.1711   -51.2622     8.7362    26.0308    22.1990   -51.1940
 2563.5000    70.1182   -51.5296     8.7531    23.9521    20.2917   -66.8697
 2564.0000    69.5403   -51.7395     8.7545    23.9521    19.6039   -80.8977
 2564.5000    66.8509   -51.9494     8.7408    24.7972    20.3022   -80.7218
 2565.0000    66.8827   -52.1593     8.7425    25.8509    21.4661   -58.0924
 2565.5000    65.3999   -52.3929     8.7440    26.2120    22.0757   -38.8045
 2566.0000    62.4088   -52.5329     8.7455    24.6259    21.3302   -23.4541
 2566.5000    63.0515   -52.5151     8.7472    22.5027    20.0447   -34.1533
 2567.0000    67.5943   -52.4974     8.7485    21.4363    18.9504   -56.2340
 2567.5000    70.3347   -52.4447     8.7500    20.5626    18.0748   -71.0057
 2568.0000    71.8685   -52.3193     8.7518    20.1392    17.9534   -78.3694
 2568.5000    71.2679   -52.3042     8.7532    20.1392    17.9592   -93.1565
 2569.0000    70.1158   -52.2867     8.7545    20.2794    17.9640  -107.9569
 2569.5000    69.8333   -52.2725     8.7561    20.5626    17.8443   -92.7436
 2570.0000    72.2784   -52.4089     8.7427    20.1392    17.7256   -77.5745
 2570.5000    74.7970   -52.3946     8.7441    19.7245    17.3663   -62.4053
 2571.0000    76.5525   -52.5301     8.7303    19.4528    16.7798   -69.6807
 2571.5000    75.3777   -52.6676     8.7166    18.9031    16.5519   -91.9928
 2572.0000    75.4032   -52.6499     8.7184    18.4029    16.2164  -106.8528
 2572.5000    77.2450   -52.6355     8.7047    18.4029    15.9971   -99.1357
 2573.0000    79.0805   -52.6205     8.7212    18.5309    16.3388   -76.4261
 2573.5000    79.4076   -52.7545     8.7230    18.9205    17.2754   -76.2495
 2574.0000    72.7965   -52.8909     8.7396    19.3183    17.4002   -83.5691
 2574.5000    67.0969   -52.9578     8.7410    19.7245    17.2844   -90.8887
 2575.0000    72.2505   -53.1603     8.7273    20.0000    17.5315   -83.1716
 2575.5000    77.4042   -53.1918     8.7442    20.2794    17.7810   -75.4987
 2576.0000    75.5872   -53.5838     8.7456    20.5626    18.1596   -75.3220
 2576.5000    70.8250   -53.7339     8.7470    20.5626    18.2909   -75.1453
 2577.0000    69.6439   -54.3049     8.7485    20.5437    18.2967   -74.9625
 2577.5000    70.8760   -54.2908     8.7654    18.5309    18.3014   -74.7478
 2578.0000    73.6659   -53.6742     8.7668    17.4096    16.1578   -74.5712
 2578.5000    75.1565   -53.3584     8.7682    16.9333    15.3971   -74.3946
 2579.0000    74.8803   -53.1905     8.7697    16.9333    14.9797   -66.7167
 2579.5000    75.2075   -53.1763     8.7714    16.9333    14.8791   -51.5083
 2580.0000    76.4806   -53.1622     8.7577    16.9333    14.9875   -43.8354
 2580.5000    78.5830   -53.1476     8.7591    16.8162    14.8878   -51.1550
 2581.0000    79.8151   -53.1303     8.7454    16.9333    14.9963   -81.6114
 2581.5000    80.4439   -53.2703     8.7568    18.6599    15.7464  -103.2754
 2582.0000    75.6492   -53.2526     8.8342    21.4363    17.1660   -80.5659
 2582.5000    71.7531   -53.3890     8.8963    23.7865    20.2240   -57.9004
 2583.0000    69.3653   -53.3713     8.9282    26.0308    21.6821   -42.2785
 2583.5000    68.7804   -53.2066     8.9453    24.4557    22.6093   -50.0067
 2584.0000    73.3442   -53.0418     8.9469    20.9949    21.7846   -87.3113
 2584.5000    75.7830   -53.1999     8.9484    17.2577    17.7468   -94.6751
 2585.0000    76.1101   -53.4653     8.9500    15.1547    15.6681   -64.2195
 2585.5000    75.8339   -53.4476     8.9520    14.1393    13.8328   -41.7597
 2586.0000    77.9773   -53.4334     8.9380    13.9317    12.8209   -41.5830
 2586.5000    81.3211   -53.4157     8.9400    14.5505    12.7348   -41.4063
 2587.0000    83.1565   -53.4015     8.9415    15.5810    13.7489   -56.2221
 2587.5000    82.2524   -53.3874     8.9435    16.3561    14.5370   -71.0381
 2588.0000    80.8005   -53.3732     8.9602    17.1698    15.2652   -78.3134
 2588.5000    79.9210   -53.5061     8.9921    17.7756    16.0287   -78.1368
 2589.0000    79.3424   -53.6461     9.0394    18.1494    16.4839   -77.9601
 2589.5000    78.7247   -53.9331     9.1016    18.1494    16.4882   -70.2431
 2590.0000    78.1875   -53.9154     9.1184    17.4096    15.7119   -70.0664
 2590.5000    80.9343   -53.8977     9.1199    15.6895    14.3610   -69.8897
 2591.0000    84.5797   -53.8836     9.1215    14.7401    13.4955   -69.7151
 2591.5000    87.3264   -53.8694     9.1235    14.3368    13.2211   -69.4922
 2592.0000    87.0502   -53.7046     9.1095    14.3368    13.2254   -69.3156
 2592.5000    84.3608   -53.5363     9.1266    14.3368    13.5070   -69.1390
 2593.0000    82.8780   -53.5222     9.1282    14.3368    13.6045   -65.4890
 2593.5000    81.9985   -53.3574     9.1298    14.1393    13.0542   -38.7565
 2594.0000    81.7223   -53.3432     9.1315    13.3516    12.5254   -46.0760
 2594.5000    79.3408   -53.4797     9.1332    12.6542    12.1017   -68.4323
 2595.0000    77.8580   -53.6161     9.1352    12.2229    11.6922   -75.7122
 2595.5000    85.1297   -53.7525     9.1519    12.0545    11.2193   -68.0285
 2596.0000    89.3784   -53.7348     9.1533    12.2229    11.2222   -75.3544
 2596.5000    91.8107   -53.7199     9.1551    12.4799    12.1994   -82.6740
 2597.0000    89.1024   -53.7030     9.1567    12.9203    12.9946   -89.9550
 2597.5000    87.3495   -53.8430     9.1586    13.3762    13.2659   -89.7676
 2598.0000    85.8667   -53.8253     9.1601    13.9445    13.2693   -89.5519
 2598.5000    78.6524   -53.9581     9.1617    14.1393    13.2728   -74.3827
 2599.0000    76.2646   -53.9440     9.1481    13.5630    12.9012   -66.7099
 2599.5000    76.5981   -54.0086     9.2107    12.9982    12.2200   -50.8680
 2600.0000    81.7517   -53.9962     9.2274    12.5667    11.7250   -43.8678
 2600.5000    89.0170   -53.9862     9.2289    12.4335    11.4071   -51.1873
 2601.0000    91.3246   -53.8250     9.2309    12.5294    11.2529   -58.5070
 2601.5000    90.1454   -53.8128     9.2323    12.7053    11.2566   -65.7824
 2602.0000    87.1588   -53.6520     9.2341    12.9730    11.4962   -65.5616
 2602.5000    86.8825   -53.4912     9.2356    13.6188    12.5842   -27.9037
 2603.0000    85.8748   -53.4811     9.2373    14.6250    13.7760    -5.2383
 2603.5000    82.0769   -53.3179     9.2543    16.3101    14.4651     2.4363
