~VERSION INFORMATION
 VERS.                2.0:   CWLS LOG ASCII STANDARD - VERSION 2.0
 WRAP.                 NO:   ONE LINE PER DEPTH STEP
~WELL INFORMATION
#MNEM.UNIT      DATA TYPE    INFORMATION
#----------   ------------   ------------------------------
 STRT.F            1.0000:   START DEPTH
 STOP.F         2854.0000:   STOP DEPTH
 STEP.F            0.5000:   STEP LENGTH
 NULL.          -999.2500:   NO VALUE
 COMP.          INTEX OIL:   COMPANY
 WELL. INTEX N.P.R. "AX" #42-29:   WELL
 FLD .             TEAPOT:   FIELD
 LOC .      S29 T39N R78W:   LOCATION
 CNTY.            NATRONA:   COUNTY
 STAT.            WYOMING:   STATE
 CTRY. UNITED STATES OF AMERICA:   COUNTRY
 SRVC.       SCHLUMBERGER:   SERVICE COMPANY
 DATE.        30-MAY-1986:   LOGDATE
 API .     49025095240000:   API NUMBER
~CURVE INFORMATION
#MNEM.UNIT       API CODE    CURVE DESCRIPTION
#----------   ------------   ------------------------------
 DEPT.F                  :   
 SPR .MV     05 010 01 00:   SPONTANEOUS POTENTIAL FROM RES.
 ASN .OHMM   05 041 16 00:   AMPLIFIED SHORT NORMAL 16"
 ILD .OHMM   05 120 46 00:   INDUCTION LOG DEEP
 GRD .GAPI   45 310 01 00:   GAMMA RAY FROM DENSITY LOG
 CALD.IN     45 280 60 00:   CALIPER FROM DENSITY LOG
 CORR.G/C3   45 356 01 00:   DENSITY CORRECTION
 RHOB.G/C3   45 350 01 00:   BULK DENSITY
 CALI.IN     30 280 01 00:   CALIPER FROM GAMMA RAY LOG
 GR  .GAPI   30 310 01 00:   GAMMA RAY
~PARAMETER INFORMATION
#MNEM.UNIT          VALUE    DESCRIPTION
#----------   ------------   ------------------------------
 EKB .F         5020.3000:   Kelly bushing
 EGL .F         5010.0000:   Ground level
 EDF .F            0.0000:   Drilling floor
 TD  .F         2860.0000:   Total depth
 CLNT.            A2DTECH:   Client Code
 DATE.        30-MAY-1986:   Date Logged [DD-MMM-YYYY]
 DD  .F              2860:   Depth driller
 DL  .F              2855:   Depth logger
 BLI .F              2854:   Bottom log interval
 TLI .F               164:   Top log interval
 CS1 .              8.625:   Casing size
 CBD1.      8.625" @ 167':   Casing driller 1
 CBL1.IN              164:   Casing logger 1
 BS1 .IN            7.875:   Bit size
 BSD1.F              2860:   Depth drilled with bit1
 DFT .  LIGND-SULFATE LCM:   Type fluid in hole
 DFD .                8.9:   Density
 DFV .                 33:   Viscosity
 DFPH.               11.0:   pH
 DFL .                9.2:   Fluid loss
 MSS .           FLOWLINE:   Source of sample
 RMS .OHMM           1.47:   Rm
 MST .F                55:   Rm Meas. temp.
 RMF .OHMM           1.13:   Rmf
 MFST.F                75:   Rmf Meas. temp.
 RMB .OHMM           0.78:   Rm. at BHT
 BHT .F               108:   BHT.
 TCS .HRS               3:   Time Circ. stopped
 MRT .F               108:   Maximum recorded temp.
 LUN .               3527:   Logging unit number
 LUL .               CSPR:   Logging unit location
 ENGI.            MANGOLO:   Recorded By
 WITN.             TUTTLE:   Witnessed by
 ORIG.      1" 2.5" PRINT:   Origin of data
 UWI .     49025095240000:   Unique Well ID
 DICO. A2D TECHNOLOGIES, INC.:   Digitizing Company
 PD  .                 GL:   Permanent Datum
 EPD .               5010:   Elevation Permanent Datum
 LMF .                 KB:   Log Measured From
 DMF .                 KB:   Drilling Measured From
 DAPD.              10.32:   Feet Above Permanent Datum
 MFSS.         MEAS PRESS:   Source Rmf.
~OTHER INFORMATION
~A    DEPT     SPR        ASN        ILD        GRD       CALD       CORR       RHOB        CALI        GR   
# ...
 2154.5000   -40.2439     6.9626     4.3943   114.7542     9.3464     0.0535     2.5260  -999.2500  -999.2500
 2155.0000   -40.2439     7.0813     4.3958   117.7306     9.3236     0.0412     2.5199  -999.2500  -999.2500
 2155.5000   -40.2439     7.0827     4.3973   119.1114     9.3141     0.0270     2.5156  -999.2500  -999.2500
 2156.0000   -40.2439     7.1134     4.3988   118.5409     9.2920     0.0161     2.5226  -999.2500  -999.2500
 2156.5000   -40.2439     7.1147     4.4003   116.6492     9.2915     0.0264     2.5360  -999.2500  -999.2500
 2157.0000   -40.2439     7.0867     4.4021   117.2539     9.3012     0.0365     2.5434  -999.2500  -999.2500
 2157.5000   -40.2439     7.0587     4.2522   118.6345     9.3214     0.0390     2.5528  -999.2500  -999.2500
 2158.0000   -40.2439     7.0015     4.2540   119.3924     9.2794     0.0415     2.5515  -999.2500  -999.2500
 2158.5000   -40.2439     6.9442     4.1042   119.3815     9.2172     0.0636     2.5459  -999.2500  -999.2500
 2159.0000   -40.2439     6.9162     4.1060   118.9108     9.1972     0.0766     2.5479  -999.2500  -999.2500
 2159.5000   -40.2439     6.9176     4.1075   120.0794     9.1968     0.0984     2.5541  -999.2500  -999.2500
 2160.0000   -40.2439     6.9143     4.2600   124.0613     9.1963     0.0744     2.5565  -999.2500  -999.2500
 2160.5000   -40.5488     6.9497     4.4126   124.8831     9.1092     0.0454     2.5226  -999.2500  -999.2500
 2161.0000   -40.5488     7.0097     4.7162   123.3645     9.0290     0.0401     2.5135  -999.2500  -999.2500
 2161.5000   -40.5488     7.0697     5.0198   120.3697     9.0109     0.0415     2.5089  -999.2500  -999.2500
 2162.0000   -40.2439     7.1884     5.0213   117.5202     9.0104     0.0452     2.4998  -999.2500  -999.2500
 2162.5000   -40.2439     7.2777     5.0228   115.4037     9.0100     0.0193     2.4844  -999.2500  -999.2500
 2163.0000   -40.2439     7.3670     4.8732   115.1169     9.0402     0.0116     2.4975  -999.2500  -999.2500
 2163.5000   -40.2439     7.3977     4.7237   116.5200     9.0545     0.0260     2.5244  -999.2500  -999.2500
 2164.0000   -40.2439     7.4577     4.5741   115.8217     9.0700     0.0299     2.5273  -999.2500  -999.2500
 2164.5000   -40.2439     7.4884     4.4244   114.4224     9.1001     0.0221     2.5163  -999.2500  -999.2500
 2165.0000   -40.2439     7.4898     4.1239   115.8385     9.1304     0.0129     2.5052  -999.2500  -999.2500
 2165.5000   -40.1880     7.3738     3.8233   118.8171     9.1768     0.0105     2.4903  -999.2500  -999.2500
 2166.0000   -39.9390     6.9646     3.5227   117.8218     9.2239     0.0232     2.4775  -999.2500  -999.2500
 2166.5000   -39.6341     6.5848     3.2221   116.7191     9.2993     0.0365     2.4815  -999.2500  -999.2500
 2167.0000   -39.5629     6.1463     2.9214   118.3600     9.3605     0.0714     2.4978  -999.2500  -999.2500
 2167.5000   -39.3293     5.8250     2.7669   119.0193     9.4087     0.0821     2.5078  -999.2500  -999.2500
 2168.0000   -39.0244     5.4452     2.6223   120.6711     9.5317     0.0756     2.5129  -999.2500  -999.2500
 2168.5000   -39.0244     5.1240     2.4728   121.2285     9.6792     0.0955     2.5211  -999.2500  -999.2500
 2169.0000   -39.0244     4.8904     2.3232   118.2628     9.8321     0.1193     2.5302  -999.2500  -999.2500
 2169.5000   -39.0244     4.7446     2.3248   115.9460     9.9850     0.1630     2.5202  -999.2500  -999.2500
 2170.0000   -39.0244     4.6289     2.3263   115.6003    10.0766     0.1673     2.4877  -999.2500  -999.2500
 2170.5000   -39.0244     4.6015     2.4788   118.6968    10.0871     0.0931     2.4733  -999.2500  -999.2500
 2171.0000   -39.0244     4.6322     2.4803   118.2261     9.9223     0.0619     2.4818  -999.2500  -999.2500
 2171.5000   -39.0244     4.6937     2.5110   115.4477     9.7992     0.0638     2.4947  -999.2500  -999.2500
 2172.0000   -39.0244     4.7557     2.6344   113.5924     9.6760     0.0567     2.5006  -999.2500  -999.2500
 2172.5000   -39.0244     4.8416     2.6360   115.4294     9.6142     0.0621     2.5252  -999.2500  -999.2500
 2173.0000   -39.0244     4.8724     2.6375   118.1894     9.6047     0.1032     2.5478  -999.2500  -999.2500
 2173.5000   -38.5824     4.8737     2.6803   117.2572     9.6134     0.0773     2.5467  -999.2500  -999.2500
 2174.0000   -38.2724     4.8751     2.7915   115.8634     9.6436     0.0707     2.5343  -999.2500  -999.2500
 2174.5000   -38.2571     4.8765     2.7931   119.0850     9.6737     0.0956     2.5631  -999.2500  -999.2500
 2175.0000   -38.4146     4.8810     2.7946   115.8450     9.6733     0.1338     2.5708  -999.2500  -999.2500
 2175.5000   -38.8769     4.9085     2.7961   113.0666     9.7341     0.1322     2.5287  -999.2500  -999.2500
 2176.0000   -39.0244     4.9099     2.7976   113.5190     9.7644     0.1063     2.5159  -999.2500  -999.2500
 2176.5000   -38.5517     4.9112     2.7991   114.8944     9.7946     0.1094     2.5260  -999.2500  -999.2500
 2177.0000   -38.2825     4.9083     2.7382   115.8083     9.8555     0.1170     2.5301  -999.2500  -999.2500
 2177.5000   -38.5924     4.8801     2.6510   116.2616     9.8857     0.1216     2.5154  -999.2500  -999.2500
 2178.0000   -39.0244     4.8566     2.6526   121.3284     9.9159     0.1048     2.4972  -999.2500  -999.2500
 2178.5000   -39.0244     4.8580     2.6541   124.5500     9.9155     0.0850     2.4881  -999.2500  -999.2500
 2179.0000   -39.0244     4.8300     2.6556   125.9254     9.9150     0.0774     2.4820  -999.2500  -999.2500
 2179.5000   -39.3293     4.8258     2.6571   124.5316     9.9145     0.0790     2.5092  -999.2500  -999.2500
 2180.0000   -39.3293     4.8034     2.6586   118.5225     9.9141     0.1079     2.5202  -999.2500  -999.2500
 2180.5000   -39.3293     4.8048     2.6601   116.2056     9.9136     0.1156     2.5248  -999.2500  -999.2500
 2181.0000   -39.3293     4.8063     2.6617   114.8118     9.9132     0.1201     2.5308  -999.2500  -999.2500
 2181.5000   -39.0244     4.8143     2.6631   112.4949     9.9127     0.1140     2.5186  -999.2500  -999.2500
 2182.0000   -39.0244     4.8383     2.6649   108.7934     9.9123     0.0729     2.5019  -999.2500  -999.2500
 2182.5000   -38.7195     4.8469     2.8175   107.8612     9.9118     0.0851     2.5049  -999.2500  -999.2500
 2183.0000   -38.4146     4.9440     2.9700   108.7751     9.9113     0.1110     2.4957  -999.2500  -999.2500
 2183.5000   -38.1098     5.0631     2.9715   109.6890     9.9109     0.0455     2.4841  -999.2500  -999.2500
 2184.0000   -37.8049     5.1823     2.8220   110.6029     9.9104     0.0211     2.5352  -999.2500  -999.2500
 2184.5000   -37.8049     5.2721     2.6722   112.4399     9.9100     0.0440     2.5443  -999.2500  -999.2500
 2185.0000   -37.5000     5.3157     2.6739   114.7384     9.9402     0.0760     2.5473  -999.2500  -999.2500
 2185.5000   -37.5000     5.2411     2.5242   115.6523     9.9704     0.0943     2.5351  -999.2500  -999.2500
 2186.0000   -37.5000     5.0300     2.3746   115.6431    10.0006     0.1111     2.5260  -999.2500  -999.2500
 2186.5000   -37.8049     4.6778     2.3763   118.4461    10.0308     0.1217     2.5183  -999.2500  -999.2500
 2187.0000   -38.4146     4.4224     2.3778   122.1142    10.0620     0.1187     2.5061  -999.2500  -999.2500
 2187.5000   -39.0244     4.3157     2.2282   123.4810    10.0913     0.0791     2.4970  -999.2500  -999.2500
 2188.0000   -39.3293     4.2875     2.2297   124.3756    10.0568     0.0684     2.5015  -999.2500  -999.2500
 2188.5000   -39.6341     4.2694     2.3823   123.3234     9.9330     0.0638     2.5136  -999.2500  -999.2500
 2189.0000   -39.6341     4.2710     2.3838   119.6001     9.8114     0.0918     2.5227  -999.2500  -999.2500
 2189.5000   -39.3293     4.2724     2.5363   117.8866     9.7520     0.1147     2.5212  -999.2500  -999.2500
 2190.0000   -39.3293     4.2737     2.6889   119.3074     9.7853     0.1218     2.4983  -999.2500  -999.2500
 2190.5000   -39.0244     4.2751     2.8414   119.7656     9.7784     0.1016     2.4922  -999.2500  -999.2500
