~VERSION INFORMATION
 VERS.                2.0:   CWLS LOG ASCII STANDARD - VERSION 2.0
 WRAP.                 NO:   ONE LINE PER DEPTH STEP
~WELL INFORMATION
#MNEM.UNIT      DATA TYPE    INFORMATION
#----------   ------------   ------------------------------
 STRT.F          199.5000:   START DEPTH
 STOP.F         2983.0000:   STOP DEPTH
 STEP.F            0.5000:   STEP LENGTH
 NULL.          -999.2500:   NO VALUE
 COMP.    FENIX & SCISSON:   COMPANY
 WELL. FENIX (UE-49) "AX" #52-29:   WELL
 FLD . U.S. NAVAL PETROLEUM RESERVE #3:   FIELD
 LOC .      S29 T39N R78W:   LOCATION
 CNTY.            NATRONA:   COUNTY
 STAT.            WYOMING:   STATE
 CTRY. UNITED STATES OF AMERICA:   COUNTRY
 SRVC.           BIRDWELL:   SERVICE COMPANY
 DATE.        07-AUG-1977:   LOGDATE
 API .     49025104090000:   API NUMBER
~CURVE INFORMATION
#MNEM.UNIT       API CODE    CURVE DESCRIPTION
#----------   ------------   ------------------------------
 DEPT.F                  :   
 GRD .GAPI   45 310 01 00:   GAMMA RAY FROM DENSITY LOG
 CALD.IN     45 280 60 00:   CALIPER FROM DENSITY LOG
 DEN .G/C3   45 350 01 00:   BULK DENSITY
 DCOR.G/C3   45 356 01 00:   DENSITY CORRECTION
 SN  .OHMM   05 040 16 00:   SHORT NORMAL 16"
 ILD .OHMM   05 120 46 00:   INDUCTION LOG DEEP RESISTIVITY
~PARAMETER INFORMATION
#MNEM.UNIT          VALUE    DESCRIPTION
#----------   ------------   ------------------------------
 EKB .F         4995.0000:   Kelly bushing
 EGL .F         4985.0000:   Ground level
 EDF .F            0.0000:   Drilling floor
 TD  .F         2973.0000:   Total depth
 DATE.         7-AUG-1977:   Date logged
 CLNT.            A2DTECH:   Client Code
 SL  . 1400' FNL & 2380' FEL:   Surface Location
 PD  .                 GL:   Permanent Datum
 EPD .F              4985:   Elevation Permanent Datum
 LMF .                 KB:   Log Measured From
 DMF .                 KB:   Drilling Measured From
 DAPD.F                10:   Feet Above Permanent Datum
 DD  .F              2972:   Depth driller
 DL  .F              2973:   Depth logger
 BLI .F              2968:   Bottom log interval
 TLI .F               216:   Top log interval
 CS1 .IN            8.625:   Casing size
 CBD1.      8.625" @ 216':   Casing driller 1
 CBL1.F               216:   Casing logger 1
 BS1 .IN            7.875:   Bit size
 BSD1.F              2972:   Depth drilled with bit1
 DFT .            GEL-KCL:   Type fluid in hole
 DFD .                8.9:   Density
 DFV .                 33:   Viscosity
 DFL .                  9:   Fluid loss
 MSS .            MUD PIT:   Source of sample
 RMS .OHMM           0.26:   Rm
 MST .F                73:   Rm Meas. temp.
 RMF .OHMM           0.26:   Rmf
 MFST.F                72:   Rmf Meas. temp.
 RMC .OHMM           0.96:   Rmc
 MCST.F                72:   Rmc Meas. temp.
 MFSS.              PRESS:   Source Rmf.
 RMB .OHMM           0.14:   Rm. at BHT
 BHT .F               130:   BHT.
 TCS .HRS               5:   Time Circ. stopped
 MRT .F               130:   Maximum recorded temp.
 LUN .               2958:   Logging unit number
 LUL .             CASPER:   Logging unit location
 ENGI.                LAW:   Recorded By
 WITN.             RHODES:   Witnessed by
 ORIG.           5" PRINT:   Origin of data
 UWI .     49025104090000:   Unique Well ID
 DICO. A2D TECHNOLOGIES, INC.:   Digitizing Company
~OTHER INFORMATION
~A   DEPT       GRD      CALD        DEN       DCOR         SN        ILD   
# ...
  563.5000    67.6430     9.1390     2.5290     0.0270     7.7400     7.8760
  564.0000    72.4340     9.1590     2.5290     0.0350     7.8180     7.8350
  564.5000    70.7580     9.1690     2.5400     0.0270     7.8970     7.7950
  565.0000    69.7830     9.1610     2.5310     0.0270     7.9960     7.7550
  565.5000    71.7460     9.1530     2.5340     0.0140     7.9800     7.7150
  566.0000    74.6410     9.1450     2.5040     0.0200     7.9530     7.6840
  566.5000    69.3010     9.1380     2.5170     0.0260     7.9260     7.6550
  567.0000    65.4790     9.1380     2.5280     0.0240     7.8980     7.6280
  567.5000    68.2930     9.1530     2.5240     0.0270     7.8710     7.6020
  568.0000    73.0070     9.1680     2.5260     0.0260     7.8440     7.5760
  568.5000    74.5950     9.1820     2.5280     0.0170     7.8170     7.5510
  569.0000    63.9330     9.1900     2.5180     0.0190     7.7820     7.5250
  569.5000    65.7250     9.1780     2.5150     0.0220     7.8010     7.5050
  570.0000    61.8670     9.1670     2.5240     0.0210     7.8400     7.5330
  570.5000    63.5040     9.1550     2.5290     0.0210     7.8790     7.5690
  571.0000    66.5910     9.1440     2.5300     0.0270     7.9170     7.5570
  571.5000    64.4630     9.1330     2.5290     0.0270     7.9560     7.5380
  572.0000    64.9760     9.1410     2.5340     0.0200     7.9960     7.5190
  572.5000    61.9190     9.1500     2.5210     0.0150     7.9720     7.5020
  573.0000    63.4440     9.1590     2.5070     0.0170     7.9410     7.4060
  573.5000    61.5490     9.1680     2.5130     0.0180     7.9110     7.3160
  574.0000    62.8150     9.1770     2.5080     0.0190     7.8810     7.2250
  574.5000    65.6080     9.1860     2.5140     0.0170     7.8510     7.1350
  575.0000    66.3640     9.1920     2.5150     0.0210     7.8210     6.9710
  575.5000    63.8800     9.1920     2.5140     0.0240     7.7910     6.9860
  576.0000    62.0400     9.1920     2.5220     0.0170     7.7670     7.0150
  576.5000    68.4700     9.1920     2.5270     0.0130     7.7450     7.0450
  577.0000    67.1750     9.1880     2.5100     0.0130     7.7240     7.0740
  577.5000    65.4900     9.1820     2.5100     0.0140     7.7020     7.1010
  578.0000    65.8200     9.1770     2.5080     0.0140     7.6810     7.1130
  578.5000    65.3270     9.1710     2.5090     0.0140     7.6590     7.1240
  579.0000    69.4020     9.1670     2.5110     0.0100     7.6380     7.1350
  579.5000    66.8560     9.1640     2.5030     0.0120     7.6160     7.1470
  580.0000    69.6460     9.1600     2.4990     0.0200     7.5940     7.1580
  580.5000    70.8660     9.1560     2.5090     0.0180     7.5730     7.1810
  581.0000    66.5720     9.1500     2.5110     0.0230     7.5970     7.2330
  581.5000    66.7150     9.2540     2.5110     0.0280     7.6250     7.2840
  582.0000    66.0770     9.1930     2.5260     0.0210     7.6540     7.3350
  582.5000    61.8710     9.1890     2.5200     0.0150     7.6820     7.3870
  583.0000    64.9100     9.1820     2.5150     0.0160     7.7110     7.4360
  583.5000    68.3160     9.1760     2.5060     0.0190     7.7400     7.4650
  584.0000    70.7220     9.1830     2.5160     0.0220     7.7680     7.4930
  584.5000    65.5520     9.1950     2.5140     0.0200     7.7970     7.5220
  585.0000    64.5370     9.2010     2.5160     0.0200     7.8260     7.5510
  585.5000    62.3110     9.2060     2.5230     0.0250     7.8540     7.5760
  586.0000    60.3900     9.2110     2.5300     0.0260     7.8830     7.5920
  586.5000    62.4270     9.2110     2.5350     0.0250     7.9110     7.6090
  587.0000    60.1540     9.2210     2.5290     0.0240     7.9590     7.6260
  587.5000    58.8920     9.2370     2.5240     0.0270     8.0260     7.6450
  588.0000    64.5490     9.2510     2.5310     0.0260     8.0720     7.6960
  588.5000    62.4110     9.2450     2.5360     0.0230     8.1470     7.7460
  589.0000    60.2910     9.2400     2.5260     0.0200     8.1470     7.7820
  589.5000    59.6030     9.2340     2.5290     0.0160     8.1470     7.7820
  590.0000    56.0960     9.2290     2.5260     0.0140     8.6000     8.2220
  590.5000    52.9460     9.2230     2.5320     0.0120     8.5430     8.4100
  591.0000    52.9550     9.2180     2.5340     0.0130     8.4580     8.7670
  591.5000    55.8970     9.2120     2.5310     0.0160     8.7040     9.1250
  592.0000    59.0610     9.2130     2.5330     0.0200     9.0650     9.4820
  592.5000    57.2060     9.2150     2.5380     0.0200     9.4270     9.8400
  593.0000    54.0410     9.2170     2.5410     0.0190     9.6690    10.0300
  593.5000    55.0270     9.2190     2.5360     0.0180     9.7900    10.3530
  594.0000    58.9410     9.2200     2.5330     0.0180     9.8670    11.2080
  594.5000    58.6570     9.2220     2.5320     0.0190     9.7650    11.0940
  595.0000    61.2710     9.2240     2.5350     0.0210     9.6800    10.9340
  595.5000    59.5690     9.2260     2.5400     0.0240     9.5940    11.0470
  596.0000    54.5540     9.2280     2.5450     0.0240     9.5090    11.1250
  596.5000    57.0330     9.2300     2.5420     0.0210     9.4240    10.2620
  597.0000    53.4680     9.2310     2.5460     0.0130     9.3490    10.3660
  597.5000    56.8730     9.2290     2.5390     0.0100     9.3720    10.5400
  598.0000    61.1820     9.2270     2.5320     0.0120     9.3950    10.6390
  598.5000    64.2640     9.2260     2.5310     0.0090     9.4180    10.6640
  599.0000    62.6440     9.2240     2.5320     0.0090     9.4410    10.6880
  599.5000    62.4380     9.2220     2.5300     0.0090     9.4630    10.7120
  600.0000    58.5760     9.2200     2.5290     0.0110     9.4860    10.7370
  600.5000    56.1860     9.2180     2.5320     0.0130     9.5200    10.7620
  601.0000    57.0570     9.2170     2.5350     0.0080     9.5000    10.7870
  601.5000    56.3280     9.2150     2.5220     0.0060     9.4600    10.8230
  602.0000    58.3070     9.2130     2.5190     0.0100     9.4300    10.7920
  602.5000    59.4260     9.2110     2.5210     0.0110     9.4190    10.7300
  603.0000    57.8500     9.2110     2.5220     0.0100     9.4080    10.6680
  603.5000    57.0410     9.2110     2.5200     0.0100     9.3970    10.6270
  604.0000    56.1720     9.2150     2.5230     0.0090     9.3860    10.7680
  604.5000    55.9710     9.2200     2.5220     0.0110     9.3750    10.8740
  605.0000    56.7570     9.2260     2.5230     0.0120     9.3640    10.9230
  605.5000    55.8200     9.2310     2.5270     0.0080     9.3530    10.9230
  606.0000    54.0700     9.2260     2.5240     0.0100     9.3420    10.9230
  606.5000    55.4030     9.2210     2.5160     0.0370     9.3310    10.9230
  607.0000    53.6250     9.2160     2.5330     0.0340     9.3200    10.9230
  607.5000    52.9950     9.2130     2.5540     0.0300     9.3080    10.9230
  608.0000    55.2430     9.2220     2.5570     0.0210     9.2970    10.7900
  608.5000    56.5230     9.2310     2.5340     0.0160     9.2860    10.6140
  609.0000    53.5200     9.2310     2.5320     0.0150     9.2750    10.4340
  609.5000    53.7500     9.2310     2.5290     0.0150     9.2620    10.4340
  610.0000    60.3420     9.2310     2.5270     0.0150     9.2700    10.4340
  610.5000    59.4320     9.2310     2.5260     0.0160     9.2800    10.4420
  611.0000    60.6460     9.2310     2.5260     0.0170     9.2900    10.4640
  611.5000    62.8900     9.2390     2.5270     0.0180     9.3000    10.4860
  612.0000    60.5300     9.2510     2.5310     0.0200     9.3090    10.5080
  612.5000    62.4050     9.2310     2.5370     0.0210     9.3190    10.5290
  613.0000    58.6220     9.2090     2.5340     0.0230     9.3290    10.5030
  613.5000    60.5830     9.1920     2.5390     0.0260     9.3390    10.4760
  614.0000    58.6270     9.1970     2.5360     0.0330     9.3470    10.4490
  614.5000    58.6550     9.2010     2.5470     0.0360     9.2390    10.4350
  615.0000    56.9920     9.2050     2.5580     0.0350     9.1770    10.5020
