~VERSION INFORMATION
 VERS.                2.0:   CWLS LOG ASCII STANDARD - VERSION 2.0
 WRAP.                 NO:   ONE LINE PER DEPTH STEP
~WELL INFORMATION
#MNEM.UNIT      DATA TYPE    INFORMATION
#----------   ------------   ------------------------------
 STRT.F          670.0000:   START DEPTH
 STOP.F         3440.0000:   STOP DEPTH
 STEP.F            0.5000:   STEP LENGTH
 NULL.          -999.2500:   NO VALUE
 COMP.    FENIX & SCISSON:   COMPANY
 WELL.   FENIX "A" #57-33:   WELL
 FLD .             NPR #3:   FIELD
 LOC .      S33 T39N R78W:   LOCATION
 CNTY.            NATRONA:   COUNTY
 STAT.            WYOMING:   STATE
 CTRY. UNITED STATES OF AMERICA:   COUNTRY
 SRVC.       SCHLUMBERGER:   SERVICE COMPANY
 DATE.        27-APR-1977:   LOGDATE
 API .     49025103600000:   API NUMBER
~CURVE INFORMATION
#MNEM.UNIT       API CODE    CURVE DESCRIPTION
#----------   ------------   ------------------------------
 DEPT.F                  :   
 SPR .MV     11 010 01 00:   SPONTANEOUS POTENTIAL FROM RES.
 MSFL.OHMM   11 270 04 00:   MICRO SPHERICALLY FOCUSED
 LLD .OHMM   11 220 10 00:   LATEROLOG LOG DEEP
 LLS .OHMM   11 220 09 00:   LATEROLOG LOG SHALLOW
 CALD.IN     45 280 60 00:   CALIPER FROM DENSITY LOG
 DRHO.G/C3   45 356 01 00:   DENSITY CORRECTION
 NPHI.DEC    42 890 03 00:   NEUTRON POROSITY SANDSTONE
 RHOB.G/C3   45 350 01 00:   BULK DENSITY
 GRD .GAPI   45 310 01 00:   GAMMA RAY FROM RESISTIVITY
~PARAMETER INFORMATION
#MNEM.UNIT          VALUE    DESCRIPTION
#----------   ------------   ------------------------------
 EKB .F         5183.0000:   Kelly bushing
 EGL .F         5172.0000:   Ground level
 EDF .F            0.0000:   Drilling floor
 TD  .F         3424.0000:   Total depth
 DATE.        27-APR-1977:   Date logged
 CLNT.            A2DTECH:   Client Code
 SL  . 990' FSL & 2310' FEL:   Surface Location
 PD  .                 GL:   Permanent Datum
 EPD .F              5172:   Elevation Permanent Datum
 LMF .                 KB:   Log Measured From
 DMF .                 KB:   Drilling Measured From
 DAPD.F                11:   Feet Above Permanent Datum
 DD  .F              3421:   Depth driller
 DL  .F              3424:   Depth logger
 BLI .F              3423:   Bottom log interval
 TLI .F               764:   Top log interval
 CS1 .IN            8.625:   Casing size
 CBD1.      8.625" @ 711':   Casing driller 1
 BS1 .IN            7.875:   Bit size
 BSD1.F              3421:   Depth drilled with bit1
 DFT .            KCL MUD:   Type fluid in hole
 DFD .                9.5:   Density
 DFV .                 41:   Viscosity
 DFPH.                  8:   pH
 DFL .               10.8:   Fluid loss
 MSS .            MUD PIT:   Source of sample
 RMS .OHMM           0.26:   Rm
 MST .F                74:   Rm Meas. temp.
 RMF .OHMM           0.21:   Rmf
 MFST.F                74:   Rmf Meas. temp.
 RMC .OHMM            .09:   Rmc
 MCST.F                74:   Rmc Meas. temp.
 MFSS.               MEAS:   Source Rmf.
 MCSS.               CALC:   Source Rmc.
 RMB .OHMM           0.15:   Rm. at BHT
 BHT .F               126:   BHT.
 TCS .HRS            0900:   Time Circ. stopped
 TLAB.HRS            1430:   Time logger at bottom
 MRT .F               126:   Maximum recorded temp.
 LUN .               7711:   Logging unit number
 LUL .               CSPR:   Logging unit location
 ENGI.             SAYLER:   Recorded By
 WITN.         PETTINGILL:   Witnessed by
 ORIG.           5" PRINT:   Origin of data
 UWI .     49025103600000:   Unique Well ID
 DICO. A2D TECHNOLOGIES, INC.:   Digitizing Company
~OTHER INFORMATION
~A   DEPT      SPR       MSFL        LLD        LLS         CALD      DRHO        NPHI       RHOB      GRD   
# ...
 3407.5000   -83.0650     5.2950     4.8270     5.1140     7.9610     0.0480     0.2950     2.5480  -999.2500
 3408.0000   -82.8820     4.7920     4.4230     5.0310     7.9580     0.0450     0.2880     2.5540  -999.2500
 3408.5000   -82.6990     4.6960     4.0910     4.9160     7.9560     0.0360     0.2860     2.5360  -999.2500
 3409.0000   -82.5160     5.6030     4.0910     4.9620     7.9530     0.0290     0.2860     2.5220  -999.2500
 3409.5000   -82.3330     6.6100     4.1370     5.0420     7.9500     0.0390     0.2860     2.5150  -999.2500
 3410.0000   -82.1500     7.7830     4.1500     5.0850     7.9470     0.0480     0.2860     2.5470  -999.2500
 3410.5000   -81.9660     6.9280     4.1620     5.1000     7.9450     0.0560     0.2860     2.5710  -999.2500
 3411.0000   -81.7830     5.9030     4.1670     5.0930     7.9420     0.0470     0.2860     2.5770  -999.2500
 3411.5000   -81.6470     5.3400     4.1630     5.0880     7.9390     0.0400     0.2860     2.5580  -999.2500
 3412.0000   -81.8190     5.6600     4.1590     5.0820     7.9370     0.0380     0.2860     2.5470  -999.2500
 3412.5000   -82.5650     5.9640     4.1560     5.0770     7.9340     0.0360     0.2860     2.5420  -999.2500
 3413.0000   -83.2140     6.1860     4.1520     5.0710     7.9310     0.0330     0.2860     2.5560  -999.2500
 3413.5000   -82.9420     5.8430     4.1480     5.0660     7.9280     0.0300     0.2860     2.5480  -999.2500
 3414.0000   -82.6610     5.4890     4.1440     5.0600     7.9260     0.0270     0.2860     2.5360  -999.2500
 3414.5000   -82.3840     5.6430     4.1410     5.0540     7.9230     0.0250     0.2860     2.5210  -999.2500
 3415.0000   -82.3730     6.0220     4.1370     5.0490     7.9200     0.0240     0.2860     2.5110  -999.2500
 3415.5000   -82.6310     6.3690     4.1330     5.0430     7.9170     0.0240     0.2860     2.5260  -999.2500
 3416.0000   -82.8890     6.7150     4.1300     5.0380     7.9150     0.0240     0.2860     2.5420  -999.2500
 3416.5000   -83.1470     7.0620     4.1260     5.0320     7.9120     0.0310     0.2860     2.5570  -999.2500
 3417.0000   -83.4030     7.4710     4.1220     5.0270     7.9090     0.0240     0.2860     2.5430  -999.2500
 3417.5000   -83.6310     8.3080     4.1190     5.0210     7.9060     0.0190     0.2860     2.5370  -999.2500
 3418.0000   -83.4130     9.1440     4.1150     5.0160     7.9040     0.0320     0.2860     2.5620  -999.2500
 3418.5000   -83.4250     9.5270     4.1110     5.0100     7.9000     0.0460     0.2860     2.5630  -999.2500
 3419.0000   -83.3930     8.3000     4.1070     5.0070     7.8930     0.0580     0.2860     2.5780  -999.2500
 3419.5000   -83.3560     8.8780     4.1040     5.0070     7.8860     0.0550     0.2860     2.5770  -999.2500
 3420.0000   -83.3200    10.1590     4.1000     5.0070     7.8840     0.0430     0.2860     2.5690  -999.2500
 3420.5000   -83.2850     9.4390     4.0960     5.0070     7.8900     0.0310     0.2860     2.5570  -999.2500
 3421.0000   -83.2520     9.7120     4.0910     5.0080     7.8960     0.0260     0.2860     2.5480  -999.2500
 3421.5000   -83.4590    10.1840     4.1190     5.0060     7.9020     0.0460     0.2870     2.5600  -999.2500
 3422.0000   -84.0590    10.6570     4.2440     5.1000     7.9060     0.0620     0.2870     2.5840  -999.2500
 3422.5000   -84.3510    11.0350     4.3840     5.1780     7.8180     0.0810     0.2870     2.5950  -999.2500
 3423.0000   -84.0690     8.1470     4.8900     5.2570     7.7250     0.0970     0.2880     2.6010  -999.2500
 3423.5000   -83.4910     6.3680     5.3890     5.3350     7.6300     0.0940     0.2850     2.5780  -999.2500
 3424.0000   -84.4350     6.0730     5.3890     5.4130     7.5400     0.0860     0.2800     2.5750  -999.2500
 3424.5000  -999.2500  -999.2500  -999.2500     5.4890  -999.2500     0.0970     0.2850     2.5860  -999.2500
 3425.0000  -999.2500  -999.2500  -999.2500  -999.2500  -999.2500     0.1140     0.2840     2.6100  -999.2500
 3425.5000  -999.2500  -999.2500  -999.2500  -999.2500  -999.2500     0.1060     0.2810     2.6060  -999.2500
 3426.0000  -999.2500  -999.2500  -999.2500  -999.2500  -999.2500     0.0960     0.2830     2.5940  -999.2500
 3426.5000  -999.2500  -999.2500  -999.2500  -999.2500  -999.2500     0.0900     0.2790     2.5910  -999.2500
 3427.0000  -999.2500  -999.2500  -999.2500  -999.2500  -999.2500     0.0740     0.2850     2.5670  -999.2500
 3427.5000  -999.2500  -999.2500  -999.2500  -999.2500  -999.2500     0.0660     0.2880     2.5510  -999.2500
 3428.0000  -999.2500  -999.2500  -999.2500  -999.2500  -999.2500     0.0740     0.2930     2.5640  -999.2500
 3428.5000  -999.2500  -999.2500  -999.2500  -999.2500  -999.2500     0.0830     0.2960     2.5810  -999.2500
 3429.0000  -999.2500  -999.2500  -999.2500  -999.2500  -999.2500     0.0910     0.2930     2.5940  -999.2500
 3429.5000  -999.2500  -999.2500  -999.2500  -999.2500  -999.2500     0.0990     0.2890     2.5860  -999.2500
 3430.0000  -999.2500  -999.2500  -999.2500  -999.2500  -999.2500     0.1070     0.2870     2.6030  -999.2500
 3430.5000  -999.2500  -999.2500  -999.2500  -999.2500  -999.2500     0.1080     0.2880     2.5930  -999.2500
 3431.0000  -999.2500  -999.2500  -999.2500  -999.2500  -999.2500     0.1100     0.2890     2.5820  -999.2500
 3431.5000  -999.2500  -999.2500  -999.2500  -999.2500  -999.2500     0.1120     0.2870     2.5800  -999.2500
 3432.0000  -999.2500  -999.2500  -999.2500  -999.2500  -999.2500     0.1100     0.2810     2.5720  -999.2500
 3432.5000  -999.2500  -999.2500  -999.2500  -999.2500  -999.2500     0.1030     0.2770     2.5940  -999.2500
 3433.0000  -999.2500  -999.2500  -999.2500  -999.2500  -999.2500     0.0990     0.2750     2.5900  -999.2500
 3433.5000  -999.2500  -999.2500  -999.2500  -999.2500  -999.2500     0.0970     0.2740     2.5990  -999.2500
 3434.0000  -999.2500  -999.2500  -999.2500  -999.2500  -999.2500     0.1010     0.2740     2.5920  -999.2500
 3434.5000  -999.2500  -999.2500  -999.2500  -999.2500  -999.2500     0.1110     0.2750     2.5960  -999.2500
 3435.0000  -999.2500  -999.2500  -999.2500  -999.2500  -999.2500     0.1080     0.2760     2.5980  -999.2500
 3435.5000  -999.2500  -999.2500  -999.2500  -999.2500  -999.2500     0.1040     0.2710     2.6040  -999.2500
 3436.0000  -999.2500  -999.2500  -999.2500  -999.2500  -999.2500     0.1000     0.2670     2.6010  -999.2500
 3436.5000  -999.2500  -999.2500  -999.2500  -999.2500  -999.2500     0.0960     0.2580     2.6040  -999.2500
 3437.0000  -999.2500  -999.2500  -999.2500  -999.2500  -999.2500     0.0960     0.2420  -999.2500  -999.2500
 3437.5000  -999.2500  -999.2500  -999.2500  -999.2500  -999.2500     0.0960     0.2250  -999.2500  -999.2500
 3438.0000  -999.2500  -999.2500  -999.2500  -999.2500  -999.2500  -999.2500     0.2250  -999.2500  -999.2500
 3438.5000  -999.2500  -999.2500  -999.2500  -999.2500  -999.2500  -999.2500     0.2250  -999.2500  -999.2500
 3439.0000  -999.2500  -999.2500  -999.2500  -999.2500  -999.2500  -999.2500     0.2250  -999.2500  -999.2500
 3439.5000  -999.2500  -999.2500  -999.2500  -999.2500  -999.2500  -999.2500     0.2250  -999.2500  -999.2500
 3440.0000  -999.2500  -999.2500  -999.2500  -999.2500  -999.2500  -999.2500     0.2250  -999.2500  -999.2500
