~VERSION INFORMATION
 VERS.                2.0:   CWLS LOG ASCII STANDARD - VERSION 2.0
 WRAP.                 NO:   ONE LINE PER DEPTH STEP
~WELL INFORMATION
#MNEM.UNIT      DATA TYPE    INFORMATION
#----------   ------------   ------------------------------
 STRT.F           20.0000:   START DEPTH
 STOP.F         4128.0000:   STOP DEPTH
 STEP.F            0.5000:   STEP LENGTH
 NULL.          -999.2500:   NO VALUE
 COMP. LAWRENCE-ALLISON & ASSOCIATES:   COMPANY
 WELL. LAWRENCE "X" #53-3:   WELL
 FLD .             NPR #3:   FIELD
 LOC .       S3 T38N R78W:   LOCATION
 CNTY.            NATRONA:   COUNTY
 STAT.            WYOMING:   STATE
 CTRY. UNITED STATES OF AMERICA:   COUNTRY
 SRVC.      DRESSER ATLAS:   SERVICE COMPANY
 DATE.        18-SEP-1983:   LOGDATE
 API .     49025109370000:   API NUMBER
~CURVE INFORMATION
#MNEM.UNIT       API CODE    CURVE DESCRIPTION
#----------   ------------   ------------------------------
 DEPT.F                  :   
 NPHI.DEC    42 890 03 00:   NEUTRON POROSITY SANDSTONE
 TEND.LBS    45 635 01 00:   TENSION FORM DENSITY LOG
 CORR.G/C3   45 356 01 00:   DENSITY CORRECTION
 RHOB.G/C3   45 350 01 00:   BULK DENSITY
 CALD.IN     45 280 60 00:   CALIPER FROM DENSITY LOG
 GRR .GAPI   07 310 01 00:   GAMMA RAY FROM RESISTIVITY
 TENR.LBS    06 635 01 00:   TENSION FROM RESISTIVITY
 SPR .MV     07 010 01 00:   SPONTANEOUS POTENTIAL
 RILD.OHMM   07 120 46 00:   DEEP INDUCTION RESISTIVITY
 RILM.OHMM   07 120 44 00:   INDUCTION LOG MEDIUM RESISTIVITY
 RSFL.OHMM   07 220 01 00:   SPHERICALLY FOCUSED RESISTIVITY
 TENS.LBS    60 635 01 00:   TENSION FROM SONIC
 DT  .US/F   60 520 00 00:   DELTA TIME
~PARAMETER INFORMATION
#MNEM.UNIT          VALUE    DESCRIPTION
#----------   ------------   ------------------------------
 EKB .F         5214.0000:   Kelly bushing
 EGL .F         5204.0000:   Ground level
 EDF .F            0.0000:   Drilling floor
 TD  .F         4117.0000:   Total depth
 CLNT.            A2DTECH:   Client Code
 PD  .                 GL:   Permanent Datum
 EPD .F              5204:   Elevation Permanent Datum
 LMF .                 KB:   Log Measured From
 DMF .                 KB:   Drilling Measured From
 DAPD.F                10:   Feet Above Permanent Datum
 DATE.        18-SEP-1983:   Date Logged [DD-MMM-YYYY]
 DD  .F              4117:   Depth driller
 DL  .F              4113:   Depth logger
 BLI .F              4110:   Bottom log interval
 TLI .F                 0:   Top log interval
 CS1 .IN            9.625:   Casing size
 CBD1.      9.625" @ 523':   Casing driller 1
 CBL1.F               523:   Casing logger 1
 BS1 .IN            7.875:   Bit size
 BSD1.F              4117:   Depth drilled with bit1
 DFT .            GEL KCL:   Type fluid in hole
 DFD .                9.0:   Density
 DFV .                 42:   Viscosity
 DFPH.                8.5:   pH
 DFL .                 10:   Fluid loss
 MSS .               TANK:   Source of sample
 RMS .OHMM           0.35:   Rm
 MST .F                68:   Rm Meas. temp.
 RMF .OHMM          0.266:   Rmf
 MFST.F                68:   Rmf Meas. temp.
 MFSS.               MEAS:   Source Rmf.
 RMC .OHMM          0.443:   Rmc
 MCST.F                68:   Rmc Meas. temp.
 MCSS.               CALC:   Source Rmc.
 RMB .OHMM          0.185:   Rm. at BHT
 BHT .F               130:   BHT.
 TCS .HRS               4:   Time Circ. stopped
 MRT .F               130:   Maximum recorded temp.
 LUN .               6270:   Logging unit number
 LUL .              WLSTN:   Logging unit location
 ENGI.             REEVES:   Recorded By
 WITN.             STRONG:   Witnessed by
 ORIG.           5" PRINT:   Origin of data
 UWI .     49025109370000:   Unique Well ID
 DICO. A2D TECHNOLOGIES, INC.:   Digitizing Company
~OTHER INFORMATION
~A   DEPT     NPHI       TEND       CORR       RHOB       CALD         GRR      TENR        SPR       RILD       RILM       RSFL       TENS         DT   
# ...
 2178.0000     0.2656   -12.4434     0.0085     2.5150    10.2516   112.1033   -76.6602   -78.4044     5.8410     5.8460     7.9133   -46.5461    87.6118
 2178.5000     0.2689   -12.4434     0.0507     2.5427    10.2652   112.6877   -76.6602   -77.9709     5.8391     5.8448     7.2258   -46.0443    87.0053
 2179.0000     0.2632   -12.4434     0.0915     2.5562    10.2791   109.3050   -76.6602   -77.5256     5.7118     5.8028     6.6903   -45.6356    88.1425
 2179.5000     0.2542   -12.4434     0.1141     2.5608    10.2884   106.5304   -76.6602   -77.1059     5.5183     5.6816     6.5959   -45.1411    89.9621
 2180.0000     0.2458   -16.2142     0.1079     2.5540    10.2993   101.6356   -76.6602   -76.9670     5.4023     5.5629     6.6872   -44.7398    90.4928
 2180.5000     0.2490   -19.9849     0.0946     2.5465    10.3100    99.7805   -76.6602   -76.9753     5.3630     5.4450     6.8740   -44.3383    90.7961
 2181.0000     0.2620   -23.7557     0.0780     2.5376    10.3209    99.4451   -76.6602   -76.9838     5.4365     5.3700     7.1155   -40.1084    89.3540
 2181.5000     0.2731   -27.5264     0.0524     2.5308    10.3251   104.6677   -76.6602   -76.9939     5.4343     5.4068     7.2140   -39.7013    88.8249
 2182.0000     0.2698   -27.5264     0.0344     2.5346    10.3307   117.6116   -76.6602   -77.0022     5.3948     5.3679     7.2625   -39.2053    88.5974
 2182.5000     0.2623   -31.2971     0.0284     2.5444    10.3364   132.1699   -76.6602   -76.8630     5.3183     5.3662     7.2602   -42.6324    88.4458
 2183.0000     0.2542   -31.1944     0.0676     2.5490    10.3420   141.2570   -76.6602   -76.8736     5.2430     5.2912     7.2074   -42.2311    88.4458
 2183.5000     0.2524   -27.5264     0.0921     2.5482    10.3477   148.9564   -76.6602   -76.7326     5.2044     5.2170     7.0564   -41.8295    88.3647
 2184.0000     0.2608   -23.7557     0.1008     2.5415    10.3534   152.7365   -76.6602   -76.5957     5.2027     5.1437     6.9085   -41.4243    88.1425
 2184.5000     0.2795   -23.7557     0.0948     2.5332    10.3590   146.6261   -76.6602   -76.6040     5.2010     5.1420     6.7638   -40.9264    88.1425
 2185.0000     0.2774   -19.9849     0.0888     2.5265    10.3634   140.2117   -76.6602   -76.6143     5.2357     5.1414     6.6680   -40.5250    88.5216
 2185.5000     0.2732   -23.7557     0.0964     2.5288    10.3669   135.8469   -76.6602   -76.6226     5.3441     5.2126     6.6662   -40.1237    89.4314
 2186.0000     0.2720   -27.5264     0.1176     2.5297    10.3703   132.2383   -76.6602   -76.7782     5.4552     5.3217     6.6645   -39.7224    90.3592
 2186.5000     0.2816   -27.5264     0.1432     2.5184    10.3737   131.3029   -76.4914   -77.0810     5.6076     5.4333     6.7093   -39.3186    90.7202
 2187.0000     0.2837   -27.5264     0.1557     2.5109    10.3771   136.1269   -76.2502   -77.6805     5.8049     5.6346     6.9450   -42.7259    91.1751
 2187.5000     0.2795   -27.5264     0.1499     2.5034    10.3805   138.8311   -76.0092   -78.1306     6.0924     5.8130     7.1894   -42.2461    91.8575
 2188.0000     0.2774   -23.7557     0.1162     2.4915    10.3839   138.4879   -75.7682   -78.7280     6.4396     6.0702     7.6529   -41.8448    91.7817
 2188.5000     0.2840   -16.2142     0.1026     2.4719    10.3873   137.5446   -75.5273   -79.3285     6.7594     6.3282     8.3184   -45.3722    91.5542
 2189.0000     0.2882   -16.2142     0.0846     2.4667    10.3907   136.9053   -75.2865   -79.7776     7.0458     6.6895     8.8540   -44.8698    91.4784
 2189.5000     0.2894   -16.2142     0.0665     2.4652    10.3941   136.2582   -75.0456   -79.7859     7.3951     6.9738     9.2943   -44.3688    91.2509
 2190.0000     0.2876   -16.2142     0.0575     2.4697    10.3975   135.3150   -74.8047   -79.4997     7.6023     7.3211     9.5546   -43.9674    91.1751
 2190.5000     0.2846   -19.9849     0.0711     2.4765    10.4004   134.9796   -74.5638   -79.3607     7.7598     7.6323     9.6190   -43.5659    91.2509
 2191.0000     0.2822   -19.9849     0.0833     2.4826    10.4083   134.9034   -74.3229   -79.0744     7.8661     7.9010     9.6836   -43.1646    91.1751
 2191.5000     0.2792   -23.7557     0.0757     2.4916    10.4171   134.6756   -74.0820   -78.6430     7.8083     7.9551     9.8164   -42.7632    90.5686
 2192.0000     0.2707   -19.9849     0.0621     2.4991    10.4259   136.0960   -73.8411   -78.2095     7.5911     7.7886    10.0913   -42.2614    90.0379
 2192.5000     0.2723   -16.2142     0.0576     2.4969    10.4347   140.0456   -73.6003   -77.7614     7.6417     7.6792    10.3739   -41.8601    89.4314
 2193.0000     0.2807   -16.2142     0.0667     2.4947    10.4435   139.0649   -73.3594   -77.1972     7.8552     7.8396    10.5903   -41.4585    88.8203
 2193.5000     0.2912   -16.2142     0.0878     2.5045    10.4523   135.6900   -73.1185   -76.6164     8.0185     7.9484     9.9431   -41.0572    88.2942
 2194.0000     0.3003   -19.9849     0.1180     2.5188    10.4611   132.9231   -72.8776   -76.0356     8.0152     7.8913     9.6000   -40.6558    88.6732
 2194.5000     0.3049   -19.9849     0.1407     2.5271    10.4699   131.3719   -72.6367   -75.4548     8.0126     7.7805     9.4646   -40.1540    89.1281
 2195.0000     0.3099   -27.5264     0.1136     2.5324    10.4787   134.6840   -72.3958   -75.1706     8.1224     8.0545     9.5277   -39.7527    89.7346
 2195.5000     0.3144   -31.2971     0.0923     2.5384    10.4875   135.8606   -72.1547   -75.0296     8.4245     8.3968     9.5924   -39.3513    90.5012
 2196.0000     0.3021   -31.2971     0.1544     2.5317    10.4966   136.4371   -71.9129   -75.0399     9.0110     9.0012     9.7919   -38.9498    90.8719
 2196.5000     0.2892   -31.2971     0.2042     2.5009    10.4968   134.5741   -71.7757   -75.0503    10.0009    11.0156     9.9268   -38.5485    91.0235
 2197.0000     0.2746   -35.0679     0.1589     2.4747    10.4948   132.4151   -71.8793   -75.2059    11.5736    11.9737     9.7862   -38.1317    91.1751
 2197.5000     0.2708   -35.0679     0.1198     2.4687    10.4928   130.5600   -72.0946   -75.3615    11.5510    11.4012     9.3177   -37.6453    90.8719
 2198.0000     0.2675   -31.2971     0.0881     2.4795    10.4907   128.4009   -72.3122   -75.6643    10.6370    10.7058     8.7488   -37.2440    85.7165
 2198.5000     0.2609   -31.2971     0.0821     2.4890    10.4887   127.4498   -72.5292   -75.9692    10.1271    10.1232     8.3300   -40.7714    82.9113
 2199.0000     0.2569   -35.0679     0.1143     2.4875    10.4867   128.3303   -72.7460   -76.4193     9.8454     9.6387     8.6226   -40.2696    82.6080
 2199.5000     0.2528   -38.8386     0.1335     2.4777    10.4846   130.1226   -72.9629   -76.8695     9.5655     9.3067     9.9792   -43.6967    84.1243
 2200.0000     0.2540   -42.6094     0.1048     2.4638    10.4826   129.7872   -73.1797   -77.6141     9.3045     9.1123    11.9589   -45.4156    91.0235
 2200.5000     0.2574   -44.5905     0.0883     2.4598    10.4805   128.2561   -73.3965   -78.3540     9.2369     9.1052    13.0897   -43.2904    92.8431
 2201.0000     0.2625   -46.3801     0.0566     2.4718    10.4788   130.3695   -73.6134   -78.6513     9.2338     9.1087    12.9945   -40.6817    93.4496
 2201.5000     0.2745   -38.8386     0.0612     2.4808    10.4788   133.0936   -73.8302   -78.8013     9.3411     9.2545    12.4590   -40.1095    93.5254
 2202.0000     0.2781   -35.0679     0.0929     2.4899    10.4788   139.2104   -74.0471   -78.6568     8.8783     8.7341    11.6171   -39.6424    93.0705
 2202.5000     0.2739   -31.2971     0.0733     2.5005    10.4788   141.5815   -74.2639   -78.3658     8.2584     8.1254    10.9078   -39.1752    92.9947
 2203.0000     0.2705   -27.5264     0.0945     2.5094    10.4788   141.2632   -74.4808   -78.2206     7.7374     7.5049    10.0994   -38.7083    93.0705
 2203.5000     0.2691   -31.2971     0.0960     2.5162    10.4788   140.3400   -74.6976   -77.7822     7.1844     6.9161     9.4828   -38.1244    93.2980
