~VERSION INFORMATION
 VERS.                2.0:   CWLS LOG ASCII STANDARD - VERSION 2.0
 WRAP.                 NO:   ONE LINE PER DEPTH STEP
~WELL INFORMATION
#MNEM.UNIT      DATA TYPE    INFORMATION
#----------   ------------   ------------------------------
 STRT.F          190.0000:   START DEPTH
 STOP.F         3215.0000:   STOP DEPTH
 STEP.F            0.5000:   STEP LENGTH
 NULL.          -999.2500:   NO VALUE
 COMP.    FENIX & SCISSON:   COMPANY
 WELL.  FENIX "AX" #78-34:   WELL
 FLD . NAVAL PET. RES. NO. 3:   FIELD
 LOC .      S34 T39N R78W:   LOCATION
 CNTY.            NATRONA:   COUNTY
 STAT.            WYOMING:   STATE
 CTRY. UNITED STATES OF AMERICA:   COUNTRY
 SRVC.       SCHLUMBERGER:   SERVICE COMPANY
 DATE.        16-DEC-1980:   LOGDATE
 API .     49025108670000:   API NUMBER
~CURVE INFORMATION
#MNEM.UNIT       API CODE    CURVE DESCRIPTION
#----------   ------------   ------------------------------
 DEPT.F                  :   
 TEND.LBS    45 635 01 00:   TENSION FORM DENSITY LOG
 GRD .GAPI   45 310 01 00:   GAMMA RAY FROM DENSITY LOG
 CALD.IN     45 280 60 00:   CALIPER FROM DENSITY LOG
 CORR.G/C3   45 356 01 00:   DENSITY CORRECTION
 RHOB.G/C3   45 350 01 00:   BULK DENSITY
 SPR .MV     07 010 01 00:   SPONTANEOUS POTENTIAL
 TENR.LBS    07 635 01 00:   TENSION FROM RESISTIVITY
 ILD .OHMM   07 120 46 00:   DEEP INDUCTION RESISTIVITY
 ILM .OHMM   07 120 44 00:   INDUCTION LOG MEDIUM RESISTIVITY
 SFL .OHMM   07 220 01 00:   SHALLOW FOCUSED LOG RESISTIVITY
~PARAMETER INFORMATION
#MNEM.UNIT          VALUE    DESCRIPTION
#----------   ------------   ------------------------------
 EKB .F         5068.0000:   Kelly bushing
 EGL .F         5058.0000:   Ground level
 EDF .F            0.0000:   Drilling floor
 EPD .F            0.0000:   Permanent datum
 TD  .F         3202.0000:   Total depth
 CLNT.            A2DTECH:   Client Code
 SL  . 542' FSL & 693' FEL:   Surface Location
 PD  .                 GL:   Permanent Datum
 DAPD.F                10:   Feet Above Permanent Datum
 DATE.        16-DEC-1980:   Date Logged [DD-MMM-YYYY]
 DD  .F              3200:   Depth driller
 DL  .F              3202:   Depth logger
 BLI .F              3199:   Bottom log interval
 TLI .F               193:   Top log interval
 CS1 .IN            8.625:   Casing size
 CBD1.      8.625" @ 215':   Casing driller 1
 CBL1.F               193:   Casing logger 1
 BS1 .IN            7.875:   Bit size
 BSD1.F              3200:   Depth drilled with bit1
 DFT .               LSND:   Type fluid in hole
 DFD .                9.1:   Density
 DFV .                 35:   Viscosity
 DFPH.                  8:   pH
 DFL .                 16:   Fluid loss
 MSS .            MUD PIT:   Source of sample
 RMS .OHMM            2.9:   Rm
 MST .F                56:   Rm Meas. temp.
 RMF .OHMM            2.4:   Rmf
 MFST.F                56:   Rmf Meas. temp.
 MFSS.               MEAS:   Source Rmf.
 RMC .OHMM            2.7:   Rmc
 MCST.F                56:   Rmc Meas. temp.
 MCSS.               CALC:   Source Rmc.
 RMB .OHMM           1.35:   Rm. at BHT
 BHT .F               120:   BHT.
 TCS .HRS            2100:   Time Circ. stopped
 MRT .F               120:   Maximum recorded temp.
 LUN .               8161:   Logging unit number
 ENGI.             SITTON:   Recorded By
 WITN.              FIVAS:   Witnessed by
 ORIG.           5" PRINT:   Origin of data
 UWI .     49025108670000:   Unique Well ID
 DICO. A2D TECHNOLOGIES, INC.:   Digitizing Company
~OTHER INFORMATION
~A   DEPT     TEND         GRD      CALD       CORR       RHOB        SPR       TENR        ILD        ILM        SFL   
# ...
 2769.5000   753.0120    92.0634     8.3675     0.0131     2.5008   -34.4488   660.7962    15.8175    14.9695    18.3227
 2770.0000   753.0120    93.2556     8.3679     0.0116     2.4918   -34.4459   657.2426    16.2658    15.3826    18.7149
 2770.5000   753.0120    90.6016     8.3637     0.0108     2.4843   -34.5907   653.6889    16.7267    15.8191    19.1156
 2771.0000   753.0120    85.2850     8.3486     0.0140     2.4821   -34.5878   650.1353    17.3224    16.3807    20.6370
 2771.5000   753.0120    79.0807     8.3476     0.0258     2.4859   -34.4372   648.0558    17.8387    16.9622    24.3783
 2772.0000   753.0120    78.7914     8.3477     0.0337     2.4874   -34.4343   648.0558    18.3170    17.5644    27.0578
 2772.5000   753.0120    79.9858     8.3477     0.0392     2.4890   -34.4313   648.0534    18.4473    17.8148    27.0688
 2773.0000   753.0120    81.4738     8.3477     0.0275     2.4973   -34.4278   648.0558    18.1969    17.6982    23.7412
 2773.5000   753.0120    82.0743     8.3476     0.0205     2.5168   -34.2772   648.0558    18.0748    17.5823    19.8373
 2774.0000   753.0120    81.1955     8.3546     0.0222     2.5259   -34.1266   648.0558    17.7071    17.3466    18.6462
 2774.5000   753.0120    78.8374     8.3654     0.0246     2.5274   -33.9760   648.0558    17.4668    16.9967    19.0661
 2775.0000   753.0120    77.0710     8.3674     0.0199     2.5267   -33.6776   648.0558    17.1106    16.5390    19.5903
 2775.5000   753.0120    77.1115     8.3674     0.0153     2.5267   -33.6747   648.0558    16.5308    16.0847    19.4630
 2776.0000   753.0120    80.1423     8.3674     0.0185     2.5260   -34.1150   648.0558    15.9706    15.6432    18.6784
 2776.5000   753.0120    83.4527     8.3674     0.0216     2.5242   -34.2598   648.0519    15.5340    15.2398    17.6790
 2777.0000   753.0120    85.3901     8.3675     0.0200     2.5140   -34.5530   648.0558    15.0103    14.9322    17.2029
 2777.5000   753.0120    84.2176     8.3675     0.0100     2.4953   -34.6972   648.0134    14.6026    14.6308    17.2099
 2778.0000   753.0120    85.4076     8.3666    -0.0001     2.4878   -35.1374   652.9810    14.2059    14.1388    17.0981
 2778.5000   753.0120    87.4254     8.3514    -0.0016     2.4871   -35.1344   659.2092    13.8207    13.6633    17.1050
 2779.0000   753.0120    92.9020     8.3472    -0.0023     2.4894   -35.1315   665.4038    13.4453    13.2953    16.6433
 2779.5000   753.0120    97.2704     8.3476    -0.0022     2.4879   -35.1285   664.1276    13.1712    13.0259    15.7202
 2780.0000   753.0120    96.9833     8.3478    -0.0014     2.4804   -34.9773   657.4942    12.8134    13.0314    14.3054
 2780.5000   753.0120    95.5127     8.3477     0.0010     2.4767   -34.9744   650.8976    12.7268    13.2172    14.1130
 2781.0000   753.0120    91.9712     8.3477     0.0050     2.4835   -34.8237   652.3960    12.9976    13.4057    14.5167
 2781.5000   753.0120    85.1752     8.3477     0.0066     2.4872   -34.6731   660.1541    13.1819    13.6459    15.3499
 2782.0000   753.0120    82.2254     8.3477     0.0004     2.4880   -34.6702   667.9960    13.4618    13.8443    16.4572
 2782.5000   753.0120    82.5300     8.3477    -0.0012     2.4926   -34.5196   667.9960    13.5583    13.9885    17.8905
 2783.0000   753.0120    85.4974     8.3477     0.0028     2.5009   -34.5167   667.9960    13.7511    13.9932    18.1474
 2783.5000   753.0120    90.8316     8.3477     0.0084     2.5084   -34.5138   667.9960    13.8496    13.9980    17.6588
 2784.0000   753.0120    94.3906     8.3477     0.0131     2.5052   -34.6593   667.9960    13.9488    13.9051    16.0336
 2784.5000   753.0120    93.8042     8.3477     0.0065     2.4900   -34.6557   667.9960    13.8552    13.7189    14.9669
 2785.0000   753.0120    90.7982     8.3477     0.0007     2.4814   -34.9482   667.9960    13.4789    13.6291    15.8760
 2785.5000   753.0120    88.7602     8.3477    -0.0016     2.4800   -35.2408   667.9960    13.2959    13.4477    16.7359
 2786.0000   753.0120    88.5085     8.3477     0.0071     2.4815   -35.2320   662.1980    13.2060    13.2665    16.6255
 2786.5000   753.0120    89.1112     8.3477     0.0188     2.4958   -34.7755   654.5765    13.2094    12.9999    15.9569
 2787.0000   773.0923    89.7116     8.3477     0.0291     2.5214   -34.6143   648.8470    13.3040    12.8257    15.2080
 2787.5000   758.0321    90.3121     8.3477     0.0314     2.5274   -34.4899   654.8004    13.4926    12.8302    14.5950
 2788.0000   753.0120    90.9126     8.3477     0.0315     2.5297   -34.4869   660.6533    13.5893    13.1107    14.2993
 2788.5000   753.0120    90.6233     8.3477     0.0284     2.5320   -34.4840   666.5063    13.8785    13.3973    14.6069
 2789.0000   753.0120    90.0425     8.3477     0.0230     2.5365   -34.6296   672.1170    14.0752    13.6684    15.3386
 2789.5000   753.0120    88.5720     8.3477     0.0198     2.5471   -34.6260   677.6448    14.2747    13.8633    16.6773
 2790.0000   753.0120    86.5097     8.3477     0.0169     2.5569   -34.7715   683.1727    14.2776    14.1584    18.8182
 2790.5000   753.0120    84.7434     8.3478     0.0146     2.5624   -35.0640   687.4266    14.3799    14.3603    20.0916
 2791.0000   753.0120    85.9356     8.3478     0.0139     2.5464   -35.2088   683.7414    14.5837    14.5650    19.4442
 2791.5000   753.0120    87.1277     8.3594     0.0155     2.5269   -35.2052   680.0562    14.5867    14.6710    17.7774
 2792.0000   752.2616    87.7282     8.3837     0.0180     2.5179   -35.2023   676.3709    14.4887    14.4746    16.8245
 2792.5000   751.3625    88.0328     8.3870     0.0211     2.5118   -35.0517   672.6857    14.2921    14.3785    16.7151
 2793.0000   750.4635    88.6333     8.3871     0.0250     2.5081   -34.6320   669.0004    14.1962    14.0895    17.1933
 2793.5000   749.5645    89.2338     8.3870     0.0282     2.5052   -34.5054   667.9960    14.0035    13.7101    16.3864
 2794.0000   748.6653    89.5384     8.3870     0.0204     2.5053   -34.5025   667.9960    13.9096    13.5265    15.6174
 2794.5000   747.7663    88.9322     8.3870     0.0189     2.5053   -34.3516   667.9960    13.6266    13.4379    15.5158
 2795.0000   746.8672    88.0766     8.3870     0.0260     2.5053   -34.2008   672.3164    13.5345    13.4436    15.5223
 2795.5000   745.9681    88.0858     8.3870     0.0222     2.4994   -34.0500   680.6082    13.6322    13.5414    15.5287
 2796.0000   745.0691    88.3922     8.3806     0.0175     2.4911   -33.8992   687.9362    13.9216    13.7345    15.6443
 2796.5000   744.1700    88.6968     8.3696     0.0207     2.4889   -33.8963   687.9362    14.2172    13.9303    15.8689
 2797.0000   743.2710    89.2973     8.3674     0.0239     2.4927   -34.1894   687.9362    14.5191    14.2269    15.8754
 2797.5000   742.3719    86.0516     8.3604     0.0279     2.4957   -34.6301   687.9362    14.8273    14.4298    16.2152
 2798.0000   741.4728    74.8178     8.3482     0.0326     2.4837   -35.0710   687.9362    15.1421    14.8392    17.2650
 2798.5000   740.5738    68.6135     8.3477     0.0335     2.4642   -35.2160   687.9362    15.5713    15.4725    18.3828
 2799.0000   739.6747    65.6637     8.3477     0.0319     2.4425   -35.3611   687.9362    16.0127    16.0218    19.5729
 2799.5000   738.7756    65.0785     8.3474     0.0321     2.4380   -35.3574   687.9362    16.2403    16.5906    20.2707
 2800.0000   737.8766    65.9778     8.3477     0.0353     2.4350   -35.3545   687.9362    16.4705    16.8272    19.3199
 2800.5000   736.9775    68.6721     8.3261     0.0337     2.4433   -35.2037   687.9362    16.7040    17.3143    18.4119
 2801.0000   736.0784    70.1856     8.3279     0.0298     2.4501   -35.2008   687.9362    16.8236    17.6928    18.0392
 2801.5000   735.1794    71.6259     8.3282     0.0259     2.4727   -35.1979   687.9362    16.8271    18.0508    19.2061
 2802.0000   734.2803    71.9304     8.3281     0.0346     2.4855   -35.0471   687.9362    16.7142    18.0569    21.4722
 2802.5000   733.3813    72.2350     8.3281     0.0393     2.4863   -35.0442   687.9362    16.4864    17.6925    23.3317
