~VERSION INFORMATION
 VERS.                2.0:   CWLS LOG ASCII STANDARD - VERSION 2.0
 WRAP.                 NO:   ONE LINE PER DEPTH STEP
~WELL INFORMATION
#MNEM.UNIT      DATA TYPE    INFORMATION
#----------   ------------   ------------------------------
 STRT.F          590.0000:   START DEPTH
 STOP.F         3428.0000:   STOP DEPTH
 STEP.F            0.5000:   STEP LENGTH
 NULL.          -999.2500:   NO VALUE
 COMP.    FENIX & SCISSON:   COMPANY
 WELL. FENIX NPR 3 "AX" #25-27:   WELL
 FLD .                NPR:   FIELD
 LOC .      S27 T39N R78W:   LOCATION
 CNTY.            NATRONA:   COUNTY
 STAT.            WYOMING:   STATE
 CTRY. UNITED STATES OF AMERICA:   COUNTRY
 SRVC.       SCHLUMBERGER:   SERVICE COMPANY
 DATE.        13-AUG-1981:   LOGDATE
 API .     49025108780000:   API NUMBER
~CURVE INFORMATION
#MNEM.UNIT       API CODE    CURVE DESCRIPTION
#----------   ------------   ------------------------------
 DEPT.F                  :   
 CALD.IN     45 280 60 00:   CALIPER FROM DENSITY LOG
 GRD .GAPI   45 310 01 00:   GAMMA RAY FROM DENSITY LOG
 CORR.G/C3   45 356 01 00:   DENSITY CORRECTION
 RHOB.G/C3   45 350 01 00:   BULK DENSITY
 NPHI.DEC    42 890 03 00:   NEUTRON POROSITY SANDSTONE
 TENR.LBS    07 635 01 00:   TENSION
 SPR .MV     07 010 01 00:   SPONTANEOUS POTENTIAL
 ILD .OHMM   07 120 46 00:   INDUCTION LOG DEEP RESISTIVITY
 ILM .OHMM   07 120 44 00:   INDUCTION LOG MEDIUM RESISTIVITY
 SFL .OHMM   07 220 01 00:   SHALLOW FOCUSED LOG RESISTIVITY
 TEND.LBS    45 635 01 00:   TENSION FROM DENSITY LOG
~PARAMETER INFORMATION
#MNEM.UNIT          VALUE    DESCRIPTION
#----------   ------------   ------------------------------
 EKB .F         5057.0000:   Kelly bushing
 EGL .F         5047.0000:   Ground level
 EDF .F            0.0000:   Drilling floor
 TD  .F         3415.0000:   Total depth
 DATE.        13-AUG-1981:   Date logged
 CLNT.            A2DTECH:   Client Code
 SL  . 2100' FSL & 1050' FWL:   Surface Location
 PD  .                 GL:   Permanent Datum
 EPD .F              5047:   Elevation Permanent Datum
 LMF .                 KB:   Log Measured From
 DMF .                 KB:   Drilling Measured From
 DAPD.F                10:   Feet Above Permanent Datum
 DD  .F              3400:   Depth driller
 DL  .F              3415:   Depth logger
 BLI .F              3409:   Bottom log interval
 TLI .F               603:   Top log interval
 CS1 .IN            9.625:   Casing size
 CBD1.      9.625" @ 607':   Casing driller 1
 CBL1.F               603:   Casing logger 1
 BS1 .IN            7.875:   Bit size
 BSD1.F              3400:   Depth drilled with bit1
 DFT .                FGM:   Type fluid in hole
 DFD .                8.7:   Density
 DFV .                 36:   Viscosity
 DFPH.                  9:   pH
 DFL .                 13:   Fluid loss
 MSS .           MUD/TANK:   Source of sample
 RMS .OHMM           1.69:   Rm
 MST .F                75:   Rm Meas. temp.
 RMF .OHMM           1.34:   Rmf
 MFST.F                75:   Rmf Meas. temp.
 MFSS.               MEAS:   Source Rmf.
 RMB .OHMM           1.09:   Rm. at BHT
 BHT .F               120:   BHT.
 TCS .HRS            2145:   Time Circ. stopped
 TLAB.HRS            0200:   Time logger at bottom
 MRT .F               120:   Maximum recorded temp.
 LUN .               8039:   Logging unit number
 LUL .               CSPR:   Logging unit location
 ENGI.            PURPICH:   Recorded By
 WITN.              FIVAS:   Witnessed by
 ORIG.           5" PRINT:   Origin of data
 UWI .     49025108780000:   Unique Well ID
 DICO. A2D TECHNOLOGIES, INC.:   Digitizing Company
~OTHER INFORMATION
~A   DEPT     CALD         GRD      CORR       RHOB         NPHI     TENR        SPR        ILD        ILM        SFL       TEND   
# ...
 2084.5000     8.3980   151.6840     0.0080     2.4550     0.3240   856.8840   -79.4230     8.9130     7.9550    11.7410   903.0990
 2085.0000     8.3980   154.5380     0.0060     2.4630     0.3390   856.9880   -79.7180     8.9530     7.9070    11.2050   903.2130
 2085.5000     8.3980   157.3660     0.0080     2.4630     0.3570   857.0920   -79.7550     8.9940     7.8640    10.9490   903.3270
 2086.0000     8.3990   159.9390     0.0090     2.4590     0.3700   857.1950   -79.5570     9.0340     7.8200    11.0260   903.4410
 2086.5000     8.3990   159.9640     0.0090     2.4550     0.3660   857.2990   -79.5220     9.0750     7.7770    11.1700   903.5550
 2087.0000     8.3990   157.5260     0.0110     2.4520     0.3550   857.4030   -79.6240     9.1150     7.7400    11.3140   903.6690
 2087.5000     8.3990   156.0950     0.0110     2.4460     0.3510   857.5060   -79.7260     9.1560     7.8770    11.4590   903.7830
 2088.0000     8.3990   155.0980     0.0080     2.4390     0.3420   857.6100   -79.8290     9.1960     8.0600    11.6030   903.8970
 2088.5000     8.4000   152.2420     0.0050     2.4380     0.3330   857.7140   -79.9330     9.2060     8.2510    11.7480   904.0110
 2089.0000     8.4000   148.7070     0.0020     2.4420     0.3240   857.8170   -80.0480     9.0380     8.2510    11.8920   904.1250
 2089.5000     8.4000   145.4500     0.0020     2.4490     0.3170   857.9210   -79.7230     8.8190     7.9700    12.0360   904.2390
 2090.0000     8.4000   144.1090     0.0060     2.4540     0.3150   858.0240   -79.2930     8.5990     7.6810    12.1810   904.3530
 2090.5000     8.4010   142.7660     0.0100     2.4610     0.3200   858.1280   -78.8570     8.3800     7.3910    12.3250   904.4670
 2091.0000     8.4010   140.0260     0.0210     2.4710     0.3250   858.2320   -78.4260     8.1600     7.1020    12.4420   904.5810
 2091.5000     8.4010   133.2320     0.0340     2.4630     0.3310   858.3350   -78.0640     7.9800     6.8110    10.8590   904.6950
 2092.0000     8.4010   130.5670     0.0370     2.4440     0.3360   858.4390   -78.0750     7.8830     7.1520     8.6360   904.8090
 2092.5000     8.4020   136.3130     0.0140     2.4240     0.3310   858.5430   -78.0760     8.4580     7.5770     9.3020   904.9230
 2093.0000     8.4020   142.3740     0.0040     2.4220     0.3240   858.6460   -78.0750     8.9360     8.0030    10.9350   905.0370
 2093.5000     8.4020   145.2110     0.0090     2.4420     0.3160   858.7500   -78.0750     9.4140     8.4290    12.5690   905.1510
 2094.0000     8.4020   145.3210     0.0170     2.4590     0.3090   858.8540   -78.0730     9.8910     8.8540    13.8630   905.2650
 2094.5000     8.4020   144.1560     0.0220     2.4620     0.3060   858.9570   -78.0850    10.3690     9.2800    14.3360   905.3790
 2095.0000     8.4030   145.9150     0.0270     2.4650     0.3110   859.0610   -78.3550    10.8470     9.7060    14.8090   905.4930
 2095.5000     8.4030   150.5820     0.0290     2.4680     0.3180   859.1640   -78.6200    11.3250    10.1310    15.2820   905.6070
 2096.0000     8.4030   158.6670     0.0230     2.4700     0.3230   859.2680   -78.9290    11.7790    10.3840    15.7560   905.7210
 2096.5000     8.4030   166.3240     0.0160     2.4610     0.3240   859.3720   -79.2310    11.7970    10.4230    15.9800   905.8350
 2097.0000     8.4040   169.8430     0.0090     2.4480     0.3210   859.4750   -79.5360    11.8240    10.4610    16.0720   905.9490
 2097.5000     8.4040   168.6010     0.0030     2.4360     0.3190   859.5790   -79.8380    11.8510    10.1940    16.1640   906.0630
 2098.0000     8.4040   164.2360     0.0000     2.4280     0.3250   859.6830   -80.0630    11.8780     9.9440    16.2130   906.1770
 2098.5000     8.4040   156.9030     0.0030     2.4280     0.3300   859.7860   -80.0620    11.9570     9.8130    14.9400   906.2910
 2099.0000     8.4040   151.1330     0.0020     2.4320     0.3340   859.8900   -80.5200    12.0610    10.1510    13.6310   906.4050
 2099.5000     8.4050   145.5200     0.0040     2.4310     0.3360   859.9940   -81.0420    12.2170    10.4160    14.5750   906.5190
 2100.0000     8.4050   140.2950     0.0130     2.4300     0.3210   860.0970   -81.5660    12.1780    10.6530    15.9430   906.6330
 2100.5000     8.4050   139.2710     0.0190     2.4280     0.3090   860.2010   -82.1110    12.0990    10.5240    17.3110   906.7470
 2101.0000     8.4050   138.3100     0.0150     2.4280     0.3020   860.3040   -81.9780    12.0200    10.4060    18.4230   906.8610
 2101.5000     8.4060   137.3130     0.0120     2.4310     0.3000   860.4080   -81.6210    11.9420    10.2880    18.0470   906.9750
 2102.0000     8.4060   137.0620     0.0090     2.4390     0.3060   860.5120   -80.9830    11.8630    10.1700    17.6350   907.0890
 2102.5000     8.4060   137.4100     0.0110     2.4490     0.3140   860.6150   -80.0830    11.7790    10.0520    16.6730   907.2030
 2103.0000     8.4060   136.7490     0.0090     2.4500     0.3210   860.7190   -79.6040    11.6170     9.9340    15.2160   907.3170
 2103.5000     8.4070   134.3110     0.0070     2.4440     0.3190   860.8230   -79.2400    11.2110     9.4460    13.7580   907.4310
 2104.0000     8.4070   131.9150     0.0040     2.4350     0.3140   860.9260   -78.8810    10.8050     8.7950    13.1050   907.5450
 2104.5000     8.4070   131.0590     0.0050     2.4260     0.3080   861.0300   -78.8110    10.4240     8.8230    12.6760   907.6590
 2105.0000     8.4070   132.9480     0.0060     2.4260     0.3060   861.1340   -78.7540    10.2720     8.8520    11.6720   907.7730
 2105.5000     8.4070   136.7720     0.0080     2.4300     0.3130   861.2370   -78.6970    10.4420     8.7950    12.1370   907.8870
 2106.0000     8.4080   141.7780     0.0090     2.4300     0.3190   861.3410   -78.7360    10.5900     8.9960    12.6720   908.0010
 2106.5000     8.4080   146.3700     0.0100     2.4250     0.3240   861.4450   -78.9190    10.7370     9.2040    13.2760   908.1150
 2107.0000     8.4080   148.9150     0.0140     2.4200     0.3300   861.5480   -79.1010    10.8850     9.4120    13.8800   908.2290
 2107.5000     8.4080   150.4840     0.0200     2.4280     0.3250   861.6520   -79.2820    11.0320     9.6200    15.3610   908.3430
 2108.0000     8.4090   150.9420     0.0240     2.4430     0.3190   861.7550   -79.4630    11.1510     9.8280    17.6660   908.4570
 2108.5000     8.4090   145.7870     0.0240     2.4550     0.3120   861.8590   -79.6460    10.9280     9.9940    18.6370   908.5710
 2109.0000     8.4090   140.5840     0.0210     2.4660     0.3120   861.9630   -79.8390    10.7030     9.6450    17.4410   908.6850
 2109.5000     8.4090   136.4400     0.0260     2.4790     0.3140   862.0660   -79.5240    10.4790     9.2970    15.7500   908.7990
 2110.0000     8.4090   134.3130     0.0460     2.4900     0.3180   862.1700   -79.1170    10.2550     8.9490    14.0500   908.9130
 2110.5000     8.4100   132.1320     0.0550     2.4810     0.3250   862.2740   -78.9600    10.0300     8.6010    12.3500   909.0270
 2111.0000     8.4100   131.6990     0.0390     2.4650     0.3330   862.3770   -79.1700     9.7340     8.4030    10.6500   909.1410
 2111.5000     8.4100   132.9170     0.0200     2.4490     0.3410   862.4810   -79.3780     9.7710     8.5130    10.0860   909.2550
 2112.0000     8.4100   134.9470     0.0110     2.4390     0.3470   862.5850   -79.5920     9.8460     8.6030    11.4860   909.3690
 2112.5000     8.4110   134.0130     0.0080     2.4340     0.3440   862.6880   -79.5820     9.9200     8.6930    13.1540   909.4830
 2113.0000     8.4110   130.3020     0.0070     2.4330     0.3360   862.7920   -79.4580     9.9950     8.7820    14.5300   909.5970
 2113.5000     8.4110   126.6360     0.0070     2.4440     0.3280   862.8950   -79.2320    10.0690     8.8720    13.9270   909.7110
 2114.0000     8.4110   123.2660     0.0100     2.4610     0.3230   862.9990   -79.0090    10.1430     8.9620    13.3840   909.8250
 2114.5000     8.4120   121.7770     0.0120     2.4760     0.3300   863.1030   -78.7880    10.2180     9.0520    13.5310   909.9390
