~VERSION INFORMATION
 VERS.                2.0:   CWLS LOG ASCII STANDARD - VERSION 2.0
 WRAP.                 NO:   ONE LINE PER DEPTH STEP
~WELL INFORMATION
#MNEM.UNIT      DATA TYPE    INFORMATION
#----------   ------------   ------------------------------
 STRT.F            7.0000:   START DEPTH
 STOP.F         3304.0000:   STOP DEPTH
 STEP.F            0.5000:   STEP LENGTH
 NULL.          -999.2500:   NO VALUE
 COMP. LAWRENCE ALLISON ASSOC. WEST:   COMPANY
 WELL. LAWRENCE NPR  "X" #18-2:   WELL
 FLD .              N P R:   FIELD
 LOC .       S2 T38N R78W:   LOCATION
 CNTY.            NATRONA:   COUNTY
 STAT.            WYOMING:   STATE
 CTRY. UNITED STATES OF AMERICA:   COUNTRY
 SRVC.      DRESSER ATLAS:   SERVICE COMPANY
 DATE.        28-APR-1986:   LOGDATE
 API .     49025110710000:   API NUMBER
~CURVE INFORMATION
#MNEM.UNIT       API CODE    CURVE DESCRIPTION
#----------   ------------   ------------------------------
 DEPT.F                  :   
 TEND.LBS    45 635 01 00:   TENSION FROM DENSITY LOG
 DEN .G/C3   45 635 01 00:   DENSITY
 CORR.G/C3   45 356 01 00:   DENSITY CORRECTION
 CNC .DEC    42 890 03 00:   NEUTRON PORISITY SANDSTONE
 TENR.LBS    07 635 01 00:   TENSION FROM RESISTIVITY
 CALR.IN     07 280 01 00:   CALIPER FROM RESISTIVITY
 SPR .MV     07 010 01 00:   SPONTANEOUS POTENTIAL
 GRR .GAPI   07 310 01 00:   GAMMA RAY FROM RESISTIVITY
 RFOC.OHMM   07 220 04 00:   RESISTIVITY FOCUSED LOG RES.
 RILD.OHMM   07 120 46 00:   DEEP INDUCTION RESISTIVITY
 RILM.OHMM   07 120 44 00:   INDUCTION LOG MEDIUM RESISTIVITY
 TENS.LBS    60 635 01 00:   TENSION
 AC  .US/F   60 250 00 00:   ACCOUSTIC
~PARAMETER INFORMATION
#MNEM.UNIT          VALUE    DESCRIPTION
#----------   ------------   ------------------------------
 EKB .F         5142.0000:   Kelly bushing
 EGL .F         5130.0000:   Ground level
 EDF .F            0.0000:   Drilling floor
 EPD .F         5130.0000:   Permanent datum
 TD  .F         3296.0000:   Total depth
 DATE.        28-APR-1986:   Date logged
 CLNT.            A2DTECH:   Client Code
 SL  . 210' FSL & 204' FWL:   Surface Location
 PD  .                 GL:   Permanent Datum
 DD  .F              3295:   Depth driller
 DL  .F              3290:   Depth logger
 BLI .F              3296:   Bottom log interval
 CS1 .IN            8.625:   Casing size
 CBD1.      8.625" @ 563':   Casing driller 1
 CBL1.F               560:   Casing logger 1
 BS1 .IN            7.875:   Bit size
 BSD1.F              3295:   Depth drilled with bit1
 DFT .        POLYMER KCL:   Type fluid in hole
 DFD .                8.9:   Density
 DFV .                 38:   Viscosity
 DFPH.                8.5:   pH
 DFL .                9.2:   Fluid loss
 MSS .           FLOWLINE:   Source of sample
 RMS .OHMM           .435:   Rm
 MST .F                74:   Rm Meas. temp.
 RMF .OHMM            .33:   Rmf
 MFST.F                74:   Rmf Meas. temp.
 RMC .OHMM            .54:   Rmc
 MCST.F                74:   Rmc Meas. temp.
 MFSS.               CALC:   Source Rmf.
 MCSS.               CALC:   Source Rmc.
 RMB .OHMM            .77:   Rm. at BHT
 BHT .F               119:   BHT.
 TCS .HRS               4:   Time Circ. stopped
 MRT .F               119:   Maximum recorded temp.
 LUN .            HL 6264:   Logging unit number
 LUL .           GILLETTE:   Logging unit location
 ENGI.      P.M. FAHLSING:   Recorded By
 WITN.             STRONG:   Witnessed by
 ORIG.         2.5" PRINT:   Origin of data
 UWI .     49025110710000:   Unique Well ID
 DICO. A2D TECHNOLOGIES, INC.:   Digitizing Company
 DAPD.                 12:   Feet Above Permanent Datum
~OTHER INFORMATION
~A    DEPT    TEND        DEN       CORR        CNC       TENR       CALR        SPR         GRR      RFOC       RILD       RILM       TENS         AC   
# ...
 2009.0000  -999.2500  -999.2500  -999.2500  -999.2500   -76.7570    10.4720   -52.3290   122.6880    10.1600     8.2730     9.1280  -999.2500  -999.2500
 2009.5000  -999.2500  -999.2500  -999.2500  -999.2500   -69.1860    10.4570   -52.5910   123.6950    10.1600     8.4780     9.2830  -999.2500  -999.2500
 2010.0000  -999.2500  -999.2500  -999.2500  -999.2500   -69.6080    10.4430   -52.5510   121.2900    10.3760     8.6840     9.6250  -999.2500  -999.2500
 2010.5000  -999.2500  -999.2500  -999.2500  -999.2500   -90.7000    10.4300   -52.4980   118.5560    10.6940     8.8890     9.8000  -999.2500  -999.2500
 2011.0000  -999.2500  -999.2500  -999.2500  -999.2500  -111.7930    10.4290   -52.1100   117.0400    10.9220     9.1170     9.8000  -999.2500  -999.2500
 2011.5000  -999.2500  -999.2500  -999.2500  -999.2500  -114.5100    10.4290   -52.1570   117.0590    10.8050     9.0570     9.8000  -999.2500  -999.2500
 2012.0000  -999.2500  -999.2500  -999.2500  -999.2500   -98.1050    10.4290   -51.2810   119.2370    10.5660     8.9340     9.6800  -999.2500  -999.2500
 2012.5000  -999.2500  -999.2500  -999.2500  -999.2500   -83.3330    10.4290   -50.8180   119.6830    10.3270     8.8120     9.5690  -999.2500  -999.2500
 2013.0000  -999.2500  -999.2500  -999.2500  -999.2500   -83.3330    10.4290   -50.3650   118.5680    10.1600     8.6890     9.4590  -999.2500  -999.2500
 2013.5000  -999.2500  -999.2500  -999.2500  -999.2500   -83.3330    10.4290   -49.9340   117.7430    10.1270     8.5670     9.3490  -999.2500  -999.2500
 2014.0000  -999.2500  -999.2500  -999.2500  -999.2500   -83.3330    10.4290   -49.7920   118.0220    10.0620     8.4440     9.2380  -999.2500  -999.2500
 2014.5000  -999.2500  -999.2500  -999.2500  -999.2500   -83.3330    10.4300   -49.8030   118.5380     9.9970     8.3210     9.1280  -999.2500  -999.2500
 2015.0000  -999.2500  -999.2500  -999.2500  -999.2500   -83.3330    10.4210   -49.8080   116.4800     9.8000     8.1990     9.0180  -999.2500  -999.2500
 2015.5000  -999.2500  -999.2500  -999.2500  -999.2500   -83.3330    10.3920   -49.8860   116.2850     9.7350     8.0760     8.9070  -999.2500  -999.2500
 2016.0000  -999.2500  -999.2500  -999.2500  -999.2500   -83.3330    10.3650   -49.9800   119.9790     9.6100     7.9540     8.7970  -999.2500  -999.2500
 2016.5000  -999.2500  -999.2500  -999.2500  -999.2500   -83.3330    10.3370   -50.0740   124.6570     9.4520     7.8310     8.6870  -999.2500  -999.2500
 2017.0000  -999.2500  -999.2500  -999.2500  -999.2500  -101.8950    10.3090   -50.1660   126.4860     9.6250     7.7490     8.5770  -999.2500  -999.2500
 2017.5000  -999.2500  -999.2500  -999.2500  -999.2500  -118.3010    10.2810   -50.2590   120.3860     9.6930     7.7490     8.4820  -999.2500  -999.2500
 2018.0000  -999.2500  -999.2500  -999.2500  -999.2500  -104.3140    10.2540   -50.3520   114.1610     9.7670     7.7490     8.5570  -999.2500  -999.2500
 2018.5000  -999.2500  -999.2500  -999.2500  -999.2500   -83.3330    10.2260   -50.4440   113.1860     9.8000     7.7490     8.6230  -999.2500  -999.2500
 2019.0000  -999.2500  -999.2500  -999.2500  -999.2500   -83.3330    10.1980   -50.5380   116.7200     9.5540     7.7490     8.6880  -999.2500  -999.2500
 2019.5000  -999.2500  -999.2500  -999.2500  -999.2500   -83.3330    10.1700   -50.6320   115.2920     9.3400     7.7490     8.7540  -999.2500  -999.2500
 2020.0000  -999.2500  -999.2500  -999.2500  -999.2500   -83.3330    10.1420   -50.7190   115.2380     9.1170     7.7490     8.8200  -999.2500  -999.2500
 2020.5000  -999.2500  -999.2500  -999.2500  -999.2500   -83.3330    10.1150   -50.8230   117.0610     9.1170     7.7490     8.8860  -999.2500  -999.2500
 2021.0000  -999.2500  -999.2500  -999.2500  -999.2500   -83.3330    10.0860   -50.9040   118.5490     9.6680     7.7490     8.9540  -999.2500  -999.2500
 2021.5000  -999.2500  -999.2500  -999.2500  -999.2500   -83.3330    10.0680   -50.9460   120.0360     9.9790     7.7490     8.9540  -999.2500  -999.2500
 2022.0000  -999.2500  -999.2500  -999.2500  -999.2500   -83.3330    10.0570   -50.4650   115.8040     9.9790     7.7490     8.9540  -999.2500  -999.2500
 2022.5000  -999.2500  -999.2500  -999.2500  -999.2500   -83.3330    10.0470   -50.0550   114.9780    10.1600     7.7490     8.8150  -999.2500  -999.2500
 2023.0000  -999.2500  -999.2500  -999.2500  -999.2500   -83.3330    10.0360   -49.6110   113.9390    10.1600     7.7490     8.6720  -999.2500  -999.2500
 2023.5000  -999.2500  -999.2500  -999.2500  -999.2500   -83.3330    10.0360   -49.1760   113.2320    10.0860     7.7490     8.5300  -999.2500  -999.2500
 2024.0000  -999.2500  -999.2500  -999.2500  -999.2500   -83.3330    10.0350   -48.7560   116.1360    10.0100     7.7500     8.3880  -999.2500  -999.2500
 2024.5000  -999.2500  -999.2500  -999.2500  -999.2500   -83.3330    10.0360   -48.3240   122.6360     9.8000     7.7390     8.3300  -999.2500  -999.2500
 2025.0000  -999.2500  -999.2500  -999.2500  -999.2500   -78.4310    10.0350   -48.4160   124.1520     9.2180     7.7190     8.3300  -999.2500  -999.2500
 2025.5000  -999.2500  -999.2500  -999.2500  -999.2500   -74.3300    10.0350   -48.6870   124.9860     8.6360     7.6990     8.3300  -999.2500  -999.2500
 2026.0000  -999.2500  -999.2500  -999.2500  -999.2500   -70.2290    10.0360   -49.0200   126.4910     9.0930     7.6800     8.3550  -999.2500  -999.2500
 2026.5000  -999.2500  -999.2500  -999.2500  -999.2500   -66.1270    10.0320   -49.3460   128.8340     9.9790     7.6600     8.4160  -999.2500  -999.2500
 2027.0000  -999.2500  -999.2500  -999.2500  -999.2500   -63.7250    10.0170   -49.6760   130.7980    10.1600     7.6430     8.4780  -999.2500  -999.2500
 2027.5000  -999.2500  -999.2500  -999.2500  -999.2500   -65.5110    10.0020   -50.0080   135.2200    10.0670     7.6220     8.5390  -999.2500  -999.2500
 2028.0000  -999.2500  -999.2500  -999.2500  -999.2500   -67.2690     9.9870   -50.3410   141.0940     9.9170     7.6050     8.6000  -999.2500  -999.2500
 2028.5000  -999.2500  -999.2500  -999.2500  -999.2500   -69.0270     9.9720   -50.5870   141.1730     9.8000     7.6180     8.6620  -999.2500  -999.2500
 2029.0000  -999.2500  -999.2500  -999.2500  -999.2500   -70.7840     9.9570   -50.5910   138.8710     9.8000     7.6110     8.7230  -999.2500  -999.2500
 2029.5000  -999.2500  -999.2500  -999.2500  -999.2500   -72.5420     9.9420   -50.5910   135.3330     9.9430     7.7490     8.7840  -999.2500  -999.2500
 2030.0000  -999.2500  -999.2500  -999.2500  -999.2500   -74.3000     9.9270   -50.5780   135.5490    10.1600     7.8910     8.8460  -999.2500  -999.2500
 2030.5000  -999.2500  -999.2500  -999.2500  -999.2500   -76.0570     9.9120   -50.3720   135.9960    10.1600     8.0340     8.9070  -999.2500  -999.2500
 2031.0000  -999.2500  -999.2500  -999.2500  -999.2500   -77.8150     9.8970   -50.1700   136.7530    10.1600     8.1190     8.9680  -999.2500  -999.2500
 2031.5000  -999.2500  -999.2500  -999.2500  -999.2500   -79.5730     9.8830   -49.9580   135.2810    10.1600     8.2190     9.0300  -999.2500  -999.2500
 2032.0000  -999.2500  -999.2500  -999.2500  -999.2500   -81.3310     9.8670   -49.7500   132.7400    10.1600     8.3200     9.0910  -999.2500  -999.2500
 2032.5000  -999.2500  -999.2500  -999.2500  -999.2500   -83.3330     9.8530   -49.5420   131.0600    10.6110     8.4200     9.1520  -999.2500  -999.2500
 2033.0000  -999.2500  -999.2500  -999.2500  -999.2500   -83.3330     9.8390   -49.3360   129.8800    11.0150     8.5200     9.2140  -999.2500  -999.2500
 2033.5000  -999.2500  -999.2500  -999.2500  -999.2500   -83.3330     9.8410   -49.1160   128.1430    11.4180     8.6210     9.2830  -999.2500  -999.2500
 2034.0000  -999.2500  -999.2500  -999.2500  -999.2500   -83.3330     9.8460   -49.0060   126.0000    11.8220     8.7210     9.3750  -999.2500  -999.2500
 2034.5000  -999.2500  -999.2500  -999.2500  -999.2500   -83.3330     9.8500   -49.0180   123.8650    11.9540     8.9540     9.4520  -999.2500  -999.2500
