~VERSION INFORMATION
 VERS.                2.0:   CWLS LOG ASCII STANDARD - VERSION 2.0
 WRAP.                 NO:   ONE LINE PER DEPTH STEP
~WELL INFORMATION
#MNEM.UNIT      DATA TYPE    INFORMATION
#----------   ------------   ------------------------------
 STRT.F         3288.0000:   START DEPTH
 STOP.F         4421.0000:   STOP DEPTH
 STEP.F            0.5000:   STEP LENGTH
 NULL.          -999.2500:   NO VALUE
 COMP.       FLUOR DANIEL:   COMPANY
 WELL. FLUOR 22 "X" #2-10:   WELL
 FLD . TEA POT DOME NAVAL PETROLEUM DO:   FIELD
 LOC .      S10 T38N R78W:   LOCATION
 CNTY.            NATRONA:   COUNTY
 STAT.            WYOMING:   STATE
 CTRY. UNITED STATES OF AMERICA:   COUNTRY
 SRVC.        HALLIBURTON:   SERVICE COMPANY
 DATE.        13-DEC-1996:   LOGDATE
 API .     49025228330000:   API NUMBER
~CURVE INFORMATION
#MNEM.UNIT       API CODE    CURVE DESCRIPTION
#----------   ------------   ------------------------------
 DEPT.F                  :   
 NPHI.DEC    42 890 03 00:   NEUTRON POROSITY SANDSTONE
 GRD .GAPI   45 310 01 00:   GAMMA RAY FROM DENSITY LOG
 CALD.IN     45 280 60 00:   CALIPER FROM DENSITY LOG
 PE  .B/E    45 358 01 00:   PHOTOELECTRIC FACTOR
 CORR.G/C3   45 356 01 00:   DENSITY CORRECTION
 TEND.LBS    45 635 01 00:   TENSION FORM DENSITY LOG
 RHOB.G/C3   45 350 01 00:   BULK DENSITY
 TENR.LBS    07 635 01 00:   TENSION FROM RESISTIVITY
 ILD .OHMM   07 120 46 00:   DEEP INDUCTION RESISTIVITY
 ILM .OHMM   07 120 44 00:   INDUCTION LOG MEDIUM RESISTIVITY
 SFL .OHMM   07 220 01 00:   SHALLOW FOCUSED LOG RESISTIVITY
~PARAMETER INFORMATION
#MNEM.UNIT          VALUE    DESCRIPTION
#----------   ------------   ------------------------------
 EKB .F         5268.0000:   Kelly bushing
 EGL .F         5258.0000:   Ground level
 EDF .F         5267.0000:   Drilling floor
 TD  .F         4435.0000:   Total depth
 CLNT.            A2DTECH:   Client Code
 SL  . 569' FNL & 1440' FWL:   Surface Location
 PD  .                 GL:   Permanent Datum
 EPD .F              5258:   Elevation Permanent Datum
 LMF .                 KB:   Log Measured From
 DMF .                 KB:   Drilling Measured From
 DAPD.F                10:   Feet Above Permanent Datum
 DATE.        13-DEC-1996:   Date Logged [DD-MMM-YYYY]
 DD  .F              4435:   Depth driller
 DL  .F              4412:   Depth logger
 BLI .F              4403:   Bottom log interval
 TLI .F              3308:   Top log interval
 CS1 .IN            9.625:   Casing size
 CBD1.     9.625" @ 3307':   Casing driller 1
 CBL1.F              3308:   Casing logger 1
 BS1 .IN              8.5:   Bit size
 BSD1.F              4435:   Depth drilled with bit1
 DFT .           POLY-KCL:   Type fluid in hole
 DFD .                  9:   Density
 DFV .                 50:   Viscosity
 DFPH.                  9:   pH
 DFL .                  7:   Fluid loss
 MSS .           MUD TANK:   Source of sample
 RMS .OHMM           0.47:   Rm
 MST .F                56:   Rm Meas. temp.
 RMF .OHMM           0.36:   Rmf
 MFST.F                61:   Rmf Meas. temp.
 MFSS.               MEAS:   Source Rmf.
 RMC .OHMM           0.48:   Rmc
 MCST.F                68:   Rmc Meas. temp.
 MCSS.               MEAS:   Source Rmc.
 RMB .OHMM           0.20:   Rm. at BHT
 BHT .F               138:   BHT.
 TCS .HRS              20:   Time Circ. stopped
 TLAB.HRS            0108:   Time logger at bottom
 MRT .F               138:   Maximum recorded temp.
 LUN .              52546:   Logging unit number
 LUL .              VERNI:   Logging unit location
 ENGI.        JOHN SAVAGE:   Recorded By
 WITN.          STEBBINGS:   Witnessed by
 ORIG.         2.5" PRINT:   Origin of data
 UWI .     49025228330000:   Unique Well ID
 DICO. A2D TECHNOLOGIES, INC.:   Digitizing Company
~OTHER INFORMATION
~A  DEPT        NPHI       GRD      CALD         PE       CORR       TEND       RHOB       TENR        ILD        ILM        SFL   
# ...
 4355.5000     0.2841   115.5194     8.9823     2.7693     0.0589  3350.1658     2.4857  3284.8030     3.1257     3.1211     3.7279
 4356.0000     0.2877   114.2593     8.9819     2.8088     0.0620  3344.1880     2.4873  3257.2974     3.1666     3.1324     3.7258
 4356.5000     0.2899   113.1684     8.9814     2.8307     0.0603  3280.8787     2.4881  3229.7385     3.1647     3.1591     3.7746
 4357.0000     0.2902   112.1266     8.9811     2.8311     0.0537  3198.2388     2.4866  3409.9143     3.2056     3.1570     3.7722
 4357.5000     0.2878   110.7440     8.9807     2.8316     0.0480  3385.4917     2.4836  3495.4761     3.2040     3.1977     3.7195
 4358.0000     0.2823   109.8234     9.0105     2.8321     0.0469  3606.2688     2.4806  3450.3174     3.2460     3.2388     3.6680
 4358.5000     0.2787   109.5272     9.0102     2.8325     0.0499  3529.5510     2.4791  3340.8320     3.2884     3.2808     3.6171
 4359.0000     0.2775   108.9193     9.0098     2.8632     0.0492  3438.6270     2.4806  3280.6433     3.3315     3.3232     3.6153
 4359.5000     0.2781   108.9157     9.0094     2.8636     0.0445  3377.9138     2.4868  3269.3882     3.3897     3.4161     3.7320
 4360.0000     0.2793   108.9121     9.0091     2.8943     0.0470  3347.4126     2.4932  3271.3018     3.4873     3.4749     3.8281
 4360.5000     0.2812   108.3042     9.0087     2.9253     0.0470  3316.9114     2.4958  3272.9487     3.5105     3.5485     3.9374
 4361.0000     0.2831   108.3006     9.0083     2.9584     0.0470  3286.4048     2.4943  3245.4429     3.4149     3.4615     4.0172
 4361.5000     0.2857   108.2968     9.0079     2.9915     0.0440  3286.1028     2.4928  3217.9353     3.3222     3.4087     4.0147
 4362.0000     0.2887   108.2024     9.0076     3.0246     0.0440  3285.8008     2.4913  3341.4026     3.3205     3.2757     3.9062
 4362.5000     0.2903   107.6850     9.0072     3.0778     0.0457  3315.6555     2.4921  3425.6560     3.3640     3.4094     3.6998
 4363.0000     0.2900   107.8676     9.0067     3.1084     0.0489  3466.4231     2.4959  3427.4053     3.3761     3.3620     3.5329
 4363.5000     0.2879   108.2824     9.0064     2.9884     0.0521  3526.5564     2.5019  3429.4316     3.4731     3.4629     3.4094
 4364.0000     0.2860   108.2779     9.0060     2.9583     0.0563  3465.8438     2.5080  3431.0789     3.5926     3.6800     3.7167
 4364.5000     0.2886   108.8784     8.9754     2.9286     0.0578  3435.3425     2.5140  3432.7275     3.6894     3.8624     4.3159
 4365.0000     0.2909   108.8739     8.9751     2.9291     0.0594  3404.8337     2.5231  3405.2200     3.7883     3.9450     4.7635
 4365.5000     0.2903   108.8703     8.9747     2.9597     0.0594  3400.4705     2.5323  3377.7141     3.8378     3.8375     5.0242
 4366.0000     0.2891   108.8667     8.9743     2.9601     0.0594  3367.3726     2.5382  3371.4260     3.6482     3.6338     5.2284
 4366.5000     0.2885   108.8630     8.9680     2.9908     0.0594  3304.0635     2.5331  3264.3901     3.2792     3.2601     4.8038
 4367.0000     0.2885   109.4636     8.9434     3.0215     0.0610  3366.8301     2.5284  3398.4543     3.1533     3.1290     4.4095
 4367.5000     0.2885   109.4600     8.9733     3.0562     0.0610  3567.1790     2.5277  3501.7454     3.1514     3.0855     4.0617
 4368.0000     0.2885   109.4562     8.9728     3.0957     0.0565  3610.8711     2.5321  3415.9304     3.2988     3.1739     3.8332
 4368.5000     0.2885   109.4524     8.9724     3.2219     0.0395  3432.8792     2.5392  3388.4229     3.7739     3.5490     3.7759
 4369.0000     0.2885   109.4486     8.9418     3.3367     0.0382  3402.3777     2.5580  3477.5352     4.6190     4.4955     3.8768
 4369.5000     0.2885   109.4449     8.9414     3.3863     0.0421  3522.9338     2.5701  3387.6628     6.5880     6.3834     4.8049
 4370.0000     0.2887   109.4411     8.8806     3.3263     0.0454  3492.4324     2.5520  3335.0564    10.5167     7.0129    11.0538
 4370.5000     0.2897   109.4373     8.8198     3.2060     0.0517  3371.2969     2.5187  3307.5508     7.3242     5.8902     6.4963
 4371.0000     0.2903   108.8293     8.7893     3.0554     0.0581  3373.0891     2.4916  3309.6213     3.8668     3.9949     4.7941
 4371.5000     0.2903   108.8249     8.7889     2.9349     0.0627  3435.7942     2.4749  3369.9788     3.3264     3.2124     3.8369
 4372.0000     0.2903   108.8213     8.8187     2.8447     0.0627  3400.6040     2.4689  3378.3853     2.9887     3.0300     3.4192
 4372.5000     0.2903   108.8176     8.7881     2.8452     0.0628  3410.0854  -999.2500  3314.9656     3.0689     2.9071     3.2867
 4373.0000     0.2903   108.8140     8.7946     2.8456     0.0613  3430.2710  -999.2500  3287.4580     3.0490     2.9056     3.2850
 4373.5000     0.2903   108.8104     8.8177     2.8461     0.0628  3354.5344  -999.2500  3259.9504     2.9434     2.9041     3.3279
 4374.0000     0.2904   108.8066     8.7870     2.8465     0.0628  3291.2253  -999.2500  3232.4446     2.9419     2.9027     3.5705
 4374.5000     0.2904   108.8029     8.7866     2.8470     0.0629  3278.1995  -999.2500  3292.7117     2.9404     2.9406     3.9170
 4375.0000     0.2904   108.7991     8.7863     2.8474     0.0631  3270.3774  -999.2500  3323.6157     2.9389     2.9389     3.9575
 4375.5000     0.2904   108.7953     8.8160     2.8479     0.0648  3398.4653  -999.2500  3336.3130     2.9829     2.8979     3.9836
 4376.0000     0.2904   108.7915     8.8157     2.8483     0.0660  3367.9641  -999.2500  3297.9600     3.0573     2.7811     3.8476
 4376.5000     0.2912   108.7878     8.8153     2.8488     0.0654  3276.8547  -999.2500  3295.8972     2.9341     2.7424     3.7436
 4377.0000     0.2918   108.7840     8.8149     2.8493     0.0645  3246.5388  -999.2500  3301.6387     2.9549     2.9325     3.5938
 4377.5000     0.2914   108.7795     8.8146     2.8498     0.0636  3347.4412  -999.2500  3215.6475     3.0934     3.1358     3.4500
 4378.0000     0.2910   108.7759     8.8142     2.8502     0.0630  3366.8049  -999.2500  3282.8181     3.0919     3.0364     3.3566
 4378.5000     0.2910   108.7722     8.7836     2.8506     0.0630  3245.6194  -999.2500  3365.0146     2.9278     2.8764     3.3548
 4379.0000     0.2910   108.7686     8.7832     2.8511     0.0646  3344.6890  -999.2500  3309.1814     2.9757     2.9227     3.3530
 4379.5000     0.2913   108.7650     8.7829     2.8515     0.0646  3425.4243  -999.2500  3193.9080     3.0979     3.0867     3.3512
 4380.0000     0.2918   108.7613     8.7926     2.8520     0.0631  3274.8665  -999.2500  3428.7910     3.1701     3.1271     3.4404
 4380.5000     0.2920  -999.2500  -999.2500  -999.2500  -999.2500  3395.4226  -999.2500  3313.8201     3.2111     3.1680     3.5324
 4381.0000     0.2920  -999.2500  -999.2500  -999.2500  -999.2500  3364.9214  -999.2500  3198.8506     3.2528     3.1664     3.5784
 4381.5000     0.2930  -999.2500  -999.2500  -999.2500  -999.2500  3213.5742  -999.2500  3224.7776     3.2511     3.1222     3.6251
 4382.0000  -999.2500  -999.2500  -999.2500  -999.2500  -999.2500  3394.5532  -999.2500  3435.5686     3.2495     3.1755     3.5747
 4382.5000  -999.2500  -999.2500  -999.2500  -999.2500  -999.2500  3454.6863  -999.2500  3368.7869     3.2964     3.3113     3.5250
 4383.0000  -999.2500  -999.2500  -999.2500  -999.2500  -999.2500  3360.4233  -999.2500  3294.8042     3.3351     3.2898     3.5231
 4383.5000  -999.2500  -999.2500  -999.2500  -999.2500  -999.2500  3272.8098  -999.2500  3207.9124     3.2716     3.2440     3.4739
 4384.0000  -999.2500  -999.2500  -999.2500  -999.2500  -999.2500  3280.9988  -999.2500  3180.4048     3.2199     3.1560     3.3800
 4384.5000  -999.2500  -999.2500  -999.2500  -999.2500  -999.2500  3302.4700  -999.2500  3177.3267     2.9883     2.9484     3.3331
 4385.0000  -999.2500  -999.2500  -999.2500  -999.2500  -999.2500  3332.3262  -999.2500  3212.8550     2.9072     2.9021     3.2870
 4385.5000  -999.2500  -999.2500  -999.2500  -999.2500  -999.2500  3332.0239  -999.2500  3304.6416     2.9057     2.8357     3.1923
