~VERSION INFORMATION
 VERS.                2.0:   CWLS LOG ASCII STANDARD - VERSION 2.0
 WRAP.                 NO:   ONE LINE PER DEPTH STEP
~WELL INFORMATION
#MNEM.UNIT      DATA TYPE    INFORMATION
#----------   ------------   ------------------------------
 STRT.F          742.0000:   START DEPTH
 STOP.F         3406.0000:   STOP DEPTH
 STEP.F            0.5000:   STEP LENGTH
 NULL.          -999.2500:   NO VALUE
 COMP. FENIX & SCISSON - US NAVY:   COMPANY
 WELL.   FENIX "AX" #85-4:   WELL
 FLD .      NPR - WILDCAT:   FIELD
 LOC .       S4 T38N R78W:   LOCATION
 CNTY.            NATRONA:   COUNTY
 STAT.            WYOMING:   STATE
 CTRY. UNITED STATES OF AMERICA:   COUNTRY
 SRVC.              WELEX:   SERVICE COMPANY
 DATE.        03-MAY-1977:   LOGDATE
 API .     49025103520000:   API NUMBER
~CURVE INFORMATION
#MNEM.UNIT       API CODE    CURVE DESCRIPTION
#----------   ------------   ------------------------------
 DEPT.F                  :   
 SNP .DEC    41 890 00 00:   SIDEWALL NEUTRON POROSITY
 GR  .GAPI   30 310 01 00:   GAMMA RAY
 SPR .MV     07 010 01 00:   SPONTANEOUS POTENTIAL
 RXO .OHMM   11 220 01 00:   FLUSHED ZONE RESISTIVITY
 GURD.OHMM   07 220 05 00:   GUARD LOG RESISTIVITY
 CALD.IN     45 280 60 00:   CALIPER FROM DENSITY LOG
 RHOB.G/C3   45 350 01 00:   BULK DENSITY
 GRD .GAPI   45 310 01 00:   GAMMA RAY FROM DENSITY LOG
 CORR.G/C3   45 356 01 00:   DENSITY CORRECTION
~PARAMETER INFORMATION
#MNEM.UNIT          VALUE    DESCRIPTION
#----------   ------------   ------------------------------
 EKB .F         5254.0000:   Kelly bushing
 EGL .F         5240.0000:   Ground level
 EDF .F            0.0000:   Drilling floor
 TD  .F         3467.0000:   Total depth
 DATE.        03-MAY-1977:   Date logged
 CLNT.            A2DTECH:   Client Code
 SL  . 2200' FSL & 100' FEL:   Surface Location
 PD  .                 GL:   Permanent Datum
 EPD .F              5240:   Elevation Permanent Datum
 LMF .                 KB:   Log Measured From
 DMF .                 KB:   Drilling Measured From
 DAPD.F                14:   Feet Above Permanent Datum
 DD  .F              3647:   Depth driller
 DL  .F              3404:   Depth logger
 BLI .F              3402:   Bottom log interval
 TLI .F               720:   Top log interval
 CS1 .IN            8.625:   Casing size
 CBD1.      8.625" @ 720':   Casing driller 1
 CBL1.F               760:   Casing logger 1
 BS1 .IN            7.875:   Bit size
 BSD1.F              3467:   Depth drilled with bit1
 DFT .            KCL/MUD:   Type fluid in hole
 DFD .                9.1:   Density
 DFV .                 36:   Viscosity
 DFPH.                  8:   pH
 DFL .                  5:   Fluid loss
 MSS .           FLOWLINE:   Source of sample
 RMS .OHMM            .30:   Rm
 MST .F                66:   Rm Meas. temp.
 RMF .OHMM            .21:   Rmf
 MFST.F                66:   Rmf Meas. temp.
 RMC .OHMM            .49:   Rmc
 MCST.F                66:   Rmc Meas. temp.
 MFSS.               FANN:   Source Rmf.
 MCSS.                KIT:   Source Rmc.
 RMB .OHMM            .18:   Rm. at BHT
 BHT .F               107:   BHT.
 TCS .HRS             2.5:   Time Circ. stopped
 MRT .F               107:   Maximum recorded temp.
 LUN .               8611:   Logging unit number
 LUL .             CASPER:   Logging unit location
 ENGI.            C. DOAK:   Recorded By
 WITN.      B. HARRINGTON:   Witnessed by
 ORIG.     2.5", 5" PRINT:   Origin of data
 UWI .     49025103520000:   Unique Well ID
 DICO. A2D TECHNOLOGIES, INC.:   Digitizing Company
~OTHER INFORMATION
~A   DEPT        SNP       GR        SPR        RXO       GURD         CALD       RHOB       GRD       CORR  
# ...
 1435.5000     0.1990   100.3690   -26.2980     4.5920     6.8220     9.0800     2.5230    91.3450     0.0490
 1436.0000     0.1930   101.5470   -26.3740     4.0430     6.7240     9.1080     2.5210    91.2330     0.0490
 1436.5000     0.1860    99.8980   -26.4490     5.1110     6.9740     9.1360     2.5240    91.1070     0.0490
 1437.0000     0.1900   100.1240   -26.5240     5.5060     7.2310     9.1680     2.5270    90.9730     0.0490
 1437.5000     0.1980   103.6330   -26.6010     5.9260     7.0690     9.1550     2.5300    90.8060     0.0490
 1438.0000     0.1940   105.7120   -26.6740     6.3480     6.9890     9.1240     2.5340    91.1450     0.0490
 1438.5000     0.1880   106.5210   -26.7520     6.8480     7.1210     9.0930     2.5420    92.5740     0.0450
 1439.0000     0.1900   110.8740   -26.7570     6.6050     7.8080     9.0650     2.5460    93.9310     0.0370
 1439.5000     0.1930   115.1200   -26.7590     6.1410     8.1680     9.0330     2.5420    95.3010     0.0300
 1440.0000     0.1900   116.0250   -26.7500     6.6290     7.9780     9.0040     2.5380    96.8090     0.0220
 1440.5000     0.1830   112.0550   -26.7430     8.3620     7.7880     8.9690     2.5420    97.1470     0.0240
 1441.0000     0.1790   112.6860   -26.7350     8.2780     7.5980     8.9770     2.5470    96.2340     0.0270
 1441.5000     0.1770   114.3890   -26.7270     8.0920     7.4080     8.9800     2.5500    95.4690     0.0290
 1442.0000     0.1820   115.8300   -26.7200     7.9190     7.2310     8.9850     2.5460    94.6770     0.0280
 1442.5000     0.1800   113.8460   -26.7120     7.9190     7.3640     8.9890     2.5430    93.8620     0.0260
 1443.0000     0.1770   112.3970   -26.7040     7.9780     7.5150     8.9940     2.5430    93.0950     0.0250
 1443.5000     0.1870   112.8770   -26.6960     8.0640     7.6360     8.9980     2.5500    92.3180     0.0280
 1444.0000     0.1990   111.6100   -26.6890     7.8660     6.7690     9.0030     2.5570    92.8270     0.0350
 1444.5000     0.1930   108.9370   -26.6810     7.6460     6.3590     9.0070     2.5630    93.7210     0.0410
 1445.0000     0.1860   108.2200   -26.6730     7.4250     6.1820     9.0120     2.5580    94.6920     0.0480
 1445.5000     0.1790   110.1040   -26.6650     7.3640     6.0050     9.0170     2.5530    94.5980     0.0460
 1446.0000     0.1820   109.3060   -26.6580     7.2310     5.9210     9.0210     2.5460    93.2750     0.0410
 1446.5000     0.1930   112.9520   -26.6500     7.1010     6.4030     9.0260     2.5480    92.0180     0.0500
 1447.0000     0.1980   116.5170   -26.6420     7.1010     6.8280     9.0300     2.5580    90.8120     0.0630
 1447.5000     0.1980   116.8800   -26.6340     7.7850     7.2310     9.0350     2.5680    89.6910     0.0680
 1448.0000     0.2000   115.8040   -26.6260     8.3790     6.9880     9.0390     2.5670    90.5950     0.0690
 1448.5000     0.2200   114.1070   -26.6190     7.6850     6.5550     9.0440     2.5570    91.5120     0.0650
 1449.0000     0.2180   111.1940   -26.6110     7.2310     6.1230     9.0490     2.5540    92.5650     0.0640
 1449.5000     0.2090   110.2370   -26.6030     7.3640     6.2970     9.0510     2.5570    93.4670     0.0650
 1450.0000     0.2000   109.7550   -26.5950     9.1580     6.6990     9.0510     2.5590    94.5810     0.0610
 1450.5000     0.1870   106.7070   -26.5880     8.8530     7.1010     9.0510     2.5560    94.2390     0.0540
 1451.0000     0.1910   103.7790   -26.5800     8.0930     6.9600     9.0510     2.5500    93.6900     0.0480
 1451.5000     0.1960   103.3820   -26.5720     7.4990     6.8190     9.0510     2.5420    93.1260     0.0410
 1452.0000     0.1980   104.2280   -26.5640     7.4310     6.6780     9.0510     2.5350    92.5520     0.0350
 1452.5000     0.1930   106.1880   -26.5570     7.2130     6.5370     9.0510     2.5290    92.0160     0.0280
 1453.0000     0.1890   108.1240   -26.5490     7.1660     6.3680     9.0510     2.5260    91.6580     0.0250
 1453.5000     0.1890   109.8290   -26.5410     7.1200     6.3680     9.0510     2.5230    93.0030     0.0250
 1454.0000     0.1930   108.7690   -26.5330     7.1010     6.3680     9.0510     2.5230    94.1950     0.0250
 1454.5000     0.1970   106.3920   -26.5260     7.3640     6.6610     9.0510     2.5320    95.4440     0.0250
 1455.0000     0.2010   108.3230   -26.5180     7.8630     7.1010     9.0540     2.5390    96.6890     0.0250
 1455.5000     0.2020   109.0440   -26.5100     8.3620     7.2310     9.0590     2.5390    96.5170     0.0250
 1456.0000     0.2080   105.3010   -26.5020     8.0640     6.9040     9.0640     2.5380    95.6880     0.0250
 1456.5000     0.2050   101.7490   -26.4950     8.4850     6.5760     9.0690     2.5380    94.8960     0.0240
 1457.0000     0.2170    99.5230   -26.4870     9.3250     6.2490     9.0750     2.5410    94.1190     0.0200
 1457.5000     0.2060    99.4890   -26.4790     9.1580     5.9210     9.0790     2.5440    93.3230     0.0180
 1458.0000     0.1980    97.9360   -26.4710     8.3620     5.9760     9.0850     2.5490    92.5420     0.0170
 1458.5000     0.2040    95.2300   -26.4630     4.6760     6.1410     9.0920     2.5560    91.7460     0.0180
 1459.0000     0.1960    96.7630   -26.4560     4.8050     6.4190     9.1490     2.5630    90.9680     0.0180
 1459.5000     0.1870    98.7980   -26.4480     5.5060     6.6970     9.2190     2.5630    90.1730     0.0190
 1460.0000     0.1800    98.7580   -26.4400     2.9690     6.9750     9.2840     2.5550    89.3590     0.0200
 1460.5000     0.1830    97.1880   -26.4320     1.2870     7.2530     9.3620     2.5480    89.1290     0.0200
 1461.0000     0.1820    96.0360   -26.4250     1.7220     7.3640     9.3430     2.5410    90.6410     0.0210
 1461.5000     0.1790    95.0720   -26.4170     1.1970     7.1330     9.2790     2.5340    92.0120     0.0220
 1462.0000     0.1770    95.1950   -26.4090     5.2890     6.8890     9.2430     2.5270    93.3430     0.0220
 1462.5000     0.1850    96.6340   -26.4010     8.2120     6.6440     9.2740     2.5220    91.9890     0.0230
 1463.0000     0.1940    99.4190   -26.3940     8.0560     6.4000     9.3240     2.5280    90.6140     0.0240
 1463.5000     0.1980   102.0970   -26.3860     7.9010     6.2530     9.3340     2.5340    89.0570     0.0240
 1464.0000     0.2060   104.7720   -26.3780     7.7760     6.2530     9.3680     2.5340    87.6350     0.0270
 1464.5000     0.2180   104.2780   -26.3700     7.9190     6.3770     9.3290     2.5310    86.6080     0.0360
 1465.0000     0.2140   104.9690   -26.3670     8.0570     6.6850     9.2950     2.5340    88.3810     0.0440
 1465.5000     0.2080   104.5220   -26.3670     8.1960     6.9940     9.2500     2.5380    89.8710     0.0520
 1466.0000     0.2040   101.6070   -26.3670     8.3620     7.3640     9.2030     2.5420    91.7160     0.0610
 1466.5000     0.2090    98.2780   -26.3670     8.2180     7.2250     9.2190     2.5450    91.6790     0.0690
 1467.0000     0.2190    94.9590   -26.3670     7.8590     6.8780     9.2360     2.5490    90.1710     0.0780
 1467.5000     0.2290    92.4880   -26.3670     7.4990     6.5310     9.2530     2.5470    88.7840     0.0860
 1468.0000     0.2330    94.3820   -26.3670     7.6360     6.2530     9.2720     2.5440    89.3230     0.0940
 1468.5000     0.2240    96.8290   -26.3670     7.8520     6.7420     9.2880     2.5460    90.7340     0.1030
 1469.0000     0.2190    98.6460   -26.3670     8.0320     7.2310     9.2710     2.5470    92.0910     0.1110
 1469.5000     0.2180    99.5820   -26.3670     8.2120     7.1110     9.2280     2.5490    93.4890     0.1190
 1470.0000     0.2150    99.7090   -26.3670     8.3620     6.8110     9.1620     2.5360    93.5730     0.1230
 1470.5000     0.2100    99.3250   -26.3670     8.1110     6.5110     9.1080     2.5210    92.2700     0.1240
 1471.0000     0.2280    98.9410   -26.3670     7.9020     6.2100     8.7910     2.5110    91.0330     0.1160
 1471.5000     0.2380    99.9190   -26.3670     7.7760     6.0300     8.5130     2.5080    89.7780     0.1080
