~VERSION INFORMATION
 VERS.                2.0:   CWLS LOG ASCII STANDARD - VERSION 2.0
 WRAP.                 NO:   ONE LINE PER DEPTH STEP
~WELL INFORMATION
#MNEM.UNIT      DATA TYPE    INFORMATION
#----------   ------------   ------------------------------
 STRT.F          500.0000:   START DEPTH
 STOP.F         4646.0000:   STOP DEPTH
 STEP.F            0.5000:   STEP LENGTH
 NULL.          -999.2500:   NO VALUE
 COMP.    FENIX & SCISSON:   COMPANY
 WELL. LAWRENCE NPR 3 "X" #34-10:   WELL
 FLD .                NPR:   FIELD
 LOC .      S10 T38N R78W:   LOCATION
 CNTY.            NATRONA:   COUNTY
 STAT.            WYOMING:   STATE
 CTRY. UNITED STATES OF AMERICA:   COUNTRY
 SRVC.              WELEX:   SERVICE COMPANY
 DATE.        12-OCT-1979:   LOGDATE
 API .     49025109290000:   API NUMBER
~CURVE INFORMATION
#MNEM.UNIT       API CODE    CURVE DESCRIPTION
#----------   ------------   ------------------------------
 DEPT.F                  :   
 SPR .MV     07 010 01 00:   SPONTANEOUS POTENTIAL
 SGRD.OHMM   07 220 05 00:   SHALLOW GUARD LOG RESISTIVITY
 ILD .OHMM   07 120 46 00:   DEEP INDUCTION RESISTIVITY
 ILM .OHMM   07 120 44 00:   INDUCTION LOG MEDIUM RESISTIVITY
 TEND.LBS    45 635 01 00:   TENSION FROM DENSITY LOG
 CORR.G/C3   45 356 01 00:   DENSITY CORRECTION
 RHOB.G/C3   45 350 01 00:   BULK DENSITY
 NPHI.DEC    42 890 03 00:   NEUTRON POROSITY SANDSTONE
 GRD .GAPI   45 310 01 00:   GAMMA RAY FROM DENSITY LOG
 CALD.IN     45 280 60 00:   CALIPER FROM DENSITY LOG
~PARAMETER INFORMATION
#MNEM.UNIT          VALUE    DESCRIPTION
#----------   ------------   ------------------------------
 EKB .F         5234.0000:   Kelly bushing
 EGL .F         5224.0000:   Ground level
 EDF .F            0.0000:   Drilling floor
 TD  .F         4650.0000:   Total depth
 DATE.        12-OCT-1979:   Date logged
 CLNT.            A2DTECH:   Client Code
 SL  . 2055' FNL & 1509' FWL:   Surface Location
 PD  .                 GL:   Permanent Datum
 DD  .F              4650:   Depth driller
 DL  .F              4646:   Depth logger
 BLI .F              4644:   Bottom log interval
 CS1 .IN              500:   Casing size
 CBD1.      8.625" @ 500':   Casing driller 1
 CBL1.F               502:   Casing logger 1
 BS1 .IN            7.875:   Bit size
 DFT .           CHEM/GEL:   Type fluid in hole
 DFD .                8.8:   Density
 DFV .                 62:   Viscosity
 DFPH.               11.2:   pH
 DFL .                4.5:   Fluid loss
 MSS .            MUD/PIT:   Source of sample
 RMS .OHMM           1.18:   Rm
 MST .F                60:   Rm Meas. temp.
 RMF .OHMM            .94:   Rmf
 MFST.F                60:   Rmf Meas. temp.
 RMC .OHMM           1.41:   Rmc
 MCST.F                60:   Rmc Meas. temp.
 MFSS.               MEAS:   Source Rmf.
 RMB .OHMM            .81:   Rm. at BHT
 BHT .F                87:   BHT.
 TCS .HRS               2:   Time Circ. stopped
 MRT .F                87:   Maximum recorded temp.
 LUN .               1892:   Logging unit number
 LUL .             CASPER:   Logging unit location
 ENGI.               REIN:   Recorded By
 WITN.           DINSMORE:   Witnessed by
 ORIG.           5" PRINT:   Origin of data
 UWI .     49025109290000:   Unique Well ID
 DICO. A2D TECHNOLOGIES, INC.:   Digitizing Company
 DAPD.                 10:   Feet Above Permanent Datum
 BSD1.F              4650:   Depth drilled with bit1
 MCSS.               MEAS:   Source Rmc.
 EPD .F              5224:   Elevation Permanent Datum
 LMF .                 KB:   Log Measured From
 DMF .                 KB:   Drilling Measured From
 TLI .F               500:   Top log interval
~OTHER INFORMATION
~A   DEPT      SPR         SGRD      ILD         ILM      TEND         CORR       RHOB       NPHI       GRD        CALD 
# ...
 2711.0000   -39.1720    16.8460    15.0280    16.5070  1971.9720     0.1490     2.4650     0.1100    86.7340     8.7150
 2711.5000   -39.1210    17.1500    14.9470    16.2710  1971.9720     0.1500     2.4580     0.1140    83.9820     8.7360
 2712.0000   -39.0690    17.5780    14.8000    16.0300  1971.9720     0.1470     2.4490     0.1210    79.4710     8.7460
 2712.5000   -39.0170    17.2550    14.6530    16.0050  1971.9720     0.1420     2.4380     0.1290    77.4360     8.7500
 2713.0000   -38.9650    16.7060    14.5050    15.9740  1971.9720     0.1360     2.4270     0.1350    78.4230     8.7530
 2713.5000   -38.9120    16.1780    14.3580    15.9430  1971.9720     0.1280     2.4160     0.1410    80.4340     8.7560
 2714.0000   -38.8600    16.1780    14.2190    15.9120  1971.9720     0.1170     2.4050     0.1460    85.6630     8.7590
 2714.5000   -38.8080    16.5260    14.3990    15.8830  1971.9720     0.1060     2.3950     0.1510    86.3100     8.7620
 2715.0000   -38.7560    17.0990    14.6180    15.5670  1971.9720     0.0950     2.3870     0.1560    84.2910     8.7650
 2715.5000   -38.7040    16.6360    14.4520    15.2080  1972.4720     0.0930     2.3800     0.1570    84.0130     8.7680
 2716.0000   -38.6510    15.6600    14.2160    14.8500  1974.5750     0.0970     2.3790     0.1590    82.5790     8.7720
 2716.5000   -38.5990    15.0280    13.9800    14.6180  1976.6770     0.1010     2.3820     0.1550    81.0040     8.7750
 2717.0000   -38.5470    15.7500    13.7620    14.8060  1978.7791     0.1070     2.3870     0.1480    79.7690     8.7780
 2717.5000   -38.4950    16.1780    13.5750    14.8900  1980.8810     0.1140     2.4010     0.1400    78.8080     8.7810
 2718.0000   -38.4440    15.4400    13.3880    14.0410  1982.9830     0.1210     2.4180     0.1320    79.3250     8.7840
 2718.5000   -38.2940    14.8230    13.2080    13.4540  1985.0850     0.1280     2.4360     0.1230    82.3330     8.7600
 2719.0000   -38.0920    14.4840    13.1540    13.4540  1987.1870     0.1350     2.4530     0.1130    85.5860     8.7450
 2719.5000   -37.8880    14.4390    13.0900    13.6170  1989.2889     0.1390     2.4610     0.1070    85.5730     8.7470
 2720.0000   -37.6850    14.3510    13.0260    13.7290  1991.3910     0.1310     2.4570     0.1100    84.8320     8.7490
 2720.5000   -37.4810    14.5470    12.9620    13.8410  1993.4930     0.1240     2.4530     0.1150    86.6560     8.7500
 2721.0000   -37.2720    14.8250    12.8980    13.9600  1995.5959     0.1170     2.4430     0.1190    88.6240     8.7520
 2721.5000   -37.1670    15.1670    12.8330    13.6740  1997.6980     0.1070     2.4270     0.1290    90.4260     8.7540
 2722.0000   -37.0880    14.8980    12.7690    13.2080  1999.8000     0.0980     2.4110     0.1390    89.6410     8.7560
 2722.5000   -37.0330    14.4240    12.7300    13.3740  2001.9020     0.0900     2.3950     0.1480    89.5690     8.7570
 2723.0000   -37.0840    13.9600    12.5210    13.5850  2004.0040     0.0920     2.3950     0.1470    90.2200     8.7590
 2723.5000   -37.1320    13.9600    12.3110    13.7050  2006.1060     0.0940     2.3980     0.1450    88.1780     8.7610
 2724.0000   -37.1810    13.9600    12.1010    13.5820  2008.2080     0.0950     2.4110     0.1400    86.4410     8.7620
 2724.5000   -37.2290    13.4590    11.8920    13.1000  2010.3101     0.0970     2.4250     0.1310    88.3290     8.7640
 2725.0000   -37.2780    12.8480    11.6820    12.6190  2012.0120     0.0980     2.4470     0.1220    90.4000     8.7680
 2725.5000   -37.3260    12.9440    11.4720    11.9350  2012.0120     0.1090     2.4690     0.1140    94.3290     8.7730
 2726.0000   -37.3750    13.0870    11.2630    12.2110  2012.0120     0.1150     2.4720     0.1060    98.7990     8.7780
 2726.5000   -37.4230    12.4980    11.0860    12.5920  2012.0120     0.1100     2.4750     0.1020    97.6970     8.7820
 2727.0000   -37.4250    13.0140    11.0440    12.9730  2012.0120     0.1050     2.4730     0.1030    96.4710     8.7870
 2727.5000   -37.4260    13.6900    10.9840    13.3550  2012.0120     0.1000     2.4720     0.1060    96.8790     8.7920
 2728.0000   -37.3230    14.6180    12.9670    13.5790  2012.0120     0.0950     2.4700     0.1080    95.9820     8.7970
 2728.5000   -37.1580    14.2910    13.2080    13.2300  2012.0120     0.0970     2.4710     0.1100    93.5260     8.8010
 2729.0000   -36.9920    13.8440    12.1570    12.9440  2012.0120     0.0980     2.4750     0.1120    94.4380     8.8060
 2729.5000   -36.8260    13.3970    11.1010    12.8480  2012.0120     0.1010     2.4790     0.1100    93.2220     8.8110
 2730.0000   -36.6590    12.9490    10.6850    12.8820  2012.0120     0.1050     2.4830     0.1080    88.4490     8.8160
 2730.5000   -36.4930    12.7300    11.1650    12.9060  2012.0120     0.1060     2.4850     0.1060    89.2960     8.8200
 2731.0000   -36.3270    13.1640    11.8350    12.9290  2012.0120     0.1060     2.4710     0.1050    94.4260     8.8240
 2731.5000   -36.1600    13.4940    12.2690    12.9520  2012.0120     0.1050     2.4520     0.1100    97.9230     8.8190
 2732.0000   -35.9930    13.8240    11.6930    12.9670  2012.0120     0.1060     2.4530     0.1140    96.1700     8.8140
 2732.5000   -35.8340    14.0890    11.2720    11.9350  2012.0120     0.1100     2.4600     0.1140    93.1690     8.8100
 2733.0000   -35.8790    13.8320    11.1660    11.6520  2012.0120     0.1140     2.4670     0.1100    90.1490     8.8050
 2733.5000   -35.9320    13.3240    11.0420    11.4360  2012.0120     0.1180     2.4740     0.1050    89.9990     8.8010
 2734.0000   -35.9850    12.8260    10.8570    11.2210  2012.0120     0.1210     2.4710     0.0990    90.1880     8.7960
 2734.5000   -36.0370    12.3280    10.6720    11.0060  2012.0120     0.1200     2.4590     0.1060    90.3480     8.7910
 2735.0000   -36.0890    12.2690    10.4870    10.7900  2012.0120     0.1190     2.4470     0.1150    91.3570     8.7870
 2735.5000   -36.1420    12.9120    10.3020    10.6850  2012.0120     0.1150     2.4410     0.1170    93.5380     8.7820
 2736.0000   -36.1930    13.4970    10.1170    11.1090  2012.0120     0.1080     2.4380     0.1200    97.1070     8.7780
 2736.5000   -36.1870    14.2190     9.9250    11.4320  2012.0120     0.1000     2.4350     0.1210    99.6860     8.7730
 2737.0000   -36.0650    13.7050     9.5450    11.8250  2012.0120     0.0950     2.4330     0.1230    96.7630     8.7680
 2737.5000   -35.9460    11.9370     9.0470    10.9850  2012.0120     0.1000     2.4420     0.1250    93.2430     8.7650
 2738.0000   -35.8260    10.7880     8.5500     9.9130  2012.0120     0.1170     2.4550     0.1230    90.3570     8.7730
 2738.5000   -35.7060     9.6390     8.0520     8.8420  2012.0120     0.1330     2.4670     0.1140    91.4500     8.7800
 2739.0000   -35.5860     8.4900     7.5550     8.0070  2012.0120     0.1440     2.4740     0.1050    93.9830     8.7870
 2739.5000   -35.4670     7.8820     7.3890     7.8820  2012.0120     0.1560     2.4810     0.1010    98.0590     8.7940
 2740.0000   -35.3470     8.1030     7.4660     8.3690  2012.0120     0.1680     2.4790     0.0990   103.7440     8.8020
 2740.5000   -35.2270    12.0650     7.6240     9.5700  2012.0120     0.1710     2.4750     0.1030   106.1380     8.7990
 2741.0000   -35.1090    16.4580     8.0070    10.7730  2012.0120     0.1730     2.4610     0.1090   107.5260     8.7910
 2741.5000   -35.0460    18.4840     8.6490    11.9760  2012.0120     0.1720     2.4450     0.1160   113.1720     8.7830
 2742.0000   -35.0990    18.5780     9.3050    13.0710  2012.0120     0.1600     2.4280     0.1260   108.6590     8.7750
 2742.5000   -35.1490    17.2570    10.1430    13.6590  2012.0120     0.1390     2.4110     0.1380   101.4340     8.7670
 2743.0000   -35.2030    17.3070    11.2110    14.3510  2012.0120     0.1140     2.4110     0.1400    94.1290     8.7590
 2743.5000   -35.3660    17.3700    12.2800    14.2900  2012.0120     0.1020     2.4240     0.1290    86.9340     8.7510
 2744.0000   -35.6850    17.4170    13.3480    14.2190  2012.0120     0.1070     2.4360     0.1210    81.5410     8.7420
