~VERSION INFORMATION
 VERS.                2.0:   CWLS LOG ASCII STANDARD - VERSION 2.0
 WRAP.                 NO:   ONE LINE PER DEPTH STEP
~WELL INFORMATION
#MNEM.UNIT      DATA TYPE    INFORMATION
#----------   ------------   ------------------------------
 STRT.F          492.0000:   START DEPTH
 STOP.F         3008.0000:   STOP DEPTH
 STEP.F            0.5000:   STEP LENGTH
 NULL.          -999.2500:   NO VALUE
 COMP.    FENIX & SCISSON:   COMPANY
 WELL. FENIX & SCISSON AX #24-28:   WELL
 FLD .             TEAPOT:   FIELD
 LOC .      S28 T39N R78W:   LOCATION
 CNTY.            NATRONA:   COUNTY
 STAT.            WYOMING:   STATE
 CTRY. UNITED STATES OF AMERICA:   COUNTRY
 SRVC.              WELEX:   SERVICE COMPANY
 DATE.        03-AUG-1980:   LOGDATE
 API .     49025108490000:   API NUMBER
~CURVE INFORMATION
#MNEM.UNIT       API CODE    CURVE DESCRIPTION
#----------   ------------   ------------------------------
 DEPT.F                  :   
 SPR .MV     07 010 01 00:   SPONTANEOUS POTENTIAL
 ILD .OHMM   07 120 46 00:   DEEP INDUCTION RESISTIVITY
 ILM .OHMM   07 120 44 00:   INDUCTION LOG MEDIUM RESISTIVITY
 SGRD.OHMM   07 220 05 00:   SHALLOW SHORT GUARD RESISTIVITY
 GRD .GAPI   45 310 01 00:   GAMMA RAY FROM DENSITY LOG
 CALD.IN     45 280 60 00:   CALIPER FROM DENSITY LOG
 CORR.G/C3   45 356 01 00:   DENSITY CORRECTION
 RHOB.G/C3   45 350 01 00:   BULK DENSITY
~PARAMETER INFORMATION
#MNEM.UNIT          VALUE    DESCRIPTION
#----------   ------------   ------------------------------
 EKB .F         5061.0000:   Kelly bushing
 EGL .F         5051.0000:   Ground level
 TD  .F         3000.0000:   Total depth
 CLNT.            A2DTECH:   Client Code
 SL  . 2350' FNL & 1000' FWL:   Surface Location
 DATE.         3-AUG-1980:   Date Logged [DD-MMM-YYYY]
 DD  .F              3000:   Depth driller
 DL  .F              3010:   Depth logger
 BLI .F              3008:   Bottom log interval
 TLI .F               308:   Top log interval
 CS1 .              8.625:   Casing size
 CBD1.      8.625" @ 393':   Casing driller 1
 BS1 .IN            7.875:   Bit size
 BSD1.F              3000:   Depth drilled with bit1
 DFT .     WATER BASE MUD:   Type fluid in hole
 DFD .                8.9:   Density
 TCS .HRS               8:   Time Circ. stopped
 MRT .F               115:   Maximum recorded temp.
 ENGI.           WACHTELL:   Recorded By
 WITN.           DINSMORE:   Witnessed by
 ORIG.      2.5" 5" PRINT:   Origin of data
 UWI .     49025108490000:   Unique Well ID
 DICO. A2D TECHNOLOGIES, INC.:   Digitizing Company
 PD  .                 GL:   Permanent Datum
 EPD .F              3051:   Elevation Permanent Datum
 LMF .                 KB:   Log Measured From
 DMF .                 KB:   Drilling Measured From
 DAPD.F                10:   Feet Above Permanent Datum
 DFV .                 43:   Viscosity
 DFPH.                9.5:   pH
 DFL .                7.2:   Fluid loss
 MSS .           FLOWLINE:   Source of sample
 RMS .OHMM             .9:   Rm
 MST .F                80:   Rm Meas. temp.
 RMF .OHMM            .72:   Rmf
 MFST.F                80:   Rmf Meas. temp.
 MFSS.               MEAS:   Source Rmf.
 RMC .OHMM           1.08:   Rmc
 MCST.F                80:   Rmc Meas. temp.
 MCSS.               MEAS:   Source Rmc.
 RMB .OHMM            .06:   Rm. at BHT
 BHT .F               115:   BHT.
 LUN .               1892:   Logging unit number
 LUL .             CASPER:   Logging unit location
~OTHER INFORMATION
~A   DEPT      SPR        ILD        ILM       SGRD        GRD       CALD       CORR       RHOB   
# ...
 1626.0000   -20.3402     5.7196     7.3462     8.0492   107.1823     9.7428     0.0121     2.5304
 1626.5000   -20.3532     5.7161     7.4000     8.0556   108.5424     9.6539     0.0348     2.5217
 1627.0000   -20.3663     5.7125     7.4531     8.1544   109.0236     9.5949     0.0681     2.5484
 1627.5000   -20.3793     5.7089     7.4965     8.1502   106.5651     9.5810     0.0878     2.5435
 1628.0000   -20.0715     5.7053     7.4922     8.0335   103.6568     9.6272     0.1045     2.5532
 1628.5000   -19.5125     5.7017     7.4887     7.9934   101.4232     9.6732     0.1196     2.5882
 1629.0000   -19.2279     5.6679     7.4851     7.8726    99.6394     9.7042     0.1317     2.6007
 1629.5000   -18.8720     5.6158     7.4815     7.7536    98.9800     9.7352     0.1091     2.5906
 1630.0000   -18.6588     5.6123     7.4780     7.5832    99.6851     9.7512     0.0773     2.5573
 1630.5000   -18.3742     5.5311     7.3710     7.4746   101.4881     9.8122     0.0164     2.5356
 1631.0000   -18.3899     5.4506     7.3675     7.3669   102.4029     9.8886     0.0350     2.5473
 1631.5000   -18.4033     5.3719     7.3640     7.3634   102.6393     9.9341     0.0653     2.5675
 1632.0000   -18.4167     5.3686     7.2585     7.3599   101.3090     9.5906     0.1061     2.5940
 1632.5000   -18.1324     5.3653     7.2550     7.3564   100.1999     9.5466     0.1152     2.6003
 1633.0000   -18.1482     5.3621     7.2514     7.2512    99.7654     9.5176     0.1228     2.6003
 1633.5000   -17.8637     5.3588     7.2479     7.2478    99.5554     9.5636     0.1289     2.5949
 1634.0000   -17.8767     5.3555     7.2444     7.1441    99.7961     9.6096     0.1031     2.5795
 1634.5000   -17.5908     5.3522     7.2408     7.0418   100.2648     9.6406     0.0926     2.5601
 1635.0000   -17.6051     5.3427     7.1372     6.9330   100.7298     9.5947     0.0911     2.5430
 1635.5000   -17.6182     5.2715     7.0890     6.7470   101.6446     9.5230     0.0896     2.5369
 1636.0000   -17.6312     5.2682     6.9823     6.7437   103.2341     9.4640     0.0911     2.5401
 1636.5000   -17.6443     5.1735     6.8350     6.8354   106.1729     9.4800     0.0942     2.5463
 1637.0000   -17.9763     4.9764     6.8310     6.8316   108.4371     9.5260     0.0957     2.5549
 1637.5000   -18.2664     4.8790     6.7333     6.8283   109.3519     9.5870     0.0972     2.5775
 1638.0000   -18.5774     4.7007     6.2772     6.7840   108.6564     9.6480     0.0776     2.5853
 1638.5000   -18.6607     4.5070     5.7710     6.6815   104.6235     9.6957     0.0292     2.5155
 1639.0000   -18.9018     4.4065     5.3800     6.5805   105.5784     9.7250     0.0171     2.4976
 1639.5000   -19.2128     4.2554     5.1573     6.2678   107.1679     9.6213     0.0141     2.4906
 1640.0000   -19.2262     4.2528     5.0835     5.9252   109.2072     9.5621     0.0247     2.4807
 1640.5000   -19.2396     4.2502     5.0811     5.6014   112.8206     9.5634     0.0307     2.4753
 1641.0000   -19.1012     4.3072     5.2251     5.4448   113.7355     9.6093     0.0247     2.4722
 1641.5000   -18.9688     4.3652     5.4568     5.5186   109.7028     9.6553     0.0202     2.4785
 1642.0000   -18.6870     4.4856     5.7877     5.7515   104.9778     9.7027     0.0414     2.4910
 1642.5000   -18.7000     4.6095     6.2162     6.2500   103.1784     9.7626     0.0777     2.5019
 1643.0000   -18.4137     4.7391     6.7457     6.8887   102.7771     9.7936     0.0732     2.4553
 1643.5000   -18.4285     4.9464     7.2085     7.1851   103.6957     9.7346     0.0807     2.4484
 1644.0000   -18.4415     5.1531     7.3774     7.2883   104.6105     9.3905     0.1019     2.4547
 1644.5000   -18.4546     5.3741     7.3732     7.3930   105.3005     9.4818     0.0989     2.4656
 1645.0000   -18.4676     5.4319     7.1671     7.4735   104.8660     9.5278     0.1020     2.4874
 1645.5000   -18.7783     5.4281     7.0136     7.5017   104.2062     9.3755     0.1156     2.5691
 1646.0000   -19.0893     5.4247     6.7719     7.5711   104.2219     9.2152     0.1035     2.5971
 1646.5000   -19.4003     5.3894     6.6744     7.5223   105.1988     9.2462     0.0718     2.6057
 1647.0000   -19.4137     5.2337     6.5789     7.4585   106.9548     9.3222     0.0566     2.5102
 1647.5000   -19.4271     5.0447     6.4848     7.3517   107.1950     9.4731     0.0415     2.4930
 1648.0000   -19.4405     4.9076     6.4817     7.2457   106.7605     9.5941     0.0249     2.4901
 1648.5000   -19.4539     4.8368     6.5698     7.1421   104.0771     9.6401     0.0567     2.5158
 1649.0000   -19.1671     4.7669     6.5664     6.9425   101.8435     9.5187     0.0824     2.5353
 1649.5000   -19.1830     4.7640     6.7488     6.7485   100.0597     9.3575     0.1097     2.5648
 1650.0000   -19.1964     4.8279     6.9362     6.6520    99.8501     9.2835     0.1294     2.5727
 1650.5000   -19.2098     4.8929     7.1341     6.5568   102.3672     9.2995     0.0885     2.5572
 1651.0000   -19.2258     4.9583     7.3376     6.5537   103.2578     9.3755     0.1173     2.5345
 1651.5000   -18.9412     5.0953     7.5303     6.8318   103.0443     9.4515     0.1309     2.5394
 1652.0000   -18.9542     5.1637     7.6548     7.2249   101.2643     9.5425     0.1264     2.4978
 1652.5000   -18.9672     5.3064     7.7357     7.4316    99.7054     9.6144     0.1126     2.4589
 1653.0000   -18.9803     5.3911     7.7315     7.6441    99.4919     9.6432     0.1019     2.4454
 1653.5000   -18.9933     5.5262     7.7277     7.7539   100.6355     9.4783     0.0992     2.4475
 1654.0000   -19.0063     5.6003     7.7239     7.8653   103.1245     9.3133     0.1007     2.5082
 1654.5000   -19.0194     5.6754     7.7202     7.9390   105.4388     9.2534     0.1034     2.5306
 1655.0000   -19.0327     5.7508     7.8247     7.9808   106.9819     9.2384     0.1185     2.5501
 1655.5000   -19.0461     5.7855     7.8208     8.0419   106.6454     9.2534     0.1275     2.5673
 1656.0000   -19.0595     5.9059     7.8164     8.0379   105.7513     9.3024     0.1273     2.5886
 1656.5000   -19.0729     5.9843     7.8127     8.0332   104.1732     9.4033     0.1002     2.5956
 1657.0000   -19.0863     6.0646     7.9190     7.9912   103.7359     9.4333     0.1047     2.5901
 1657.5000   -19.0997     6.0609     7.9148     8.0262   105.7653     9.4333     0.1032     2.5885
 1658.0000   -19.1131     6.0572     7.9110     8.0218   107.1190     9.3583     0.0941     2.5714
 1658.5000   -19.1265     5.9697     7.9072     8.0180   107.5731     9.2534     0.1031     2.5556
 1659.0000   -19.1399     5.8021     7.9035     8.0142   106.9027     9.2234     0.1122     2.5581
 1659.5000   -19.1533     5.6392     7.8997     8.0104   105.5577     9.2834     0.1076     2.5666
 1660.0000   -19.1693     5.4051     7.8959     7.8959   103.9278     9.3133     0.1011     2.5712
 1660.5000   -18.8847     5.3269     7.8920     7.7828   102.8678     9.3433     0.0848     2.5681
 1661.0000   -18.8977     5.3236     7.8882     7.6590   102.8732     9.3883     0.0772     2.5487
 1661.5000   -18.9108     5.3333     7.7756     7.4388   104.6766     9.4483     0.0772     2.5362
 1662.0000   -18.6262     5.4091     7.8810     7.2484   107.6045     9.5232     0.0923     2.5306
 1662.5000   -18.6392     5.5409     7.8766     7.2449   109.1830     9.0860     0.1014     2.5284
 1663.0000   -18.3546     5.6422     7.9155     7.2769   109.1709     9.0285     0.1104     2.5446
 1663.5000   -18.3677     5.6905     8.0913     7.3401   106.9439     9.0885     0.1164     2.5539
 1664.0000   -18.3807     5.7235     8.1433     7.4874   104.2495     9.2084     0.0846     2.5648
 1664.5000   -18.0961     5.8049     8.1969     7.5950   102.6797     9.3133     0.0740     2.5461
 1665.0000   -18.1101     5.8874     8.2388     7.6415   102.0082     9.3733     0.0755     2.5290
 1665.5000   -18.1235     5.9179     7.8530     7.8529   103.5879     9.3583     0.0770     2.5147
 1666.0000   -18.1369     5.9136     7.3210     7.9599   105.3943     9.0395     0.0800     2.4994
