~VERSION INFORMATION
 VERS.                2.0:   CWLS LOG ASCII STANDARD - VERSION 2.0
 WRAP.                 NO:   ONE LINE PER DEPTH STEP
~WELL INFORMATION
#MNEM.UNIT      DATA TYPE    INFORMATION
#----------   ------------   ------------------------------
 STRT.F          502.0000:   START DEPTH
 STOP.F         4210.0000:   STOP DEPTH
 STEP.F            0.5000:   STEP LENGTH
 NULL.          -999.2500:   NO VALUE
 COMP.   FENIX & SCISSION:   COMPANY
 WELL. FENIX NPR 3 "JX" #43-34:   WELL
 FLD .              N P R:   FIELD
 LOC .      S34 T39N R78W:   LOCATION
 CNTY.            NATRONA:   COUNTY
 STAT.            WYOMING:   STATE
 CTRY. UNITED STATES OF AMERICA:   COUNTRY
 SRVC.              WELEX:   SERVICE COMPANY
 DATE.        05-FEB-1979:   LOGDATE
 API .     49025107690000:   API NUMBER
~CURVE INFORMATION
#MNEM.UNIT       API CODE    CURVE DESCRIPTION
#----------   ------------   ------------------------------
 DEPT.F                  :   
 TENR.LBS    07 635 01 00:   TENSION FROM RESISTIVITY
 SPR .MV     07 010 01 00:   SPONTANEOUS POTENTIAL
 SFL .OHMM   07 220 01 00:   SHALLOW FOCUSED LOG RESISTIVITY
 ILD .OHMM   07 120 46 00:   DEEP INDUCTION RESISTIVITY
 ILM .OHMM   07 120 44 00:   INDUCTION LOG MEDIUM RESISTIVITY
 TEND.LBS    45 635 01 00:   TENSION FROM DENSITY LOG
 CALD.IN     45 280 60 00:   CALIPER FROM DENSITY LOG
 GRD .GAPI   45 310 01 00:   GAMMA RAY FROM DENSITY LOG
 CORR.G/C3   45 356 01 00:   DENSITY CORRECTION
 NPHI.DEC    42 890 03 00:   NEUTRON POROSITY SANDSTONE
 RHOB.G/C3   45 350 01 00:   BULK DENSITY
~PARAMETER INFORMATION
#MNEM.UNIT          VALUE    DESCRIPTION
#----------   ------------   ------------------------------
 EKB .F         5108.0000:   Kelly bushing
 EGL .F         5098.0000:   Ground level
 TD  .F         4204.0000:   Total depth
 DATE.        05-FEB-1979:   Date logged
 CLNT.            A2DTECH:   Client Code
 SL  . 1627' FNL & 2110' FWL:   Surface Location
 PD  .                 GL:   Permanent Datum
 DD  .F              4200:   Depth driller
 DL  .F              4204:   Depth logger
 BLI .F              4202:   Bottom log interval
 CS1 .IN            8.625:   Casing size
 CBD1.      8.625" @ 506':   Casing driller 1
 CBL1.F               506:   Casing logger 1
 BS1 .IN            7.875:   Bit size
 DFT .           CHEM/GEL:   Type fluid in hole
 DFD .                9.2:   Density
 DFV .                 55:   Viscosity
 DFPH.                9.5:   pH
 DFL .                5.7:   Fluid loss
 MSS .            MUD/PIT:   Source of sample
 RMS .OHMM            1.1:   Rm
 MST .F                52:   Rm Meas. temp.
 RMF .OHMM            .45:   Rmf
 MFST.F                52:   Rmf Meas. temp.
 RMC .OHMM            1.8:   Rmc
 MCST.F                52:   Rmc Meas. temp.
 MFSS.               MEAS:   Source Rmf.
 RMB .OHMM           5.06:   Rm. at BHT
 BHT .F               128:   BHT.
 TCS .HRS               8:   Time Circ. stopped
 MRT .F               128:   Maximum recorded temp.
 LUN .               9685:   Logging unit number
 LUL .             CASPER:   Logging unit location
 ENGI.        KEIN/JOINER:   Recorded By
 WITN.        J. DINSMORE:   Witnessed by
 ORIG.           5" PRINT:   Origin of data
 UWI .     49025107690000:   Unique Well ID
 DICO. A2D TECHNOLOGIES, INC.:   Digitizing Company
 DAPD.F                10:   Feet Above Permanent Datum
 BSD1.F              4200:   Depth drilled with bit1
 MCSS.               MEAS:   Source Rmc.
 EPD .F              5098:   Elevation Permanent Datum
 LMF .                 KB:   Log Measured From
 DMF .                 KB:   Drilling Measured From
 TLI .F               500:   Top log interval
~OTHER INFORMATION
~A   DEPT     TENR        SPR        SFL        ILD        ILM        TEND        CALD       GRD        CORR       NPHI       RHOB 
# ...
 2454.0000  1242.9780   -54.0590     4.7960     4.2030     3.6450  1334.5840     9.3400   165.0380    -0.0300     0.2640     2.4610
 2454.5000  1243.0580   -54.0440     5.8880     4.3650     3.6960  1334.8979     9.3360   157.5020    -0.0290     0.2550     2.4550
 2455.0000  1243.1390   -54.0290     6.3250     4.5270     3.7470  1335.2111     9.3320   154.0930    -0.0320     0.2490     2.4320
 2455.5000  1243.2190   -54.0130     6.9350     4.6530     3.7980  1335.5250     9.3290   154.4090    -0.0390     0.2510     2.4190
 2456.0000  1243.2990   -53.9980     6.6230     4.7250     3.8500  1335.8380     9.3250   155.6420    -0.0450     0.2580     2.4230
 2456.5000  1243.3790   -53.9850     6.4450     4.7980     3.9010  1336.1520     9.3220   157.0390    -0.0490     0.2650     2.4390
 2457.0000  1243.4590   -53.9840     6.3000     4.8300     3.9520  1336.4650     9.3180   158.6020    -0.0360     0.2730     2.4520
 2457.5000  1243.5389   -53.9840     6.1540     4.8610     4.0030  1336.7780     9.3150   159.4550    -0.0330     0.2760     2.4650
 2458.0000  1243.6190   -53.9840     6.0960     4.8870     4.0650  1337.0920     9.3110   159.3190    -0.0320     0.2720     2.4600
 2458.5000  1243.6990   -53.9840     6.2100     4.8510     4.0440  1337.4050     9.3070   160.7220    -0.0310     0.2680     2.4570
 2459.0000  1243.7791   -53.9840     6.3250     4.7980     4.0180  1337.7190     9.3040   159.6370    -0.0300     0.2650     2.4520
 2459.5000  1243.8590   -53.9840     6.2480     4.6770     3.9920  1338.0320     9.3000   160.4120    -0.0300     0.2640     2.4570
 2460.0000  1243.9390   -53.9840     5.9250     4.5260     3.9660  1338.3459     9.2970   160.9260    -0.0270     0.2650     2.4470
 2460.5000  1244.0190   -53.9840     5.4500     4.3760     3.9400  1338.6591     9.2930   160.9530    -0.0260     0.2650     2.4260
 2461.0000  1244.0990   -53.9840     5.2610     4.4250     3.9140  1338.9720     9.2890   160.0560    -0.0290     0.2620     2.4250
 2461.5000  1244.1790   -53.9840     5.6230     4.5400     3.8880  1339.2860     9.2860   159.2160    -0.0320     0.2590     2.4400
 2462.0000  1244.2590   -53.9840     5.9850     4.5050     3.8620  1339.5990     9.2820   158.9770    -0.0230     0.2630     2.4370
 2462.5000  1244.3390   -53.9840     5.9850     4.4460     3.8460  1339.9130     9.2780   159.2980    -0.0110     0.2670     2.4360
 2463.0000  1244.4200   -53.9840     5.8500     4.3760     3.8700  1340.2260     9.2740   157.5560     0.0000     0.2690     2.4410
 2463.5000  1244.5000   -53.9840     5.6270     4.5020     3.9100  1340.5389     9.2710   156.5210     0.0020     0.2660     2.4590
 2464.0000  1244.5800   -53.9840     5.3580     4.6600     3.9510  1340.8530     9.2670   153.8710    -0.0040     0.2640     2.4740
 2464.5000  1244.6600   -53.9850     6.0810     4.8180     3.9910  1341.1660     9.2630   151.2170    -0.0090     0.2610     2.4660
 2465.0000  1244.7400   -53.9800     6.5340     4.9760     4.0310  1341.4800     9.2600   149.9080    -0.0150     0.2580     2.4600
 2465.5000  1244.8199   -54.0240     6.6880     5.0820     4.0710  1341.7930     9.2560   149.9690    -0.0200     0.2560     2.4640
 2466.0000  1244.9000   -54.1120     6.8420     5.1110     4.1110  1342.1071     9.2520   150.5980    -0.0250     0.2560     2.4600
 2466.5000  1244.9800   -54.1950     6.9350     5.1410     4.1510  1342.4200     9.2490   152.0140    -0.0290     0.2590     2.4610
 2467.0000  1245.0601   -54.2760     6.8090     5.1650     4.1910  1342.7330     9.2450   153.3750    -0.0290     0.2630     2.4600
 2467.5000  1245.1400   -54.3610     6.6840     5.1080     4.2310  1343.0470     9.2410   154.7300    -0.0290     0.2670     2.4550
 2468.0000  1245.2200   -54.3840     6.3250     5.0620     4.2720  1343.3600     9.2380   156.1040    -0.0290     0.2640     2.4520
 2468.5000  1245.3000   -54.3830     6.3540     5.0150     4.2960  1343.6740     9.2340   157.4470    -0.0290     0.2640     2.4550
 2469.0000  1245.3800   -54.3820     6.4420     4.9780     4.2690  1343.9871     9.2300   158.8530    -0.0290     0.2670     2.4650
 2469.5000  1245.4600   -54.3830     6.4030     4.9780     4.2420  1344.3000     9.2270   160.2980    -0.0290     0.2670     2.4650
 2470.0000  1245.5400   -54.3820     6.3250     4.9780     4.2150  1344.6140     9.2230   161.7590    -0.0290     0.2660     2.4580
 2470.5000  1245.6200   -54.3830     6.4010     4.9780     4.1890  1344.9270     9.2180   159.5840    -0.0290     0.2650     2.4510
 2471.0000  1245.7010   -54.3830     6.5920     4.9780     4.1620  1345.2410     9.2110   157.5410    -0.0290     0.2640     2.4520
 2471.5000  1245.7810   -54.3820     6.7820     4.9780     4.1350  1345.5540     9.2030   154.9820    -0.0250     0.2640     2.4650
 2472.0000  1245.8610   -54.3820     6.9350     4.9780     4.1080  1345.8680     9.1960   155.1940    -0.0070     0.2620     2.4710
 2472.5000  1245.9410   -54.3820     6.4310     4.9580     4.0820  1346.1810     9.1880   155.5720    -0.0010     0.2600     2.4740
 2473.0000  1246.0210   -54.3820     6.0960     4.9320     4.0550  1346.4940     9.1810   156.0670    -0.0060     0.2570     2.4730
 2473.5000  1246.1010   -54.3820     5.8750     4.9070     4.0280  1346.8080     9.1730   156.5750    -0.0120     0.2590     2.4660
 2474.0000  1246.1810   -54.3820     5.8750     4.8870     4.0010  1347.1210     9.1660   157.3520    -0.0170     0.2650     2.4540
 2474.5000  1246.2610   -54.3820     6.3250     4.7290     3.9750  1347.4351     9.1580   158.2870    -0.0230     0.2710     2.4520
 2475.0000  1246.3409   -54.3820     6.2030     4.6240     3.9480  1347.7480     9.1510   159.6300    -0.0290     0.2770     2.4560
 2475.5000  1246.4210   -54.3820     6.0820     4.5410     3.9210  1348.0610     9.1440   160.7890    -0.0280     0.2800     2.4600
 2476.0000  1246.5010   -54.3820     5.4580     4.4720     3.8940  1348.3750     9.1360   161.9700    -0.0270     0.2830     2.4600
 2476.5000  1246.5811   -54.3820     5.4710     4.3760     3.8680  1348.6880     9.1290   160.8420    -0.0260     0.2890     2.4520
 2477.0000  1246.6610   -54.3820     5.5020     4.3960     3.8460  1349.0020     9.1210   158.4430    -0.0250     0.2940     2.4500
 2477.5000  1246.7410   -54.3820     5.5340     4.4300     3.8600  1349.3149     9.1130   156.2780    -0.0260     0.2920     2.4490
 2478.0000  1246.8210   -54.3820     5.5590     4.4570     3.8710  1349.6290     9.1060   154.1490    -0.0290     0.2880     2.4440
 2478.5000  1246.9020   -54.3820     5.6690     4.5200     3.8820  1349.9420     9.1010   154.0130    -0.0320     0.2860     2.4310
 2479.0000  1246.9821   -54.3820     5.9420     4.5720     3.8940  1350.2550     9.1110   153.9770    -0.0350     0.2850     2.4230
 2479.5000  1247.0620   -54.3820     6.3250     4.6240     3.9050  1350.5690     9.1200   154.0110    -0.0360     0.2850     2.4290
 2480.0000  1247.1420   -54.3820     6.2570     4.6240     3.9160  1350.8820     9.1300   153.9930    -0.0270     0.2820     2.4510
 2480.5000  1247.2220   -54.3820     6.1450     4.5980     3.9270  1351.1960     9.1400   154.0070    -0.0200     0.2790     2.4650
 2481.0000  1247.3020   -54.3820     6.0330     4.5770     3.9380  1351.5090     9.1490   153.9660    -0.0120     0.2800     2.4630
 2481.5000  1247.3820   -54.3820     5.8750     4.5560     3.9500  1351.8220     9.1590   154.3420    -0.0050     0.2810     2.4630
 2482.0000  1247.4620   -54.3820     5.9410     4.5340     3.9610  1352.1360     9.1680   155.3190    -0.0070     0.2800     2.4640
 2482.5000  1247.5420   -54.3820     6.0520     4.5130     3.9730  1352.4490     9.1770   156.7120    -0.0090     0.2780     2.4660
 2483.0000  1247.6219   -54.3820     6.0960     4.4910     3.9900  1352.7629     9.1800   158.1510    -0.0110     0.2800     2.4680
 2483.5000  1247.7020   -54.3820     5.9550     4.4700     3.9790  1353.0760     9.1800   159.1050    -0.0130     0.2780     2.4700
 2484.0000  1247.7820   -54.3820     5.8380     4.4480     3.9490  1353.3900     9.1800   159.6350    -0.0130     0.2830     2.4730
