~VERSION INFORMATION
 VERS.                2.0:   CWLS LOG ASCII STANDARD - VERSION 2.0
 WRAP.                 NO:   ONE LINE PER DEPTH STEP
~WELL INFORMATION
#MNEM.UNIT      DATA TYPE    INFORMATION
#----------   ------------   ------------------------------
 STRT.F            1.0000:   START DEPTH
 STOP.F         2854.0000:   STOP DEPTH
 STEP.F            0.5000:   STEP LENGTH
 NULL.          -999.2500:   NO VALUE
 COMP.          INTEX OIL:   COMPANY
 WELL. INTEX N.P.R. "AX" #42-29:   WELL
 FLD .             TEAPOT:   FIELD
 LOC .      S29 T39N R78W:   LOCATION
 CNTY.            NATRONA:   COUNTY
 STAT.            WYOMING:   STATE
 CTRY. UNITED STATES OF AMERICA:   COUNTRY
 SRVC.       SCHLUMBERGER:   SERVICE COMPANY
 DATE.        30-MAY-1986:   LOGDATE
 API .     49025095240000:   API NUMBER
~CURVE INFORMATION
#MNEM.UNIT       API CODE    CURVE DESCRIPTION
#----------   ------------   ------------------------------
 DEPT.F                  :   
 SPR .MV     05 010 01 00:   SPONTANEOUS POTENTIAL FROM RES.
 ASN .OHMM   05 041 16 00:   AMPLIFIED SHORT NORMAL 16"
 ILD .OHMM   05 120 46 00:   INDUCTION LOG DEEP
 GRD .GAPI   45 310 01 00:   GAMMA RAY FROM DENSITY LOG
 CALD.IN     45 280 60 00:   CALIPER FROM DENSITY LOG
 CORR.G/C3   45 356 01 00:   DENSITY CORRECTION
 RHOB.G/C3   45 350 01 00:   BULK DENSITY
 CALI.IN     30 280 01 00:   CALIPER FROM GAMMA RAY LOG
 GR  .GAPI   30 310 01 00:   GAMMA RAY
~PARAMETER INFORMATION
#MNEM.UNIT          VALUE    DESCRIPTION
#----------   ------------   ------------------------------
 EKB .F         5020.3000:   Kelly bushing
 EGL .F         5010.0000:   Ground level
 EDF .F            0.0000:   Drilling floor
 TD  .F         2860.0000:   Total depth
 CLNT.            A2DTECH:   Client Code
 DATE.        30-MAY-1986:   Date Logged [DD-MMM-YYYY]
 DD  .F              2860:   Depth driller
 DL  .F              2855:   Depth logger
 BLI .F              2854:   Bottom log interval
 TLI .F               164:   Top log interval
 CS1 .              8.625:   Casing size
 CBD1.      8.625" @ 167':   Casing driller 1
 CBL1.IN              164:   Casing logger 1
 BS1 .IN            7.875:   Bit size
 BSD1.F              2860:   Depth drilled with bit1
 DFT .  LIGND-SULFATE LCM:   Type fluid in hole
 DFD .                8.9:   Density
 DFV .                 33:   Viscosity
 DFPH.               11.0:   pH
 DFL .                9.2:   Fluid loss
 MSS .           FLOWLINE:   Source of sample
 RMS .OHMM           1.47:   Rm
 MST .F                55:   Rm Meas. temp.
 RMF .OHMM           1.13:   Rmf
 MFST.F                75:   Rmf Meas. temp.
 RMB .OHMM           0.78:   Rm. at BHT
 BHT .F               108:   BHT.
 TCS .HRS               3:   Time Circ. stopped
 MRT .F               108:   Maximum recorded temp.
 LUN .               3527:   Logging unit number
 LUL .               CSPR:   Logging unit location
 ENGI.            MANGOLO:   Recorded By
 WITN.             TUTTLE:   Witnessed by
 ORIG.      1" 2.5" PRINT:   Origin of data
 UWI .     49025095240000:   Unique Well ID
 DICO. A2D TECHNOLOGIES, INC.:   Digitizing Company
 PD  .                 GL:   Permanent Datum
 EPD .               5010:   Elevation Permanent Datum
 LMF .                 KB:   Log Measured From
 DMF .                 KB:   Drilling Measured From
 DAPD.              10.32:   Feet Above Permanent Datum
 MFSS.         MEAS PRESS:   Source Rmf.
~OTHER INFORMATION
~A    DEPT     SPR        ASN        ILD        GRD       CALD       CORR       RHOB        CALI        GR   
# ...
 1972.0000   -42.9390    14.3526     9.6921   102.1289     8.6466     0.0140     2.4970  -999.2500  -999.2500
 1972.5000   -43.2395    14.5061     9.6944   102.5885     8.6465     0.0048     2.4781  -999.2500  -999.2500
 1973.0000   -43.6006    14.6596     9.5456   100.2782     8.6463    -0.0012     2.4695  -999.2500  -999.2500
 1973.5000   -44.1451    14.6611     9.3965    99.3528     8.6462     0.0064     2.4809  -999.2500  -999.2500
 1974.0000   -43.5305    14.2745     9.0969   101.1966     8.6460     0.0125     2.4916  -999.2500  -999.2500
 1974.5000   -43.5260    13.9699     8.7970   102.5789     8.6459     0.0171     2.5007  -999.2500  -999.2500
 1975.0000   -43.9280    13.6651     8.4972   103.0385     8.6457     0.0278     2.5099  -999.2500  -999.2500
 1975.5000   -44.4318    13.2997     8.4994   100.2666     8.6456     0.0309     2.5198  -999.2500  -999.2500
 1976.0000   -44.7322    12.9973     8.3505   100.1539     8.6454     0.0324     2.5274  -999.2500  -999.2500
 1976.5000   -44.3562    12.8465     8.3529   103.9543     8.6453     0.0309     2.5305  -999.2500  -999.2500
 1977.0000   -43.4319    12.5443     8.3551   105.7982     8.6451     0.0188     2.5243  -999.2500  -999.2500
 1977.5000   -43.1936    12.3936     8.3573   104.4113     8.6450     0.0096     2.5128  -999.2500  -999.2500
 1978.0000   -43.1890    12.3954     8.5106   101.1782     8.6448     0.0249     2.5022  -999.2500  -999.2500
 1978.5000   -43.1844    12.5489     8.3618    98.4067     8.6447     0.0417     2.5147  -999.2500  -999.2500
 1979.0000   -43.0884    12.7024     8.3641    96.5582     8.6445     0.0478     2.5204  -999.2500  -999.2500
 1979.5000   -42.8704    12.8558     8.3663    95.1713     8.6750     0.0341     2.5090  -999.2500  -999.2500
 1980.0000   -42.8658    12.8573     8.3686    94.2459     8.6749     0.0265     2.5022  -999.2500  -999.2500
 1980.5000   -42.5564    12.8589     8.3708    93.3205     8.6747     0.0262     2.4992  -999.2500  -999.2500
 1981.0000   -42.5519    12.8604     8.2220    92.3952     8.6746     0.0266     2.4992  -999.2500  -999.2500
 1981.5000   -42.4304    12.8619     8.2244    89.1621     8.6744     0.0251     2.4977  -999.2500  -999.2500
 1982.0000   -42.2378    12.8634     8.2266    87.7752     8.6874     0.0220     2.4969  -999.2500  -999.2500
 1982.5000   -42.2332    12.7129     8.2289    88.6959     8.7048     0.0175     2.4945  -999.2500  -999.2500
 1983.0000   -42.2286    12.7144     8.2311    94.6936     8.7046     0.0129     2.4876  -999.2500  -999.2500
 1983.5000   -42.2241    12.5639     8.2334   100.2298     8.7045     0.0114     2.4793  -999.2500  -999.2500
 1984.0000   -42.2195    12.5655     8.2356   102.9967     8.7043     0.0084     2.4723  -999.2500  -999.2500
 1984.5000   -42.0676    12.5703     8.2379   104.3791     8.7183     0.0039     2.4647  -999.2500  -999.2500
 1985.0000   -41.9055    12.4273     8.2402   105.7614     8.7347     0.0008     2.4604  -999.2500  -999.2500
 1985.5000   -41.9009    12.4310     8.2424   109.4514     8.7345     0.0024     2.4557  -999.2500  -999.2500
 1986.0000   -41.8963    12.5813     8.3957   109.5139     8.7344     0.0070     2.4495  -999.2500  -999.2500
 1986.5000   -42.3643    12.7315     8.5491   105.2929     8.7342     0.0116     2.4541  -999.2500  -999.2500
 1987.0000   -42.8018    13.0285     8.7025   100.6752     8.7341     0.0238     2.4913  -999.2500  -999.2500
 1987.5000   -42.7973    13.1788     8.8558    96.5191     8.7339     0.0284     2.5080  -999.2500  -999.2500
 1988.0000   -42.7918    13.6223     8.8580    95.5385     8.7644     0.0269     2.5145  -999.2500  -999.2500
 1988.5000   -42.4824    13.6260     8.7089    97.8991     8.7642     0.0239     2.5145  -999.2500  -999.2500
 1989.0000   -42.1730    13.6296     8.5151    96.5122     8.7641     0.0285     2.5163  -999.2500  -999.2500
 1989.5000   -42.1684    13.1934     8.2602    93.7406     8.7639     0.0346     2.5208  -999.2500  -999.2500
 1990.0000   -41.8590    12.9038     8.0614    90.9691     8.7638     0.0300     2.5160  -999.2500  -999.2500
 1990.5000   -41.8545    12.6142     7.9102    93.7360     8.7636     0.0224     2.5038  -999.2500  -999.2500
 1991.0000   -41.8499    12.4707     7.7588    95.5799     8.7635     0.0194     2.4977  -999.2500  -999.2500
 1991.5000   -41.8454    12.1817     7.6650    98.3468     8.7633     0.0194     2.4962  -999.2500  -999.2500
 1992.0000   -41.8409    11.8921     7.5162   100.6522     8.7632     0.0210     2.4947  -999.2500  -999.2500
 1992.5000   -41.8363    11.6025     7.3679   103.8807     8.7630     0.0347     2.4810  -999.2500  -999.2500
 1993.0000   -41.8318    11.3123     7.1536   106.6476     8.7629     0.0546     2.5114  -999.2500  -999.2500
 1993.5000   -41.5224    10.8767     7.0023   108.9530     8.7627     0.0759     2.5221  -999.2500  -999.2500
 1994.0000   -41.8232    10.4405     6.8509   111.2584     8.7625     0.0439     2.5205  -999.2500  -999.2500
 1994.5000   -42.1231    10.1509     6.5486   114.0253     8.7624     0.0165     2.4932  -999.2500  -999.2500
 1995.0000   -42.1185    10.0073     6.4728   116.7922     8.7622     0.0089     2.4877  -999.2500  -999.2500
 1995.5000   -42.1140     9.7184     6.2460   118.6361     8.7621     0.0196     2.5023  -999.2500  -999.2500
 1996.0000   -42.1095     9.5748     6.0946   120.4800     8.7619     0.0379     2.4962  -999.2500  -999.2500
 1996.5000   -42.1049     9.6077     5.8754   123.2469     8.7618     0.0440     2.4840  -999.2500  -999.2500
 1997.0000   -41.7955     9.8655     5.7920   127.8600     8.7616     0.0471     2.4749  -999.2500  -999.2500
 1997.5000   -40.8763     9.5277     5.6408   133.3961     8.7615     0.0532     2.4718  -999.2500  -999.2500
 1998.0000   -40.5466     9.4728     5.5801   138.9323     8.7613     0.0624     2.4795  -999.2500  -999.2500
 1998.5000   -42.3918     9.3884     5.4313   140.3216     8.7612     0.0579     2.4871  -999.2500  -999.2500
 1999.0000   -42.3871     9.3041     5.4339   132.0046     8.7610     0.0594     2.5038  -999.2500  -999.2500
 1999.5000   -42.3826     9.1905     5.2847   123.6946     8.7609     0.0655     2.5145  -999.2500  -999.2500
 2000.0000   -42.0732     9.0769     5.2874   122.3077     8.7607     0.0777     2.5114  -999.2500  -999.2500
 2000.5000   -41.7638     9.0219     5.2896   122.3054     8.7606     0.0823     2.4901  -999.2500  -999.2500
 2001.0000   -41.7591     8.9956     5.4429   122.2986     8.7911     0.0854     2.4658  -999.2500  -999.2500
 2001.5000   -41.7546     8.9999     5.5962   121.3637     8.7909     0.0652     2.4094  -999.2500  -999.2500
 2002.0000   -41.7500     9.3554     5.5985   121.4124     8.7908     0.0306     2.4014  -999.2500  -999.2500
 2002.5000   -42.0505     9.6524     5.9028   125.5615     8.7906     0.0368     2.4277  -999.2500  -999.2500
 2003.0000   -42.4500     9.8906     6.2072   128.3352     8.7905     0.0413     2.4353  -999.2500  -999.2500
 2003.5000   -43.2393    10.0696     6.6626   131.5549     8.7903     0.0398     2.4475  -999.2500  -999.2500
 2004.0000   -42.9268    10.1711     6.9670   133.4719     8.7595     0.0446     2.4354  -999.2500  -999.2500
 2004.5000   -42.9192    10.2236     7.2714   136.1538     8.7593     0.0263     2.4080  -999.2500  -999.2500
 2005.0000   -42.9101    10.8138     7.0997   136.0000     8.7592     0.0187     2.4323  -999.2500  -999.2500
 2005.5000   -42.9026    10.9641     7.0997   133.3855     8.7590     0.0263     2.4521  -999.2500  -999.2500
 2006.0000   -42.8951    11.2610     7.2508   126.6148     8.7589     0.0477     2.4765  -999.2500  -999.2500
 2006.5000   -43.1936    11.2647     7.0997   121.2305     8.7587     0.0584     2.4948  -999.2500  -999.2500
 2007.0000   -43.1850    11.4150     7.0997   118.9230     8.7586     0.0493     2.4735  -999.2500  -999.2500
 2007.5000   -43.1774    11.4186     7.0468   117.6923     8.7584     0.0341     2.4522  -999.2500  -999.2500
 2008.0000   -42.8651    11.4223     6.8922   120.4613     8.7583     0.0265     2.4567  -999.2500  -999.2500
