~VERSION INFORMATION
 VERS.                2.0:   CWLS LOG ASCII STANDARD - VERSION 2.0
 WRAP.                 NO:   ONE LINE PER DEPTH STEP
~WELL INFORMATION
#MNEM.UNIT      DATA TYPE    INFORMATION
#----------   ------------   ------------------------------
 STRT.F          205.0000:   START DEPTH
 STOP.F         3171.5000:   STOP DEPTH
 STEP.F            0.5000:   STEP LENGTH
 NULL.          -999.2500:   NO VALUE
 COMP.    FENIX & SCISSON:   COMPANY
 WELL. FENIX & SCISSON  "AX" #27-28:   WELL
 FLD .              NPR 3:   FIELD
 LOC .      S28 T39N R78W:   LOCATION
 CNTY.            NATRONA:   COUNTY
 STAT.            WYOMING:   STATE
 CTRY. UNITED STATES OF AMERICA:   COUNTRY
 SRVC.       SCHLUMBERGER:   SERVICE COMPANY
 DATE.        30-MAY-1977:   LOGDATE
 API .     49025103870000:   API NUMBER
~CURVE INFORMATION
#MNEM.UNIT       API CODE    CURVE DESCRIPTION
#----------   ------------   ------------------------------
 DEPT.F                  :   
 NPHI.DEC    42 890 03 00:   NEUTRON POROSITY SANDSTONE
 CALD.IN     45 280 60 00:   CALIPER FROM DENSITY LOG
 GRD .GAPI   45 310 01 00:   GAMMA RAY FROM DENSITY LOG
 RHOB.G/C3   45 350 01 00:   BULK DENSITY
 CORR.G/C3   45 356 01 00:   DENSITY CORRECTION
 SPR .MV     11 010 01 00:   SPONTANEOUS POTENTIAL
 MSFL.OHMM   11 270 04 00:   MICRO SPHERICALLY FOCUSED RES.
 LLD .OHMM   11 220 10 00:   LATEROLOG LOG DEEP
 LLS .OHMM   11 220 09 00:   LATEROLOG LOG SHALLOW
~PARAMETER INFORMATION
#MNEM.UNIT          VALUE    DESCRIPTION
#----------   ------------   ------------------------------
 EKB .F         5094.0000:   Kelly bushing
 EGL .F         5084.0000:   Ground level
 EDF .F            0.0000:   Drilling floor
 EPD .F            0.0000:   Permanent datum
 TD  .F         3169.0000:   Total depth
 DATE.        30-MAY-1977:   Date logged
 CLNT.            A2DTECH:   Client Code
 SL  . 1266' FSL & 871' FWL:   Surface Location
 PD  .                 GL:   Permanent Datum
 DD  .F              3163:   Depth driller
 DL  .F              3169:   Depth logger
 BLI .F              3168:   Bottom log interval
 CS1 .IN            8.625:   Casing size
 CBD1.      8.625" @ 210':   Casing driller 1
 CBL1.F               219:   Casing logger 1
 BS1 .IN            7.875:   Bit size
 DFT .           SALT/MUD:   Type fluid in hole
 DFD .                8.9:   Density
 DFV .                 32:   Viscosity
 DFPH.                8.5:   pH
 DFL .                5.8:   Fluid loss
 MSS .                PIT:   Source of sample
 RMS .OHMM           .194:   Rm
 MST .F                65:   Rm Meas. temp.
 RMF .OHMM           .165:   Rmf
 MFST.F                65:   Rmf Meas. temp.
 MFSS.               MEAS:   Source Rmf.
 RMB .OHMM           .107:   Rm. at BHT
 BHT .F               118:   BHT.
 MRT .F               118:   Maximum recorded temp.
 LUN .               5642:   Logging unit number
 LUL .               CSPR:   Logging unit location
 ENGI.             MARTIN:   Recorded By
 WITN.         PETTINGILL:   Witnessed by
 ORIG.           5" PRINT:   Origin of data
 UWI .     49025103870000:   Unique Well ID
 DICO. A2D TECHNOLOGIES, INC.:   Digitizing Company
 DAPD.F                10:   Feet Above Permanent Datum
 BSD1.F              3163:   Depth drilled with bit1
 TLI .F               219:   Top log interval
 TLAB.HRS            0930:   Time logger at bottom
~OTHER INFORMATION
~A   DEPT     NPHI         CALD      GRD         RHOB      CORR       SPR       MSFL        LLD        LLS   
# ...
 1373.0000     0.3255     8.5431   152.7983     2.5448     0.0640   -87.4423     9.4622     7.4141     7.7624
 1373.5000     0.3255     8.5433   148.8215     2.5309     0.0391   -87.8395     9.5487     7.2787     7.6909
 1374.0000     0.3255     8.5434   146.0376     2.5209     0.0301   -87.8411     9.5480     7.2782     7.6903
 1374.5000     0.3255     8.5037   143.6517     2.5309     0.0531   -87.8858     9.4600     7.2776     7.6897
 1375.0000     0.3279     8.5237   144.4516     2.5249     0.0521   -87.9305     9.4594     7.2771     7.7602
 1375.5000     0.3331     8.5239   146.8444     2.4970     0.0232   -87.9752     9.4587     7.4114     7.8312
 1376.0000     0.3322     8.5837   148.4407     2.5090     0.0132   -88.0199     9.3718     7.5482     7.9757
 1376.5000     0.3251     8.5042   152.0275     2.5160     0.0242   -88.0647     9.2011     7.5477     8.0487
 1377.0000     0.3211     8.4844   152.8275     2.5060     0.0202   -88.1094     9.1165     7.4097     8.0481
 1377.5000     0.3154     8.4845   152.0346     2.4981     0.0272   -88.1541     9.0676     7.1420     7.8289
 1378.0000     0.3202     8.4847   150.0476     2.5130     0.0551   -88.1988     9.2349     7.0116     7.4771
 1378.5000     0.3278     8.4848   148.4581     2.5270     0.0621   -88.2435     9.4921     7.0111     7.4763
 1379.0000     0.3378     8.5048   147.6650     2.5489     0.0781   -88.2882     9.7565     7.0752     7.5449
 1379.5000     0.3394     8.4850   146.4738     2.5679     0.0861   -88.3329    10.0282     7.1400     7.7344
 1380.0000     0.3174     8.4852   146.4772     2.5719     0.0492   -88.3776    10.0274     7.4066     7.9286
 1380.5000     0.3134     8.4654   148.0737     2.5490     0.0572   -88.4223    10.0267     7.5432     8.1277
 1381.0000     0.3114     8.4854   149.2713     2.5380     0.0472   -88.4622     9.9344     7.4738     8.1924
 1381.5000     0.3086     8.4656   149.6730     2.5260     0.0403   -88.6630     9.7529     7.2037     7.6819
 1382.0000     0.3090     8.4856   146.4910     2.5630     0.0752   -88.8615     9.6631     7.0721     7.6813
 1382.5000     0.3086     8.4659   148.4852     2.5460     0.0622   -89.0607     9.6624     7.2691     7.7516
 1383.0000     0.3142     8.4859   149.2852     2.5390     0.0542   -89.0019     9.6617     7.3356     7.8225
 1383.5000     0.3174     8.4860   150.8818     2.5281     0.0702   -88.9432     9.7501     7.3351     7.8219
 1384.0000     0.3274     8.4861   154.4699     2.5281     0.0403   -88.8845     9.6603     7.3345     7.7499
 1384.5000     0.3194     8.4862   154.8717     2.5341     0.0692   -88.8258     9.5713     7.2669     7.7493
 1385.0000     0.3154     8.4864   150.0961     2.5540     0.0732   -88.7671     9.5707     7.2000     7.6779
 1385.5000     0.3186     8.4865   149.7755     2.5461     0.0772   -88.7084     9.6583     7.1337     7.6072
 1386.0000     0.3281     8.4468   148.5078     2.5311     0.0473   -88.6497     9.6576     7.1331     7.6066
 1386.5000     0.3345     8.4668   145.7231     2.5471     0.0553   -88.5910    10.1614     7.1984     7.6063
 1387.0000     0.3345     8.4670   142.5408     2.5511     0.0623   -88.5322    10.4436     7.3311     7.6056
 1387.5000     0.3233     8.4671   138.5627     2.5471     0.0653   -88.4735    11.1342     7.4665     7.8173
 1388.0000     0.3177     8.4871   136.9728     2.5391     0.0394   -88.4148    11.7621     7.7313     8.3356
 1388.5000     0.3117     8.4872   131.3986     2.5691     0.0514   -88.3561    12.0889     8.1083     8.7265
 1389.0000     0.3085     8.4874   137.3779     2.5571     0.0394   -88.2965    11.8142     8.1827     8.8877
 1389.5000     0.3033     8.4874   142.1605     2.5621     0.0554   -88.2981    11.5515     7.9598     8.9691
 1390.0000     0.3049     8.4875   144.9530     2.5531     0.0624   -88.3001    11.2947     7.8144     8.7247
 1390.5000     0.3241     8.4877   148.5408     2.5342     0.0345   -88.3020    11.0436     7.6717     8.3325
 1391.0000     0.3222     8.4878   150.9343     2.5282     0.0514   -88.3040    10.7981     7.5315     8.1055
 1391.5000     0.3189     8.4891   149.7425     2.5312     0.0325   -88.3072    10.5778     7.3939     7.9575
 1392.0000     0.3209     8.4905   149.9589     2.5392     0.0514   -88.3080    10.4804     7.3938     7.9569
 1392.5000     0.3500     8.4919   150.1464     2.5462     0.0564   -88.3088    10.4796     7.3819     7.9568
 1393.0000     0.3552     8.4932   152.1417     2.5442     0.0644   -88.2854    10.4789     7.3699     7.8569
 1393.5000     0.3568     8.4946   155.3321     2.5442     0.0445   -88.2620    10.4781     7.3580     7.7389
 1394.0000     0.3540     8.4959   160.1175     2.5612     0.0624   -88.2386    10.4779     7.3461     7.7385
 1394.5000     0.3480     8.4973   159.1985     2.5732     0.0744   -88.2152    10.5129     7.3342     7.7380
 1395.0000     0.3276     8.4987   158.1314     2.5742     0.0834   -88.1918    10.5480     7.3225     7.7374
 1395.5000     0.3204     8.5000   155.7447     2.5562     0.0605   -88.1684    10.5832     7.3220     7.7373
 1396.0000     0.3192     8.5014   153.7563     2.5513     0.0366   -88.1263    10.6684     7.3214     7.7882
 1396.5000     0.3192     8.5028   151.3695     2.5642     0.0455   -87.9303    10.6681     7.4567     7.8395
 1397.0000     0.3204     8.5041   149.7788     2.5752     0.0655   -88.0343    10.4817     7.5249     7.8912
 1397.5000     0.3236     8.5055   148.1894     2.5633     0.0575   -88.1323    10.4720     7.3874     7.9432
 1398.0000     0.3264     8.5069   155.3655     2.5463     0.0466   -88.1343    10.8630     7.3194     7.9955
 1398.5000     0.3264     8.5082   152.9788     2.5294     0.0316   -87.7410    10.9626     7.3863     8.0481
 1399.0000     0.3232     8.5097   151.3887     2.5324     0.0456   -87.5454    10.9618     7.5227     8.1012
 1399.5000     0.3168     8.5098   150.1969     2.5364     0.0536   -87.3498    10.9610     7.5915     8.1699
 1400.0000     0.3184     8.5100   150.2004     2.5424     0.0287   -86.9562    10.9602     7.6610     8.1696
 1400.5000     0.3218     8.5102   149.4776     2.5472     0.0395   -86.9585    10.9593     7.6604     8.1689
 1401.0000     0.3240     8.4709   149.0151     2.5464     0.0457   -86.9576    10.9617     7.5922     8.0963
 1401.5000     0.3208     8.4911   149.4186     2.5365     0.0577   -87.1559    10.9629     7.4547     8.0970
 1402.0000     0.3120     8.4915   151.4156     2.5225     0.0427   -87.5518    10.9640     7.3197     7.9504
 1402.5000     0.3132     8.4918   152.6157     2.5256     0.0388   -87.9477    10.4729     7.3204     7.9511
 1403.0000     0.3188     8.4922   150.2289     2.5216     0.0278   -88.3437    10.4739     7.1878     7.8071
 1403.5000     0.3244     8.4925   147.8437     2.5047     0.0388   -88.1467    10.8668     7.1228     7.7365
 1404.0000     0.3296     8.4730   145.4587     2.4997     0.0159   -87.7520    11.1713     7.1235     7.7372
 1404.5000     0.3328     8.4932   144.2687     2.5336     0.0479   -87.7526    11.5904     7.3231     7.8814
 1405.0000     0.3352     8.4936   144.2739     2.5486     0.0449   -87.7532    11.4341     7.5978     8.1770
 1405.5000     0.3328     8.4940   144.2790     2.5496     0.0359   -87.5562    11.3309     7.8108     8.4836
 1406.0000     0.3129     8.4943   144.6825     2.5417     0.0509   -87.3591    11.1263     7.8836     8.6416
 1406.5000     0.3093     8.4947   150.6644     2.5467     0.0470   -87.1620    11.0259     7.8843     8.6424
 1407.0000     0.3069     8.4949   151.8613     2.5377     0.0370   -86.9649    11.1283     7.7415     8.5642
 1407.5000     0.3069     8.4953   152.6629     2.5358     0.0560   -86.7678    11.0279     7.5318     8.4867
 1408.0000     0.3093     8.4956   152.6679     2.5298     0.0431   -86.5707    10.8758     7.8142     8.4099
 1408.5000     0.3217     8.4960   150.2849     2.5438     0.0351   -86.5712    10.7774     7.8150     8.2576
 1409.0000     0.3281     8.4963   150.2899     2.5658     0.0521   -86.7695    10.7784     7.3968     8.2584
