~VERSION INFORMATION
 VERS.                2.0:   CWLS LOG ASCII STANDARD - VERSION 2.0
 WRAP.                 NO:   ONE LINE PER DEPTH STEP
~WELL INFORMATION
#MNEM.UNIT      DATA TYPE    INFORMATION
#----------   ------------   ------------------------------
 STRT.F            7.0000:   START DEPTH
 STOP.F         3304.0000:   STOP DEPTH
 STEP.F            0.5000:   STEP LENGTH
 NULL.          -999.2500:   NO VALUE
 COMP. LAWRENCE ALLISON ASSOC. WEST:   COMPANY
 WELL. LAWRENCE NPR  "X" #18-2:   WELL
 FLD .              N P R:   FIELD
 LOC .       S2 T38N R78W:   LOCATION
 CNTY.            NATRONA:   COUNTY
 STAT.            WYOMING:   STATE
 CTRY. UNITED STATES OF AMERICA:   COUNTRY
 SRVC.      DRESSER ATLAS:   SERVICE COMPANY
 DATE.        28-APR-1986:   LOGDATE
 API .     49025110710000:   API NUMBER
~CURVE INFORMATION
#MNEM.UNIT       API CODE    CURVE DESCRIPTION
#----------   ------------   ------------------------------
 DEPT.F                  :   
 TEND.LBS    45 635 01 00:   TENSION FROM DENSITY LOG
 DEN .G/C3   45 635 01 00:   DENSITY
 CORR.G/C3   45 356 01 00:   DENSITY CORRECTION
 CNC .DEC    42 890 03 00:   NEUTRON PORISITY SANDSTONE
 TENR.LBS    07 635 01 00:   TENSION FROM RESISTIVITY
 CALR.IN     07 280 01 00:   CALIPER FROM RESISTIVITY
 SPR .MV     07 010 01 00:   SPONTANEOUS POTENTIAL
 GRR .GAPI   07 310 01 00:   GAMMA RAY FROM RESISTIVITY
 RFOC.OHMM   07 220 04 00:   RESISTIVITY FOCUSED LOG RES.
 RILD.OHMM   07 120 46 00:   DEEP INDUCTION RESISTIVITY
 RILM.OHMM   07 120 44 00:   INDUCTION LOG MEDIUM RESISTIVITY
 TENS.LBS    60 635 01 00:   TENSION
 AC  .US/F   60 250 00 00:   ACCOUSTIC
~PARAMETER INFORMATION
#MNEM.UNIT          VALUE    DESCRIPTION
#----------   ------------   ------------------------------
 EKB .F         5142.0000:   Kelly bushing
 EGL .F         5130.0000:   Ground level
 EDF .F            0.0000:   Drilling floor
 EPD .F         5130.0000:   Permanent datum
 TD  .F         3296.0000:   Total depth
 DATE.        28-APR-1986:   Date logged
 CLNT.            A2DTECH:   Client Code
 SL  . 210' FSL & 204' FWL:   Surface Location
 PD  .                 GL:   Permanent Datum
 DD  .F              3295:   Depth driller
 DL  .F              3290:   Depth logger
 BLI .F              3296:   Bottom log interval
 CS1 .IN            8.625:   Casing size
 CBD1.      8.625" @ 563':   Casing driller 1
 CBL1.F               560:   Casing logger 1
 BS1 .IN            7.875:   Bit size
 BSD1.F              3295:   Depth drilled with bit1
 DFT .        POLYMER KCL:   Type fluid in hole
 DFD .                8.9:   Density
 DFV .                 38:   Viscosity
 DFPH.                8.5:   pH
 DFL .                9.2:   Fluid loss
 MSS .           FLOWLINE:   Source of sample
 RMS .OHMM           .435:   Rm
 MST .F                74:   Rm Meas. temp.
 RMF .OHMM            .33:   Rmf
 MFST.F                74:   Rmf Meas. temp.
 RMC .OHMM            .54:   Rmc
 MCST.F                74:   Rmc Meas. temp.
 MFSS.               CALC:   Source Rmf.
 MCSS.               CALC:   Source Rmc.
 RMB .OHMM            .77:   Rm. at BHT
 BHT .F               119:   BHT.
 TCS .HRS               4:   Time Circ. stopped
 MRT .F               119:   Maximum recorded temp.
 LUN .            HL 6264:   Logging unit number
 LUL .           GILLETTE:   Logging unit location
 ENGI.      P.M. FAHLSING:   Recorded By
 WITN.             STRONG:   Witnessed by
 ORIG.         2.5" PRINT:   Origin of data
 UWI .     49025110710000:   Unique Well ID
 DICO. A2D TECHNOLOGIES, INC.:   Digitizing Company
 DAPD.                 12:   Feet Above Permanent Datum
~OTHER INFORMATION
~A    DEPT    TEND        DEN       CORR        CNC       TENR       CALR        SPR         GRR      RFOC       RILD       RILM       TENS         AC   
# ...
 1489.0000  -999.2500  -999.2500  -999.2500  -999.2500   -88.8610    10.7490   -36.0380    94.4600     8.1280     7.8350     8.1770  -999.2500  -999.2500
 1489.5000  -999.2500  -999.2500  -999.2500  -999.2500   -90.0420    10.7120   -35.9810    92.4560     8.0530     7.9380     8.2390  -999.2500  -999.2500
 1490.0000  -999.2500  -999.2500  -999.2500  -999.2500   -91.2230    10.6680   -36.3670    90.3070     8.2220     8.0410     8.3010  -999.2500  -999.2500
 1490.5000  -999.2500  -999.2500  -999.2500  -999.2500   -92.4040    10.6660   -36.9090    90.8640     8.3300     8.1440     8.3630  -999.2500  -999.2500
 1491.0000  -999.2500  -999.2500  -999.2500  -999.2500   -93.5850    10.6650   -37.5070    91.5230     8.5050     8.2470     8.4250  -999.2500  -999.2500
 1491.5000  -999.2500  -999.2500  -999.2500  -999.2500   -94.7670    10.6660   -38.0380    92.3140     8.7300     8.3300     8.4870  -999.2500  -999.2500
 1492.0000  -999.2500  -999.2500  -999.2500  -999.2500   -95.9480    10.6650   -38.4180    92.6140     8.9540     8.3220     8.5490  -999.2500  -999.2500
 1492.5000  -999.2500  -999.2500  -999.2500  -999.2500   -97.1290    10.6650   -38.4460    91.6750     8.9540     8.3120     8.6110  -999.2500  -999.2500
 1493.0000  -999.2500  -999.2500  -999.2500  -999.2500   -98.3100    10.6660   -38.5780    89.9080     8.8310     8.3010     8.6730  -999.2500  -999.2500
 1493.5000  -999.2500  -999.2500  -999.2500  -999.2500   -99.4910    10.6660   -38.1590    88.6110     8.6820     8.2910     8.7350  -999.2500  -999.2500
 1494.0000  -999.2500  -999.2500  -999.2500  -999.2500  -100.6720    10.6930   -37.9700    88.5850     8.5320     8.2810     8.7940  -999.2500  -999.2500
 1494.5000  -999.2500  -999.2500  -999.2500  -999.2500  -101.8530    10.7290   -38.0880    88.9530     8.4820     8.2710     8.7440  -999.2500  -999.2500
 1495.0000  -999.2500  -999.2500  -999.2500  -999.2500  -102.9410    10.7640   -38.3900    89.3070     8.4820     8.2600     8.6970  -999.2500  -999.2500
 1495.5000  -999.2500  -999.2500  -999.2500  -999.2500   -89.5590    10.7990   -38.7520    87.1790     8.4820     8.2500     8.6500  -999.2500  -999.2500
 1496.0000  -999.2500  -999.2500  -999.2500  -999.2500   -83.3330    10.8350   -38.7940    85.8700     8.4820     8.2400     8.6030  -999.2500  -999.2500
 1496.5000  -999.2500  -999.2500  -999.2500  -999.2500   -83.3330    10.8700   -38.5270    85.2460     8.3620     8.2300     8.5560  -999.2500  -999.2500
 1497.0000  -999.2500  -999.2500  -999.2500  -999.2500   -83.3330    10.9010   -37.6040    84.5670     8.1940     8.2200     8.5090  -999.2500  -999.2500
 1497.5000  -999.2500  -999.2500  -999.2500  -999.2500   -83.3330    10.9110   -36.6970    83.2910     8.0260     8.2100     8.4620  -999.2500  -999.2500
 1498.0000  -999.2500  -999.2500  -999.2500  -999.2500   -83.3330    10.9190   -35.8100    82.3450     7.8570     8.1990     8.4160  -999.2500  -999.2500
 1498.5000  -999.2500  -999.2500  -999.2500  -999.2500   -83.3330    10.9270   -34.8770    82.2340     7.7490     8.1890     8.3690  -999.2500  -999.2500
 1499.0000  -999.2500  -999.2500  -999.2500  -999.2500   -83.3330    10.9370   -34.6690    82.9400     7.7490     8.1810     8.3300  -999.2500  -999.2500
 1499.5000  -999.2500  -999.2500  -999.2500  -999.2500   -83.3330    10.9310   -34.4880    84.8940     7.7890     8.1810     8.4820  -999.2500  -999.2500
 1500.0000  -999.2500  -999.2500  -999.2500  -999.2500   -83.3330    10.8990   -35.2130    87.4550     7.8400     8.1810     8.4820  -999.2500  -999.2500
 1500.5000  -999.2500  -999.2500  -999.2500  -999.2500   -83.3330    10.8690   -35.9460    89.7530     7.8910     8.1810     8.4820  -999.2500  -999.2500
 1501.0000  -999.2500  -999.2500  -999.2500  -999.2500   -83.3330    10.8390   -36.7470    92.2270     8.0340     8.1810     8.4820  -999.2500  -999.2500
 1501.5000  -999.2500  -999.2500  -999.2500  -999.2500   -83.3330    10.8090   -37.4750    91.1810     8.1810     8.1810     8.6360  -999.2500  -999.2500
 1502.0000  -999.2500  -999.2500  -999.2500  -999.2500   -83.3330    10.7780   -38.3130    90.1820     8.3150     8.1750     8.6990  -999.2500  -999.2500
 1502.5000  -999.2500  -999.2500  -999.2500  -999.2500   -83.3330    10.7480   -38.4330    88.9590     8.4460     8.1640     8.7610  -999.2500  -999.2500
 1503.0000  -999.2500  -999.2500  -999.2500  -999.2500   -83.3330    10.7180   -38.6190    88.7080     8.5770     8.1550     8.8220  -999.2500  -999.2500
 1503.5000  -999.2500  -999.2500  -999.2500  -999.2500   -83.3330    10.6870   -38.6870    89.3130     8.7080     8.1450     8.8830  -999.2500  -999.2500
 1504.0000  -999.2500  -999.2500  -999.2500  -999.2500   -83.3330    10.6650   -39.1040    88.2510     8.8390     8.1350     8.9570  -999.2500  -999.2500
 1504.5000  -999.2500  -999.2500  -999.2500  -999.2500   -83.3330    10.6660   -39.1760    87.7200     8.9700     8.1250     8.9530  -999.2500  -999.2500
 1505.0000  -999.2500  -999.2500  -999.2500  -999.2500   -83.3330    10.6640   -39.1830    88.3840     9.1170     8.1150     8.9540  -999.2500  -999.2500
 1505.5000  -999.2500  -999.2500  -999.2500  -999.2500   -83.3330    10.6600   -39.1640    90.3170     9.1170     8.1050     8.9550  -999.2500  -999.2500
 1506.0000  -999.2500  -999.2500  -999.2500  -999.2500   -83.3330    10.6560   -39.1910    91.6710     9.0610     8.0950     8.9540  -999.2500  -999.2500
 1506.5000  -999.2500  -999.2500  -999.2500  -999.2500   -83.3330    10.6520   -39.0190    88.0860     8.9790     8.0850     8.9540  -999.2500  -999.2500
 1507.0000  -999.2500  -999.2500  -999.2500  -999.2500   -83.3330    10.6480   -38.6730    86.9480     8.8980     8.0750     8.9540  -999.2500  -999.2500
 1507.5000  -999.2500  -999.2500  -999.2500  -999.2500   -83.3330    10.6440   -38.3950    86.5360     8.8160     8.0650     8.9540  -999.2500  -999.2500
 1508.0000  -999.2500  -999.2500  -999.2500  -999.2500   -83.3330    10.6390   -38.3920    90.3280     8.7940     8.0550     8.9540  -999.2500  -999.2500
 1508.5000  -999.2500  -999.2500  -999.2500  -999.2500   -83.3330    10.6350   -38.3830    93.1010     8.7940     8.0450     8.9540  -999.2500  -999.2500
 1509.0000  -999.2500  -999.2500  -999.2500  -999.2500   -83.3330    10.6310   -38.5450    91.8880     8.7940     8.0320     8.9540  -999.2500  -999.2500
 1509.5000  -999.2500  -999.2500  -999.2500  -999.2500   -83.3330    10.6270   -38.7700    89.9260     8.9540     8.0370     8.9540  -999.2500  -999.2500
 1510.0000  -999.2500  -999.2500  -999.2500  -999.2500   -83.3330    10.6260   -38.9910    89.7020     9.1170     8.0930     8.9540  -999.2500  -999.2500
 1510.5000  -999.2500  -999.2500  -999.2500  -999.2500   -83.3330    10.6260   -39.1680    90.3810     9.1170     8.1410     8.9540  -999.2500  -999.2500
 1511.0000  -999.2500  -999.2500  -999.2500  -999.2500   -83.3330    10.6260   -39.1710    91.1850     9.3140     8.1910     8.9540  -999.2500  -999.2500
 1511.5000  -999.2500  -999.2500  -999.2500  -999.2500   -83.3330    10.6260   -39.1730    94.7560     9.4520     8.2410     8.9540  -999.2500  -999.2500
 1512.0000  -999.2500  -999.2500  -999.2500  -999.2500   -83.3330    10.6260   -39.1760    98.5440     9.1550     8.2900     8.9540  -999.2500  -999.2500
 1512.5000  -999.2500  -999.2500  -999.2500  -999.2500   -83.3330    10.6260   -39.1710    96.6830     8.9540     8.3300     8.9540  -999.2500  -999.2500
 1513.0000  -999.2500  -999.2500  -999.2500  -999.2500   -83.3330    10.6270   -39.1650    94.3600     8.9780     8.3170     8.9540  -999.2500  -999.2500
 1513.5000  -999.2500  -999.2500  -999.2500  -999.2500   -83.3330    10.6250   -39.2990    92.5210     9.0360     8.3010     8.9540  -999.2500  -999.2500
 1514.0000  -999.2500  -999.2500  -999.2500  -999.2500   -83.3330    10.6250   -39.7490    92.5680     9.1170     8.2860     8.9540  -999.2500  -999.2500
 1514.5000  -999.2500  -999.2500  -999.2500  -999.2500   -83.3330    10.6340   -40.2870    92.4550     9.0960     8.2710     8.9540  -999.2500  -999.2500
