~VERSION INFORMATION
 VERS.                2.0:   CWLS LOG ASCII STANDARD - VERSION 2.0
 WRAP.                 NO:   ONE LINE PER DEPTH STEP
~WELL INFORMATION
#MNEM.UNIT      DATA TYPE    INFORMATION
#----------   ------------   ------------------------------
 STRT.F          186.0000:   START DEPTH
 STOP.F         3060.0000:   STOP DEPTH
 STEP.F            0.5000:   STEP LENGTH
 NULL.          -999.2500:   NO VALUE
 COMP.    FENIX & SCISSON:   COMPANY
 WELL. FENIX NPR 3 "AX" #63-29:   WELL
 FLD .              N P R:   FIELD
 LOC .      S29 T39N R78W:   LOCATION
 CNTY.            NATRONA:   COUNTY
 STAT.            WYOMING:   STATE
 CTRY. UNITED STATES OF AMERICA:   COUNTRY
 SRVC.           BIRDWELL:   SERVICE COMPANY
 DATE.        28-FEB-1978:   LOGDATE
 API .     49025105960000:   API NUMBER
~CURVE INFORMATION
#MNEM.UNIT       API CODE    CURVE DESCRIPTION
#----------   ------------   ------------------------------
 DEPT.F                  :   
 CALD.IN     45 280 60 00:   CALIPER FROM DENSITY LOG
 GRD .GAPI   45 310 01 00:   GAMMA RAY FROM DENSITY LOG
 DEN .LBS    07 635 01 00:   
 CORR.G/C3   45 356 01 00:   DENSITY CORRECTION
 SPR .MV     05 010 01 00:   SPONTANEOUS POTENTIAL
 SN  .OHMM   05 040 00 00:   SHORT NORMAL
 ILD .OHMM   05 120 46 00:   DEEP INDUCTION RESISTIVITY
~PARAMETER INFORMATION
#MNEM.UNIT          VALUE    DESCRIPTION
#----------   ------------   ------------------------------
 EKB .F         4993.0000:   Kelly bushing
 EGL .F         4983.0000:   Ground level
 EDF .F            0.0000:   Drilling floor
 TD  .F         3060.0000:   Total depth
 DATE.        28-FEB-1978:   Date logged
 CLNT.            A2DTECH:   Client Code
 SL  . 1300' FNL & 1050' FEL:   Surface Location
 PD  .                 GL:   Permanent Datum
 DD  .F              3060:   Depth driller
 DL  .F              3056:   Depth logger
 BLI .F              5050:   Bottom log interval
 CS1 .IN            8.625:   Casing size
 CBD1.      8.625" @ 214':   Casing driller 1
 CBL1.F               218:   Casing logger 1
 BS1 .IN            7.875:   Bit size
 DFT .     LIGNOSULFONATE:   Type fluid in hole
 DFD .                  9:   Density
 DFV .                 34:   Viscosity
 DFPH.               10.5:   pH
 DFL .                  9:   Fluid loss
 MSS .           FLOWLINE:   Source of sample
 RMS .OHMM            1.8:   Rm
 MST .F                58:   Rm Meas. temp.
 RMF .OHMM             .9:   Rmf
 MFST.F                65:   Rmf Meas. temp.
 RMC .OHMM            2.5:   Rmc
 MCST.F                70:   Rmc Meas. temp.
 MFSS.               MEAS:   Source Rmf.
 RMB .OHMM             88:   Rm. at BHT
 BHT .F               118:   BHT.
 TCS .HRS               8:   Time Circ. stopped
 MRT .F               118:   Maximum recorded temp.
 LUN .               2959:   Logging unit number
 LUL .               CASP:   Logging unit location
 ENGI.             MILLER:   Recorded By
 WITN.         HARRINGTON:   Witnessed by
 ORIG.           5" PRINT:   Origin of data
 UWI .     49025105960000:   Unique Well ID
 DICO. A2D TECHNOLOGIES, INC.:   Digitizing Company
 BSD1.F              3060:   Depth drilled with bit1
 EPD .F              4983:   Elevation Permanent Datum
 LMF .                 KB:   Log Measured From
 DMF .                 KB:   Drilling Measured From
 TLI .F               800:   Top log interval
~OTHER INFORMATION
~A   DEPT     CALD         GRD       DEN       CORR        SPR         SN        ILD   
# ...
 1733.0000     8.6220   114.1400     2.4490     0.0370   -45.0660    10.0240     7.7020
 1733.5000     8.6260   113.7210     2.4410     0.0370   -45.1820    10.0230     7.6950
 1734.0000     8.6300   112.2000     2.4340     0.0260   -45.2980    10.0260     7.6890
 1734.5000     8.6330   107.8250     2.4310     0.0140   -45.4120    10.0220     7.5900
 1735.0000     8.6370   107.6540     2.4320     0.0080   -45.5370    10.0310     7.4520
 1735.5000     8.6410   108.8080     2.4320     0.0070   -45.5510     9.8780     7.3090
 1736.0000     8.6450   110.0090     2.4060     0.0150   -45.4680     9.7520     7.1440
 1736.5000     8.6480   110.1820     2.3790     0.0970   -45.3940     9.6260     7.1440
 1737.0000     8.6520   106.9960     2.3770     0.1680   -45.3210     9.4850     7.1440
 1737.5000     8.6560   105.1100     2.3840     0.2240   -45.2450     9.4850     7.1850
 1738.0000     8.6590   104.3370     2.3700     0.2450   -45.1710     9.6750     7.2320
 1738.5000     8.6630   106.0620     2.3590     0.2630   -45.0970     9.8480     7.2800
 1739.0000     8.6670   108.5170     2.3870     0.1660   -45.0220    10.0240     7.3270
 1739.5000     8.6710   110.5960     2.3990     0.1680   -44.9470    10.0240     7.3750
 1740.0000     8.6750   109.7970     2.3890     0.1660   -44.8740    10.0240     7.4220
 1740.5000     8.6780   107.7500     2.3800     0.0970   -44.8000    10.0240     7.4700
 1741.0000     8.6820   105.9860     2.3820     0.1650   -44.7720    10.0240     7.5480
 1741.5000     8.6870   104.0690     2.4150     0.3020   -44.7580    10.0240     7.5440
 1742.0000     8.6530   101.7700     2.3370     0.2080   -44.7420    10.0240     7.5260
 1742.5000     8.5390   106.0990     2.2030     0.1060   -44.7260    10.0240     7.5080
 1743.0000     8.4250   112.6680     2.2090     0.1320   -44.7110    10.0240     7.4910
 1743.5000     8.3140   111.0920     2.3320     0.1950   -44.6950    10.0240     7.4720
 1744.0000     8.2130   109.9250     2.3950     0.2550   -44.6790    10.0240     7.4550
 1744.5000     8.2480   110.1360     2.4740     0.1220   -44.6630    10.0240     7.4370
 1745.0000     8.2800   110.5770     2.4570     0.1070   -44.6480    10.0240     7.4190
 1745.5000     8.3190   111.1340     2.4370     0.0820   -44.6320    10.0240     7.4110
 1746.0000     8.3550   111.6400     2.4180     0.0930   -44.6160    10.0240     7.4110
 1746.5000     8.3910   112.1860     2.4130     0.1460   -44.6000    10.0240     7.4110
 1747.0000     8.4280   112.0090     2.4340     0.1000   -44.5850    10.0240     7.4110
 1747.5000     8.4670   110.8590     2.4590     0.0600   -44.5690    10.0240     7.4110
 1748.0000     8.4820   110.3510     2.4090     0.0480   -44.5530    10.0240     7.4110
 1748.5000     8.4650   110.7850     2.4520     0.1540   -44.5370    10.0240     7.4110
 1749.0000     8.4520   109.8940     2.4460     0.1360   -44.5220    10.0240     7.4110
 1749.5000     8.5160   107.9790     2.4110     0.0970   -44.5060    10.0240     7.4110
 1750.0000     8.6370   107.6510     2.4090     0.1470   -44.4900    10.0240     7.4110
 1750.5000     8.6400   110.1390     2.4470     0.1980   -44.4740    10.0240     7.4110
 1751.0000     8.6320   110.2480     2.4540     0.2290   -44.4580    10.0240     7.4110
 1751.5000     8.6190   109.5170     2.4400     0.2070   -44.4420    10.0240     7.4120
 1752.0000     8.6100   108.7750     2.4670     0.1530   -44.4270    10.0240     7.4110
 1752.5000     8.6060   107.8860     2.4850     0.0830   -44.4090    10.0230     7.4090
 1753.0000     8.6420   106.9290     2.4120     0.0440   -44.3970    10.0240     7.4130
 1753.5000     8.7020   106.0000     2.4210     0.0790   -44.3810    10.0250     7.4190
 1754.0000     8.7400   105.1780     2.4470     0.0960   -44.4820    10.0590     7.3970
 1754.5000     8.9530   105.1170     2.4770     0.0570   -44.6040    10.0980     7.5640
 1755.0000     9.1470   105.0040     2.4510     0.0280   -44.7290    10.1380     7.6420
 1755.5000     9.2320   104.9310     2.4170     0.0260   -44.8490    10.1770     7.7360
 1756.0000     9.3550   104.8050     2.4230     0.0250   -44.9730    10.2160     7.8300
 1756.5000     9.6920   104.7290     2.4770     0.0300   -45.1010    10.2550     7.9240
 1757.0000    10.0280   103.6600     2.4800     0.0410   -45.1390    10.2940     8.0180
 1757.5000    10.3550   102.7090     2.4780     0.0400   -44.9870    10.3330     8.1250
 1758.0000    10.4610   102.2890     2.4650     0.0350   -44.8420    10.3730     8.1250
 1758.5000     9.9050   102.6000     2.4560     0.0310   -44.6920    10.4110     8.1180
 1759.0000     9.3300   103.2000     2.4500     0.0260   -44.5420    10.4510     8.1110
 1759.5000     9.0150   103.6920     2.4850     0.0220   -44.3950    10.4900     8.1050
 1760.0000     8.8550   106.5990     2.4840     0.0170   -44.2440    10.5290     8.0980
 1760.5000     8.6950   110.0830     2.4830     0.0170   -44.0950    10.5680     8.0920
 1761.0000     8.5720   110.3110     2.4770     0.0310   -43.9800    10.6460     8.0860
 1761.5000     8.5290   110.3660     2.4720     0.0390   -44.0070    10.7940     8.0790
 1762.0000     8.5680   110.2130     2.4670     0.0360   -44.0280    10.9420     8.0730
 1762.5000     8.6430   110.2790     2.4630     0.0340   -44.0540    11.0960     8.0660
 1763.0000     8.7140   111.2500     2.4570     0.0370   -44.0790    10.7500     8.0600
 1763.5000     8.4900   112.2010     2.4610     0.0420   -44.1040    10.4000     8.0530
 1764.0000     8.3570   111.3370     2.4710     0.0350   -44.1290    10.4040     8.0470
 1764.5000     8.3700   108.7100     2.4730     0.0300   -44.1540    10.4220     8.0400
 1765.0000     8.3730   106.4130     2.4610     0.0220   -44.1790    10.4400     8.0340
 1765.5000     8.3750   106.5280     2.4520     0.0220   -44.2030    10.4580     8.0280
 1766.0000     8.3800   106.6610     2.4460     0.0240   -44.2280    10.4760     8.0210
 1766.5000     8.3820   106.1580     2.4670     0.0250   -44.2530    10.4940     8.0150
 1767.0000     8.3860   105.1690     2.4570     0.0270   -44.2780    10.5120     8.0090
 1767.5000     8.3900   104.4870     2.4530     0.0280   -44.3020    10.5300     8.0020
 1768.0000     8.3930   106.8920     2.4700     0.0280   -44.3290    10.5480     7.9960
 1768.5000     8.3980   109.2020     2.4790     0.0670   -44.3510    10.5660     7.9900
 1769.0000     8.4020   109.1360     2.4740     0.1990   -44.3740    10.5840     7.9840
 1769.5000     8.3980   108.9030     2.4720     0.2410   -44.3120    10.6710     7.9780
 1770.0000     8.4830   108.5190     2.4680     0.2750   -44.2470    10.8280     8.0630
 1770.5000     8.6770   108.1200     2.4610     0.2640   -44.1780    10.9850     8.1810
 1771.0000     8.8390   107.9480     2.4100     0.2540   -44.1110    11.1420     8.2980
 1771.5000     8.8060   108.8330     2.3910     0.2640   -44.0440    11.2980     8.4160
 1772.0000     8.7580   110.3680     2.3800     0.2840   -43.9770    11.4550     8.5340
 1772.5000     8.7040   110.8380     2.4670     0.3110   -43.9090    11.6150     8.6520
 1773.0000     8.6830   109.7850     2.4450     0.3010   -43.8420    11.6150     8.9070
 1773.5000     8.6860   108.9300     2.4140     0.2580   -43.7760    11.6150     8.9070
 1774.0000     8.6940   107.9830     2.3810     0.2160   -43.7060    11.6150     8.9010
 1774.5000     8.7300   107.6170     2.3790     0.1980   -43.6420    11.6150     8.8960
 1775.0000     8.8040   107.4490     2.3850     0.1900   -43.5810    11.6150     8.8900
 1775.5000     8.9060   106.8460     2.3870     0.1860   -43.6500    11.6150     8.8850
 1776.0000     8.9980   111.1730     2.4500     0.2110   -43.7210    11.6150     8.8800
 1776.5000     8.9150   112.0860     2.4420     0.2840   -43.7970    11.6150     8.8740
 1777.0000     8.8430   110.7290     2.4310     0.2740   -43.8710    11.6150     8.8690
 1777.5000     8.7690   109.6890     2.4370     0.2770   -43.9450    11.6150     8.8630
 1778.0000     8.6960   109.0040     2.4490     0.2800   -44.0210    11.6150     8.8580
