~VERSION INFORMATION
 VERS.                2.0:   CWLS LOG ASCII STANDARD - VERSION 2.0
 WRAP.                 NO:   ONE LINE PER DEPTH STEP
~WELL INFORMATION
#MNEM.UNIT      DATA TYPE    INFORMATION
#----------   ------------   ------------------------------
 STRT.F          200.0000:   START DEPTH
 STOP.F         3124.0000:   STOP DEPTH
 STEP.F            0.5000:   STEP LENGTH
 NULL.          -999.2500:   NO VALUE
 COMP.    FENIX & SCISSON:   COMPANY
 WELL. FENIX SCISSON #18-27:   WELL
 FLD .                NPR:   FIELD
 LOC .      S27 T39N R78W:   LOCATION
 CNTY.            NATRONA:   COUNTY
 STAT.            WYOMING:   STATE
 CTRY. UNITED STATES OF AMERICA:   COUNTRY
 SRVC.              WELEX:   SERVICE COMPANY
 DATE.        26-SEP-1977:   LOGDATE
 API .     49025104210000:   API NUMBER
~CURVE INFORMATION
#MNEM.UNIT       API CODE    CURVE DESCRIPTION
#----------   ------------   ------------------------------
 DEPT.F                  :   
 CALD.IN     45 280 60 00:   CALIPER FROM DENSITY LOG
 GRD .GAPI   45 310 01 00:   GAMMA RAY FROM DENSITY LOG
 RHOB.G/C3   45 350 01 00:   BULK DENSITY
 CORR.G/C3   45 356 01 00:   DENSITY CORRECTION
 NPHI.DEC    42 890 03 00:   NEUTRON POROSITY SANDSTONE
 SPR .MV     07 010 01 00:   SPONTANEOUS POTENTIAL
 GURD.OHMM   07 220 05 00:   GUARD LOG RESISTIVITY
 ILD .OHMM   07 120 46 00:   DEEP INDUCTION RESISTIVITY
 ILM .OHMM   07 120 44 00:   INDUCTION LOG MEDIUM RESISTIVITY
 TENR.LBS    07 635 01 00:   TENSION FROM RESISTIVITY
~PARAMETER INFORMATION
#MNEM.UNIT          VALUE    DESCRIPTION
#----------   ------------   ------------------------------
 EKB .F         5080.0000:   Kelly bushing
 EGL .F         5070.0000:   Ground level
 EDF .F            0.0000:   Drilling floor
 EPD .F            0.0000:   Permanent datum
 TD  .F         3117.0000:   Total depth
 DATE.        26-SEP-1977:   Date logged
 CLNT.            A2DTECH:   Client Code
 SL  . 330' FSL & 1650' FWL:   Surface Location
 PD  .                 GL:   Permanent Datum
 DAPD.F                10:   Feet Above Permanent Datum
 DD  .F              3115:   Depth driller
 DL  .F              3117:   Depth logger
 BLI .F              3115:   Bottom log interval
 TLI .F               200:   Top log interval
 CS1 .IN            8.625:   Casing size
 CBD1.      8.625" @ 219':   Casing driller 1
 CBL1.F               220:   Casing logger 1
 BS1 .IN            7.875:   Bit size
 BSD1.F              3115:   Depth drilled with bit1
 DFT .            KCL MUD:   Type fluid in hole
 DFD .                9.1:   Density
 DFV .                 35:   Viscosity
 DFPH.                 11:   pH
 DFL .               17.2:   Fluid loss
 MSS .           FLOWLINE:   Source of sample
 RMS .OHMM            .59:   Rm
 MST .F                98:   Rm Meas. temp.
 RMF .OHMM            .56:   Rmf
 MFST.F                98:   Rmf Meas. temp.
 RMC .OHMM            .24:   Rmc
 MCST.F                98:   Rmc Meas. temp.
 MFSS.               MEAS:   Source Rmf.
 MCSS.               MEAS:   Source Rmc.
 RMB .OHMM            .48:   Rm. at BHT
 BHT .F               116:   BHT.
 TCS .HRS               4:   Time Circ. stopped
 MRT .F               116:   Maximum recorded temp.
 LUN .               8611:   Logging unit number
 LUL .             CASPER:   Logging unit location
 ENGI.            C. DOAK:   Recorded By
 WITN.         PETTINGILL:   Witnessed by
 ORIG.           5" PRINT:   Origin of data
 UWI .     49025104210000:   Unique Well ID
 DICO. A2D TECHNOLOGIES, INC.:   Digitizing Company
~OTHER INFORMATION
~A   DEPT     CALD        GRD       RHOB       CORR         NPHI      SPR       GURD        ILD        ILM        TENR  
# ...
 1171.5000     8.6792   102.6920     2.4771     0.0192     0.3029   -65.7257    10.7655     7.5945     8.9074   518.9770
 1172.0000     8.6798   107.8482     2.4651     0.0112     0.3029   -65.3380    10.9614     7.3179     8.2728   519.3283
 1172.5000     8.6803   109.0460     2.4592     0.0153     0.3029   -65.7401    11.0589     7.2496     7.9717   519.6796
 1173.0000     8.6809   102.9230     2.4543     0.0074     0.3033   -65.7474    10.9543     7.2463     7.8245   520.0309
 1173.5000     8.6810   103.3310     2.4523     0.0074     0.3089   -65.7546    10.7516     7.2444     7.8214   510.4042
 1174.0000     8.7019   107.3038     2.4523     0.0095     0.3144   -65.5643    10.9473     7.2426     7.8189   510.7555
 1174.5000     8.6827   110.8805     2.4603     0.0175     0.3140   -65.7690    11.4578     7.3065     7.9614   511.1068
 1175.0000     8.6833   116.6384     2.4653     0.0215     0.3097   -65.5788    10.5829     7.4395     8.1813   521.3658
 1175.5000     8.6839   116.2471     2.4723     0.0236     0.3045   -65.5860    11.1393     7.5057     9.6499   511.7391
 1176.0000     8.6845   110.1241     2.4843     0.0316     0.2986   -65.3957    11.6588     7.5725     9.4999   512.0904
 1176.5000     8.6653   106.1753     2.4873     0.0336     0.2946   -65.4030    11.6550     7.6399     8.6367   522.4197
 1177.0000     8.6660   103.0186     2.4933     0.0397     0.2851   -65.2127    11.4393     7.7078     8.4767   522.7710
 1177.5000     8.6663   102.6344     2.5062     0.0397     0.2831   -65.2200    11.6475     7.7764     8.3964   513.1443
 1178.0000     8.6668   102.2503     2.5232     0.0477     0.2815   -65.0297    11.8595     7.8456     9.2016   513.4956
 1178.5000     8.6477    98.3014     2.5182     0.0478     0.2830   -64.8395    12.5270     8.0621     9.2828   513.8469
 1179.0000     8.7078    93.9564     2.5113     0.0459     0.2838   -64.8468    13.4781     8.1343     9.3647   514.1982
 1179.5000     8.7281    91.7880     2.4964     0.0419     0.2854   -64.8540    14.1067     8.5921     9.5375   524.5276
 1180.0000     8.7288    96.7529     2.4895     0.0380     0.2874   -64.8612    14.1021     8.7875     9.8915   524.8789
 1180.5000     8.7294    99.1413     2.4775     0.0341     0.2874   -64.6710    14.3588     8.9874    10.1647   515.2521
 1181.0000     8.7300    99.5494     2.4716     0.0322     0.2830   -64.6782    14.3542     9.2380    10.3506   525.5112
 1181.5000     8.7702    96.9872     2.4716     0.0302     0.2830   -64.6854    14.2184     9.4061    10.5385   515.9547
 1182.0000     8.7708   102.7419     2.4756     0.0323     0.2846   -64.8901    14.0839     9.5779    10.6323   516.3060
 1182.5000     8.7714   106.5099     2.4816     0.0323     0.2898   -64.8973    14.0794     9.7516    10.8261   516.6573
 1183.0000     8.7720   100.7854     2.4886     0.0324     0.2906   -64.9045    14.2046     9.9291    10.8226   517.0086
 1183.5000     8.7726    98.4208     2.4867     0.0305     0.2886   -65.1091    14.3310     9.9266    10.7201   517.3599
 1184.0000     8.7732    97.6406     2.4897     0.0305     0.2862   -65.1163    14.5918     9.8320    10.6186   527.6893
 1184.5000     8.7738    97.2565     2.4917     0.0326     0.2838   -65.3209    14.0612     9.7372    10.4218   518.0625
 1185.0000     8.7744    98.8527     2.4877     0.0286     0.2790   -65.3281    13.6748     9.2507    10.1352   518.4138
 1185.5000     8.7750   102.8255     2.4848     0.0258     0.2722   -65.5327    13.0571     8.7979     9.8564   528.4621
 1186.0000     8.7756   106.5959     2.4818     0.0248     0.2659   -65.5400    12.5823     8.4780     9.6737   519.1164
 1186.5000     8.7762   106.6054     2.4799     0.0228     0.2659   -65.5472    12.4633     8.1697    10.0327   519.4677
 1187.0000     8.7768   104.2433     2.4799     0.0209     0.2663   -65.5544    12.3454     7.9447    10.5011   519.8190
 1187.5000     8.7572    99.3085     2.4809     0.0210     0.2683   -65.5616    12.4552     7.7976     9.6644   510.1923
 1188.0000     8.7186    96.7464     2.4929     0.0230     0.2706   -65.7662    12.4512     7.5833     8.8943   520.5216
 1188.5000     8.7188   101.7065     2.4939     0.0271     0.2726   -65.7734    12.1090     7.5116     8.6496   520.8730
 1189.0000     8.6802   105.6793     2.4899     0.0271     0.2778   -65.9780    11.8849     7.3726     8.4894   521.2243
 1189.5000     8.6610   110.2466     2.4900     0.0252     0.2798   -65.7878    11.9899     7.3707     8.4090   521.5756
 1190.0000     8.6612   103.7227     2.4940     0.0272     0.2822   -65.9924    12.0723     7.3005     8.4063   511.9488
 1190.5000     8.6477    98.1919     2.5020     0.0273     0.2869   -65.9981    12.3175     7.2319     8.4035   522.0674
 1191.0000     8.6430    92.6587     2.5070     0.0273     0.2917   -65.8080    13.3741     7.2291     8.4008   512.6514
 1191.5000     8.6634    88.9107     2.5090     0.0294     0.2965   -65.8180    14.2581     7.1607     8.3987   522.9808
 1192.0000     8.6442    97.4356     2.4971     0.0255     0.3044   -65.8224    11.2248     7.0282     8.1671   493.3277
 1192.5000     8.6448   100.2177     2.4941     0.0255     0.3072   -65.8296    12.1892     6.8981     8.0158   523.6131
 1193.0000     8.6452   100.6257     2.4941     0.0256     0.3096   -66.0341    14.2443     6.7085     7.8672   523.9644
 1193.5000     8.6458   100.2416     2.4942     0.0296     0.3112   -66.0413    11.4232     6.6451     7.7927   524.3157
 1194.0000     8.7652   101.4418     2.4982     0.0297     0.3048   -66.0485    11.7383     6.8284     7.7190   524.6670
 1194.5000     8.7658   101.6498     2.5042     0.0357     0.3000   -66.0557    11.3115     7.1469     7.5066   515.0403
 1195.0000     8.7664   100.0774     2.5151     0.0397     0.2984   -66.2603    11.4106     7.2109     7.2334   515.3916
 1195.5000     8.7670    98.7050     2.5201     0.0398     0.2961   -66.2675    11.4084     7.2086     5.6938   525.7209
 1196.0000     8.7674    99.5091     2.5241     0.0399     0.2909   -66.2747    11.8313     7.2063     5.5371   516.0942
 1196.5000     8.7088   101.1054     2.5162     0.0419     0.2837   -66.2819    11.1936     7.2039     7.4284   526.4235
 1197.0000     8.7490   101.9095     2.5192     0.0400     0.2742   -66.2891    11.3974     7.2016     7.6335   526.7748
 1197.5000     8.7496   102.3175     2.5203     0.0440     0.2718   -66.2963    11.2896     7.1993     7.8444   527.1261
 1198.0000     8.7304   109.6574     2.5273     0.0461     0.2718   -66.1062    10.6811     7.1970     8.1355   497.5434
 1198.5000     8.7311   109.6670     2.5283     0.0441     0.2749   -66.1134    10.8755     7.1289     8.3602   517.8507
 1199.0000     8.7316   107.1064     2.5253     0.0402     0.2845   -66.1206    10.9723     6.9969     8.2810   518.2020
 1199.5000     8.7124   107.5144     2.5184     0.0343     0.2901   -66.1278    10.7692     6.9947     7.9066   528.5313
 1200.0000     8.7525   109.5067     2.5085     0.0324     0.3056   -66.1350    10.7657     6.9285     7.6891   518.9046
 1200.5000     8.7343   108.1711     2.4928     0.0306     0.3114   -66.1429    11.3793     6.9259     7.6322   528.4137
 1201.0000     8.7189   107.9462     2.4816     0.0245     0.3159   -66.1492    10.8580     6.9240     7.6138   529.5201
 1201.5000     8.7148   108.7503     2.4578     0.0199     0.3135   -66.1563    11.1576     6.9218     7.6113   519.8585
 1202.0000     8.7946   109.7481     2.4568     0.0127     0.3095   -66.1635    11.0521     6.9200     7.6791   510.1968
 1202.5000     8.7556   103.6250     2.4688     0.0207     0.3107   -66.1706    10.8475     6.9173     7.8912   520.4920
 1203.0000     8.7562   102.0526     2.4748     0.0187     0.3219   -66.1777    10.6461     6.9151     8.1841   520.8087
 1203.5000     8.7568   100.6787     2.4768     0.0208     0.3246   -66.1849    10.9434     6.9766     8.9702   531.1041
 1204.0000     8.7574   100.6858     2.4739     0.0208     0.3270   -65.9946    26.1656     6.9743    14.3292   521.4422
 1204.5000     8.7580   108.0296     2.4679     0.0189     0.3290   -66.1991    10.1593     6.9721    11.0358   521.7589
