~VERSION INFORMATION
 VERS.                2.0:   CWLS LOG ASCII STANDARD - VERSION 2.0
 WRAP.                 NO:   ONE LINE PER DEPTH STEP
~WELL INFORMATION
#MNEM.UNIT      DATA TYPE    INFORMATION
#----------   ------------   ------------------------------
 STRT.F            0.0000:   START DEPTH
 STOP.F         3440.0000:   STOP DEPTH
 STEP.F            0.5000:   STEP LENGTH
 NULL.          -999.2500:   NO VALUE
 COMP. FLOOR DANIEL (NPSOR):   COMPANY
 WELL. FLOOR DANIEL "SHX" #48-34:   WELL
 FLD .                NPR:   FIELD
 LOC .      S34 T39N R78W:   LOCATION
 CNTY.            NATRONA:   COUNTY
 STAT.            WYOMING:   STATE
 CTRY. UNITED STATES OF AMERICA:   COUNTRY
 SRVC.      WESTERN ATLAS:   SERVICE COMPANY
 DATE.        06-APR-1995:   LOGDATE
 API .     49025109220000:   API NUMBER
~CURVE INFORMATION
#MNEM.UNIT       API CODE    CURVE DESCRIPTION
#----------   ------------   ------------------------------
 DEPT.F                  :   
 TEND.LBS    45 635 01 00:   TENSION FROM DENSITY LOG
 ZCOR.G/C3   45 356 01 00:   DENSITY CORRECTION
 ZDEN.G/C3   45 350 01 00:   BULK DENSITY
 CALD.IN     45 280 60 00:   CALIPER FROM DENSITY LOG
 CNC .DEC    42 890 03 00:   NEUTRON POROSITY SANDSTONE
 GRR .GAPI   07 310 01 00:   GAMMA RAY FROM RESISTIVITY
 TENR.LBS    07 635 01 00:   TENSION FROM RESISTIVITY
 RFOC.OHMM   07 220 04 00:   RESISTIVITY FOCUSED LOG RES.
 RILD.OHMM   07 120 46 00:   DEEP INDUCTION RESISTIVITY
 RILM.OHMM   07 120 44 00:   INDUCTION LOG MEDIUM RESISTIVITY
~PARAMETER INFORMATION
#MNEM.UNIT          VALUE    DESCRIPTION
#----------   ------------   ------------------------------
 EKB .F         5182.0000:   Kelly bushing
 EGL .F         5172.0000:   Ground level
 EDF .F            0.0000:   Drilling floor
 EPD .F            0.0000:   Permanent datum
 TD  .F         3442.0000:   Total depth
 DATE.        06-APR-1995:   Date logged
 CLNT.            A2DTECH:   Client Code
 SL  . 97' FSL & 2256 FWL:   Surface Location
 PD  .                 GL:   Permanent Datum
 DD  .F              3442:   Depth driller
 DL  .F              3422:   Depth logger
 BLI .F              3420:   Bottom log interval
 CS1 .IN            8.625:   Casing size
 CBD1.      8.625" @ 667':   Casing driller 1
 BS1 .IN            7.875:   Bit size
 BSD1.F               AIR:   Depth drilled with bit1
 ENGI.      PAT RASMUSSEN:   Recorded By
 WITN.        GARY STRONG:   Witnessed by
 ORIG.           5" PRINT:   Origin of data
 UWI .     49025109220000:   Unique Well ID
 DICO. A2D TECHNOLOGIES, INC.:   Digitizing Company
 MRT .F               142:   Maximum recorded temp.
~OTHER INFORMATION
~A    DEPT    TEND       ZCOR       ZDEN       CALD        CNC         GRR      TENR       RFOC       RILD       RILM   
# ...
 2814.0000   -25.7580     0.0240     2.5460     8.6960     0.1740    97.1760   -27.1840    10.2400     8.2300     8.2010
 2814.5000   -28.7600     0.0260     2.5470     8.6970     0.1870   100.7070   -26.2890     9.0770     7.6570     7.7120
 2815.0000   -41.9700     0.0270     2.5490     8.6980     0.1950   107.7710   -25.3940     7.7760     7.0850     7.2220
 2815.5000   -55.1800     0.0290     2.5550     8.6990     0.2030   115.1090   -24.5000     7.3980     6.5130     6.7330
 2816.0000   -68.3900     0.0300     2.5560     8.6990     0.2100   122.4480   -23.6050     6.9460     5.9400     6.2430
 2816.5000   -81.6000     0.0310     2.5480     8.7110     0.2140   130.3880   -21.8740     6.4390     5.3680     5.8150
 2817.0000   -94.8100     0.0270     2.5400     8.7350     0.2190   137.6220   -19.3690     5.9330     5.0860     5.6380
 2817.5000  -108.0200     0.0230     2.5310     8.7570     0.2130   143.6100   -16.8640     5.5060     4.9380     5.5060
 2818.0000  -121.5420     0.0180     2.5290     8.7780     0.2060   145.7080   -14.3590     5.6700     4.8860     5.2800
 2818.5000  -105.2040     0.0140     2.5340     8.7800     0.2040   137.1220   -11.8540     6.1120     4.8490     5.1210
 2819.0000   -88.4720     0.0090     2.5340     8.7800     0.2020   128.8320    -9.3490     6.7240     4.9930     5.2140
 2819.5000   -71.7390     0.0090     2.5300     8.7800     0.2010   125.7380    -6.8440     6.5080     5.3500     5.5830
 2820.0000   -62.2530     0.0130     2.5250     8.7800     0.2000   131.1210    -4.3390     6.0300     5.7080     5.9490
 2820.5000   -62.2530     0.0150     2.5280     8.7800     0.1830   134.4020    -5.3000     6.5720     6.0650     6.3150
 2821.0000   -57.5890     0.0180     2.5300     8.7810     0.1690   130.2430    -8.1630     7.4100     6.4230     6.6810
 2821.5000   -47.5490     0.0210     2.5410     8.7830     0.1580   118.9000   -11.0260     8.2490     6.7800     7.0470
 2822.0000   -37.5100     0.0230     2.5460     8.7850     0.1580   106.7460   -13.8880     9.3010     7.1010     7.3480
 2822.5000   -27.4700     0.0200     2.5460     8.7870     0.1640    99.1850   -16.7510     9.6700     7.3640     7.5830
 2823.0000   -23.9880     0.0170     2.5440     8.7890     0.1710    98.5200   -19.6140     9.2950     7.4910     7.8180
 2823.5000   -26.3790     0.0130     2.5430     8.7910     0.1770   101.2090   -22.4770     8.8870     7.6360     8.0640
 2824.0000   -28.7690     0.0120     2.5420     8.7930     0.1840   104.4330   -25.3400     8.4790     7.6650     8.0410
 2824.5000   -31.1590     0.0100     2.5400     8.7950     0.1850   112.7120   -28.2020     8.0640     7.6940     8.0160
 2825.0000   -33.5500     0.0080     2.5370     8.7980     0.1840   115.9510   -31.0650     7.9190     7.7240     7.9910
 2825.5000   -35.9400     0.0070     2.5350     8.8000     0.1800   116.2990   -33.9280     7.9930     7.7680     7.9670
 2826.0000   -38.3310     0.0050     2.5410     8.8020     0.1760   115.3510   -36.7910     8.1530     7.7420     7.9420
 2826.5000   -40.7210     0.0040     2.5460     8.8040     0.1740   114.6580   -39.6530     8.5430     7.5920     7.9190
 2827.0000   -42.4900     0.0100     2.5480     8.8060     0.1740   112.8150   -42.8990     8.8490     7.4430     7.6950
 2827.5000   -42.4900     0.0140     2.5480     8.8080     0.1740   109.8380   -42.8990     8.9170     7.2950     7.4990
 2828.0000   -42.4900     0.0190     2.5450     8.8100     0.1830   108.5470   -42.8990     8.9930     7.1490     6.9670
 2828.5000   -42.4900     0.0090     2.5340     8.8120     0.1960   110.1910   -42.8990     8.9000     7.0040     6.4740
 2829.0000   -42.4900    -0.0030     2.5110     8.8140     0.2110   117.1310   -42.8990     8.4330     6.8480     6.1410
 2829.5000   -42.4900    -0.0050     2.4920     8.8160     0.2130   122.8060   -42.8990     7.2020     6.7900     6.1920
 2830.0000   -42.4900     0.0450     2.4800     8.8180     0.2080   122.7160   -42.0120     5.9210     6.7240     6.3060
 2830.5000   -42.4900     0.1010     2.4920     8.8200     0.1850   121.2220   -39.5070     6.5530     6.7520     6.4560
 2831.0000   -42.4900     0.0570     2.5260     8.8200     0.1810   117.7560   -37.0020     7.6680     6.7800     6.6050
 2831.5000   -49.1660     0.0290     2.5490     8.8200     0.1800   115.4560   -34.4970     9.1580     6.8090     6.7500
 2832.0000   -60.3210     0.0190     2.5580     8.8200     0.1840   115.5950   -31.9920     9.0320     6.8370     6.8730
 2832.5000   -71.4760     0.0130     2.5580     8.8200     0.1900   119.0150   -29.4870     8.7320     6.9620     6.9950
 2833.0000   -82.0160     0.0130     2.5570     8.8200     0.1940   118.8890   -26.9820     8.4320     7.1450     7.1180
 2833.5000   -74.4490     0.0140     2.5560     8.8200     0.1920   116.1280   -24.4770     8.2120     7.3270     7.2410
 2834.0000   -67.2780     0.0150     2.5560     8.8200     0.1900   115.2750   -24.0350     8.2120     7.5090     7.3640
 2834.5000   -62.2530     0.0150     2.5560     8.8200     0.1880   116.7060   -25.8240     8.4810     7.6500     7.4990
 2835.0000   -62.2530     0.0130     2.5560     8.8200     0.1880   116.2890   -27.6130     8.7290     7.6940     7.5730
 2835.5000   -62.2530     0.0120     2.5570     8.8200     0.1880   108.8710   -29.4030     8.9930     7.7390     7.6550
 2836.0000   -62.2530     0.0100     2.5530     8.8200     0.1880   105.6700   -31.1920     9.0360     7.7760     7.7370
 2836.5000   -62.2530     0.0080     2.5470     8.8200     0.1870   104.9790   -32.9810     9.0830     7.9160     7.8190
 2837.0000   -62.2530     0.0120     2.5440     8.8200     0.1870   108.6940   -34.7700     9.1580     8.0640     7.9010
 2837.5000   -62.2530     0.0150     2.5470     8.8200     0.1890   112.9520   -36.5600     9.1280     7.9190     7.9190
 2838.0000   -62.2530     0.0190     2.5540     8.8200     0.1920   113.7620   -38.3490     9.0520     8.0640     7.9190
 2838.5000   -62.2530     0.0190     2.5540     8.8200     0.1910   112.5140   -40.1380     8.9770     7.8410     7.8000
 2839.0000   -62.2530     0.0170     2.5530     8.8200     0.1910   111.2980   -41.9270     8.9020     7.5700     7.5220
 2839.5000   -62.2530     0.0160     2.5560     8.8200     0.1900   111.6000   -42.8990     8.8310     7.2980     7.2440
 2840.0000   -62.2530     0.0140     2.5530     8.8200     0.1900   112.1290   -42.8990     8.6200     7.0420     6.9650
 2840.5000   -62.2530     0.0130     2.5480     8.8200     0.1950   113.2420   -42.8990     8.4220     6.8480     6.6240
 2841.0000   -62.9540     0.0120     2.5430     8.8200     0.2000   114.2080   -42.8990     8.0270     6.9190     6.6760
 2841.5000   -65.2350     0.0130     2.5420     8.8200     0.2070   115.3850   -42.8990     7.2310     6.9840     6.7790
 2842.0000   -67.5170     0.0140     2.5510     8.8200     0.2030   114.3740   -42.8990     7.3860     7.0490     6.8750
 2842.5000   -69.7990     0.0150     2.5590     8.8200     0.1960   112.6260   -42.8990     7.8440     7.1140     6.9550
 2843.0000   -72.0800     0.0160     2.5630     8.8200     0.1880   112.3990   -42.8990     8.3010     7.1790     7.0360
 2843.5000   -74.3620     0.0160     2.5590     8.8200     0.1890   112.3670   -42.8990     8.6720     7.2310     7.1010
 2844.0000   -76.6440     0.0170     2.5540     8.8200     0.1900   112.0370   -42.8990     8.5380     7.3910     7.2100
 2844.5000   -78.9260     0.0180     2.5510     8.8200     0.1920   111.8930   -42.8990     8.3620     7.5250     7.4820
 2845.0000   -81.2070     0.0190     2.5520     8.8200     0.1890   114.8000   -42.8990     8.4800     7.6600     7.6750
 2845.5000   -80.5430     0.0190     2.5530     8.8200     0.1850   117.7570   -42.8990     8.7520     7.7940     7.7650
 2846.0000   -78.2610     0.0160     2.5490     8.8200     0.1840   117.4950   -42.8990     9.0240     7.9190     7.8550
 2846.5000   -75.9790     0.0140     2.5440     8.8200     0.1840   116.2850   -42.8990     9.3250     7.9950     7.9190
 2847.0000   -73.6970     0.0110     2.5400     8.8200     0.1830   115.0010   -42.8990     9.4220     8.1080     7.9190
