~VERSION INFORMATION
 VERS.                2.0:   CWLS LOG ASCII STANDARD - VERSION 2.0
 WRAP.                 NO:   ONE LINE PER DEPTH STEP
~WELL INFORMATION
#MNEM.UNIT      DATA TYPE    INFORMATION
#----------   ------------   ------------------------------
 STRT.F          210.5000:   START DEPTH
 STOP.F         3234.0000:   STOP DEPTH
 STEP.F            0.5000:   STEP LENGTH
 NULL.          -999.2500:   NO VALUE
 COMP.    FENIX & SCISSON:   COMPANY
 WELL.   FENIX "A" #21-10:   WELL
 FLD .              NPR-3:   FIELD
 LOC .      S10 T38N R78W:   LOCATION
 CNTY.            NATRONA:   COUNTY
 STAT.            WYOMING:   STATE
 CTRY. UNITED STATES OF AMERICA:   COUNTRY
 SRVC.      DRESSER ATLAS:   SERVICE COMPANY
 DATE.        31-AUG-1977:   LOGDATE
 API .     49025104260000:   API NUMBER
~CURVE INFORMATION
#MNEM.UNIT       API CODE    CURVE DESCRIPTION
#----------   ------------   ------------------------------
 DEPT.F                  :   
 GRD .GAPI   45 310 01 00:   GAMMA RAY FROM DENSITY LOG
 CALD.IN     45 280 60 00:   CALIPER FROM DENSITY LOG
 RHOB.G/C3   45 350 01 00:   BULK DENSITY
 CORR.G/C3   45 356 01 00:   DENSITY CORRECTION
 SPR .MV     11 010 01 00:   SPONTANEOUS POTENTIAL
 LLS .OHMM   11 220 09 00:   LATEROLOG SHALLOW
 LLD .OHMM   11 220 10 00:   LATEROLOG DEEP
 TEND.LBS    45 635 01 00:   TENSION FROM DENSITY LOG
 TENR.LBS    07 635 01 00:   TENSION
~PARAMETER INFORMATION
#MNEM.UNIT          VALUE    DESCRIPTION
#----------   ------------   ------------------------------
 EKB .F         5258.0000:   Kelly bushing
 EGL .F         5248.0000:   Ground level
 EDF .F            0.0000:   Drilling floor
 TD  .F         3222.0000:   Total depth
 DATE.        31-AUG-1977:   Date logged
 CLNT.            A2DTECH:   Client Code
 SL  . 330' FNL & 990' FWL:   Surface Location
 PD  .                 GL:   Permanent Datum
 EPD .F              5248:   Elevation Permanent Datum
 LMF .                 KB:   Log Measured From
 DMF .                 KB:   Drilling Measured From
 DAPD.F                10:   Feet Above Permanent Datum
 DD  .F              3222:   Depth driller
 DL  .F              3219:   Depth logger
 BLI .F              3218:   Bottom log interval
 TLI .F               221:   Top log interval
 CS1 .IN             8.75:   Casing size
 CBD1.       8.75" @ 219':   Casing driller 1
 CBL1.F               221:   Casing logger 1
 BS1 .IN            7.875:   Bit size
 BSD1.F              3222:   Depth drilled with bit1
 DFT .                KCL:   Type fluid in hole
 DFD .                9.1:   Density
 DFV .                 36:   Viscosity
 DFPH.                 11:   pH
 DFL .                  8:   Fluid loss
 MSS .           FLOWLINE:   Source of sample
 RMS .OHMM           0.14:   Rm
 MST .F                72:   Rm Meas. temp.
 RMF .OHMM           0.08:   Rmf
 MFST.F                72:   Rmf Meas. temp.
 RMC .OHMM           0.20:   Rmc
 MCST.F                72:   Rmc Meas. temp.
 MFSS.               CALC:   Source Rmf.
 MCSS.               CALC:   Source Rmc.
 RMB .OHMM           0.08:   Rm. at BHT
 BHT .F               125:   BHT.
 TCS .HRS               3:   Time Circ. stopped
 MRT .F               125:   Maximum recorded temp.
 LUN .               6080:   Logging unit number
 LUL .              WLSTN:   Logging unit location
 ENGI.               RALL:   Recorded By
 WITN.         PETTINGILL:   Witnessed by
 ORIG.           5" PRINT:   Origin of data
 UWI .     49025104260000:   Unique Well ID
 DICO. A2D TECHNOLOGIES, INC.:   Digitizing Company
~OTHER INFORMATION
~A   DEPT      GRD       CALD       RHOB       CORR        SPR        LLS        LLD       TEND        TENR  
# ...
 1415.0000    86.7690    11.1490     2.4650     0.0300   -69.2820     8.3880     9.4470   371.6170   506.4550
 1415.5000    88.1500    11.1490     2.4640     0.0300   -69.1420     8.3600     9.2940   388.0200   506.4550
 1416.0000    89.5470    11.1490     2.4630     0.0300   -68.9900     8.3280     9.1520   405.9410   506.4550
 1416.5000    89.6390    11.1490     2.4660     0.0300   -68.8380     8.3120     9.1080   358.3100   506.4550
 1417.0000    88.4410    11.1490     2.4710     0.0300   -68.6860     8.4200     9.1150   305.8220   506.4550
 1417.5000    87.2330    11.1490     2.4770     0.0300   -68.5340     8.4840     9.1860   253.3330   506.4550
 1418.0000    86.0300    11.1490     2.4810     0.0300   -68.3830     8.5480     9.2560   315.2480   506.4550
 1418.5000    84.8280    11.1410     2.4830     0.0300   -68.2890     8.6110     9.3690   405.9410   506.4550
 1419.0000    83.6290    11.1250     2.4850     0.0250   -68.2910     8.6750     9.6220   394.5870   506.4550
 1419.5000    82.4240    11.1100     2.4820     0.0190   -68.2880     8.7390     9.4480   328.9770   506.4550
 1420.0000    82.0740    11.0940     2.4800     0.0140   -68.5260     8.7810     9.2600   267.3270   506.4550
 1420.5000    82.4430    11.0790     2.4770     0.0100   -68.9040     8.6680     9.0720   275.1880   506.4550
 1421.0000    83.0890    11.0630     2.4770     0.0100   -69.2840     8.5700     8.9430   383.4460   506.4550
 1421.5000    84.5450    11.0500     2.4770     0.0100   -69.6640     8.4710     8.9650   452.5680   506.4550
 1422.0000    85.9520    11.0440     2.4780     0.0100   -70.0440     8.3880     9.0280   400.0790   506.4550
 1422.5000    87.3480    11.0350     2.4780     0.0100   -70.4300     8.4740     9.0900   347.5910   506.4550
 1423.0000    88.7520    11.0270     2.4790     0.0100   -70.2170     8.7060     9.1530   308.0400   506.4550
 1423.5000    89.1940    11.0180     2.4790     0.0100   -69.9900     8.9430     9.2760   312.9600   506.4550
 1424.0000    87.7420    11.0100     2.4800     0.0110   -69.5840     8.8320     9.3610   317.8810   506.4550
 1424.5000    85.9330    11.0010     2.4820     0.0080   -69.1930     8.7570     9.2360   322.8020   506.4550
 1425.0000    84.2670    10.9930     2.4840     0.0080   -68.7910     8.6820     9.1310   327.7230   506.4550
 1425.5000    82.8940    10.9850     2.4860     0.0060   -68.6930     8.6220     9.0260   332.6440   506.4550
 1426.0000    81.5350    10.9760     2.4870     0.0080   -68.9140     8.4650     8.9430   337.5640   506.4550
 1426.5000    80.1660    10.9680     2.4850     0.0080   -69.1650     8.4570     8.8610   342.4850   506.4550
 1427.0000    79.6070    10.9590     2.4820     0.0080   -69.4170     8.4490     8.8610   346.5350   506.4550
 1427.5000    82.5060    10.9510     2.4800     0.0080   -69.6670     8.4410     8.8690   358.5400   506.4550
 1428.0000    85.4270    10.9420     2.4790     0.0080   -69.8810     8.4330     8.9020   370.8420   506.4550
 1428.5000    85.7920    10.9340     2.4790     0.0080   -69.8810     8.4250     8.9350   383.1440   506.4550
 1429.0000    84.0000    10.9250     2.4790     0.0080   -69.8840     8.4170     8.9680   395.4460   506.4550
 1429.5000    82.2250    10.9170     2.4790     0.0080   -69.7510     8.4090     9.0010   405.9410   506.4550
 1430.0000    80.4580    10.9090     2.4790     0.0080   -69.5890     8.4000     9.0250   405.9410   506.4550
 1430.5000    79.5020    10.9000     2.4790     0.0080   -69.5030     8.3930     8.8750   386.1390   506.4550
 1431.0000    79.8980    10.8920     2.4800     0.0080   -69.2850     8.3240     8.7550   399.9210   506.4550
 1431.5000    80.3560    10.8930     2.4850     0.0110   -69.3830     8.1860     8.6350   414.6830   506.4550
 1432.0000    80.6170    10.8970     2.4910     0.0150   -69.6220     8.0480     8.5160   429.4460   506.4550
 1432.5000    79.3970    10.9000     2.4960     0.0180   -69.8620     7.9100     8.3960   445.5450   506.4550
 1433.0000    78.1400    10.9040     2.5010     0.0210   -70.1010     7.8680     8.3120   443.5990   506.4550
 1433.5000    76.8330    10.9070     2.5050     0.0240   -70.3390     8.0800     8.3990   441.4590   506.4550
 1434.0000    78.4830    10.9100     2.5050     0.0230   -70.4160     8.2430     8.5230   439.3200   506.4550
 1434.5000    80.5950    10.9140     2.5000     0.0210   -70.2790     8.3880     8.6470   437.1800   506.4550
 1435.0000    82.8380    10.9170     2.4950     0.0200   -70.1440     8.3880     8.7810   435.0410   506.4550
 1435.5000    85.3450    10.9210     2.4920     0.0180   -70.0100     8.1970     8.9430   432.9010   506.4550
 1436.0000    87.8390    10.9240     2.4920     0.0160   -69.8650     8.0520     8.7440   430.7620   506.4550
 1436.5000    89.9020    10.9280     2.4940     0.0160   -69.4300     7.9070     8.5680   428.6220   506.4550
 1437.0000    89.9720    10.9310     2.4940     0.0160   -69.0050     7.7620     8.3920   426.4830   506.4550
 1437.5000    90.1040    10.9340     2.4970     0.0150   -68.5850     7.6550     8.3120   425.7430   506.4550
 1438.0000    89.6790    10.9380     2.4990     0.0150   -68.2820     7.7550     8.5060   406.3070   506.4550
 1438.5000    86.6160    10.9410     2.5010     0.0150   -68.2940     8.0390     8.7190   407.7980   506.4550
 1439.0000    83.5600    10.9450     2.5030     0.0160   -68.6240     8.3880     8.9320   409.2890   506.4550
 1439.5000    80.4570    10.9480     2.5050     0.0170   -68.9880     8.3670     9.2760   410.7800   506.4550
 1440.0000    80.6060    10.9560     2.5020     0.0180   -69.3530     8.3110     9.2320   412.2710   506.4550
 1440.5000    82.4180    10.9730     2.4970     0.0190   -69.7180     8.2550     9.1170   413.7620   506.4550
 1441.0000    84.2590    10.9900     2.4920     0.0200   -70.0820     8.1990     9.0010   415.2540   506.4550
 1441.5000    86.0930    11.0070     2.4870     0.0210   -70.4440     8.1430     8.8850   416.7450   506.4550
 1442.0000    87.9000    11.0240     2.4820     0.0220   -70.6790     8.0870     8.7690   418.2360   506.4550
 1442.5000    89.4770    11.0400     2.4810     0.0240   -70.6740     7.9400     8.7010   419.7270   506.4550
 1443.0000    88.7590    11.0570     2.4830     0.0250   -70.6740     7.9840     8.5430   421.2180   506.4550
 1443.5000    88.7030    11.0740     2.4860     0.0260   -70.4740     8.0370     8.6220   422.7090   506.4550
 1444.0000    90.1030    11.0910     2.4880     0.0270   -70.1430     8.0900     8.6870   424.2000   506.4550
 1444.5000    91.4580    11.1070     2.4900     0.0280   -69.8100     8.1440     8.7520   425.7430   506.4550
 1445.0000    92.4480    11.1240     2.4870     0.0270   -69.7030     8.1970     8.8160   461.3860   506.4550
 1445.5000    91.1720    11.1410     2.4830     0.0260   -69.4890     8.2510     8.8810   485.1490   506.4550
 1446.0000    89.8820    11.1580     2.4820     0.0240   -69.6640     8.3040     8.9430   475.2740   506.4550
 1446.5000    88.6140    11.1750     2.4810     0.0230   -69.8370     8.3120     8.9740   462.1520   506.4550
 1447.0000    86.2560    11.1870     2.4780     0.0210   -70.0100     8.3120     9.0930   449.0300   506.4550
 1447.5000    83.5490    11.1710     2.4770     0.0200   -70.1840     8.3120     9.2130   435.9080   506.4550
 1448.0000    80.8250    11.1550     2.4770     0.0200   -70.2760     8.3120     9.3330   422.7850   506.4550
 1448.5000    80.3640    11.1390     2.4780     0.0200   -70.3620     8.4380     9.4520   409.6630   506.4550
 1449.0000    82.0200    11.1230     2.4800     0.0200   -70.4830     8.8860     9.5720   396.5410   506.4550
 1449.5000    83.6790    11.1070     2.4820     0.0190   -70.6150     9.0250     9.6920   383.4190   506.4550
 1450.0000    85.4270    11.0900     2.4840     0.0190   -70.4760     9.0620     9.7990   370.2970   506.4550
 1450.5000    84.8430    11.0890     2.4860     0.0190   -70.2470     9.1080     9.6760   357.1750   506.4550
 1451.0000    83.4470    11.0830     2.4870     0.0180   -70.1470     9.1080     9.5000   344.0530   506.4550
