~VERSION INFORMATION
 VERS.                2.0:   CWLS LOG ASCII STANDARD - VERSION 2.0
 WRAP.                 NO:   ONE LINE PER DEPTH STEP
~WELL INFORMATION
#MNEM.UNIT      DATA TYPE    INFORMATION
#----------   ------------   ------------------------------
 STRT.F           10.0000:   START DEPTH
 STOP.F         2950.0000:   STOP DEPTH
 STEP.F            0.5000:   STEP LENGTH
 NULL.          -999.2500:   NO VALUE
 COMP.    FENIX & SCISSON:   COMPANY
 WELL.   PENIX SHX #11-23:   WELL
 FLD .  TEAPOT DOME NPR-3:   FIELD
 LOC .      S23 T38N R78W:   LOCATION
 CNTY.            NATRONA:   COUNTY
 STAT.            WYOMING:   STATE
 CTRY. UNITED STATES OF AMERICA:   COUNTRY
 SRVC.           BIRDWELL:   SERVICE COMPANY
 DATE.        19-MAY-1979:   LOGDATE
 API .     49025107790000:   API NUMBER
~CURVE INFORMATION
#MNEM.UNIT       API CODE    CURVE DESCRIPTION
#----------   ------------   ------------------------------
 DEPT.F                  :   
 ILD .OHMM   05 120 46 00:   INDUCTION LOG DEEP
 SN  .OHMM   05 040 16 00:   SHORT NORMAL 16"
 CALD.IN     45 280 60 00:   CALIPER FROM DENSITY LOG
 GRD .GAPI   45 310 01 00:   GAMMA RAY FROM DENSITY LOG
 RHOB.G/C3   45 350 01 00:   BULK DENSITY
 CORR.G/C3   45 356 01 00:   DENSITY CORRECTION
~PARAMETER INFORMATION
#MNEM.UNIT          VALUE    DESCRIPTION
#----------   ------------   ------------------------------
 EKB .F         5275.0000:   Kelly bushing
 EGL .F         5265.0000:   Ground level
 EDF .F            0.0000:   Drilling floor
 TD  .F         2995.0000:   Total depth
 DATE.        19-MAY-1979:   Date logged
 CLNT.            A2DTECH:   Client Code
 SL  . 337' FNL & 237' FWL:   Surface Location
 PD  .                 GL:   Permanent Datum
 EPD .F              5265:   Elevation Permanent Datum
 LMF .                 KB:   Log Measured From
 DMF .                 KB:   Drilling Measured From
 DAPD.F                10:   Feet Above Permanent Datum
 DD  .F              2995:   Depth driller
 DL  .F              2950:   Depth logger
 BLI .F              2944:   Bottom log interval
 TLI .F              1050:   Top log interval
 CS1 .IN            9.625:   Casing size
 CBD1.     9.625" @ 2050':   Casing driller 1
 CBL1.F              1050:   Casing logger 1
 BS1 .IN             8.75:   Bit size
 BSD1.F              2995:   Depth drilled with bit1
 DFT . AIR/FORRATION FLUIDS:   Type fluid in hole
 TCS .HRS              12:   Time Circ. stopped
 LUN .               3029:   Logging unit number
 LUL .             CASPER:   Logging unit location
 ENGI.         B. ROLLINS:   Recorded By
 ORIG.         2.5" PRINT:   Origin of data
 UWI .     49025107790000:   Unique Well ID
 DICO. A2D TECHNOLOGIES, INC.:   Digitizing Company
~OTHER INFORMATION
~A   DEPT      ILD         SN       CALD        GRD       RHOB         CORR 
# ...
  582.0000  -999.2500  -999.2500    12.0040   105.6960     2.4970     0.0140
  582.5000  -999.2500  -999.2500    11.9990   104.6280     2.4870     0.0120
  583.0000  -999.2500  -999.2500    11.9940    99.7010     2.4770     0.0110
  583.5000  -999.2500  -999.2500    11.9900   100.8470     2.4820     0.0160
  584.0000  -999.2500  -999.2500    11.9880   105.1320     2.4880     0.0200
  584.5000  -999.2500  -999.2500    11.9900   110.8770     2.4950     0.0250
  585.0000  -999.2500  -999.2500    11.9950   112.3360     2.4900     0.0230
  585.5000  -999.2500  -999.2500    12.0000   113.5710     2.4770     0.0150
  586.0000  -999.2500  -999.2500    12.0050   114.7990     2.4630     0.0090
  586.5000  -999.2500  -999.2500    12.0090   116.2190     2.4560     0.0030
  587.0000  -999.2500  -999.2500    12.0140   116.7540     2.4620     0.0030
  587.5000  -999.2500  -999.2500    12.0190   117.4740     2.4680     0.0050
  588.0000  -999.2500  -999.2500    12.0240   111.7310     2.4720     0.0060
  588.5000  -999.2500  -999.2500    12.0280   106.7860     2.4690     0.0070
  589.0000  -999.2500  -999.2500    12.0330   108.2120     2.4670     0.0090
  589.5000  -999.2500  -999.2500    12.0380   110.1230     2.4640     0.0100
  590.0000  -999.2500  -999.2500    12.0420   112.1350     2.4630     0.0110
  590.5000  -999.2500  -999.2500    12.0470   108.3130     2.4660     0.0120
  591.0000  -999.2500  -999.2500    12.0520   103.0180     2.4690     0.0140
  591.5000  -999.2500  -999.2500    12.0570   100.4300     2.4730     0.0150
  592.0000  -999.2500  -999.2500    12.0610   101.2110     2.4800     0.0160
  592.5000  -999.2500  -999.2500    12.0660   101.1310     2.4820     0.0180
  593.0000  -999.2500  -999.2500    12.0710   101.4750     2.4780     0.0190
  593.5000  -999.2500  -999.2500    12.0760   101.5360     2.4750     0.0200
  594.0000  -999.2500  -999.2500    12.0800   101.7270     2.4830     0.0220
  594.5000  -999.2500  -999.2500    12.0850   102.2560     2.4900     0.0200
  595.0000  -999.2500  -999.2500    12.0900   103.7850     2.4810     0.0110
  595.5000  -999.2500  -999.2500    12.0940   101.7150     2.4890     0.0040
  596.0000  -999.2500  -999.2500    12.0990    97.8520     2.5150     0.0010
  596.5000  -999.2500  -999.2500    12.1040    92.4380     2.5490     0.0300
  597.0000  -999.2500  -999.2500    12.1070    92.6700     2.5640     0.0570
  597.5000  -999.2500  -999.2500    12.1070    95.5650     2.5600     0.0690
  598.0000  -999.2500  -999.2500    12.1070    99.3680     2.5260     0.0530
  598.5000  -999.2500  -999.2500    12.1060    99.8730     2.5000     0.0420
  599.0000  -999.2500  -999.2500    12.1060   101.8630     2.4910     0.0280
  599.5000  -999.2500  -999.2500    12.1050   108.8050     2.4850     0.0250
  600.0000  -999.2500  -999.2500    12.1050   106.2720     2.4810     0.0230
  600.5000  -999.2500  -999.2500    12.1040   105.4100     2.4830     0.0210
  601.0000  -999.2500  -999.2500    12.1040   103.6220     2.4850     0.0190
  601.5000  -999.2500  -999.2500    12.1030   102.2770     2.4870     0.0180
  602.0000  -999.2500  -999.2500    12.1030   101.0720     2.4910     0.0150
  602.5000  -999.2500  -999.2500    12.1020    98.9140     2.4950     0.0190
  603.0000  -999.2500  -999.2500    12.1020    95.4790     2.4970     0.0290
  603.5000  -999.2500  -999.2500    12.1010    97.1220     2.4940     0.0280
  604.0000  -999.2500  -999.2500    12.1010    97.8100     2.4950     0.0190
  604.5000  -999.2500  -999.2500    12.1000    98.8950     2.4770     0.0100
  605.0000  -999.2500  -999.2500    12.1000    99.7570     2.4590     0.0010
  605.5000  -999.2500  -999.2500    12.0990    99.8850     2.4570    -0.0050
  606.0000  -999.2500  -999.2500    12.0990    99.9360     2.4640    -0.0020
  606.5000  -999.2500  -999.2500    12.0980   100.0070     2.4750     0.0100
  607.0000  -999.2500  -999.2500    12.0980   100.1850     2.4830     0.0220
  607.5000  -999.2500  -999.2500    12.0970    99.7990     2.4840     0.0270
  608.0000  -999.2500  -999.2500    12.0970   103.3710     2.4800     0.0260
  608.5000  -999.2500  -999.2500    12.0960   106.3590     2.4760     0.0260
  609.0000  -999.2500  -999.2500    12.0960   103.3460     2.4780     0.0300
  609.5000  -999.2500  -999.2500    12.0950   103.4540     2.4810     0.0400
  610.0000  -999.2500  -999.2500    12.0950   103.4600     2.4920     0.0490
  610.5000  -999.2500  -999.2500    12.0940   105.0050     2.5100     0.0610
  611.0000  -999.2500  -999.2500    12.0940   107.7910     2.5190     0.0750
  611.5000  -999.2500  -999.2500    12.0930   106.9360     2.5280     0.0870
  612.0000  -999.2500  -999.2500    12.0930   103.0840     2.5450     0.1130
  612.5000  -999.2500  -999.2500    12.0920   101.2550     2.5340     0.1180
  613.0000  -999.2500  -999.2500    12.0920   101.3840     2.4960     0.0850
  613.5000  -999.2500  -999.2500    12.0920   100.5210     2.4450     0.0460
  614.0000  -999.2500  -999.2500    12.0910    99.9230     2.4540     0.0510
  614.5000  -999.2500  -999.2500    12.0910    98.0860     2.4850     0.0570
  615.0000  -999.2500  -999.2500    12.0900    94.5590     2.4810     0.0480
  615.5000  -999.2500  -999.2500    12.0900    95.8350     2.4760     0.0350
  616.0000  -999.2500  -999.2500    12.0890    98.8770     2.4700     0.0230
  616.5000  -999.2500  -999.2500    12.0890   100.0790     2.4700     0.0160
  617.0000  -999.2500  -999.2500    12.0880    99.9420     2.4760     0.0200
  617.5000  -999.2500  -999.2500    12.0880   102.1210     2.4820     0.0240
  618.0000  -999.2500  -999.2500    12.0870   105.8860     2.4810     0.0280
  618.5000  -999.2500  -999.2500    12.0870   109.0410     2.4850     0.0320
  619.0000  -999.2500  -999.2500    12.0860   112.3690     2.4870     0.0370
  619.5000  -999.2500  -999.2500    12.0860   112.6270     2.4870     0.0350
  620.0000  -999.2500  -999.2500    12.0850   114.2860     2.4820     0.0270
  620.5000  -999.2500  -999.2500    12.0850   110.7930     2.4750     0.0200
  621.0000  -999.2500  -999.2500    12.0840   107.1580     2.4690     0.0200
  621.5000  -999.2500  -999.2500    12.0840   103.3850     2.4790     0.0230
  622.0000  -999.2500  -999.2500    12.0830   101.5650     2.4850     0.0250
  622.5000  -999.2500  -999.2500    12.0830   103.6410     2.4840     0.0280
  623.0000  -999.2500  -999.2500    12.0820   105.0620     2.4830     0.0300
  623.5000  -999.2500  -999.2500    12.0820   104.7820     2.4870     0.0350
  624.0000  -999.2500  -999.2500    12.0810   101.2520     2.4910     0.0400
  624.5000  -999.2500  -999.2500    12.0810    99.9860     2.4980     0.0430
  625.0000  -999.2500  -999.2500    12.0800    98.2310     2.4890     0.0370
  625.5000  -999.2500  -999.2500    12.0800    96.5320     2.4800     0.0330
  626.0000  -999.2500  -999.2500    12.0790    95.3240     2.4800     0.0290
  626.5000  -999.2500  -999.2500    12.0790    95.6110     2.4820     0.0260
  627.0000  -999.2500  -999.2500    12.0780    97.1050     2.4780     0.0230
  627.5000  -999.2500  -999.2500    12.0780    99.5950     2.4730     0.0190
  628.0000  -999.2500  -999.2500    12.0780   103.0440     2.4780     0.0200
  628.5000  -999.2500  -999.2500    12.0770   100.6870     2.4840     0.0250
  629.0000  -999.2500  -999.2500    12.0770   100.2160     2.4850     0.0300
  629.5000  -999.2500  -999.2500    12.0760    97.6960     2.4860     0.0340
  630.0000  -999.2500  -999.2500    12.0760    95.8030     2.4860     0.0380
  630.5000  -999.2500  -999.2500    12.0750    99.2630     2.4850     0.0340
  631.0000  -999.2500  -999.2500    12.0750    98.2590     2.4770     0.0300
  631.5000  -999.2500  -999.2500    12.0740   103.2620     2.4700     0.0260
  632.0000  -999.2500  -999.2500    12.0740   102.2990     2.4640     0.0210
  632.5000  -999.2500  -999.2500    12.0730   101.3940     2.4600     0.0170
  633.0000  -999.2500  -999.2500    12.0730   100.7940     2.4550     0.0140
  633.5000  -999.2500  -999.2500    12.0720   101.5090     2.4590     0.0130
