~VERSION INFORMATION
 VERS.                2.0:   CWLS LOG ASCII STANDARD - VERSION 2.0
 WRAP.                 NO:   ONE LINE PER DEPTH STEP
~WELL INFORMATION
#MNEM.UNIT      DATA TYPE    INFORMATION
#----------   ------------   ------------------------------
 STRT.F          620.0000:   START DEPTH
 STOP.F         3209.0000:   STOP DEPTH
 STEP.F            0.5000:   STEP LENGTH
 NULL.          -999.2500:   NO VALUE
 COMP. FENIX & SCISSON - US NAVY:   COMPANY
 WELL.   FENIX "A" #23-33:   WELL
 FLD .             NPR #3:   FIELD
 LOC .      S33 T39N R78W:   LOCATION
 CNTY.            NATRONA:   COUNTY
 STAT.            WYOMING:   STATE
 CTRY. UNITED STATES OF AMERICA:   COUNTRY
 SRVC.              WELEX:   SERVICE COMPANY
 DATE.        26-MAR-1977:   LOGDATE
 API .     49025103250000:   API NUMBER
~CURVE INFORMATION
#MNEM.UNIT       API CODE    CURVE DESCRIPTION
#----------   ------------   ------------------------------
 DEPT.F                  :   
 GRD .GAPI   45 310 01 00:   GAMMA RAY FROM DENSITY LOG
 CALD.IN     45 280 60 00:   CALIPER FROM DENSITY LOG
 CORR.G/C3   45 356 01 00:   DENSITY CORRECTION
 RHOB.G/C3   45 350 01 00:   BULK DENSITY
 SPR .MV     07 010 01 00:   SPONTANEOUS POTENTIAL
 ILD .OHMM   07 120 46 00:   DEEP INDUCTION RESISTIVITY
 ILM .OHMM   07 120 44 00:   INDUCTION LOG MEDIUM RESISTIVITY
 SGRD.OHMM   07 220 05 00:   SHALLOW SHORT GUARD RESISTIVITY
~PARAMETER INFORMATION
#MNEM.UNIT          VALUE    DESCRIPTION
#----------   ------------   ------------------------------
 EKB .F         5183.0000:   Kelly bushing
 EGL .F         5172.0000:   Ground level
 TD  .F         3213.0000:   Total depth
 CLNT.            A2DTECH:   Client Code
 SL  . 900' FWL & 1650' FNL:   Surface Location
 PD  .                 GL:   Permanent Datum
 EPD .F              5172:   Elevation Permanent Datum
 LMF .                 KB:   Log Measured From
 DMF .                 KB:   Drilling Measured From
 DAPD.F                11:   Feet Above Permanent Datum
 DATE.        26-MAR-1977:   Date Logged [DD-MMM-YYYY]
 DD  .F              3210:   Depth driller
 DL  .F              3213:   Depth logger
 BLI .F              3211:   Bottom log interval
 TLI .F               625:   Top log interval
 CS1 .IN            8.625:   Casing size
 CBD1.      8.625" @ 633':   Casing driller 1
 CBL1.F               635:   Casing logger 1
 BS1 .IN            7.875:   Bit size
 BSD1.F              3210:   Depth drilled with bit1
 DFT .            KCL MUD:   Type fluid in hole
 DFD .                9.5:   Density
 DFV .                 34:   Viscosity
 DFPH.                8.5:   pH
 DFL .                 14:   Fluid loss
 MSS .           FLOWLINE:   Source of sample
 RMS .OHMM           0.34:   Rm
 MST .F                86:   Rm Meas. temp.
 RMF .OHMM           0.25:   Rmf
 MFST.F                86:   Rmf Meas. temp.
 MFSS.            FANN KL:   Source Rmf.
 RMC .OHMM           0.55:   Rmc
 MCST.F                86:   Rmc Meas. temp.
 MCSS.            FANN KL:   Source Rmc.
 RMB .OHMM           0.31:   Rm. at BHT
 BHT .F                92:   BHT.
 TCS .HRS             2.5:   Time Circ. stopped
 MRT .F                92:   Maximum recorded temp.
 LUN .               8611:   Logging unit number
 LUL .             CASPER:   Logging unit location
 ENGI.            C. DOAK:   Recorded By
 WITN.            K. JAPP:   Witnessed by
 ORIG.           5" PRINT:   Origin of data
 UWI .     49025103250000:   Unique Well ID
 DICO. A2D TECHNOLOGIES, INC.:   Digitizing Company
~OTHER INFORMATION
~A   DEPT       GRD        CALD      CORR        RHOB      SPR        ILD        ILM       SGRD   
# ...
 1997.0000    87.1684     9.3451     0.0462     2.4194   -36.0344     7.3873     8.7935     9.1877
 1997.5000    86.2949     9.3022     0.0386     2.4314   -36.1658     7.6505     9.7787     9.6558
 1998.0000    85.7181     9.1996     0.0313     2.4487   -36.5878     7.8146    10.9995     9.8558
 1998.5000    86.7845     9.0971     0.0299     2.4638   -36.8704     7.9822    12.6604     9.7249
 1999.0000    87.5326     9.0239     0.0346     2.4706   -37.4403     8.0974    13.8706     9.7317
 1999.5000    87.8496     8.9662     0.0392     2.4729   -37.8656     8.1578    14.3157    10.6501
 2000.0000    88.1630     8.9378     0.0424     2.4730   -38.1443     8.1622    10.7332    11.6551
 2000.5000    88.7732     8.9091     0.0440     2.4714   -38.2757     8.1667     8.7984    12.2382
 2001.0000    89.0866     8.9107     0.0441     2.4715   -37.9647     8.1764     8.3908    12.0773
 2001.5000    89.2475     8.9269     0.0442     2.4716   -38.0967     8.2901     8.2805    11.4232
 2002.0000    87.9331     8.9583     0.0443     2.4694   -38.2281     8.2945     8.2296    10.9045
 2002.5000    87.3521     9.0054     0.0445     2.4703   -38.5028     8.2420     8.2937    10.6138
 2003.0000    87.9665     9.0647     0.0431     2.4710   -38.4870     8.1887     8.4145    10.3309
 2003.5000    88.8734     9.0807     0.0386     2.4688   -38.6184     8.0820     8.7753     9.7820
 2004.0000    89.9288     9.0820     0.0342     2.4598   -38.7537     7.9745     9.2147     8.7653
 2004.5000    90.0942     9.1129     0.0313     2.4524   -38.8852     7.9799     9.6762     9.2675
 2005.0000    90.2630     9.1142     0.0268     2.4464   -38.8653     7.9842    10.0568     9.7984
 2005.5000    90.4281     9.0518     0.0209     2.4540   -38.9971     8.0999    11.1208    10.0780
 2006.0000    90.4448     8.8353     0.0180     2.4578   -38.9809     8.2164    12.5955    36.8578
 2006.5000    90.7582     8.7621     0.0136     2.4443   -39.1123     8.4517    14.5632    45.3453
 2007.0000    91.0716     8.7337     0.0122     2.4368   -39.2437     8.6330    14.6741    19.5688
 2007.5000    91.6818     8.7205     0.0153     2.4392   -39.3751     8.6974    12.5357    12.2522
 2008.0000    92.4403     8.7066     0.0215     2.4608   -39.5065     8.7021    10.4907    11.5216
 2008.5000    92.1603     8.7083     0.0262     2.4769   -39.4866     8.7068     8.5993    11.8575
 2009.0000    91.4352     8.6796     0.0278     2.4785   -39.6220     8.5332     8.4878    12.4449
 2009.5000    90.7100     8.6812     0.0294     2.4756   -39.8967     8.4209     8.4937    12.6247
 2010.0000    91.4982     8.6825     0.0280     2.4711   -40.0281     8.2749     8.4998    12.3732
 2010.5000    92.8665     8.7150     0.0223     2.4681   -40.0133     8.1747     8.5658    11.7158
 2011.0000    94.0284     8.7448     0.0209     2.4659   -39.9971     8.0497     8.6906    11.4019
 2011.5000    94.4902     8.7609     0.0193     2.4621   -39.9805     7.9247     8.7567    12.6529
 2012.0000    94.2102     8.7474     0.0135     2.4584   -39.9647     7.7997     8.9455    13.2859
 2012.5000    93.7818     8.7338     0.0090     2.4555   -39.9485     7.6748     9.1385    13.1946
 2013.0000    93.3492     8.7200     0.0046     2.4533   -39.9323     7.5969     9.2715    12.8500
 2013.5000    92.7724     8.6916    -0.0014     2.4518   -39.7658     7.6032     9.5369    12.8590
 2014.0000    92.0749     8.6632    -0.0043     2.4526   -39.7499     7.7673     9.6120    13.0448
 2014.5000    91.3454     8.6500    -0.0043     2.4596   -39.8853     7.9349     9.7511    13.1821
 2015.0000    92.3963     8.6365    -0.0036     2.4701   -39.8655     8.0505     9.8253    13.4245
 2015.5000    93.4545     8.6378    -0.0011     2.4814   -40.1481     8.1995     9.8312    13.5249
 2016.0000    94.2235     8.6243     0.0005     2.4852   -40.4268     8.2880     9.9070    13.7203
 2016.5000    94.6618     8.6259     0.0035     2.4815   -40.7055     8.3509     9.9139    13.8230
 2017.0000    94.5258     8.6124     0.0051     2.4703   -40.9809     8.3565     9.9480    14.1313
 2017.5000    94.5381     8.6137     0.0081     2.4583   -41.3149     8.4200     9.9963    14.3257
 2018.0000    94.2506     8.6001     0.0112     2.4689   -41.4174     8.4256     9.8636    14.6332
 2018.5000    93.9692     8.5863     0.0143     2.4772   -41.5198     8.4312     9.6685    14.9474
 2019.0000    93.8301     8.5879     0.0143     2.4750   -41.6222     8.3789     9.6129    15.0571
 2019.5000    93.5487     8.5595     0.0144     2.4721   -41.7247     8.3847     9.4893    13.7759
 2020.0000    94.3029     8.5608     0.0145     2.4674   -41.8271     8.3904     9.4293    12.7770
 2020.5000    95.6505     8.5325     0.0130     2.4587   -41.9320     8.3962     9.4375    13.5090
 2021.0000    94.9021     8.5193     0.0146     2.4572   -42.0678     8.4028     9.5093    14.1921
 2021.5000    93.7494     8.5054     0.0177     2.4610   -41.9087     8.4084     9.6478    14.5916
 2022.0000    93.0199     8.5070     0.0177     2.4671   -41.8946     8.4136     9.9239    14.4974
 2022.5000    92.2903     8.5083     0.0178     2.4709   -41.8851     8.4196     9.9996    14.8107
 2023.0000    91.5608     8.5096     0.0178     2.4695   -41.8733     8.4252     9.8038    15.1286
 2023.5000    90.8313     8.4958     0.0164     2.4643   -41.8602     8.4310     9.6749    14.0316
 2024.0000    90.2501     8.4974     0.0149     2.4575   -42.1461     8.4963     9.9535    14.9381
 2024.5000    90.4108     8.4838     0.0120     2.4516   -42.1318     8.5020    10.0985    15.1540
 2025.0000    91.6100     8.4852     0.0105     2.4517   -42.2680     8.5077    10.2455    15.2674
 2025.5000    92.0675     8.4865     0.0091     2.4580   -42.4034     8.5723    10.2527    15.3818
 2026.0000    91.4531     8.4729     0.0092     2.4615   -42.5390     8.5776    10.2599    15.1794
 2026.5000    90.3147     8.4594     0.0092     2.4578   -42.6115     8.6252    10.1268    15.1899
 2027.0000    89.7305     8.4314     0.0093     2.4534   -42.6634     8.6489     9.9954    15.1984
 2027.5000    89.4461     8.4327     0.0063     2.4489   -42.7964     8.6552     9.9339    15.2069
 2028.0000    89.7582     8.4043     0.0064     2.4505   -42.7849     8.6608     9.8067    14.8015
 2028.5000    90.3640     8.4056     0.0064     2.4580   -42.9235     8.6668     9.7446    14.1121
 2029.0000    90.9698     8.4069     0.0065     2.4656   -42.9092     8.6727     9.7532    13.3623
 2029.5000    91.5755     8.4230     0.0081     2.4702   -42.8984     8.6183     9.7600    13.6688
 2030.0000    92.3297     8.4392     0.0096     2.4687   -42.8866     8.6053     9.6999    14.7347
 2030.5000    92.7871     8.4405     0.0094     2.4658   -42.8747     8.5717     9.7739    15.0511
 2031.0000    93.0964     8.4421     0.0053     2.4643   -42.7158     8.5777     9.7823    15.1636
 2031.5000    92.8148     8.4434     0.0038     2.4629   -42.6462     8.5388     9.9247    15.1721
 2032.0000    91.4918     8.4595     0.0023     2.4630   -42.5429     8.5302    10.0693    15.2856
 2032.5000    90.7592     8.4757     0.0024     2.4630   -42.5314     8.5964    10.2159    15.2941
 2033.0000    90.1811     8.4770    -0.0051     2.4601   -42.5199     8.6291    10.2936    15.4085
 2033.5000    89.5999     8.4783    -0.0065     2.4458   -42.5084     8.7274    10.2302    15.4171
 2034.0000    89.4608     8.4644    -0.0049     2.4383   -42.5488     8.7332    10.1672    15.3197
 2034.5000    89.9213     8.4809    -0.0033     2.4452   -43.0745     8.7503    10.1745    15.3304
 2035.0000    90.8238     8.4822     0.0006     2.4512   -43.3576     8.8053    10.2536    15.4451
 2035.5000    92.3198     8.4835     0.0043     2.4591   -43.6407     8.8723    10.3316    15.7766
 2036.0000    95.0267     8.5000     0.0074     2.4706   -43.9237     8.8866    10.4102    15.7854
 2036.5000    96.2554     8.5013     0.0119     2.4808   -44.2068     8.9471    10.5618    15.7942
 2037.0000    96.3626     8.5026     0.0165     2.4876   -44.1924     8.9531    10.4949    15.3732
