~VERSION INFORMATION
 VERS.                2.0:   CWLS LOG ASCII STANDARD - VERSION 2.0
 WRAP.                 NO:   ONE LINE PER DEPTH STEP
~WELL INFORMATION
#MNEM.UNIT      DATA TYPE    INFORMATION
#----------   ------------   ------------------------------
 STRT.F          640.0000:   START DEPTH
 STOP.F         2792.0000:   STOP DEPTH
 STEP.F            0.5000:   STEP LENGTH
 NULL.          -999.2500:   NO VALUE
 COMP.    FENIX & SCISSON:   COMPANY
 WELL.   FENIX SHX #41-11:   WELL
 FLD .        TEAPOT DOME:   FIELD
 LOC .      S11 T38N R78W:   LOCATION
 CNTY.            NATRONA:   COUNTY
 STAT.            WYOMING:   STATE
 CTRY. UNITED STATES OF AMERICA:   COUNTRY
 SRVC.           BIRDWELL:   SERVICE COMPANY
 DATE.        07-JUL-1979:   LOGDATE
 API .     49025107880000:   API NUMBER
~CURVE INFORMATION
#MNEM.UNIT       API CODE    CURVE DESCRIPTION
#----------   ------------   ------------------------------
 DEPT.F                  :   
 CALD.IN     45 280 60 00:   CALIPER FROM DENSITY LOG
 RHOB.G/C3   45 350 01 00:   BULK DENSITY
 CORR.G/C3   45 356 01 00:   DENSITY CORRECTION
 GRD .GAPI   45 310 01 00:   GAMMA RAY FROM DENSITY LOG
~PARAMETER INFORMATION
#MNEM.UNIT          VALUE    DESCRIPTION
#----------   ------------   ------------------------------
 EKB .F         5168.0000:   Kelly bushing
 EGL .F         5158.0000:   Ground level
 EDF .F            0.0000:   Drilling floor
 EPD .F            0.0000:   Permanent datum
 TD  .F         2801.0000:   Total depth
 DATE.        07-JUL-1979:   Date logged
 CLNT.            A2DTECH:   Client Code
 SL  . 95' FNL & 2414' FWL:   Surface Location
 PD  .                 GL:   Permanent Datum
 DAPD.F                10:   Feet Above Permanent Datum
 DD  .F              2801:   Depth driller
 DL  .F              2791:   Depth logger
 BLI .F              2790:   Bottom log interval
 TLI .F               640:   Top log interval
 CS1 .IN            9.625:   Casing size
 CBD1.      9.625" @ 909':   Casing driller 1
 CBL1.F               910:   Casing logger 1
 BS1 .IN             8.75:   Bit size
 BSD1.F              2801:   Depth drilled with bit1
 DFT .                AIR:   Type fluid in hole
 LUN .               2959:   Logging unit number
 LUL .             CASPER:   Logging unit location
 ENGI.         B. RULLINS:   Recorded By
 WITN.           GINSMORE:   Witnessed by
 ORIG.           5" PRINT:   Origin of data
 UWI .     49025107880000:   Unique Well ID
 DICO. A2D TECHNOLOGIES, INC.:   Digitizing Company
~OTHER INFORMATION
~A   DEPT     CALD       RHOB       CORR         GRD  
# ...
 1078.0000    10.2220     2.4840     0.0170   127.3640
 1078.5000    10.2220     2.4840     0.0110   127.8570
 1079.0000    10.2220     2.4830     0.0040   129.3900
 1079.5000    10.2220     2.4830     0.0040   128.9440
 1080.0000    10.2220     2.4820     0.0040   125.3150
 1080.5000    10.2220     2.4810     0.0040   126.4990
 1081.0000    10.2220     2.4800     0.0040   126.2720
 1081.5000    10.2220     2.4790     0.0040   124.7850
 1082.0000    10.2220     2.4790     0.0050   124.2700
 1082.5000    10.2220     2.4790     0.0060   127.3120
 1083.0000    10.2220     2.4800     0.0070   130.6050
 1083.5000    10.2220     2.4800     0.0080   130.5110
 1084.0000    10.2220     2.4840     0.0080   130.5620
 1084.5000    10.2220     2.4900     0.0080   136.5470
 1085.0000    10.2220     2.4960     0.0090   142.7700
 1085.5000    10.2220     2.5020     0.0130   143.8990
 1086.0000    10.2220     2.5080     0.0160   141.1860
 1086.5000    10.2220     2.5110     0.0160   134.5720
 1087.0000    10.2220     2.5090     0.0120   127.9950
 1087.5000    10.2220     2.5010     0.0080   127.6520
 1088.0000    10.2220     2.4940     0.0030   130.3330
 1088.5000    10.2220     2.4860     0.0000   132.6910
 1089.0000    10.2220     2.4780     0.0000   132.3680
 1089.5000    10.2230     2.4760     0.0010   131.9790
 1090.0000    10.2590     2.4790     0.0020   135.0570
 1090.5000    10.3720     2.4860     0.0030   136.9690
 1091.0000    10.4240     2.4880     0.0040   136.6170
 1091.5000    10.4310     2.4880     0.0050   134.5230
 1092.0000    10.4390     2.4890     0.0070   132.7690
 1092.5000    10.4480     2.4900     0.0080   132.8240
 1093.0000    10.4690     2.4900     0.0090   134.2160
 1093.5000    10.4980     2.4900     0.0100   136.2800
 1094.0000    10.5440     2.4840     0.0110   136.9960
 1094.5000    10.5890     2.4780     0.0120   135.0780
 1095.0000    10.6350     2.4720     0.0120   131.0730
 1095.5000    10.6810     2.4650     0.0140   127.1020
 1096.0000    10.7230     2.4590     0.0150   124.8880
 1096.5000    10.7230     2.4570     0.0170   124.7530
 1097.0000    10.6800     2.4600     0.0180   124.7430
 1097.5000    10.6320     2.4700     0.0200   125.0940
 1098.0000    10.5840     2.4790     0.0200   127.4630
 1098.5000    10.5360     2.4880     0.0200   129.8290
 1099.0000    10.4870     2.4920     0.0170   132.1850
 1099.5000    10.4440     2.4930     0.0140   134.3650
 1100.0000    10.4350     2.4890     0.0100   134.4320
 1100.5000    10.4270     2.4780     0.0060   130.4730
 1101.0000    10.4190     2.4680     0.0040   127.9360
 1101.5000    10.4110     2.4570     0.0040   128.9900
 1102.0000    10.4020     2.4520     0.0040   131.0510
 1102.5000    10.3940     2.4660     0.0110   128.7950
 1103.0000    10.3860     2.4820     0.0200   127.0600
 1103.5000    10.3770     2.4840     0.0280   126.3110
 1104.0000    10.3690     2.4890     0.0350   123.6350
 1104.5000    10.3610     2.4960     0.0360   120.8270
 1105.0000    10.3530     2.4960     0.0360   118.7400
 1105.5000    10.3440     2.4890     0.0350   120.9210
 1106.0000    10.3470     2.4830     0.0260   123.6150
 1106.5000    10.3530     2.4820     0.0170   124.7350
 1107.0000    10.3580     2.4870     0.0090   123.9130
 1107.5000    10.3640     2.4920     0.0060   122.1450
 1108.0000    10.3690     2.4920     0.0080   120.3860
 1108.5000    10.3740     2.4900     0.0140   118.7380
 1109.0000    10.3800     2.4850     0.0120   119.2520
 1109.5000    10.3850     2.4790     0.0100   120.1090
 1110.0000    10.3910     2.4790     0.0080   119.4340
 1110.5000    10.3960     2.4870     0.0060   115.9150
 1111.0000    10.4020     2.4940     0.0070   111.6950
 1111.5000    10.4070     2.5020     0.0080   111.3600
 1112.0000    10.4130     2.5040     0.0100   112.0330
 1112.5000    10.4180     2.5010     0.0100   109.3960
 1113.0000    10.4240     2.4970     0.0100   106.5420
 1113.5000    10.4290     2.4990     0.0100   106.0310
 1114.0000    10.4350     2.5000     0.0130   108.8420
 1114.5000    10.4400     2.5000     0.0190   112.1470
 1115.0000    10.4450     2.4950     0.0220   113.2820
 1115.5000    10.4510     2.4910     0.0220   113.1790
 1116.0000    10.4560     2.4910     0.0220   112.1440
 1116.5000    10.4620     2.4930     0.0270   111.4890
 1117.0000    10.4670     2.4910     0.0300   113.5200
 1117.5000    10.4730     2.4870     0.0220   116.5790
 1118.0000    10.4780     2.4830     0.0210   119.4210
 1118.5000    10.4870     2.4830     0.0390   119.3710
 1119.0000    10.5190     2.5000     0.0520   118.8800
 1119.5000    10.5520     2.5150     0.0590   116.9520
 1120.0000    10.5840     2.5140     0.0660   113.6600
 1120.5000    10.6170     2.5080     0.0560   110.3830
 1121.0000    10.6490     2.5010     0.0460   109.7290
 1121.5000    10.6810     2.4960     0.0350   110.4770
 1122.0000    10.7130     2.4950     0.0240   113.6480
 1122.5000    10.7460     2.4970     0.0180   116.6990
 1123.0000    10.7780     2.4990     0.0230   119.7720
 1123.5000    10.8210     2.4990     0.0350   120.0320
 1124.0000    10.9100     2.4980     0.0460   115.1570
 1124.5000    10.9990     2.4920     0.0470   112.8040
 1125.0000    11.0870     2.4860     0.0400   114.1510
 1125.5000    11.1750     2.4800     0.0390   113.1750
 1126.0000    11.2640     2.4740     0.0400   111.4730
 1126.5000    11.3510     2.4700     0.0430   125.5590
 1127.0000    11.4050     2.4710     0.0440   124.8320
 1127.5000    11.4050     2.4740     0.0440   118.3430
 1128.0000    11.4050     2.4790     0.0460   114.4620
 1128.5000    11.4050     2.4860     0.0570   112.7130
 1129.0000    11.4050     2.5040     0.0700   110.9610
 1129.5000    11.4050     2.5150     0.0710   109.2060
 1130.0000    11.4050     2.5160     0.0630   107.4410
 1130.5000    11.4060     2.5100     0.0530   105.7220
 1131.0000    11.4100     2.5020     0.0420   105.3270
 1131.5000    11.4140     2.4940     0.0310   107.2520
 1132.0000    11.4170     2.4860     0.0240   111.6210
 1132.5000    11.4210     2.4770     0.0240   116.1030
 1133.0000    11.4250     2.4690     0.0240   117.3220
 1133.5000    11.4250     2.4610     0.0220   117.3480
 1134.0000    11.4250     2.4530     0.0200   117.0930
 1134.5000    11.4030     2.4450     0.0170   115.6580
 1135.0000    11.2260     2.4390     0.0260   112.8470
 1135.5000    11.0510     2.4540     0.0450   108.2250
 1136.0000    10.8770     2.4720     0.0610   107.7930
 1136.5000    10.7030     2.4590     0.0580   111.3810
 1137.0000    10.5300     2.4430     0.0430   115.6300
 1137.5000    10.4220     2.4430     0.0400   115.4660
 1138.0000    10.4280     2.4820     0.0300   113.9020
 1138.5000    10.4320     2.4870     0.0120   112.6520
 1139.0000    10.4360     2.4960     0.0120   115.9350
 1139.5000    10.4410     2.4940     0.0230   120.9600
 1140.0000    10.4450     2.4760     0.0120   119.3300
 1140.5000    10.4490     2.4620     0.0020   116.2380
 1141.0000    10.4530     2.4660     0.0020   115.3120
 1141.5000    10.4580     2.4880     0.0070   114.6050
 1142.0000    10.4620     2.5080     0.0080   108.7620
 1142.5000    10.4660     2.5200     0.0100   106.6510
 1143.0000    10.4700     2.5200     0.0170   115.2750
 1143.5000    10.4740     2.5100     0.0360   115.8750
 1144.0000    10.4790     2.4980     0.0380   115.2030
 1144.5000    10.4830     2.4980     0.0380   114.8460
 1145.0000    10.4720     2.5020     0.0380   118.6510
 1145.5000    10.4620     2.5020     0.0380   120.1170
 1146.0000    10.4510     2.4980     0.0380   118.2610
 1146.5000    10.4400     2.4940     0.0380   118.3370
 1147.0000    10.4290     2.4900     0.0370   126.0730
 1147.5000    10.4190     2.4880     0.0280   126.9450
 1148.0000    10.4080     2.4880     0.0130   124.9970
 1148.5000    10.3970     2.4890     0.0020   122.9170
 1149.0000    10.3860     2.4910     0.0000   120.8490
 1149.5000    10.3880     2.4930     0.0000   118.7740
 1150.0000    10.3990     2.4930     0.0010   117.3170
 1150.5000    10.4100     2.4970     0.0020   119.0610
