~VERSION INFORMATION
 VERS.                2.0:   CWLS LOG ASCII STANDARD - VERSION 2.0
 WRAP.                 NO:   ONE LINE PER DEPTH STEP
~WELL INFORMATION
#MNEM.UNIT      DATA TYPE    INFORMATION
#----------   ------------   ------------------------------
 STRT.F          728.0000:   START DEPTH
 STOP.F         3296.0000:   STOP DEPTH
 STEP.F            0.5000:   STEP LENGTH
 NULL.          -999.2500:   NO VALUE
 COMP.    FENIX & SCISSON:   COMPANY
 WELL. FENIX TX "AX" #55-34:   WELL
 FLD . N. P. R. - WILDCAT:   FIELD
 LOC .      S34 T39N R78W:   LOCATION
 CNTY.            NATRONA:   COUNTY
 STAT.            WYOMING:   STATE
 CTRY. UNITED STATES OF AMERICA:   COUNTRY
 SRVC.       SCHLUMBERGER:   SERVICE COMPANY
 DATE.        22-JUL-1981:   LOGDATE
 API .     49025108770000:   API NUMBER
~CURVE INFORMATION
#MNEM.UNIT       API CODE    CURVE DESCRIPTION
#----------   ------------   ------------------------------
 DEPT.F                  :   
 TENS.LBS    60 635 01 00:   TENSION FROM SONIC LOG
 DT  .US/F   60 520 00 00:   DELTA TIME
 RHOB.G/C3   45 350 01 00:   BULK DENSITY
 TEND.LBS    45 635 01 00:   TENSION FROM DENSITY LOG
 CORR.G/C3   45 356 01 00:   DENSITY CORRECTION
 CALD.IN     45 280 60 00:   CALIPER FROM DENSITY LOG
 NPHI.DEC    42 890 03 00:   NEUTRON POROSITY SANDSTONE
 TENR.LBS    07 635 01 00:   TENSION FROM RESISTIVITY
 SPR .MV     07 010 01 00:   SPONTANEOUS POTENTIAL
 GRR .GAPI   07 310 01 00:   GAMMA RAY FROM RESISTIVITY
 SFL .OHMM   07 220 01 00:   SHALLOW FOCUSED LOG RESISTIVITY
 ILM .OHMM   07 120 44 00:   INDUCTION LOG MEDIUM RESISTIVITY
 ILD .OHMM   07 120 46 00:   DEEP INDUCTION RESISTIVITY
~PARAMETER INFORMATION
#MNEM.UNIT          VALUE    DESCRIPTION
#----------   ------------   ------------------------------
 EKB .F         5092.0000:   Kelly bushing
 EGL .F         5082.0000:   Ground level
 EDF .F            0.0000:   Drilling floor
 TD  .F         3170.0000:   Total depth
 DATE.        22-JUL-1981:   Date logged
 CLNT.            A2DTECH:   Client Code
 SL  . 2012' FSL & 2774' FWL:   Surface Location
 PD  .                 GL:   Permanent Datum
 EPD .F              5082:   Elevation Permanent Datum
 LMF .                 KB:   Log Measured From
 DMF .                 KB:   Drilling Measured From
 DAPD.F                10:   Feet Above Permanent Datum
 DD  .F              3170:   Depth driller
 DL  .F              3110:   Depth logger
 BLI .F              3104:   Bottom log interval
 TLI .F               753:   Top log interval
 CS1 .IN            9.625:   Casing size
 CBD1.      9.625" @ 751':   Casing driller 1
 CBL1.F               753:   Casing logger 1
 BS1 .IN            7.875:   Bit size
 BSD1.F              3170:   Depth drilled with bit1
 DFT .                FGM:   Type fluid in hole
 DFD .                  9:   Density
 DFV .                  9:   Viscosity
 DFPH.                9.8:   pH
 DFL .                8.6:   Fluid loss
 MSS .           MUD/TANK:   Source of sample
 RMS .OHMM           1.72:   Rm
 MST .F                72:   Rm Meas. temp.
 RMF .OHMM           1.17:   Rmf
 MFST.F                70:   Rmf Meas. temp.
 MFSS.               MEAS:   Source Rmf.
 RMB .OHMM           0.90:   Rm. at BHT
 BHT .F               144:   BHT.
 TCS .HRS            1215:   Time Circ. stopped
 TLAB.HRS            0400:   Time logger at bottom
 MRT .F               144:   Maximum recorded temp.
 LUN .               8035:   Logging unit number
 LUL .               CSPR:   Logging unit location
 ENGI.            PURPICH:   Recorded By
 WITN.           R. SCOTT:   Witnessed by
 ORIG.           5" PRINT:   Origin of data
 UWI .     49025108770000:   Unique Well ID
 DICO. A2D TECHNOLOGIES, INC.:   Digitizing Company
~OTHER INFORMATION
~A   DEPT     TENS         DT         RHOB      TEND      CORR       CALD         NPHI     TENR        SPR         GRR       SFL        ILM        ILD   
# ...
 2756.0000  1701.9130    79.8290     2.4190  1244.7729     0.0140     7.5860     0.2160   644.2950   -69.1910   119.4650    12.4080    10.0900    10.5990
 2756.5000  1681.7720    79.4260     2.4130  1244.0300     0.0090     7.5860     0.2160   644.1390   -69.1010   121.0910    12.8170    10.0010    10.5060
 2757.0000  1681.7720    78.5290     2.4210  1243.2880     0.0050     7.5860     0.2220   643.9820   -69.1030   126.0710    12.2250     9.9120    10.4130
 2757.5000  1687.3250    77.6330     2.4400  1242.5450     0.0010     7.5860     0.2270   643.8260   -69.1030   130.9680    11.3930     9.8240    10.3200
 2758.0000  1698.8000    76.7070     2.4590  1241.8030     0.0000     7.5860     0.2310   643.6700   -69.1030   133.1580    10.5600     9.7350    10.2270
 2758.5000  1710.2750    77.2780     2.4780  1241.0601     0.0050     7.5860     0.2210   643.5130   -69.1030   133.7170    10.0050     9.6460    10.1340
 2759.0000  1721.7500    78.0920     2.4980  1240.3170     0.0090     7.5860     0.2110   643.3570   -69.1030   131.9710    10.6510     9.5570    10.0410
 2759.5000  1733.2240    78.9060     2.5070  1239.5750     0.0130     7.5860     0.2020   643.2010   -69.1030   130.3970    10.8670     9.4680     9.9480
 2760.0000  1744.6990    79.4260     2.5010  1238.8320     0.0170     7.5860     0.2070   643.0440   -69.1030   129.7940    10.6000     9.3800     9.8550
 2760.5000  1756.1740    79.2250     2.4890  1238.0900     0.0210     7.5860     0.2160   642.8880   -69.1030   129.2600    10.3450     9.2910     9.7620
 2761.0000  1762.3361    79.3700     2.4790  1237.3470     0.0210     7.5860     0.2170   642.7310   -69.1030   129.5360    10.2850     9.2020     9.6690
 2761.5000  1762.3361    79.9000     2.4730  1236.6050     0.0180     7.5860     0.2160   642.5750   -69.1030   131.0610    10.8280     9.1130     9.5760
 2762.0000  1763.8320    80.4330     2.4670  1235.8621     0.0150     7.5860     0.2180   642.4190   -69.1030   132.8460    11.1700     9.0240     9.4830
 2762.5000  1767.8120    80.6440     2.4600  1235.1200     0.0120     7.5860     0.2240   642.2620   -69.1030   130.5390    10.8330     8.9360     9.3900
 2763.0000  1771.7930    80.2600     2.4600  1234.8180     0.0090     7.5860     0.2280   642.1060   -69.1030   127.1260    10.3620     8.8810     9.2970
 2763.5000  1775.7729    79.8750     2.4630  1235.6010     0.0070     7.5860     0.2250   641.9500   -69.1030   123.7080     9.8910     9.0740     9.4700
 2764.0000  1779.7531    79.4910     2.4750  1236.2600     0.0090     7.5860     0.2220   641.7930   -69.1030   121.1850     9.8230     9.1420     9.5440
 2764.5000  1783.7340    79.1070     2.4880  1236.9200     0.0140     7.5860     0.2190   641.6370   -69.1030   124.6950    10.5860     9.2120     9.6150
 2765.0000  1787.7140    78.7220     2.4950  1237.5790     0.0180     7.5860     0.2160   641.4810   -69.1030   126.8050    11.1030     9.2970     9.7340
 2765.5000  1791.6940    78.7790     2.4970  1238.2390     0.0190     7.5860     0.2170   641.3240   -69.1040   126.5240    11.6200     9.2970     9.7340
 2766.0000  1795.6750    79.0710     2.5000  1238.8990     0.0180     7.5860     0.2200   641.1680   -69.1040   128.4110    11.8020     9.2530     9.7080
 2766.5000  1799.6550    79.3630     2.5020  1239.5580     0.0160     7.5860     0.2230   641.0110   -69.0750   131.0450    11.3780     9.2000     9.6530
 2767.0000  1803.6350    79.6550     2.4990  1240.2180     0.0150     7.5860     0.2260   640.8550   -68.9170   131.7010    10.9910     9.1480     9.5980
 2767.5000  1807.6160    79.8290     2.4970  1240.8770     0.0130     7.5860     0.2280   640.6990   -68.7620   129.0200    10.4750     9.1280     9.5570
 2768.0000  1811.5959    79.8290     2.4910  1241.5370     0.0110     7.5860     0.2310   640.5420   -68.6070   126.0920    10.5720     9.2120     9.6450
 2768.5000  1815.5770    79.6270     2.4830  1242.1960     0.0090     7.5860     0.2330   640.3860   -68.4520   124.1150    11.0680     9.2970     9.6450
 2769.0000  1819.5570    79.1240     2.4760  1242.8560     0.0090     7.5860     0.2340   640.2300   -68.2980   126.2660    10.8700     9.4930     9.8810
 2769.5000  1822.7590    78.0640     2.4720  1243.5160     0.0070     7.5860     0.2350   640.0730   -68.1430   128.2050    10.4750     9.6380    10.0320
 2770.0000  1822.7590    76.8090     2.4790  1244.1750     0.0110     7.5860     0.2350   639.9170   -67.9880   128.8400    11.3360     9.7820    10.1840
 2770.5000  1822.7590    76.4050     2.4960  1244.8350     0.0190     7.5860     0.2200   639.7610   -67.8330   129.5190    12.6290     9.9140    10.3790
 2771.0000  1822.7590    77.8260     2.5130  1245.4940     0.0290     7.5860     0.2060   639.6040   -67.6780   130.1860    13.9210     9.9140    10.3790
 2771.5000  1842.9000    78.7810     2.5230  1246.1541     0.0270     7.5860     0.1920   639.4480   -67.5400   131.8550    14.5740     9.8090    10.3380
 2772.0000  1842.9000    79.7370     2.5120  1246.8130     0.0230     7.5860     0.1990   639.2910   -67.5440   133.9530    13.0300     9.6400    10.1620
 2772.5000  1842.9000    79.7360     2.4960  1247.4730     0.0190     7.5860     0.2110   640.8230   -67.5280   133.5090    11.1100     9.4710     9.9860
 2773.0000  1842.9000    79.4420     2.4900  1248.1331     0.0140     7.5860     0.2240   645.5540   -67.7970   131.3530     9.5570     9.3020     9.8100
 2773.5000  1842.9000    79.2250     2.4890  1248.7920     0.0170     7.5860     0.2280   649.1580   -68.1510   128.6820    10.1880     9.1340     9.6350
 2774.0000  1825.4780    79.4310     2.4920  1249.4520     0.0200     7.5860     0.2260   649.2450   -68.5930   125.9650    10.7180     8.9850     9.4590
 2774.5000  1822.7590    79.6590     2.4900  1250.1110     0.0230     7.5860     0.2240   649.3290   -69.0260   125.2090    11.2730     8.8580     9.2830
 2775.0000  1818.1820    79.8860     2.4870  1250.7710     0.0220     7.5860     0.2210   649.4120   -69.4590   126.4650    11.0220     8.7310     9.1080
 2775.5000  1813.3571    80.0300     2.4880  1251.4301     0.0180     7.5860     0.2210   649.4960   -69.8950   128.1400    10.6940     8.6050     8.9320
 2776.0000  1808.5320    79.7160     2.4940  1252.0900     0.0170     7.5860     0.2260   649.5790   -70.1160   128.4370    10.3650     8.4780     8.7560
 2776.5000  1803.7080    79.3970     2.5060  1252.7500     0.0190     7.5860     0.2300   649.6630   -70.1900   127.7800    10.0360     8.3520     8.5810
 2777.0000  1798.8831    79.3250     2.5160  1253.4091     0.0230     7.5860     0.2300   649.7460   -70.2600   127.5680     9.7070     8.1770     8.4050
 2777.5000  1794.0580    79.4140     2.5210  1254.0690     0.0270     7.5860     0.2280   649.8300   -70.3310   128.7390     9.6450     8.2520     8.5260
 2778.0000  1789.2340    79.6270     2.5230  1254.7280     0.0300     7.5860     0.2270   649.9130   -70.4020   129.4340    10.0790     8.3200     8.6470
 2778.5000  1784.4091    79.2310     2.5230  1255.3879     0.0300     7.5860     0.2280   649.9970   -70.4660   128.1790    10.4750     8.4220     8.7680
 2779.0000  1779.5840    78.4050     2.5110  1256.0470     0.0230     7.5860     0.2300   650.0800   -70.4360   126.9590    10.5720     8.5230     8.8890
 2779.5000  1774.7600    78.1170     2.4980  1256.7070     0.0160     7.5860     0.2290   650.1640   -70.4060   125.7290    10.4620     8.6250     9.0100
 2780.0000  1769.9351    78.5760     2.4850  1257.3669     0.0100     7.5860     0.2240   650.2470   -70.3760   124.6630    10.3790     8.7190     9.1310
 2780.5000  1765.1100    79.0010     2.4850  1258.0260     0.0050     7.5860     0.2160   650.3310   -70.3450   126.6250    10.9060     8.7990     9.2520
 2781.0000  1760.2860    79.4250     2.4850  1258.6860     0.0070     7.5860     0.2110   650.4140   -70.3150   127.0720    11.3770     8.7990     9.3730
 2781.5000  1755.4611    79.7280     2.4860  1259.3450     0.0090     7.5860     0.2190   650.4980   -70.2840   127.3430    11.3770     8.8470     9.4930
