~VERSION INFORMATION
 VERS.                2.0:   CWLS LOG ASCII STANDARD - VERSION 2.0
 WRAP.                 NO:   ONE LINE PER DEPTH STEP
~WELL INFORMATION
#MNEM.UNIT      DATA TYPE    INFORMATION
#----------   ------------   ------------------------------
 STRT.F          637.0000:   START DEPTH
 STOP.F         3158.0000:   STOP DEPTH
 STEP.F            0.5000:   STEP LENGTH
 NULL.          -999.2500:   NO VALUE
 COMP.    FENIX & SCISSON:   COMPANY
 WELL.  FENIX "AX" #34-33:   WELL
 FLD .             NPR #3:   FIELD
 LOC .      S33 T39N R78W:   LOCATION
 CNTY.            NATRONA:   COUNTY
 STAT.            WYOMING:   STATE
 CTRY. UNITED STATES OF AMERICA:   COUNTRY
 SRVC.       SCHLUMBERGER:   SERVICE COMPANY
 DATE.        15-APR-1977:   LOGDATE
 API .     49025103450000:   API NUMBER
~CURVE INFORMATION
#MNEM.UNIT       API CODE    CURVE DESCRIPTION
#----------   ------------   ------------------------------
 DEPT.F                  :   
 CALD.IN     45 280 60 00:   CALIPER FROM DENSITY LOG
 GRD .GAPI   45 310 01 00:   GAMMA RAY FROM DENSITY LOG
 RHOB.G/C3   45 350 01 00:   BULK DENSITY
 CORR.G/C3   45 356 01 00:   DENSITY CORRECTION
 SPR .MV     07 010 01 00:   SPONTANEOUS POTENTIAL
 SFLU.OHMM   07 220 01 00:   SPHERICALLY FOCUSED LOG UNAVERAGED RESISTIVITY
 ILD .OHMM   07 120 46 00:   INDUCTION LOG DEEP RESISTIVITY
 ILM .OHMM   07 120 44 00:   INDUCTION LOG MEDIUM RESISTIVITY
~PARAMETER INFORMATION
#MNEM.UNIT          VALUE    DESCRIPTION
#----------   ------------   ------------------------------
 EKB .F         5196.0000:   Kelly bushing
 EGL .F         5185.0000:   Ground level
 EDF .F            0.0000:   Drilling floor
 TD  .F         3159.0000:   Total depth
 DATE.        15-APR-1977:   Date logged
 CLNT.            A2DTECH:   Client Code
 SL  . 2132' FNL & 1750' FWL:   Surface Location
 PD  .                 GL:   Permanent Datum
 EPD .F              5185:   Elevation Permanent Datum
 LMF .                 KB:   Log Measured From
 DMF .                 KB:   Drilling Measured From
 DAPD.F                11:   Feet Above Permanent Datum
 DD  .F              3156:   Depth driller
 DL  .F              3159:   Depth logger
 BLI .F              3153:   Bottom log interval
 TLI .F               637:   Top log interval
 CS1 .IN            8.625:   Casing size
 CBD1.      8.625" @ 637':   Casing driller 1
 CBL1.F               637:   Casing logger 1
 BS1 .IN            7.875:   Bit size
 BSD1.F              3156:   Depth drilled with bit1
 DFT .                FGM:   Type fluid in hole
 DFD .                7.5:   Density
 DFV .                 35:   Viscosity
 DFPH.                8.5:   pH
 DFL .                  9:   Fluid loss
 MSS .                PIT:   Source of sample
 RMS .OHMM            .48:   Rm
 MST .F                60:   Rm Meas. temp.
 RMF .OHMM            .28:   Rmf
 MFST.F                60:   Rmf Meas. temp.
 MFSS.               MEAS:   Source Rmf.
 RMB .OHMM            .24:   Rm. at BHT
 BHT .F               120:   BHT.
 TCS .HRS            0200:   Time Circ. stopped
 MRT .F               120:   Maximum recorded temp.
 LUN .               7680:   Logging unit number
 LUL .               CSPR:   Logging unit location
 ENGI.             TAYLOR:   Recorded By
 WITN.         PETTINGILL:   Witnessed by
 ORIG.           5" PRINT:   Origin of data
 UWI .     49025103450000:   Unique Well ID
 DICO. A2D TECHNOLOGIES, INC.:   Digitizing Company
 TLAB.               0530:   Time logger at bottom
~OTHER INFORMATION
~A   DEPT       CALD      GRD       RHOB       CORR        SPR         SFLU        ILD        ILM 
# ...
 2459.5000     7.8268   106.7443     2.6552     0.1211   -41.1145     9.7175     6.9580     6.7066
 2460.0000     7.8283   107.9404     2.6552     0.1081   -40.9137     9.0243     6.8946     6.7067
 2460.5000     7.8299   107.7420     2.6422     0.1021   -41.7066     8.9414     6.8316     6.6455
 2461.0000     7.8314   109.1361     2.6232     0.1021   -42.1022     8.3035     6.7072     6.5245
 2461.5000     7.8330   110.5303     2.6192     0.0981   -42.1003     8.0764     6.5247     6.4648
 2462.0000     7.8346   111.7255     2.6102     0.0931   -41.5019     8.0022     6.3471     6.2314
 2462.5000     7.8361   111.9258     2.6032     0.0881   -41.8975     8.0024     6.1744     6.1744
 2463.0000     7.8377   111.9272     2.6082     0.0831   -41.8956     8.1521     6.1180     6.1180
 2463.5000     7.8393   112.3265     2.5993     0.0841   -41.8936     8.1524     6.0622     6.0622
 2464.0000     7.8408   109.9404     2.5963     0.0881   -42.0905     8.0775     6.0623     6.0068
 2464.5000     7.8424   105.9630     2.6133     0.1051   -42.2873     7.8565     5.9520     5.9519
 2465.0000     7.8439   103.1791     2.6272     0.1191   -42.2854     7.4921     6.0072     5.9521
 2465.5000     7.8455   101.7879     2.6123     0.1031   -42.0846     7.4923     6.0073     5.8978
 2466.0000     7.8471   100.5957     2.6282     0.1221   -41.4862     7.7023     6.0075     5.8979
 2466.5000     7.8486   100.7961     2.6083     0.0941   -41.2854     8.1537     5.9526     5.8981
 2467.0000     7.8502   104.1796     2.6263     0.1271   -41.0846     8.0788     5.8983     5.9528
 2467.5000     7.8517   107.7618     2.6183     0.1201   -41.0827     8.0791     5.7378     5.9530
 2468.0000     7.8533   108.9568     2.6183     0.1191   -41.0807     7.8581     5.6333     5.8986
 2468.5000     7.8549   109.7540     2.6203     0.1211   -41.0783     7.2303     5.4800     5.8448
 2469.0000     7.8564   109.9543     2.6183     0.1131   -40.8776     7.0325     5.3309     5.7383
 2469.5000     7.8778   109.1600     2.6223     0.1121   -41.0744     6.9680     5.1384     5.6338
 2470.0000     7.8778   107.3705     2.6253     0.1161   -41.0725     6.8404     4.9075     5.5312
 2470.5000     7.8780   109.3617     2.6033     0.1191   -40.8717     6.5920     4.7740     5.4304
 2471.0000     7.8807   109.7609     2.6183     0.1221   -40.8697     6.5314     4.6870     5.2828
 2471.5000     7.8834   109.1656     2.6273     0.1111   -40.8678     6.3506     4.5595     5.1865
 2472.0000     7.8862   109.3659     2.6113     0.1001   -41.0646     6.3507     4.4765     5.0921
 2472.5000     7.8889   112.7490     2.6383     0.1261   -41.0626     6.3509     4.3148     4.9082
 2473.0000     7.8916   114.7395     2.6133     0.1321   -41.6571     6.2930     4.1974     4.7309
 2473.5000     7.8943   116.7300     2.5773     0.1021   -41.2575     6.1784     4.0832     4.5600
 2474.0000     7.8971   118.9192     2.5683     0.0771   -41.2556     5.9552     3.9721     4.2365
 2474.5000     7.8998   119.7161     2.6013     0.1043   -40.8560     5.0000     3.9723     4.0835
 2475.0000     7.9025   119.5185     2.6083     0.1161   -41.0528     4.8194     3.9360     4.0462
 2475.5000     7.9052   119.3209     2.6203     0.1231   -41.0509     4.7316     3.9362     4.0093
 2476.0000     7.9079   119.5211     2.6173     0.1241   -41.0485     4.7755     3.9363     4.0465
 2476.5000     7.9107   116.1413     2.6033     0.1191   -41.0465     5.0006     4.0057     4.0840
 2477.0000     7.9134   114.9492     2.5753     0.1081   -40.8458     5.4326     4.0763     4.1600
 2477.5000     7.9161   115.3483     2.5933     0.1251   -40.8438     5.7411     4.1482     4.2374
 2478.0000     7.8808   116.3442     2.5863     0.0991   -40.8418     5.7944     4.2214     4.3163
 2478.5000     7.8810   116.9422     2.5633     0.0961   -40.8399     5.1412     4.2768     4.3563
 2479.0000     7.8812   116.3468     2.5853     0.0861   -40.8379     5.1889     4.3165     4.4373
 2479.5000     7.8814   117.5415     2.5933     0.0991   -40.8360     5.7949     4.3566     4.4785
 2480.0000     7.8815   119.1337     2.6173     0.1061   -40.8340     6.0680     4.3970     4.4787
 2480.5000     7.8806   119.9306     2.5943     0.0911   -40.6332     5.9575     4.4815     4.5202
 2481.0000     7.8798   116.3521     2.5793     0.0821   -40.8301     5.9576     4.5677     4.5203
 2481.5000     7.8789   115.5579     2.5993     0.1031   -40.8281     5.9578     4.6556     4.5205
 2482.0000     7.8781   115.7581     2.5734     0.0961   -40.8261     5.9580     4.7452     4.5206
 2482.5000     7.8772   115.1628     2.5754     0.0961   -40.8242     5.9582     4.8364     4.5626
 2483.0000     7.8763   116.1586     2.5734     0.1173   -40.8222     5.9583     4.9295     4.6474
 2483.5000     7.8755   119.7397     2.5833     0.1385   -40.8203     6.1253     5.0490     4.7339
 2484.0000     7.8746   121.1329     2.6013     0.1641   -40.8179     6.1834     5.1428     4.7340
 2484.5000     7.8738   123.1229     2.5893     0.1661   -40.8159     6.7830     5.2384     4.8221
 2485.0000     7.8729   122.9253     2.5774     0.1401   -41.0128     6.9741     5.4080     4.9119
 2485.5000     7.8720   123.3243     2.5953     0.1281   -41.0108     7.1046     5.6912     5.0495
 2486.0000     7.8712   124.3199     2.5834     0.1161   -40.8101     7.1708     5.7971     5.8507
 2486.5000     7.8703   128.8951     2.5664     0.0931   -40.8081     7.8662     5.9049     6.0702
 2487.0000     7.8695   130.4865     2.6273     0.1121   -41.0049     7.8664     5.9597     6.1265
 2487.5000     7.8686   125.5168     2.6223     0.1331   -41.0030     7.9398     6.0706     6.2405
 2488.0000     7.8678   122.7329     2.6163     0.1181   -41.1998     8.0138     6.0708     6.2984
 2488.5000     7.8669   123.5307     2.6063     0.1021   -40.9991     7.9402     6.1271     6.2986
 2489.0000     7.8660   121.9411     2.6044     0.0861   -40.9971     7.9404     6.1272     6.3570
 2489.5000     7.8652   120.7495     2.6034     0.0831   -40.9951     7.9406     6.1841     6.2990
 2490.0000     7.8643   118.9611     2.5954     0.0961   -40.9932     8.2402     6.1843     6.2414
 2490.5000     7.8635   115.5811     2.6064     0.1051   -40.7924     8.2405     6.2416     6.2416
 2491.0000     7.8626   114.3888     2.6094     0.1131   -40.7904     8.3173     6.3577     6.2417
 2491.5000     7.8617   117.7713     2.6074     0.1041   -40.5896     8.3176     6.5359     6.1848
 2492.0000     7.8609   120.1582     2.6124     0.1031   -40.3885     8.0901     6.7190     6.1850
 2492.5000     7.8600   116.5815     2.5764     0.0722   -40.5853     7.9420     6.9073     6.2423
 2493.0000     7.8592   112.8037     2.5634     0.0462   -40.5834     8.0160     7.1007     6.3585
 2493.5000     7.8583   108.4309     2.5774     0.0462   -40.5814     8.3185     7.6529     6.6580
 2494.0000     7.8575    90.1395     2.6034     0.0402   -40.5794     9.6460     8.1522     7.5736
 2494.5000     7.8566    66.6809     2.6573     0.0172   -40.5775    11.2892     8.1524     8.4580
 2495.0000     7.8557    62.7045     2.6923     0.0752   -40.5755    16.8054     8.3041     9.2736
 2495.5000     7.8549    66.6831     2.6743     0.0471   -40.5736    27.4306     8.1529    10.0745
 2496.0000     7.8540    82.2652     2.6673     0.0252   -40.9692    44.3972     7.9311     9.8911
 2496.5000     7.8532    97.8473     2.6503     0.1001   -40.9673    29.0094     7.7154     9.3600
 2497.0000     7.8523   113.4294     2.6134     0.0972   -40.9653    16.1963     7.4368     8.4592
 2497.5000     7.8515   124.1498     2.6064     0.0972   -40.9633     9.5590     6.9092     7.7871
 2498.0000     7.8506   124.9463     2.6034     0.1011   -40.9614     8.2439     6.6597     7.3016
 2498.5000     7.8497   121.1703     2.6064     0.0992   -40.9594     7.8715     6.3605     6.8463
 2499.0000     7.8487   119.9786     2.6174     0.1071   -40.9574     7.8717     6.3024     6.5991
 2499.5000     7.8687   120.9740     2.6204     0.1181   -41.1539     8.2446     6.2449     6.4197
