~VERSION INFORMATION
 VERS.                2.0:   CWLS LOG ASCII STANDARD - VERSION 2.0
 WRAP.                 NO:   ONE LINE PER DEPTH STEP
~WELL INFORMATION
#MNEM.UNIT      DATA TYPE    INFORMATION
#----------   ------------   ------------------------------
 STRT.F            0.5000:   START DEPTH
 STOP.F         5758.0000:   STOP DEPTH
 STEP.F            0.5000:   STEP LENGTH
 NULL.          -999.2500:   NO VALUE
 COMP.   LAWRENCE ALLISON:   COMPANY
 WELL. LAWRENCE "X" #51-10:   WELL
 FLD .          NPR NO. 3:   FIELD
 LOC .      S10 T38N R78W:   LOCATION
 CNTY.            NATRONA:   COUNTY
 STAT.            WYOMING:   STATE
 CTRY. UNITED STATES OF AMERICA:   COUNTRY
 SRVC.      DRESSER ATLAS:   SERVICE COMPANY
 DATE.        31-JAN-1987:   LOGDATE
 API .     49025111230000:   API NUMBER
~CURVE INFORMATION
#MNEM.UNIT       API CODE    CURVE DESCRIPTION
#----------   ------------   ------------------------------
 DEPT.F                  :   
 GRR .GAPI   07 310 01 00:   GAMMA RAY FROM RESISTIVITY
 TENR.LBS    07 635 01 00:   TENSION FROM RESISTIVITY
 SPR .MV     07 010 01 00:   SPONTANEOUS POTENTIAL
 RD  .OHMM   11 220 10 00:   RESISTIVITY DEEP
 RS  .OHMM   11 220 09 00:   RESISTIVITY SHALLOW
 CNC .DEC    42 890 03 00:   NEUTRON POROSITY
 CALD.IN     45 280 60 00:   CALIPER FROM DENSITY LOG
 DEN .G/C3   45 350 01 00:   BULK DENSITY
 CORR.G/C3   45 356 01 00:   DENSITY CORRECTION
 TEND.LBS    45 635 01 00:   TENSION FORM DENSITY LOG
~PARAMETER INFORMATION
#MNEM.UNIT          VALUE    DESCRIPTION
#----------   ------------   ------------------------------
 EKB .F         5227.0000:   Kelly bushing
 EGL .F         5215.0000:   Ground level
 EDF .F            0.0000:   Drilling floor
 TD  .F         5750.0000:   Total depth
 CLNT.            A2DTECH:   Client Code
 SL  . 2356' FEL & 170' FNL:   Surface Location
 PD  .                 GL:   Permanent Datum
 EPD .F              5215:   Elevation Permanent Datum
 LMF .                 KB:   Log Measured From
 DMF .                 KB:   Drilling Measured From
 DAPD.F                12:   Feet Above Permanent Datum
 DATE.        31-JAN-1987:   Date Logged [DD-MMM-YYYY]
 DD  .F              5747:   Depth driller
 DL  .F              5750:   Depth logger
 BLI .F              5748:   Bottom log interval
 CS1 .IN            9.625:   Casing size
 CBD1.      9.625" @ 511':   Casing driller 1
 CBL1.F               512:   Casing logger 1
 BS1 .IN             8.75:   Bit size
 BSD1.F              5747:   Depth drilled with bit1
 DFT .        KCL POLYMER:   Type fluid in hole
 DFD .                9.3:   Density
 DFV .                 43:   Viscosity
 DFPH.                9.5:   pH
 MSS .           FLOWLINE:   Source of sample
 RMS .OHMM          0.247:   Rm
 MST .F                74:   Rm Meas. temp.
 RMF .OHMM          0.162:   Rmf
 MFST.F                74:   Rmf Meas. temp.
 MFSS.               MEAS:   Source Rmf.
 RMC .OHMM          0.310:   Rmc
 MCST.F                74:   Rmc Meas. temp.
 MCSS.               CALC:   Source Rmc.
 RMB .OHMM          0.109:   Rm. at BHT
 BHT .F               167:   BHT.
 TCS .HRS               5:   Time Circ. stopped
 MRT .F               167:   Maximum recorded temp.
 LUN .            HL-6274:   Logging unit number
 LUL .           GILLETTE:   Logging unit location
 ORIG.        2" 5" PRINT:   Origin of data
 UWI .     49025111230000:   Unique Well ID
 DICO. A2D TECHNOLOGIES, INC.:   Digitizing Company
 ENGI.             RAUTIO:   Recorded By
 WITN.             STRONG:   Witnessed by
 DFL .                7.8:   Fluid loss
~OTHER INFORMATION
~A  DEPTH      GRR       TENR        SPR         RD         RS        CNC       CALD        DEN       CORR       TEND
# ...
 3652.0000   149.3627   -85.0211   -78.2506     5.1888     4.8240     0.3351     9.6209     2.4694     0.1080   -98.7335
 3652.5000   157.1428   -85.0129   -78.0783     4.9789     4.5960     0.3377     9.6199     2.4821     0.0643   -98.4607
 3653.0000   159.3421   -85.0000   -77.5964     4.5514     4.4400     0.3475     9.6343     2.4662     0.0581  -105.8160
 3653.5000   159.6839   -87.2667   -77.1144     4.1573     4.0016     0.3584     9.6783     2.4358     0.0821   -90.5058
 3654.0000   159.7160   -93.0667   -76.4733     3.7775     3.6582     0.3626     9.6924     2.3987     0.1182   -97.8064
 3654.5000   159.7492   -98.8667   -76.3009     3.2445     3.1837     0.3684     9.7065     2.3676     0.0894  -112.6259
 3655.0000   158.5500  -105.0000   -75.9738     2.5645     2.8298     0.3426     9.7357     2.3509     0.0852  -120.1830
 3655.5000   155.1766  -105.0000   -75.6466     2.5838     2.5328     0.3265     9.7648     2.3410     0.1502  -134.7461
 3656.0000   140.0384  -105.0000   -75.6077     3.5778     2.6778     0.3122     9.7923     2.3785     0.2015  -126.9547
 3656.5000   124.0924  -105.0000   -75.4523     3.9159     3.4626     0.2995     9.6549     2.4183     0.1780  -126.7366
 3657.0000   121.5269   -95.0000   -75.2800     4.1688     4.0626     0.3208     9.6235     2.4350     0.1673  -118.9996
 3657.5000   127.4494   -75.0000   -75.2624     3.9966     3.4398     0.3361     9.6525     2.3500     0.2004  -103.7440
 3658.0000   132.7448   -65.0000   -75.3997     3.5323     3.1218     0.3170     9.6816     2.3296     0.2169   -80.9695
 3658.5000   135.8731   -57.5143   -75.6873     3.4846     3.0793     0.3049     9.6197     2.3288     0.1457   -35.6385
 3659.0000   136.5323   -65.0000   -76.1386     3.5590     3.0799     0.3006     9.6034     2.3439     0.0746   -58.9268
 3659.5000   139.3508   -75.0000   -76.5854     3.6604     3.1892     0.3006     9.6325     2.4091     0.0503   -87.7793
 3660.0000   142.1613   -68.3750   -76.8731     3.7900     3.3953     0.3000     9.6313     2.4720     0.0619   -87.5613
 3660.5000   137.8671   -87.9500   -77.0103     4.1770     3.6653     0.2792     9.6456     2.5424     0.1648   -87.3432
 3661.0000   132.3345   -95.0000   -77.1476     4.6676     4.1262     0.2640     9.6441     2.6032     0.2221   -87.1250
 3661.5000   126.7940   -85.0000   -77.2848     5.2168     4.5469     0.2506     9.6429     2.6289     0.2340   -86.9069
 3662.0000   122.8013   -85.0000   -77.1081     5.5917     4.4539     0.2469     9.6415     2.6236     0.1493   -86.6889
 3662.5000   123.1431   -93.3333   -77.0861     5.5159     4.2434     0.2633     9.6403     2.6296     0.1159   -86.4662
 3663.0000   124.4217  -102.0333   -76.7590     5.2203     3.9049     0.2802     9.6694     2.6175     0.1369   -93.7714
 3663.5000   124.7634  -110.7333   -76.5866     4.3013     3.4934     0.2875     9.7135     2.5644     0.1519  -116.1097
 3664.0000   125.1052   -65.0000   -76.2595     3.7462     3.2614     0.2987     9.7728     2.5341     0.1955   -85.7618
 3664.5000   124.5181   -48.7333   -75.7617     3.6957     3.0222     0.3096     9.8320     2.5257     0.3435   -62.9874
 3665.0000   124.2407   -55.0000   -74.9816     3.5708     2.8594     0.3135     9.8611     2.5287     0.3811   -55.2504
 3665.5000   128.3056   -55.0000   -74.4996     3.3559     2.7242     0.3301     9.6330     2.3710     0.2420   -47.5135
 3666.0000   154.9632   -55.5838   -73.8629     2.9228     2.4846     0.3596     9.4808     2.2633     0.0561   -47.2954
 3666.5000   168.6176   -61.2270   -73.3757     2.5632     2.0081     0.4086     9.5250     2.1382    -0.0755   -54.5961
 3667.0000   169.5786   -66.8703   -72.7398     2.3314     1.7360     0.4258     9.7051     2.0018    -0.1391   -76.8799
 3667.5000   158.1637   -72.5135   -72.2579     2.2797     1.6087     0.3907    10.0211     2.0017    -0.0138   -84.2351
 3668.0000   135.9048   -78.1568   -72.2403     2.4103     1.5220     0.3519    10.5980     2.0048     0.3123   -83.9624
 3668.5000   126.6490   -83.8000   -72.3776     2.6199     1.5581     0.3276    10.8644     2.2769     0.4058   -83.7443
 3669.0000   124.2044   -89.4432   -72.6652     2.8280     2.0953     0.3164    10.8179     2.3469     0.3740   -83.5262
 3669.5000   122.9982   -95.0000   -72.6477     3.3402     3.1561     0.3137    10.3485     2.3739     0.1911   -83.3081
 3670.0000   123.6575   -72.8333   -72.9441     4.5947     3.9968     0.3109     9.8791     2.4171    -0.0055   -83.0827
 3670.5000   126.7857   -64.1333   -72.9222     4.6600     4.8550     0.3073     9.9232     2.4255    -0.0736   -82.8173
 3671.0000   131.1522   -55.0000   -72.8835     4.5654     4.7278     0.3217    10.0882     2.3041    -0.0903   -60.0428
 3671.5000   133.6611   -65.0000   -72.4183     4.0876     3.8626     0.3544    10.3207     2.2253    -0.0980   -52.3605
 3672.0000   130.6053   -65.0000   -71.9363     3.2990     3.4812     0.3811    10.6747     2.0585    -0.0902   -82.2175
 3672.5000   129.0895   -72.7143   -71.6092     3.1004     3.1814     0.3914    10.9908     2.0251    -0.0394   -89.5182
 3673.0000   128.8111   -65.0000   -71.2715     3.0165     2.8082     0.3972    11.3068     2.0000     0.0043   -81.7268
 3673.5000   128.8452   -55.0000   -70.6409     2.4683     2.1437     0.3902    11.6380     2.0008     0.1764   -81.5038
 3674.0000   128.5748   -55.0000   -70.3137     2.3685     1.9045     0.3808    11.8785     2.0152     0.3061   -73.7172
 3674.5000   127.6701   -70.0857   -70.2962     2.3857     1.8916     0.3771    11.7694     2.0349     0.3363   -43.4240
 3675.0000   127.3927   -80.0000   -70.4334     2.3863     1.9318     0.3726    11.1108     2.0970     0.2696   -58.2434
 3675.5000   127.7430   -85.0000   -70.5707     2.3870     1.9456     0.3747    11.0140     2.1524     0.2045   -80.6362
 3676.0000   127.4731   -85.0040   -70.5487     2.3549     1.9595     0.3777    11.2240     2.2737     0.1908   -80.3636
 3676.5000   125.9572   -86.9922   -70.8408     2.3231     1.8930     0.3706    11.3588     2.3199     0.1997   -80.1454
 3677.0000   125.0606   -89.4634   -71.1331     2.2601     1.8801     0.3104    11.2972     2.3100     0.2132   -87.4462
 3677.5000   124.7831   -91.9524   -71.8849     2.2608     1.8417     0.3022    11.1299     2.2883     0.2372   -87.1735
 3678.0000   124.8233   -94.4381   -72.4865     2.2795     1.8167     0.2982    10.9434     2.2691     0.2643   -95.7113
 3678.5000   125.4747   -96.9238   -73.0882     2.3257     1.8425     0.3243    10.5532     2.3282     0.2928  -101.8294
 3679.0000   127.9836   -99.4095   -73.5356     2.6904     2.0168     0.3531    10.0838     2.3645     0.2806  -109.1301
 3679.5000   132.3501  -101.8952   -74.1367     2.9651     2.2540     0.3655     9.8561     2.3911     0.1566   -93.8199
 3680.0000   137.0343  -104.3810   -74.5835     3.0281     2.4164     0.3491     9.9757     2.3888     0.1474   -78.5642
 3680.5000   141.4008   -83.8923   -74.5616     2.8858     2.3667     0.3452    10.0501     2.3304     0.2152   -70.8271
 3681.0000   144.8385   -55.7846   -74.3892     2.7691     2.1040     0.3612    10.1396     2.2364     0.2257   -63.0828
 3681.5000   150.4435   -35.0000   -74.0619     2.3620     1.8444     0.3666    10.3552     2.1823     0.1591   -55.2989
 3682.0000   162.0764   -35.0000   -74.0401     2.0206     1.5508     0.3587    10.5750     2.1552     0.0880   -47.5620
 3682.5000   178.9988   -59.0000   -74.0226     1.8165     1.4471     0.3526    10.6947     2.2462     0.2132   -47.3439
 3683.0000   191.1052   -85.0000   -74.0050     1.7673     1.3689     0.3490    10.7089     2.2613     0.2811   -69.6821
 3683.5000   189.5894   -95.0000   -73.9875     1.7678     1.3505     0.3538    10.7377     2.2712     0.2856   -77.0374
 3684.0000   181.5362   -85.0000   -74.2751     1.8488     1.4082     0.3723    10.9329     2.2765     0.2732   -76.7648
 3684.5000   156.8444   -65.0000   -74.4168     2.3660     1.6408     0.3696    11.2653     2.2340     0.2746   -68.3087
 3685.0000   133.6567   -65.0000   -74.3948     2.6439     1.9656     0.3617    11.7940     2.1703     0.2760   -46.1988
