~VERSION INFORMATION
 VERS.                2.0:   CWLS LOG ASCII STANDARD - VERSION 2.0
 WRAP.                 NO:   ONE LINE PER DEPTH STEP
~WELL INFORMATION
#MNEM.UNIT      DATA TYPE    INFORMATION
#----------   ------------   ------------------------------
 STRT.F          211.5000:   START DEPTH
 STOP.F         3103.0000:   STOP DEPTH
 STEP.F            0.5000:   STEP LENGTH
 NULL.          -999.2500:   NO VALUE
 COMP.    FENIX & SCISSON:   COMPANY
 WELL. FENIX NPR 3 "AX" #38-10:   WELL
 FLD .  TEAPOT DOME - NPR:   FIELD
 LOC .      S10 T38N R78W:   LOCATION
 CNTY.            NATRONA:   COUNTY
 STAT.            WYOMING:   STATE
 CTRY. UNITED STATES OF AMERICA:   COUNTRY
 SRVC.           BIRDWELL:   SERVICE COMPANY
 DATE.        01-JUL-1978:   LOGDATE
 API .     49025106550000:   API NUMBER
~CURVE INFORMATION
#MNEM.UNIT       API CODE    CURVE DESCRIPTION
#----------   ------------   ------------------------------
 DEPT.F                  :   
 CALD.IN     45 280 60 00:   CALIPER FROM DENSITY LOG
 GRD .GAPI   45 310 01 00:   GAMMA RAY FROM DENSITY LOG
 RHOB.G/C3   45 350 01 00:   BULK DENSITY
 CORR.G/C3   45 356 01 00:   DENSITY CORRECTION
 NPOR.DEC    42 890 03 00:   ALPHA PROCESSED NEUTRON POROSITY
 SPR .MV     05 010 01 00:   SPONTANEOUS POTENTIAL
 SN  .OHMM   05 040 00 00:   SHORT NORMAL
 ILD .OHMM   05 120 46 00:   DEEP INDUCTION RESISTIVITY
~PARAMETER INFORMATION
#MNEM.UNIT          VALUE    DESCRIPTION
#----------   ------------   ------------------------------
 EKB .F         5240.0000:   Kelly bushing
 EGL .F         5230.0000:   Ground level
 TD  .F         3103.0000:   Total depth
 DATE.        01-JUL-1978:   Date logged
 CLNT.            A2DTECH:   Client Code
 SL  . 200' FSL & 2100' FWL:   Surface Location
 PD  .                 GL:   Permanent Datum
 EPD .F              5230:   Elevation Permanent Datum
 LMF .                 KB:   Log Measured From
 DMF .                 KB:   Drilling Measured From
 DAPD.F                10:   Feet Above Permanent Datum
 DD  .F              3100:   Depth driller
 DL  .F              3103:   Depth logger
 BLI .F              3096:   Bottom log interval
 TLI .F               228:   Top log interval
 CS1 .IN            8.625:   Casing size
 CBD1.      8.625" @ 224':   Casing driller 1
 CBL1.F               228:   Casing logger 1
 BS1 .IN            7.875:   Bit size
 BSD1.F              3100:   Depth drilled with bit1
 DFT .            MUD/GEL:   Type fluid in hole
 DFD .                8.7:   Density
 DFV .                 31:   Viscosity
 DFPH.               10.5:   pH
 DFL .                  7:   Fluid loss
 MSS .           FLOWLINE:   Source of sample
 BHT .F               109:   BHT.
 TCS .HRS             4.5:   Time Circ. stopped
 MRT .F               109:   Maximum recorded temp.
 LUN .               2958:   Logging unit number
 LUL .               CASP:   Logging unit location
 ENGI.             MILLER:   Recorded By
 ORIG.      2.5" 5" PRINT:   Origin of data
 UWI .     49025106550000:   Unique Well ID
 DICO. A2D TECHNOLOGIES, INC.:   Digitizing Company
~OTHER INFORMATION
~A   DEPT     CALD         GRD      RHOB       CORR       NPOR        SPR         SN        ILD   
# ...
 2479.5000     9.9375    96.5635     2.5080     0.0210  -999.2500   -20.7376     8.0822     6.5433
 2480.0000     9.9377    94.7721     2.5162     0.0170  -999.2500   -21.3301     8.0823     6.5434
 2480.5000     9.9379    92.0107     2.5341     0.0230  -999.2500   -20.5379     8.2322     6.7262
 2481.0000     9.9381    91.2231     2.5440     0.0250  -999.2500   -20.5369     8.6191     6.7883
 2481.5000     9.9383    93.0015     2.5379     0.0270  -999.2500   -20.3381     8.6192     6.9143
 2482.0000     9.9781    97.3457     2.5379     0.0270  -999.2500   -20.3371     8.5404     6.9144
 2482.5000     9.9387   104.6687     2.5726     0.0350  -999.2500   -20.5340     8.6988     7.4415
 2483.0000     9.8994   104.4721     2.5409     0.0290  -999.2500   -20.3352     9.5356     7.8631
 2483.5000     9.8207   102.3032     2.5379     0.0210  -999.2500   -20.3342    10.4527     8.0089
 2484.0000     9.8208    90.6430     2.5657     0.0112  -999.2500   -19.9377    11.8868     8.0090
 2484.5000     9.7421    72.6845     2.5667     0.0132  -999.2500   -20.3321    13.7681     8.0830
 2485.0000     9.7423    56.5023     2.5461     0.0112  -999.2500   -20.3311    14.1527     8.0092
 2485.5000     9.7425    53.5436     2.5312     0.0112  -999.2500   -20.3302    13.5177     7.9360
 2486.0000     9.8216    52.1813     2.5233     0.0292  -999.2500   -20.3292    12.5603     7.7917
 2486.5000     9.9206    65.7840     2.5223     0.0530  -999.2500   -20.3282    11.4584     7.6499
 2487.0000     9.9405   101.5273     2.5223     0.0828  -999.2500   -20.3272     9.7129     7.0433
 2487.5000    10.0788   102.3191     2.5322     0.0968  -999.2500   -20.3263     8.3858     6.8520
 2488.0000    10.0988   102.3210     2.5571     0.1206  -999.2500   -20.3253     8.3859     6.6659
 2488.5000    10.0990    98.3754     2.5708     0.1404  -999.2500   -20.3243     7.9365     6.7895
 2489.0000    10.1386    97.3905     2.5648     0.1266  -999.2500   -20.5212     7.9365     6.7896
 2489.5000    10.2178    99.9583     2.5619     0.0888  -999.2500   -20.5202     7.9366     6.8523
 2490.0000    10.1588   100.3546     2.5619     0.0610  -999.2500   -20.5190     7.9367     6.8523
 2490.5000    10.2774    98.5809     2.5579     0.0552  -999.2500   -20.3202     7.9368     6.6662
 2491.0000    10.2973    90.8859     2.5323     0.0352  -999.2500   -20.3193     7.9368     6.5450
 2491.5000    10.2975    93.0409     2.5224     0.0234  -999.2500   -20.3183     7.7925     6.3091
 2492.0000    10.3371    95.0165     2.5204     0.0234  -999.2500   -20.5151     7.5809     6.3091
 2492.5000    10.3768   102.5184     2.5214     0.0294  -999.2500   -20.5142     7.3076     6.3674
 2493.0000    10.3573   110.0206     2.5184     0.0394  -999.2500   -20.3154     7.0441     6.4262
 2493.5000    10.3575   115.9434     2.5153     0.0474  -999.2500   -20.5122     7.1092     6.4263
 2494.0000    10.4564   117.5244     2.5363     0.0612  -999.2500   -19.7200     7.2410     6.4856
 2494.5000    10.6737   116.3590     2.5361     0.0708  -999.2500   -20.5103     7.6213     6.6059
 2495.0000    10.4963    99.9795     2.5153     0.0608  -999.2500   -20.5093     8.0106     6.7904
 2495.5000    10.3978    90.9869     2.5183     0.0156  -999.2500   -20.5081     8.6212     6.9164
 2496.0000    10.3782    84.3918     2.5175     0.0058  -999.2500   -20.5072     8.7810     7.6514
 2496.5000    10.4376    84.9855     2.5145     0.0018  -999.2500   -20.5062     8.8621     7.8651
 2497.0000    10.4378    86.5661     2.5195     0.0018  -999.2500   -20.5052     8.8622     7.8652
 2497.5000    10.4381    87.7530     2.5342     0.0038  -999.2500   -20.5043     8.8622     7.8652
 2498.0000    10.4382    86.1760     2.5015    -0.0002  -999.2500   -20.5033     8.8623     7.7935
 2498.5000    10.4385    86.1779     2.5185    -0.0002  -999.2500   -20.5023     8.8624     7.5125
 2499.0000    10.4386    86.3772     2.5285     0.0038  -999.2500   -20.3035     8.8625     7.4440
 2499.5000    10.4388    85.5900     2.5325     0.0038  -999.2500   -20.3026     8.7815     7.3760
 2500.0000    10.4390    85.1972     2.5255     0.0000  -999.2500   -20.3016     8.7816     7.4441
 2500.5000    10.4235    85.3814     2.5217    -0.0038  -999.2500   -20.3004     8.7817     7.4442
 2501.0000    10.3996    85.9868     2.5096    -0.0060  -999.2500   -20.2995     8.7816     7.4441
 2501.5000    10.3996    88.7500     2.4916    -0.0080  -999.2500   -20.1007     8.7816     7.5128
 2502.0000    10.3996    90.7237     2.4945    -0.0060  -999.2500   -20.0997     9.0268     7.5128
 2502.5000    10.3996    90.9211     2.5255     0.0018  -999.2500   -20.0988     9.4508     7.9382
 2503.0000    10.4193    88.9474     2.5394     0.0118  -999.2500   -20.0978     9.6259     8.0114
 2503.5000    10.4588    83.0263     2.5543     0.0218  -999.2500   -20.0968     9.8043     8.0853
 2504.0000    10.4785    73.3553     2.5503     0.0198  -999.2500   -19.8980     9.8043     8.3110
 2504.5000    10.5180    68.4211     2.5503     0.0218  -999.2500   -20.0949     9.8043     8.3110
 2505.0000    10.5377    74.3421     2.5474     0.0296  -999.2500   -20.2917     9.8043     8.3110
 2505.5000    10.5575    79.6711     2.5444     0.0296  -999.2500   -20.4884     9.7147     8.2351
 2506.0000    10.5772    80.0658     2.5503     0.0296  -999.2500   -20.2896     9.7147     8.0853
 2506.5000    10.5772    76.7105     2.5553     0.0316  -999.2500   -20.4864     9.4508     7.8656
 2507.0000    10.5969    77.3026     2.5551     0.0316  -999.2500   -20.4855     9.4508     7.7938
 2507.5000    10.6364    80.0658     2.5551     0.0278  -999.2500   -20.4845     9.1941     7.8656
 2508.0000    10.6364    84.0132     2.5474     0.0258  -999.2500   -20.6813     9.3645     7.8656
 2508.5000    10.7154    86.9737     2.5454     0.0258  -999.2500   -20.4826     8.9443     7.7938
 2509.0000    10.7548    86.5789     2.5384     0.0238  -999.2500   -20.2838     8.8626     7.8656
 2509.5000    10.7746    88.3553     2.5364     0.0198  -999.2500   -20.2828     8.7816     7.8656
 2510.0000    10.7746    90.7237     2.5315     0.0218  -999.2500   -20.0838     8.8626     7.5128
 2510.5000    10.7351    89.7368     2.5285     0.0178  -999.2500   -20.0829     8.8626     7.7938
 2511.0000    10.7154    87.1711     2.5116     0.0118  -999.2500   -20.0819     8.7816     7.7225
 2511.5000    10.7154    86.7763     2.5096     0.0098  -999.2500   -20.0809     8.7816     7.7225
 2512.0000    10.7154    86.7763     2.5156     0.0098  -999.2500   -20.2778     8.7816     7.7225
 2512.5000    10.7154    87.3684     2.5146     0.0158  -999.2500   -19.8812     8.6219     7.7225
 2513.0000    10.6956    87.7632     2.5166     0.0158  -999.2500   -19.6824     8.6219     7.5821
 2513.5000    10.6759    84.4079     2.5295     0.0218  -999.2500   -19.8793     8.5431     7.3761
 2514.0000    10.6759    81.8421     2.5444     0.0296  -999.2500   -20.8673     8.2351     7.3761
 2514.5000    10.6759    82.0395     2.5454     0.0316  -999.2500   -20.0751     8.1598     7.3087
 2515.0000    10.6759    83.2237     2.5454     0.0316  -999.2500   -20.2718     8.1598     7.3087
 2515.5000    10.6759    84.6053     2.5454     0.0336  -999.2500   -20.2708     8.1598     7.3087
 2516.0000    10.6759    86.5789     2.5374     0.0316  -999.2500   -20.4677     8.1598     7.3087
 2516.5000    10.6759    92.8947     2.5305     0.0278  -999.2500   -20.4667     8.1598     7.3087
 2517.0000    10.6759    94.0789     2.5275     0.0258  -999.2500   -20.4657     8.1598     7.3087
 2517.5000    10.6956    93.4868     2.5225     0.0238  -999.2500   -20.4647     8.1598     7.3087
 2518.0000    10.6956    91.6932     2.5196     0.0258  -999.2500   -20.6616     8.1598     7.3087
 2518.5000    10.6956    87.7458     2.5225     0.0258  -999.2500   -20.6606     8.1598     7.3087
 2519.0000    10.6956    86.7589     2.5265     0.0258  -999.2500   -21.4503     8.2351     7.3761
 2519.5000    10.6759    87.3684     2.5345     0.0296  -999.2500   -21.2519     8.2351     7.4441
