~VERSION INFORMATION
 VERS.                2.0:   CWLS LOG ASCII STANDARD - VERSION 2.0
 WRAP.                 NO:   ONE LINE PER DEPTH STEP
~WELL INFORMATION
#MNEM.UNIT      DATA TYPE    INFORMATION
#----------   ------------   ------------------------------
 STRT.F           29.5000:   START DEPTH
 STOP.F         2719.5000:   STOP DEPTH
 STEP.F            0.5000:   STEP LENGTH
 NULL.          -999.2500:   NO VALUE
 COMP.          INTEX OIL:   COMPANY
 WELL. INTEX NPR 3 "AX" #82-20:   WELL
 FLD .             TEAPOT:   FIELD
 LOC .      S20 T39N R78W:   LOCATION
 CNTY.            NATRONA:   COUNTY
 STAT.            WYOMING:   STATE
 CTRY. UNITED STATES OF AMERICA:   COUNTRY
 SRVC.       SCHLUMBERGER:   SERVICE COMPANY
 DATE.        19-MAY-1956:   LOGDATE
 API .     49025095270000:   API NUMBER
~CURVE INFORMATION
#MNEM.UNIT       API CODE    CURVE DESCRIPTION
#----------   ------------   ------------------------------
 DEPT.F                  :   
 CALD.IN     45 280 60 00:   CALIPER FROM DENSITY LOG
 GRD .GAPI   45 310 01 00:   GAMMA RAY FROM DENSITY LOG
 CORR.G/C3   45 356 01 00:   DENSITY CORRECTION
 RHOB.G/C3   45 350 01 00:   BULK DENSITY
 SPR .MV     05 010 01 00:   SPONTANEOUS POTENTIAL
 ILD .OHMM   05 120 46 00:   DEEP INDUCTION RESISTIVITY
 SN  .OHMM   05 040 00 00:   SHORT NORMAL
~PARAMETER INFORMATION
#MNEM.UNIT          VALUE    DESCRIPTION
#----------   ------------   ------------------------------
 EKB .F         5014.3000:   Kelly bushing
 EGL .F         5004.0000:   Ground level
 EDF .F            0.0000:   Drilling floor
 TD  .F         2717.0000:   Total depth
 DATE.        19-MAY-1956:   Date logged
 CLNT.            A2DTECH:   Client Code
 PD  .                 GL:   Permanent Datum
 EPD .F              5004:   Elevation Permanent Datum
 LMF .                 KB:   Log Measured From
 DMF .                 KB:   Drilling Measured From
 DAPD.F              10.3:   Feet Above Permanent Datum
 DD  .F              2717:   Depth driller
 DL  .F              2717:   Depth logger
 BLI .F              2716:   Bottom log interval
 TLI .F               100:   Top log interval
 CS1 .IN            10.75:   Casing size
 CBD1.       10.75" @ 30':   Casing driller 1
 BS1 .IN            7.875:   Bit size
 BSD1.F              2717:   Depth drilled with bit1
 DFT .        GEL/CAUSTIC:   Type fluid in hole
 DFD .                9.7:   Density
 DFV .                 35:   Viscosity
 DFPH.                7.6:   pH
 DFL .                8.8:   Fluid loss
 MSS .           FLOWLINE:   Source of sample
 RMS .OHMM           1.68:   Rm
 MST .F                58:   Rm Meas. temp.
 RMF .OHMM           1.17:   Rmf
 MFST.F                68:   Rmf Meas. temp.
 MFSS.                 FP:   Source Rmf.
 RMB .OHMM              1:   Rm. at BHT
 BHT .F               101:   BHT.
 TCS .HRS               4:   Time Circ. stopped
 MRT .F               101:   Maximum recorded temp.
 LUN .               4507:   Logging unit number
 LUL .               CSPR:   Logging unit location
 ENGI.            MANGOLD:   Recorded By
 WITN.             TUTTLE:   Witnessed by
 ORIG.           5" PRINT:   Origin of data
 UWI .     49025095270000:   Unique Well ID
 DICO. A2D TECHNOLOGIES, INC.:   Digitizing Company
~OTHER INFORMATION
~A   DEPT     CALD         GRD      CORR       RHOB        SPR        ILD         SN   
# ...
  439.0000     8.7560    96.1230     0.0870     2.4930   -70.6460     7.6700     9.3790
  439.5000     8.7390    95.5190     0.0820     2.4840   -70.6680     7.5500     9.2290
  440.0000     8.7210    94.9190     0.0760     2.4780   -70.5520     7.4310     9.0790
  440.5000     8.7030    96.3560     0.0690     2.4640   -70.4550     7.3110     8.9290
  441.0000     8.6850    92.9770     0.0700     2.4580   -70.3700     7.1910     8.7790
  441.5000     8.6660    92.4710     0.0770     2.4520   -70.2910     7.0710     8.6300
  442.0000     8.6480    94.9150     0.0610     2.4410   -70.2790     6.9510     8.4800
  442.5000     8.6300    96.4690     0.0540     2.4300   -70.2780     6.8320     8.3300
  443.0000     8.6180    92.9830     0.0530     2.4180   -70.2780     6.7120     8.1800
  443.5000     8.6190    94.7170     0.0440     2.4130   -70.2780     6.5920     8.0300
  444.0000     8.6190    97.0920     0.0490     2.4190   -70.2780     6.4720     7.8800
  444.5000     8.6190    94.3110     0.0600     2.4330   -70.2780     6.3520     7.7310
  445.0000     8.6190    91.5980     0.0620     2.4370   -70.2780     6.2330     7.5810
  445.5000     8.6190    88.9130     0.0560     2.4510   -70.2780     6.1130     7.4310
  446.0000     8.6190    89.4370     0.1000     2.4730   -70.2780     5.9940     7.2810
  446.5000     8.6190    91.8120     0.0900     2.4580   -70.2780     5.8740     7.1320
  447.0000     8.6190    94.1370     0.0770     2.4420   -70.2780     5.8160     6.9820
  447.5000     8.6190    94.6820     0.0640     2.4310   -70.2790     5.8180     6.9120
  448.0000     8.6190    93.1740     0.0510     2.4200   -70.2340     5.8690     6.9760
  448.5000     8.6190    90.2470     0.0390     2.4130   -70.1780     5.9220     7.0420
  449.0000     8.6190    89.2090     0.0510     2.4180   -70.1220     5.9740     7.1080
  449.5000     8.6400    90.7290     0.0670     2.4290   -70.0650     6.0270     7.1740
  450.0000     8.6390    92.2030     0.0720     2.4430   -70.0090     6.0800     7.2400
  450.5000     8.6390    93.6550     0.0660     2.4540   -69.9520     6.1330     7.3060
  451.0000     8.6320    95.1900     0.0610     2.4590   -69.8950     6.1860     7.3720
  451.5000     8.6610    96.2920     0.0680     2.4620   -69.8390     6.2390     7.4380
  452.0000     8.6580    96.6490     0.0740     2.4580   -69.7830     6.2920     7.5040
  452.5000     8.6550    96.1640     0.0680     2.4540   -69.7270     6.3450     7.5700
  453.0000     8.6510    95.3370     0.0630     2.4560   -69.6790     6.3970     7.6360
  453.5000     8.6460    95.5260     0.0760     2.4630   -69.7480     6.4500     7.7020
  454.0000     8.6420    96.0800     0.0680     2.4660   -69.8390     6.5030     7.7680
  454.5000     8.6380    96.9890     0.0580     2.4570   -69.9300     6.5560     7.8030
  455.0000     8.6340    97.9670     0.0530     2.4490   -70.0210     6.6090     7.8030
  455.5000     8.6290   100.3570     0.0620     2.4540   -70.1130     6.6620     7.8030
  456.0000     8.6250   102.9490     0.0710     2.4690   -70.2030     6.7150     7.8030
  456.5000     8.6210   103.5630     0.0800     2.4920   -70.2800     6.7680     7.8030
  457.0000     8.6160   102.5300     0.0880     2.5020   -70.2780     6.8210     7.8050
  457.5000     8.6120   101.4840     0.0970     2.4870   -70.2760     6.8730     7.8070
  458.0000     8.6080   101.6500     0.1060     2.4840   -70.2670     6.9260     7.8970
  458.5000     8.6030   101.5010     0.0850     2.4620   -70.2570     6.9780     7.9960
  459.0000     8.5990    96.9620     0.0620     2.4470   -70.2470     7.0050     8.0980
  459.5000     8.5990    92.3720     0.0670     2.4500   -70.2370     6.9170     8.2310
  460.0000     8.5990    89.4820     0.0600     2.4350   -70.2270     6.9060     8.3010
  460.5000     8.5990    89.0570     0.0380     2.4140   -70.2170     6.8730     8.3950
  461.0000     8.5990    90.2990     0.0320     2.4160   -70.2070     6.8360     8.2980
  461.5000     8.5980    89.7720     0.0420     2.4230   -70.1970     6.7990     8.2130
  462.0000     8.5760    88.7580     0.0530     2.4230   -70.1880     6.7620     8.0130
  462.5000     8.5620    89.3100     0.0510     2.4250   -70.1780     6.7250     7.8140
  463.0000     8.5700    92.0420     0.0470     2.4310   -70.1680     6.6870     7.6140
  463.5000     8.5790    93.3070     0.0430     2.4300   -70.1580     6.6500     7.6040
  464.0000     8.5870    93.3500     0.0390     2.4250   -70.1480     6.6120     7.6040
  464.5000     8.5950    98.1460     0.0440     2.4200   -70.1380     6.6100     7.6050
  465.0000     8.6030   101.8660     0.0570     2.4200   -70.1280     6.6100     7.6040
  465.5000     8.6120   101.7610     0.0700     2.4320   -70.1180     6.6100     7.6090
  466.0000     8.6190    98.5370     0.0810     2.4440   -70.1080     6.6050     7.6210
  466.5000     8.6190    95.0980     0.0730     2.4490   -70.0990     6.5910     7.6330
  467.0000     8.6190    93.4290     0.0640     2.4360   -70.0890     6.5780     7.6450
  467.5000     8.6190    91.7990     0.0760     2.4380   -70.0800     6.5650     7.6570
  468.0000     8.6180    91.7570     0.0920     2.4420   -70.1050     6.5520     7.6690
  468.5000     8.6470    92.5720     0.1070     2.4430   -70.1490     6.5390     7.6810
  469.0000     8.6820    93.3950     0.1140     2.4380   -70.1930     6.5250     7.6930
  469.5000     8.7180    94.2000     0.1000     2.4320   -70.2370     6.5120     7.7050
  470.0000     8.7540    94.9650     0.0860     2.4270   -70.2810     6.4990     7.7170
  470.5000     8.7780    94.4600     0.0700     2.4290   -70.3240     6.4860     7.7280
  471.0000     8.7430    93.9890     0.0980     2.4400   -70.3680     6.4730     7.7400
  471.5000     8.7000    93.5210     0.0720     2.4490   -70.4110     6.4590     7.7520
  472.0000     8.6560    93.1820     0.0500     2.4530   -70.4550     6.4460     7.7640
  472.5000     8.6350    94.5570     0.0930     2.4810   -70.3950     6.4330     7.7760
  473.0000     8.6300    94.8500     0.0850     2.4640   -70.2430     6.4200     7.7880
  473.5000     8.6240    93.1470     0.0740     2.4410   -70.0920     6.4120     7.8000
  474.0000     8.6190    96.0050     0.0820     2.4350   -69.9400     6.4260     7.8120
  474.5000     8.6190    99.4790     0.0690     2.4330   -69.7880     6.4650     7.8240
  475.0000     8.6180    98.3520     0.0640     2.4340   -69.6360     6.5040     7.8350
  475.5000     8.6440    96.6050     0.0750     2.4440   -69.4920     6.5430     7.8470
  476.0000     8.6740    95.4630     0.0790     2.4550   -69.5880     6.5820     7.8590
  476.5000     8.7050    94.7000     0.0770     2.4500   -69.6940     6.6210     7.8710
  477.0000     8.7380    95.1020     0.0710     2.4420   -69.7990     6.6600     7.8830
  477.5000     8.7370    96.2030     0.0640     2.4330   -69.9050     6.6990     7.8950
  478.0000     8.7200    97.1530     0.0640     2.4360   -70.0100     6.7380     7.9130
  478.5000     8.6780    95.8750     0.0700     2.4420   -70.1150     6.7770     7.9420
  479.0000     8.6390    94.3780     0.0760     2.4480   -70.2200     6.8160     7.9720
  479.5000     8.6160    94.7690     0.0790     2.4540   -70.2770     6.8550     8.0010
  480.0000     8.6150    96.1330     0.0690     2.4580   -70.2480     6.8940     8.0300
  480.5000     8.6130    95.2630     0.0580     2.4550   -70.1820     6.9330     8.0590
  481.0000     8.6110    94.3200     0.0560     2.4520   -70.1160     6.9720     8.0890
  481.5000     8.6090    93.3650     0.0680     2.4600   -70.0510     7.0110     8.1180
  482.0000     8.6060    93.8510     0.0760     2.4660   -69.9850     7.0500     8.1470
  482.5000     8.6040    94.5900     0.0740     2.4580   -69.9190     7.0890     8.1760
  483.0000     8.6020    94.9180     0.0610     2.4470   -69.8530     7.1280     8.2060
  483.5000     8.5990    92.4430     0.0490     2.4460   -69.7870     7.1660     8.2350
  484.0000     8.5870    89.9400     0.0530     2.4490   -69.7210     7.2050     8.2640
