~VERSION INFORMATION
 VERS.                2.0:   CWLS LOG ASCII STANDARD - VERSION 2.0
 WRAP.                 NO:   ONE LINE PER DEPTH STEP
~WELL INFORMATION
#MNEM.UNIT      DATA TYPE    INFORMATION
#----------   ------------   ------------------------------
 STRT.F            0.0000:   START DEPTH
 STOP.F         5786.0000:   STOP DEPTH
 STEP.F            0.5000:   STEP LENGTH
 NULL.          -999.2500:   NO VALUE
 COMP. U.S. DEPARTMENT OF ENERGY:   COMPANY
 WELL. DEPARTMENT "X" #2-3:   WELL
 FLD .           N P R #3:   FIELD
 LOC .       S3 T38N R78W:   LOCATION
 CNTY.            NATRONA:   COUNTY
 STAT.            WYOMING:   STATE
 CTRY. UNITED STATES OF AMERICA:   COUNTRY
 SRVC.       BAKER HUHGES:   SERVICE COMPANY
 DATE.        14-JUL-2002:   LOGDATE
 API .     49025230540000:   API NUMBER
~CURVE INFORMATION
#MNEM.UNIT       API CODE    CURVE DESCRIPTION
#----------   ------------   ------------------------------
 DEPT.F                  :   
 TEND.LBS    45 635 01 00:   TENSION FROM DENSITY LOG
 CALD.IN     45 280 60 00:   CALIPER FROM DENSITY LOG
 ZCOR.G/C3   45 356 01 00:   DENSITY CORRECTION
 PE  .B/E    45 358 01 00:   PHOTOELECTRIC FACTOR
 ZDEN.G/C3   45 350 01 00:   BULK DENSITY
 CNCF.DEC    42 890 03 00:   NEUTRON POROSITY
 TENS.LBS    60 635 01 00:   TENSION FROM SONIC
 DT  .US/F   60 520 00 00:   DELTA TIME
 RD  .OHMM   11 220 10 00:   RESISTIVITY DEEP
 TENR.LBS    11 635 01 00:   TENSION FROM RES. LOG
 RS  .OHMM   11 220 09 00:   RESISTIVITY SHALLOW
 GRR .GAPI   11 310 01 00:   GAMMA RAY FROM RES.
 RMLL.OHMM   11 270 04 00:   MICRO LATEROLOG
 SPR .MV     11 010 01 00:   SPONTANEOUS POTENTIAL FROM RES.
~PARAMETER INFORMATION
#MNEM.UNIT          VALUE    DESCRIPTION
#----------   ------------   ------------------------------
 EKB .F         5164.7000:   Kelly bushing
 EGL .F         5154.7000:   Ground level
 EDF .F         5163.7000:   Drilling floor
 TD  .F         5773.0000:   Total depth
 DATE.        14-JUL-2002:   Date logged
 CLNT.            A2DTECH:   Client Code
 SL  . 838' FNL & 2128' FWL:   Surface Location
 PD  .                 GL:   Permanent Datum
 EPD .F            5154.7:   Elevation Permanent Datum
 LMF .                 KB:   Log Measured From
 DMF .                 KB:   Drilling Measured From
 DD  .F              5770:   Depth driller
 DL  .F              5773:   Depth logger
 BLI .F              5770:   Bottom log interval
 CS1 .IN            9.625:   Casing size
 CBD1.       9.625 @ 578':   Casing driller 1
 CBL1.F               578:   Casing logger 1
 BS1 .IN             8.75:   Bit size
 DFT .       GEL/CHEMICAL:   Type fluid in hole
 DFD .                  9:   Density
 DFV .                 45:   Viscosity
 DFPH.                8.5:   pH
 DFL .                9.6:   Fluid loss
 MSS .           FLOWLINE:   Source of sample
 RMS .OHMM          0.568:   Rm
 MST .F                91:   Rm Meas. temp.
 RMF .OHMM          0.490:   Rmf
 MFST.F                92:   Rmf Meas. temp.
 RMC .OHMM          1.072:   Rmc
 MCST.F                90:   Rmc Meas. temp.
 MFSS.               MEAS:   Source Rmf.
 RMB .OHMM          0.291:   Rm. at BHT
 BHT .F               184:   BHT.
 TCS .HRS               8:   Time Circ. stopped
 MRT .F               184:   Maximum recorded temp.
 LUN .            HL-6530:   Logging unit number
 LUL .             CASPER:   Logging unit location
 ENGI.           VERCIMAK:   Recorded By
 WITN.              HARDY:   Witnessed by
 ORIG.           5" PRINT:   Origin of data
 UWI .     49025230540000:   Unique Well ID
 DICO. A2D TECHNOLOGIES, INC.:   Digitizing Company
~OTHER INFORMATION
~A    DEPT    TEND       CALD       ZCOR         PE       ZDEN       CNCF       TENS         DT         RD       TENR         RS         GRR      RMLL        SPR   
# ...
 5390.0000    28.2310    10.7520     0.0030     3.6120     2.6790     0.1610   -16.3030    60.5910    42.6320     4.4910    35.8820    99.3340    63.1530   -11.3600
 5390.5000    35.8000    10.7560     0.0010     3.8970     2.6820     0.1530   -17.3680    61.3250    43.4870     4.4910    36.5180    98.6870    65.7650   -11.3730
 5391.0000    43.3690    10.7600    -0.0010     3.9420     2.6910     0.1550   -18.4330    61.9780    39.9190     4.4910    35.4030   103.8910    59.9450   -11.8320
 5391.5000    43.8140    10.7640     0.0060     3.7120     2.7020     0.1670   -19.4970    62.6310    36.7740     4.4910    32.4870   110.6580    50.2930   -12.5400
 5392.0000    37.0280    10.7680     0.0130     3.6490     2.7060     0.1790   -20.5620    63.2970    33.6290     3.8040    29.5710   115.8600    40.6410   -13.3060
 5392.5000    30.2410    10.7720     0.0210     3.5870     2.7010     0.1890   -21.6270    63.6310    30.4840    -1.6630    27.8350   116.5350    30.1080   -14.0700
 5393.0000    23.4550    10.7750     0.0220     3.5640     2.6940     0.1930   -22.6910    64.0520    29.5110    -7.1300    26.7160   113.9180    29.5590   -14.8100
 5393.5000    16.6690    10.7790     0.0210     3.5400     2.6930     0.1970   -23.7560    64.7680    29.4160   -12.5970    26.3590   113.3900    33.8210   -15.8420
 5394.0000     9.8830    10.7820     0.0190     3.5160     2.6960     0.1980   -24.5490    65.3010    29.3210   -15.4690    26.0170   117.7140    35.2000   -16.5960
 5394.5000    11.3690    10.7840     0.0180     3.4880     2.6990     0.1990   -24.5490    65.1200    29.2890   -15.4690    26.1950   120.9320    35.0110   -16.5720
 5395.0000    34.0770    10.7860     0.0170     3.4420     2.7000     0.2010   -24.5490    64.9500    30.4560   -15.4690    27.3410   121.2820    34.5590   -16.7720
 5395.5000    56.7850    10.7890     0.0150     3.3960     2.7000     0.2040   -24.5490    64.3360    31.9590   -15.4690    28.7400   119.9670    36.4910   -17.3600
 5396.0000    65.0000    10.7910     0.0130     3.3520     2.7000     0.2020   -24.5490    63.4280    33.8600   -15.4690    30.1390   118.3700    38.9450   -18.0460
 5396.5000    48.2820    10.7930     0.0030     3.3080     2.6940     0.1880   -24.5490    63.0690    35.7610   -15.4690    31.5380   114.7110    40.7770   -18.1730
 5397.0000    28.0240    10.7950     0.0040     3.2650     2.6840     0.1750   -24.5490    62.8990    37.6610   -15.4690    33.1720   111.8990    47.2550   -18.0140
 5397.5000     7.7650    10.7980     0.0100     3.2260     2.6740     0.1660   -24.5490    62.7290    39.5620   -12.3920    35.2130   109.6850    51.7850   -17.7470
 5398.0000     2.5830    10.8000     0.0140     3.2080     2.6690     0.1590   -24.5490    61.8360    42.2370    -4.1920    37.4350   107.4600    49.4720   -17.4770
 5398.5000    23.0830    10.7990     0.0190     3.1890     2.6690     0.1520   -24.5490    60.7680    46.2820     4.0090    39.6560   105.4740    47.6730   -17.2080
 5399.0000    45.0000    10.7970     0.0220     3.1700     2.6710     0.1450   -24.5490    60.2810    50.3270    12.2090    41.8780   103.7590    64.9700   -16.9930
 5399.5000    52.4410    10.7950     0.0250     3.1510     2.6690     0.1370   -19.1380    60.1100    53.3480    11.0740    44.2930   102.0840    76.8880   -17.1310
 5400.0000    48.9240    10.7940     0.0240     3.1620     2.6670     0.1330   -14.5290    59.3870    56.7530     6.3820    46.9750    99.4420    66.2110   -17.4090
 5400.5000    45.4070    10.7920     0.0230     3.1790     2.6740     0.1350   -18.7140    58.4190    60.1580     1.6910    49.9140    96.4650    53.7240   -17.7380
 5401.0000    35.0000    10.7900     0.0220     3.2150     2.6940     0.1370   -24.6340    56.2050    69.5140    -3.0010    58.6370    91.3160    62.9600   -18.0680
 5401.5000    44.3350    10.7880     0.0210     3.3160     2.7320     0.1380   -30.5530    53.9910    97.6050    -7.4180    75.3700    77.8180    76.4570   -18.3710
 5402.0000    53.0350    10.7860     0.0210     3.4150     2.7630     0.1330   -36.4730    51.7770   146.4260   -11.5270   105.0970    64.4380   237.9540   -18.3420
 5402.5000    61.7350    10.7840     0.0220     3.5110     2.7800     0.1320   -42.3920    50.2710   213.2920   -15.4690   155.0850    52.3810   421.0980   -18.1800
 5403.0000    75.0000    10.7830     0.0220     3.5880     2.7680     0.1370   -44.2930    51.1770   219.2550   -13.8800   172.3310    44.9990   242.5840   -18.0210
 5403.5000    75.0000    10.7810     0.0230     3.6400     2.7390     0.1490   -43.6090    53.2970   192.6200   -11.9840   179.1120    38.0910   278.4470   -17.8620
 5404.0000    75.0000    10.7710     0.0230     3.6640     2.6900     0.1620   -42.9250    55.4180   156.3060   -10.0880   129.6040    34.2450   177.7900   -17.7030
 5404.5000    73.4420    10.7590     0.0270     3.6890     2.6360     0.1750   -42.2400    57.3590   119.9930    -8.1910    99.9310    31.5330    56.2510   -17.5840
 5405.0000    69.3330    10.7460     0.0320     3.7140     2.6020     0.1800   -41.5560    57.7360    94.6720    -6.2950    86.6480    31.0600    49.3630   -18.1710
 5405.5000    65.0000    10.7340     0.0360     3.7320     2.6150     0.1740   -40.8720    57.6430    86.6480    -8.3140    84.9830    30.6790    45.1150   -18.6130
 5406.0000    65.0000    10.7220     0.0400     3.7400     2.6280     0.1690   -40.1880    57.5850    82.7550   -15.8990    83.2830    30.2820   108.2620   -18.7150
 5406.5000    67.3930    10.7100     0.0450     3.7490     2.6120     0.1700   -39.5040    58.5990    77.0650   -23.4840    81.5840    29.8780   142.3390   -18.9410
 5407.0000    70.6800    10.7000     0.0560     3.8700     2.5920     0.1680   -38.8200    59.2890    71.1100   -24.4340    79.7680    30.2530    89.4860   -19.5230
 5407.5000    73.9670    10.7000     0.0580     4.1370     2.5850     0.1550   -38.1360    57.1920    69.4940   -23.0650    74.7970    31.9310    50.2820   -20.0860
 5408.0000    84.3890    10.6990     0.0550     4.3450     2.6460     0.1240   -37.4520    54.6950    78.2390   -21.6950    89.0700    33.7860    30.6660   -20.3900
 5408.5000    98.0830    10.6980     0.0470     4.3290     2.7210     0.0880   -36.7680    51.9740   134.0870   -20.3260   215.0390    35.6460    90.7230   -20.5270
 5409.0000   111.7780    10.6980     0.0350     4.2830     2.7650     0.0630   -36.0840    50.8070   294.8950   -18.9570   353.9420    40.1600  1954.5640   -20.2130
 5409.5000   125.0000    10.6970     0.0210     4.2370     2.7690     0.0590   -35.4000    50.4710   465.7930   -17.5870   465.9030    46.0660  1954.5640   -19.8580
 5410.0000   109.8950    10.6960     0.0070     4.2600     2.7410     0.0640   -34.7160    51.0040   520.2350   -16.2180   461.7390    50.6840  1455.3740   -19.5770
 5410.5000    91.7320    10.6960    -0.0030     4.2690     2.7220     0.0790   -29.5340    51.9440   385.9550   -15.4690   453.2310    53.4050   922.7880   -19.5510
 5411.0000    73.5680    10.6950     0.0010     4.1590     2.6990     0.0950   -23.1210    53.0010   265.8940    -8.3380   319.6120    53.0400   569.1850   -18.5910
 5411.5000    55.0000    10.6940     0.0090     3.9280     2.6670     0.1140   -16.7080    54.4630   164.5440    -1.5380   184.1200    50.3780   442.1840   -17.5240
 5412.0000    72.2140    10.6940     0.0200     3.6750     2.6370     0.1410   -14.5290    55.9250   114.6800     5.2620   143.7710    48.4830   315.1830   -16.3370
 5412.5000    89.8210    10.6930     0.0330     3.4180     2.6050     0.1680   -14.5290    57.3870    64.8150    12.0620   104.3780    47.9780   188.1810   -15.1500
 5413.0000   115.0000    10.6920     0.0460     3.3430     2.5730     0.1830   -14.5290    58.5870    43.3720    18.8620    64.9850    47.4500    61.1800   -14.1560
 5413.5000    82.1820    10.6920     0.0570     3.3180     2.5570     0.1730   -15.8190    58.0270    35.1780    22.0560    45.4880    46.9240    25.2830   -13.4830
 5414.0000    37.3640    10.6910     0.0420     3.3840     2.5560     0.1620   -24.7410    56.0850    41.1040     8.6100    48.0060    46.4000    31.7870   -12.7850
