~VERSION INFORMATION
 VERS.                2.0:   CWLS LOG ASCII STANDARD - VERSION 2.0
 WRAP.                 NO:   ONE LINE PER DEPTH STEP
~WELL INFORMATION
#MNEM.UNIT      DATA TYPE    INFORMATION
#----------   ------------   ------------------------------
 STRT.F           72.5000:   START DEPTH
 STOP.F         2820.0000:   STOP DEPTH
 STEP.F            0.5000:   STEP LENGTH
 NULL.          -999.2500:   NO VALUE
 COMP.          INTEX OIL:   COMPANY
 WELL. INTEX OIL AX N. P. R. #51-29:   WELL
 FLD .             TEAPOT:   FIELD
 LOC .      S29 T39N R78W:   LOCATION
 CNTY.            NATRONA:   COUNTY
 STAT.            WYOMING:   STATE
 CTRY. UNITED STATES OF AMERICA:   COUNTRY
 SRVC.       SCHLUMBERGER:   SERVICE COMPANY
 DATE.        01-MAY-1966:   LOGDATE
 API .     49025094920000:   API NUMBER
~CURVE INFORMATION
#MNEM.UNIT       API CODE    CURVE DESCRIPTION
#----------   ------------   ------------------------------
 DEPT.F                  :   
 GRD .GAPI   45 310 01 00:   GAMMA RAY FROM DENSITY LOG
 CALD.IN     45 280 60 00:   CALIPER FROM DENSITY LOG
 RHOB.G/C3   45 350 01 00:   BULK DENSITY
 CORR.G/C3   45 356 01 00:   DENSITY CORRECTION
 SPR .MV     07 010 01 00:   SPONTANEOUS POTENTIAL
 ASN .OHMM   05 041 16 00:   AMPLIFIED SHORT NORMAL 16"
 ILD .OHMM   05 120 46 00:   DEEP INDUCTION RESISTIVITY
 DT  .US/F   60 520 00 00:   DELTA TIME
~PARAMETER INFORMATION
#MNEM.UNIT          VALUE    DESCRIPTION
#----------   ------------   ------------------------------
 EKB .F         5007.3000:   Kelly bushing
 EGL .F         4997.0000:   Ground level
 EDF .F            0.0000:   Drilling floor
 TD  .F         2799.0000:   Total depth
 DATE.        01-MAY-1966:   Date logged
 CLNT.            A2DTECH:   Client Code
 PD  .                 GL:   Permanent Datum
 EPD .F              4997:   Elevation Permanent Datum
 LMF .                 KB:   Log Measured From
 DMF .                 KB:   Drilling Measured From
 DAPD.F              10.3:   Feet Above Permanent Datum
 DD  .F              2798:   Depth driller
 DL  .F              2799:   Depth logger
 BLI .F              2798:   Bottom log interval
 TLI .F                88:   Top log interval
 CS1 .IN            10.75:   Casing size
 CBD1.       10.75" @ 30':   Casing driller 1
 BS1 .IN            7.875:   Bit size
 BSD1.F              2798:   Depth drilled with bit1
 DFT .           CHEM/OIL:   Type fluid in hole
 DFD .                9.5:   Density
 DFV .                 46:   Viscosity
 DFPH.                7.2:   pH
 DFL .                7.0:   Fluid loss
 MSS .         CIRCULATED:   Source of sample
 RMS .OHMM           2.28:   Rm
 MST .F                68:   Rm Meas. temp.
 RMF .OHMM           1.32:   Rmf
 MFST.F                72:   Rmf Meas. temp.
 MFSS.                 FP:   Source Rmf.
 RMB .OHMM           1.52:   Rm. at BHT
 BHT .F               102:   BHT.
 TCS .HRS             1.5:   Time Circ. stopped
 MRT .F               102:   Maximum recorded temp.
 LUN .               4507:   Logging unit number
 LUL .               CSPR:   Logging unit location
 ENGI.               HAUG:   Recorded By
 WITN.      TUTTLE/HUDSON:   Witnessed by
 ORIG.           5" PRINT:   Origin of data
 UWI .     49025094920000:   Unique Well ID
 DICO. A2D TECHNOLOGIES, INC.:   Digitizing Company
~OTHER INFORMATION
~A   DEPT      GRD       CALD       RHOB       CORR        SPR        ASN        ILD         DT   
# ...
 2421.5000    84.2890     7.9000     2.3860    -0.0070   -36.5410    20.5700    15.8660    78.6320
 2422.0000    81.1820     7.8900     2.3780     0.0010   -37.2580    21.2910    16.7440    79.4940
 2422.5000    78.0400     7.8800     2.3800     0.0090   -38.0470    22.5480    17.4820    79.8110
 2423.0000    74.8020     7.8700     2.3930     0.0170   -38.6940    23.7520    17.9750    78.6750
 2423.5000    72.7690     7.8610     2.3960     0.0220   -39.0620    24.4790    18.1890    76.3530
 2424.0000    72.8520     7.8510     2.3930     0.0170   -39.1970    25.1170    18.1240    74.0320
 2424.5000    73.7630     7.8410     2.4230     0.0180   -39.2890    24.9000    17.7160    73.8430
 2425.0000    77.6280     7.8300     2.4100     0.0220   -39.5260    24.7050    16.9360    74.1450
 2425.5000    82.0050     7.8350     2.3600     0.0070   -39.8700    24.3370    16.0020    76.3560
 2426.0000    87.3230     7.8500     2.3460     0.0060   -39.9680    22.1080    15.2710    78.3680
 2426.5000    92.4940     7.8640     2.3680     0.0220   -39.4920    20.0420    14.8770    79.1600
 2427.0000    91.3990     7.8780     2.3940     0.0480   -38.6770    19.6170    14.6710    78.2930
 2427.5000    90.5850     7.8920     2.4260     0.0720   -38.2360    19.4700    14.5670    78.3100
 2428.0000    88.1480     7.9060     2.3900     0.0330   -38.5520    20.0910    14.6980    77.5380
 2428.5000    86.0310     7.9210     2.3540    -0.0090   -39.1930    20.7170    15.1740    76.1330
 2429.0000    83.7450     7.9340     2.3750     0.0060   -39.5140    21.3250    15.8930    77.8850
 2429.5000    81.5550     7.9470     2.3770    -0.0040   -39.4650    22.2820    16.6710    79.4170
 2430.0000    79.2340     7.9440     2.3610    -0.0120   -39.3990    22.9050    17.3650    79.9200
 2430.5000    79.1710     7.9400     2.3440    -0.0090   -39.3160    23.8340    17.8140    78.3560
 2431.0000    80.6450     7.9360     2.3850     0.0220   -38.8550    24.8500    17.8750    75.1620
 2431.5000    82.0850     7.9330     2.4760     0.0530   -38.0230    24.9440    17.6100    71.7320
 2432.0000    83.5570     7.9290     2.5440     0.0960   -37.3790    25.3310    17.2580    69.6720
 2432.5000    84.9950     7.9250     2.5160     0.0650   -37.3450    25.7010    16.9540    70.0700
 2433.0000    86.4270     7.9210     2.4820     0.0380   -37.7300    25.3070    16.6240    75.2110
 2433.5000    87.9820     7.9180     2.4540     0.0250   -38.0960    23.6830    16.2000    78.6980
 2434.0000    88.4730     7.9140     2.3880     0.0130   -38.3040    22.0950    15.7780    80.6640
 2434.5000    87.8620     7.9100     2.3730     0.0290   -38.4790    21.8090    15.4880    80.2620
 2435.0000    87.3810     7.9060     2.3840     0.0380   -38.6920    21.7930    15.3370    79.7510
 2435.5000    86.8850     7.9030     2.4100     0.0360   -38.8580    21.4980    15.2590    80.7570
 2436.0000    86.3380     7.8990     2.4030     0.0250   -38.8560    21.3560    15.2310    81.2030
 2436.5000    86.0120     7.8950     2.3860     0.0130   -38.6220    21.3990    15.2840    80.6680
 2437.0000    85.8950     7.8910     2.3730     0.0050   -38.1920    21.4130    15.4410    79.7620
 2437.5000    85.7770     7.8870     2.4060     0.0240   -37.6940    21.4430    15.6610    78.8570
 2438.0000    85.6610     7.8840     2.4470     0.0470   -37.2740    21.4800    15.8350    78.2520
 2438.5000    85.4440     7.8800     2.4410     0.0550   -37.0660    21.5120    15.8410    79.1930
 2439.0000    85.8380     7.8760     2.4140     0.0360   -37.2180    21.5550    15.6580    80.5070
 2439.5000    85.0990     7.8730     2.3910     0.0200   -37.7880    21.5390    15.4250    79.0160
 2440.0000    82.8120     7.8670     2.3620     0.0020   -38.5610    21.4300    15.3160    80.2270
 2440.5000    82.8990     7.8840     2.3660    -0.0010   -39.1010    21.2700    15.3910    80.3770
 2441.0000    84.2910     7.9140     2.3770     0.0070   -39.0690    21.1860    15.5840    79.6730
 2441.5000    85.5710     7.9420     2.3870     0.0010   -38.4600    21.1250    15.8140    78.5990
 2442.0000    85.8920     7.9720     2.4190    -0.0090   -37.5570    20.8660    16.0320    77.1410
 2442.5000    85.3840     7.9940     2.4340     0.0290   -36.7850    21.0550    16.1770    76.5650
 2443.0000    84.9440     8.0040     2.4030     0.0200   -36.5390    21.9010    16.1800    76.9280
 2443.5000    84.4540     8.0170     2.3850     0.0150   -36.8970    22.6270    16.0290    77.3190
 2444.0000    84.7590     8.0290     2.3850    -0.0060   -37.4950    22.5490    15.7700    79.4140
 2444.5000    87.1250     8.0410     2.3950     0.0080   -37.8710    22.0300    15.4190    78.4120
 2445.0000    89.8420     8.0530     2.4070     0.0030   -37.8950    21.5270    14.9570    77.4570
 2445.5000    92.5020     8.0650     2.3860    -0.0100   -37.7120    20.8180    14.4290    78.1900
 2446.0000    95.1790     8.0680     2.3810    -0.0130   -37.3660    19.8410    13.9780    78.9240
 2446.5000    97.3980     8.0680     2.3900    -0.0110   -36.7940    19.0820    13.7070    79.6570
 2447.0000    97.8170     8.0680     2.4050    -0.0040   -36.1140    18.7280    13.5810    80.3910
 2447.5000    96.5100     8.0680     2.4190     0.0110   -35.6400    18.5350    13.5220    80.9020
 2448.0000    95.0010     8.0680     2.4340     0.0350   -35.5320    18.5410    13.5370    81.1260
 2448.5000    92.4010     8.0680     2.4350     0.0340   -35.6770    18.9550    13.6790    81.1030
 2449.0000    90.3660     8.0680     2.4050     0.0200   -35.9390    19.6070    13.9220    80.0970
 2449.5000    88.2650     8.0670     2.3840     0.0050   -36.3160    20.0970    14.1810    79.1510
 2450.0000    87.2470     8.0620     2.3790    -0.0130   -36.8040    20.6530    14.4240    78.2040
 2450.5000    87.1430     8.0570     2.3740    -0.0130   -37.2650    20.9500    14.6850    77.6410
 2451.0000    86.7680     8.0520     2.3730    -0.0060   -37.5360    21.0890    14.9300    77.6110
 2451.5000    87.7960     8.0480     2.3860     0.0060   -37.5650    21.1470    15.0190    78.3630
 2452.0000    88.9320     8.0430     2.4090     0.0110   -37.4220    21.1820    14.8680    78.7180
 2452.5000    89.7770     8.0380     2.4320     0.0240   -37.2630    21.3140    14.6110    77.9000
 2453.0000    87.5410     8.0340     2.4490     0.0360   -37.2340    21.5970    14.5440    77.0230
 2453.5000    85.8680     8.0280     2.4500     0.0480   -37.2640    21.7030    14.8990    76.5610
 2454.0000    85.9510     8.0300     2.4360     0.0340   -37.0530    22.0270    15.6620    77.0910
 2454.5000    89.0080     8.0340     2.4230     0.0140   -36.4580    22.2670    16.5870    78.1210
 2455.0000    87.5560     8.0380     2.4080    -0.0060   -35.8380    23.1180    17.4020    78.2840
 2455.5000    84.2830     8.0420     2.3970    -0.0020   -35.7100    23.9130    18.0040    78.1520
 2456.0000    81.2060     8.0460     2.3920     0.0010   -36.0510    24.8270    18.4350    76.6220
 2456.5000    78.4230     8.0500     2.4100    -0.0040   -36.2650    27.5660    18.6730    73.0600
 2457.0000    77.3870     8.0540     2.4440     0.0030   -35.9210    28.3780    18.5290    69.4970
 2457.5000    77.9620     8.0580     2.4780     0.0020   -35.2140    28.2480    17.8420    65.9340
 2458.0000    78.6150     8.0630     2.5030     0.0200   -34.5500    27.2640    16.7190    64.4040
 2458.5000    85.7440     8.0650     2.5070     0.0250   -34.0070    24.1410    15.4600    68.9340
 2459.0000    93.7500     8.0880     2.4870     0.0210   -33.4390    21.7840    14.2420    72.6290
 2459.5000    96.1140     8.1310     2.4590     0.0130   -32.8810    19.7830    13.0150    76.1330
 2460.0000    96.5580     8.1720     2.4700     0.0170   -32.5560    16.8310    11.7310    76.9630
 2460.5000    97.4750     8.2150     2.4800     0.0160   -32.5850    16.2160    10.5440    76.7130
 2461.0000    98.1980     8.2310     2.4670     0.0070   -32.8640    14.6650     9.6910    76.9180
 2461.5000    99.3560     8.2320     2.4590     0.0150   -33.1570    14.3780     9.2270    77.2270
