~VERSION INFORMATION
 VERS.                2.0:   CWLS LOG ASCII STANDARD - VERSION 2.0
 WRAP.                 NO:   ONE LINE PER DEPTH STEP
~WELL INFORMATION
#MNEM.UNIT      DATA TYPE    INFORMATION
#----------   ------------   ------------------------------
 STRT.F           40.0000:   START DEPTH
 STOP.F         3032.5000:   STOP DEPTH
 STEP.F            0.5000:   STEP LENGTH
 NULL.          -999.2500:   NO VALUE
 COMP.   TESORO PETROLEUM:   COMPANY
 WELL. TESORO NPR 3 "AX" #51-15:   WELL
 FLD .        TEAPOT DOME:   FIELD
 LOC .      S15 T38N R78W:   LOCATION
 CNTY.            NATRONA:   COUNTY
 STAT.            WYOMING:   STATE
 CTRY. UNITED STATES OF AMERICA:   COUNTRY
 SRVC.       SCHLUMBERGER:   SERVICE COMPANY
 DATE.        21-JUL-1969:   LOGDATE
 API .     49025100240000:   API NUMBER
~CURVE INFORMATION
#MNEM.UNIT       API CODE    CURVE DESCRIPTION
#----------   ------------   ------------------------------
 DEPT.F                  :   
 CALD.IN     45 280 60 00:   CALIPER FROM DENSITY LOG
 GRD .GAPI   45 310 01 00:   GAMMA RAY FROM DENSITY LOG
 RHOB.G/C3   45 350 01 00:   BULK DENSITY
 CORR.G/C3   45 356 01 00:   DENSITY CORRECTION
 GR  .GAPI   35 310 01 00:   GAMMA RAY FROM GAMMA RAY LOG
 SPR .MV     05 010 01 00:   SPONTANEOUS POTENTIAL
 ASN .OHMM   05 041 16 00:   AMPLIFIED SHORT NORMAL 16"
 ILD .OHMM   05 120 46 00:   DEEP INDUCTION RESISTIVITY
~PARAMETER INFORMATION
#MNEM.UNIT          VALUE    DESCRIPTION
#----------   ------------   ------------------------------
 EKB .F         5235.0000:   Kelly bushing
 EGL .F         5222.0000:   Ground level
 EDF .F            0.0000:   Drilling floor
 TD  .F         3027.0000:   Total depth
 DATE.        21-JUL-1969:   Date logged
 CLNT.            A2DTECH:   Client Code
 SL  . 2000' FEL & 660' FNL:   Surface Location
 PD  .                 GL:   Permanent Datum
 EPD .F              5222:   Elevation Permanent Datum
 LMF .                 KB:   Log Measured From
 DMF .                 KB:   Drilling Measured From
 DAPD.F                13:   Feet Above Permanent Datum
 DD  .F              3027:   Depth driller
 DL  .F              3025:   Depth logger
 BLI .F              3024:   Bottom log interval
 TLI .F              2604:   Top log interval
 CS1 .IN            10.75:   Casing size
 CBD1.      10.75" @ 622':   Casing driller 1
 BS1 .IN                9:   Bit size
 BSD1.F              3027:   Depth drilled with bit1
 DFT .          FRESH/GEL:   Type fluid in hole
 DFD .                9.7:   Density
 DFV .                 65:   Viscosity
 DFPH.                9.5:   pH
 DFL .                  7:   Fluid loss
 MSS .           FLOWLINE:   Source of sample
 RMS .OHMM           2.48:   Rm
 MST .F                80:   Rm Meas. temp.
 RMF .OHMM           2.80:   Rmf
 MFST.F                80:   Rmf Meas. temp.
 MFSS.               MEAS:   Source Rmf.
 RMB .OHMM           2.20:   Rm. at BHT
 BHT .F               106:   BHT.
 TCS .HRS               1:   Time Circ. stopped
 MRT .F               106:   Maximum recorded temp.
 LUN .               4507:   Logging unit number
 LUL .               CSPR:   Logging unit location
 ENGI.           CHAMPLIN:   Recorded By
 WITN.                MAY:   Witnessed by
 ORIG.           5" PRINT:   Origin of data
 UWI .     49025100240000:   Unique Well ID
 DICO. A2D TECHNOLOGIES, INC.:   Digitizing Company
~OTHER INFORMATION
~A   DEPT     CALD        GRD       RHOB       CORR         GR        SPR        ASN          ILD 
# ...
 1822.0000     9.3130   111.6450     2.5650     0.0140  -999.2500   -33.6640     8.9930     7.4410
 1822.5000     9.3130   112.2950     2.5530     0.0260  -999.2500   -33.6630     8.9890     7.4430
 1823.0000     9.3130   112.6640     2.5830     0.0380  -999.2500   -33.6620     9.0080     7.4410
 1823.5000     9.3130   110.4450     2.5740     0.0480  -999.2500   -33.7130     9.0550     7.4430
 1824.0000     9.3130   108.0260     2.5860     0.0530  -999.2500   -33.8790     9.1050     7.4360
 1824.5000     9.3130   113.9440     2.5770     0.0450  -999.2500   -34.0360     9.1730     7.5080
 1825.0000     9.3130   116.7400     2.5410     0.0370  -999.2500   -34.1980     9.2480     7.7030
 1825.5000     9.3130   118.6150     2.5270     0.0300  -999.2500   -34.3580     9.2870     7.8940
 1826.0000     9.3130   119.8050     2.5410     0.0260  -999.2500   -34.5180     9.5800     8.0330
 1826.5000     9.3130   118.5110     2.5210     0.0220  -999.2500   -34.6800     9.9850     8.0350
 1827.0000     9.3130   115.9710     2.5290     0.0170  -999.2500   -34.8400    10.2790     8.0310
 1827.5000     9.3130   108.3040     2.5410     0.0150  -999.2500   -35.0000    10.5960     8.0940
 1828.0000     9.3130   107.1610     2.5410     0.0180  -999.2500   -35.1640    10.9690     8.2240
 1828.5000     9.3130   107.4090     2.5550     0.0190  -999.2500   -35.2360    10.6250     8.3650
 1829.0000     9.3120   107.8540     2.5620     0.0170  -999.2500   -35.0290    10.3660     8.3890
 1829.5000     9.3100   108.5380     2.5500     0.0190  -999.2500   -34.7570    10.2880     8.2400
 1830.0000     9.3090   104.4860     2.5380     0.0280  -999.2500   -34.4920    10.1930     8.1120
 1830.5000     9.3070    99.9110     2.5400     0.0220  -999.2500   -34.2200    10.1000     7.9720
 1831.0000     9.3060   100.7080     2.5380     0.0100  -999.2500   -33.9570    10.0030     7.8450
 1831.5000     9.3050   101.4290     2.5330     0.0070  -999.2500   -33.6860     9.8890     7.6910
 1832.0000     9.3030   103.2660     2.5340     0.0050  -999.2500   -33.6730     9.7240     7.7160
 1832.5000     9.3020   108.7400     2.5390     0.0070  -999.2500   -33.7670     9.6040     7.9010
 1833.0000     9.3010   107.8500     2.5460     0.0120  -999.2500   -33.8590     9.7380     8.0680
 1833.5000     9.2990   107.8580     2.5500     0.0170  -999.2500   -33.9500     9.9250     8.2330
 1834.0000     9.2980   104.4850     2.5410     0.0220  -999.2500   -34.0580    10.2250     8.4150
 1834.5000     9.2970   101.4870     2.5320     0.0270  -999.2500   -34.3330    10.5330     8.4310
 1835.0000     9.2950   101.1110     2.5350     0.0250  -999.2500   -34.6660    10.8030     8.4340
 1835.5000     9.2940   100.7890     2.5460     0.0140  -999.2500   -35.0330    10.9400     8.4270
 1836.0000     9.2930   106.8290     2.5540     0.0050  -999.2500   -35.2480    11.1500     8.4380
 1836.5000     9.2910   111.9620     2.5590     0.0010  -999.2500   -35.1090    10.8190     8.3720
 1837.0000     9.2900   110.6130     2.5650     0.0020  -999.2500   -34.9950    10.3980     8.2440
 1837.5000     9.2880   109.4470     2.5650     0.0090  -999.2500   -34.8640    10.0970     8.1250
 1838.0000     9.2870   106.4080     2.5560     0.0230  -999.2500   -34.7400     9.9450     8.0050
 1838.5000     9.2860   102.5670     2.5430     0.0360  -999.2500   -34.6140     9.7290     7.8840
 1839.0000     9.2840   101.2210     2.5420     0.0520  -999.2500   -34.4890     9.7020     7.7630
 1839.5000     9.2830   103.8710     2.5550     0.0480  -999.2500   -34.3630     9.7010     7.6450
 1840.0000     9.2820   109.2580     2.5750     0.0380  -999.2500   -34.2390     9.7050     7.5120
 1840.5000     9.2800   110.5800     2.5860     0.0300  -999.2500   -34.1100     9.6520     7.4410
 1841.0000     9.2790   108.7890     2.5540     0.0370  -999.2500   -34.0320     9.5820     7.4710
 1841.5000     9.2780   110.4440     2.5640     0.0510  -999.2500   -33.9980     9.5100     7.4860
 1842.0000     9.2760   113.1560     2.5540     0.0550  -999.2500   -33.9580     9.4410     7.5080
 1842.5000     9.2750   113.7900     2.5350     0.0530  -999.2500   -33.9210     9.3710     7.5270
 1843.0000     9.2730   116.1070     2.5440     0.0440  -999.2500   -33.8830     9.3250     7.5470
 1843.5000     9.2740   118.2640     2.5530     0.0300  -999.2500   -33.8450     9.2880     7.5670
 1844.0000     9.2760   117.9990     2.5530     0.0220  -999.2500   -33.8070     9.2420     7.5870
 1844.5000     9.2780   112.5630     2.5480     0.0210  -999.2500   -33.7690     9.1970     7.6060
 1845.0000     9.2800   107.1600     2.5360     0.0270  -999.2500   -33.7310     9.2640     7.6260
 1845.5000     9.2820   103.2310     2.5330     0.0340  -999.2500   -33.6930     9.3360     7.6460
 1846.0000     9.2840   104.2230     2.5490     0.0280  -999.2500   -33.6550     9.3480     7.6660
 1846.5000     9.2860   106.1980     2.5420     0.0210  -999.2500   -33.6170     9.3310     7.6860
 1847.0000     9.2880   106.3240     2.5280     0.0130  -999.2500   -33.5790     9.3060     7.7050
 1847.5000     9.2900   107.2480     2.5130     0.0090  -999.2500   -33.5410     9.3070     7.7250
 1848.0000     9.2920   108.4850     2.5390     0.0050  -999.2500   -33.5030     9.3250     7.7440
 1848.5000     9.2940   109.7560     2.5330     0.0010  -999.2500   -33.4650     9.3460     7.7640
 1849.0000     9.2960   110.9870     2.5230     0.0050  -999.2500   -33.4280     9.3720     7.7850
 1849.5000     9.2980   112.2400     2.5120     0.0090  -999.2500   -33.3900     9.3820     7.7990
 1850.0000     9.3000   113.5140     2.5450     0.0130  -999.2500   -33.3520     9.3800     7.8350
 1850.5000     9.3020   114.7030     2.5360     0.0170  -999.2500   -33.3140     9.2410     7.7110
 1851.0000     9.3040   116.0560     2.5310     0.0210  -999.2500   -33.2760     9.0680     7.3670
 1851.5000     9.3060   117.2190     2.5470     0.0250  -999.2500   -33.2380     8.8870     7.0440
 1852.0000     9.3080   117.3450     2.5460     0.0280  -999.2500   -33.2000     8.7120     6.7120
 1852.5000     9.3100   110.7970     2.5470     0.0310  -999.2500   -33.1620     8.2830     6.3810
 1853.0000     9.3120   108.6520     2.5660     0.0340  -999.2500   -33.1240     7.9180     6.0550
 1853.5000     9.3130   108.8550     2.5800     0.0370  -999.2500   -33.0870     7.5240     5.7190
 1854.0000     9.3130   109.2730     2.5720     0.0390  -999.2500   -33.0490     7.1520     5.3930
 1854.5000     9.3130   108.8230     2.5610     0.0430  -999.2500   -33.0110     6.7870     5.0830
 1855.0000     9.3130   108.2390     2.5230     0.0460  -999.2500   -32.9730     6.6860     5.0630
 1855.5000     9.3120   107.6620     2.5020     0.0510  -999.2500   -32.9380     6.6020     5.0600
 1856.0000     9.2870   109.2030     2.5080     0.0540  -999.2500   -32.8910     6.5700     5.0650
 1856.5000     9.2600   110.9890     2.5110     0.0540  -999.2500   -32.9220     6.7320     5.0580
 1857.0000     9.2330   111.9330     2.5110     0.0220  -999.2500   -33.0570     6.7930     5.0670
 1857.5000     9.2040   112.1070     2.5010     0.0030  -999.2500   -33.1820     6.7400     5.0480
 1858.0000     9.1930   112.5140     2.4870     0.0040  -999.2500   -33.3110     6.7310     5.1930
 1858.5000     9.1960   113.6760     2.4740     0.0070  -999.2500   -33.4380     6.8170     5.4630
 1859.0000     9.1980   115.1730     2.4750     0.0090  -999.2500   -33.5680     6.9640     5.7010
 1859.5000     9.2000   117.5370     2.4950     0.0080  -999.2500   -33.6940     7.2070     5.9530
 1860.0000     9.2030   119.0020     2.5100     0.0050  -999.2500   -33.8230     7.5630     6.1040
 1860.5000     9.2050   112.7990     2.5130     0.0030  -999.2500   -33.9530     7.6050     6.1800
 1861.0000     9.2070   114.4120     2.5160     0.0040  -999.2500   -34.0400     7.5220     6.2670
 1861.5000     9.2090   117.2860     2.5190     0.0080  -999.2500   -33.9260     7.3640     6.3460
 1862.0000     9.2110   122.0860     2.5240     0.0120  -999.2500   -33.8290     7.3640     6.4380
