~VERSION INFORMATION
 VERS.                2.0:   CWLS LOG ASCII STANDARD - VERSION 2.0
 WRAP.                 NO:   ONE LINE PER DEPTH STEP
~WELL INFORMATION
#MNEM.UNIT      DATA TYPE    INFORMATION
#----------   ------------   ------------------------------
 STRT.F          330.0000:   START DEPTH
 STOP.F         2880.0000:   STOP DEPTH
 STEP.F            0.5000:   STEP LENGTH
 NULL.          -999.2500:   NO VALUE
 COMP.   TESORO PETROLEUM:   COMPANY
 WELL. TESORO NPR "AX" #3-21:   WELL
 FLD .        TEAPOT DOME:   FIELD
 LOC .      S21 T39N R78W:   LOCATION
 CNTY.            NATRONA:   COUNTY
 STAT.            WYOMING:   STATE
 CTRY. UNITED STATES OF AMERICA:   COUNTRY
 SRVC.       SCHLUMBERGER:   SERVICE COMPANY
 DATE.        17-AUG-1972:   LOGDATE
 API .     49025102150000:   API NUMBER
~CURVE INFORMATION
#MNEM.UNIT       API CODE    CURVE DESCRIPTION
#----------   ------------   ------------------------------
 DEPT.F                  :   
 GRD .GAPI   45 310 01 00:   GAMMA RAY FROM DENSITY LOG
 CALD.IN     45 280 60 00:   CALIPER FROM DENSITY LOG
 CORR.G/C3   45 356 01 00:   DENSITY CORRECTION
 RHOB.G/C3   45 350 01 00:   BULK DENSITY
 SPR .MV     05 010 01 00:   SPONTANEOUS POTENTIAL FROM RES.
 ILD .OHMM   05 120 46 00:   INDUCTION LOG DEEP
 ASN .OHMM   05 041 16 00:   AMPLIFIED SHORT NORMAL 16"
~PARAMETER INFORMATION
#MNEM.UNIT          VALUE    DESCRIPTION
#----------   ------------   ------------------------------
 EKB .F         4985.0000:   Kelly bushing
 EGL .F         4975.0000:   Ground level
 EDF .F            0.0000:   Drilling floor
 EPD .F         4975.0000:   Permanent datum
 TD  .F         2880.0000:   Total depth
 CLNT.            A2DTECH:   Client Code
 DATE.        17-AUG-1972:   Date Logged [DD-MMM-YYYY]
 DD  .F              2875:   Depth driller
 DL  .F              2880:   Depth logger
 BLI .F              2879:   Bottom log interval
 TLI .F               330:   Top log interval
 CS1 .              10.75:   Casing size
 CBD1.       10.75" @ 327:   Casing driller 1
 CBL1.IN              330:   Casing logger 1
 BS1 .IN                9:   Bit size
 BSD1.F              2875:   Depth drilled with bit1
 DFT .           CHEM-GEL:   Type fluid in hole
 DFD .                9.3:   Density
 DFV .                 61:   Viscosity
 DFPH.                9.0:   pH
 DFL .                 66:   Fluid loss
 MSS .           FLOWLINE:   Source of sample
 RMS .OHMM           1.86:   Rm
 MST .F                76:   Rm Meas. temp.
 RMF .OHMM           1.58:   Rmf
 MFST.F                76:   Rmf Meas. temp.
 MFSS.               MEAS:   Source Rmf.
 RMB .OHMM           1.25:   Rm. at BHT
 BHT .F               113:   BHT.
 TCS .HRS               3:   Time Circ. stopped
 MRT .F               113:   Maximum recorded temp.
 LUN .               7037:   Logging unit number
 LUL .               CSPR:   Logging unit location
 ENGI.              GOLAS:   Recorded By
 WITN.                MAY:   Witnessed by
 ORIG.      1" 2.5" PRINT:   Origin of data
 UWI .     49025102150000:   Unique Well ID
 DICO. A2D TECHNOLOGIES, INC.:   Digitizing Company
~OTHER INFORMATION
~A   DEPT      GRD       CALD       CORR       RHOB        SPR          ILD        ASN 
# ...
 1831.5000   121.2503     9.5283     0.0011     2.3619   -21.1331    11.4827    13.1416
 1832.0000   127.1447     9.5284     0.0122     2.3902   -21.2261    11.0310    12.9941
 1832.5000   129.9461     9.5286     0.0169     2.4058   -21.7647    11.0348    12.8464
 1833.0000   132.4339     9.5287     0.0185     2.4175   -22.0805    11.1907    12.5482
 1833.5000   135.5392     9.5289     0.0139     2.3780   -21.7760    11.4967    12.2487
 1834.0000   125.7410     9.4982     0.0248     2.3714   -21.4726    11.8028    12.1024
 1834.5000   121.3521     9.4983     0.0202     2.3776   -21.5975    12.0177    12.4242
 1835.0000   119.2152     9.4985     0.0140     2.3725   -22.2290    11.5695    12.8614
 1835.5000   119.7920     9.6221     0.0480     2.3921   -23.0403    11.1213    12.8808
 1836.0000   121.8644     9.8691     0.0573     2.4439   -23.4923    10.9729    12.8474
 1836.5000   124.8781     9.9360     0.0543     2.4544   -23.6718    10.9756    12.0459
 1837.0000   128.3905     9.5608     0.0170     2.4510   -23.2198    11.4282    11.0387
 1837.5000   131.1924     9.5301    -0.0027     2.4199   -22.6007    11.2803    10.5861
 1838.0000   132.3508     9.5302     0.0211     2.4180   -21.8328    10.3816    10.4695
 1838.5000   130.6847     9.5304     0.0360     2.4309   -21.6719     9.9027    11.3425
 1839.0000   127.1720     9.5306     0.0294     2.4449   -21.5356    10.5362    11.9166
 1839.5000   123.1796     9.5307     0.0203     2.4436   -21.5418    10.9889    12.2862
 1840.0000   118.0625     9.5309     0.0191     2.4318   -21.5492    11.2914    12.3394
 1840.5000   116.2209     9.5619     0.0225     2.4259   -21.2457    11.5940    12.4427
 1841.0000   115.3024     9.5620     0.0280     2.4253   -21.2519    11.4460    12.4458
 1841.5000   114.3839     9.5313     0.0442     2.4215   -20.9484    11.4483    12.4488
 1842.0000   113.4653     9.5315     0.0692     2.4168   -20.6449    11.4505    12.3866
 1842.5000   113.3308     9.5316     0.1089     2.4402   -20.6511    11.6029    12.3042
 1843.0000   115.7822     9.5409     0.1351     2.4513   -20.3476    11.9054    12.3072
 1843.5000   115.7867     9.8653     0.0800     2.4337   -20.0441    11.7531    12.3103
 1844.0000   117.1759    10.1185     0.0292     2.4315   -19.4311    11.6095    12.6245
 1844.5000   121.7959     9.9606     0.0156     2.4250   -19.1276    11.4616    13.0027
 1845.0000   125.9543     9.3904     0.0088     2.4282   -18.8241    11.3137    13.0723
 1845.5000   129.6512     9.3165     0.0104     2.4172   -18.5207    11.1658    13.0759
 1846.0000   126.8865     9.3784     0.0120     2.4295   -18.2172    11.1682    12.9283
 1846.5000   123.6603     9.4094     0.0114     2.4250   -18.2233    11.1449    12.7806
 1847.0000   122.2803     9.4404     0.0105     2.4158   -18.5391    11.0223    12.4819
 1847.5000   122.7464     9.4488     0.0099     2.4127   -18.8548    10.9923    12.3344
 1848.0000   128.2894     9.4716     0.0031     2.4097   -19.1705    10.8408    12.3377
 1848.5000   127.3709     9.4717     0.0026     2.4128   -19.7959    10.4284    12.3407
 1849.0000   125.9909     9.5028     0.0144     2.4190   -20.1116    10.0876    12.4943
 1849.5000   124.6108     9.5029     0.0260     2.4345   -20.4273     9.9824    12.3706
 1850.0000   122.7692     9.5031     0.0386     2.4653   -20.1238     9.9850    12.0569
 1850.5000   120.9095     9.5032     0.0315     2.4808   -20.4397     9.8367    11.7432
 1851.0000   119.0309     9.5034     0.0216     2.4731   -20.7554     9.8393    11.4295
 1851.5000   114.6315     9.5035     0.0178     2.4578   -21.0712     9.6910    11.1172
 1852.0000   107.9816     9.5037     0.0147     2.4455   -21.4118     9.4795    10.8550
 1852.5000   106.5922     9.5471     0.0099     2.4347   -22.0124     9.4632    11.2036
 1853.0000   105.6089    10.4471     0.0003     2.4271   -21.6717     9.9194    11.8604
 1853.5000   103.8138    11.7877     0.0096     2.4271   -21.0526    10.3757    12.2194
 1854.0000   105.1758    12.0352     0.0143     2.4396   -20.7431    10.7597    12.0717
 1854.5000   112.0199    11.5111     0.0159     2.4551   -20.1790    11.0563    12.1343
 1855.0000   119.8608    10.9779     0.0097     2.4658   -19.8142    11.0585    12.4423
 1855.5000   126.9183    10.6949     0.0021     2.4496   -19.5721    11.2109    12.5332
 1856.0000   129.3970    10.6774     0.0017     2.4316   -19.2686    11.0631    12.3855
 1856.5000   129.7523    10.6611     0.0052     2.4226   -18.8853    10.9156    12.3145
 1857.0000   129.7569     9.6250     0.0037     2.4182   -18.5759    10.7676    12.0126
 1857.5000   130.2231     9.4581    -0.0008     2.4180   -18.3582    10.6194    11.7922
 1858.0000   130.6892     9.4439     0.0023     2.4168   -17.9566    10.4715    11.7952
 1858.5000   129.7612     9.4440     0.0039     2.4189   -17.6471    10.3239    11.6476
 1859.0000   127.1355     9.4442     0.0024     2.4280   -17.4478    10.1757    11.8018
 1859.5000   125.6253     9.4443     0.0040     2.4307   -17.1443    10.0280    11.9554
 1860.0000   127.5691     9.4753     0.0071     2.4451   -17.3375    10.1804    12.2595
 1860.5000   128.0171     9.4755     0.0102     2.4383   -17.0279    10.1826    12.2625
 1861.0000   122.2808     9.4756     0.0180     2.4249   -17.3375    10.0345    12.2655
 1861.5000   116.4507     9.4758     0.0227     2.4279   -17.6471     9.8868    11.9673
 1862.0000   115.4954     9.4760     0.0073     2.4341   -18.2663     9.2884    11.6690
 1862.5000   115.5000     9.4761     0.0120     2.4253   -18.2663     8.8402    11.2202
 1863.0000   115.7447     9.4454     0.0105     2.4314   -18.5759     8.6922    10.9220
 1863.5000   115.9707     9.4455    -0.0003     2.4323   -18.5759     8.6945    10.6474
 1864.0000   116.4369     9.4457     0.0137     2.4259   -18.8854     8.8469    10.3255
 1864.5000   115.7124     9.4459     0.0183     2.4348   -18.8854     9.0007    10.4791
 1865.0000   115.0625     9.4460     0.0074     2.4429   -18.8854     9.1566    10.9339
 1865.5000   114.1439     9.4462     0.0014     2.4414   -18.8854     9.3126    11.5392
 1866.0000   113.2254     9.4463     0.0046     2.4456   -18.8854     9.6186    11.8434
 1866.5000   111.8454     9.4465     0.0029     2.4257   -18.9504     9.9091    11.9970
 1867.0000   110.9269     9.4466     0.0000     2.4151   -19.1950     9.9114    12.0000
 1867.5000   113.7007     9.4468    -0.0001     2.4081   -19.1950    10.0636    11.8523
 1868.0000   119.2437     9.4469    -0.0014     2.4085   -19.1950     9.8899    11.5341
 1868.5000   121.5560     9.4471    -0.0008     2.4070   -19.1950     9.5588    11.2285
 1869.0000   122.4836     9.4472     0.0054     2.3947   -19.1950     9.2868    10.6391
 1869.5000   121.1036     9.4474     0.0118     2.3978   -19.1950     9.1717    10.3157
 1870.0000   118.8005     9.4784     0.0184     2.4163   -19.1950     9.0237    10.0600
 1870.5000   116.9589    11.2378     0.0262     2.4164   -19.3508     9.0263    10.2139
 1871.0000   115.1173    11.6083     0.0364     2.4103   -19.5046     9.0285    10.3674
 1871.5000   113.7372    11.1147     0.0627     2.3964   -19.5046     9.0308    10.5211
 1872.0000   118.8187     9.4790     0.1008     2.3914   -19.8142     9.0330    10.5241
 1872.5000   121.1310     9.4483     0.1626     2.4150   -19.5046     9.0353    10.5271
 1873.0000   117.4433     9.4794     0.1549     2.4289   -19.5046     9.0375    10.4824
 1873.5000   113.7555     9.5104     0.1529     2.4290   -19.1950     8.8897    10.3310
 1874.0000   111.4524     9.4797     0.1585     2.4275   -18.8854     8.8238    10.0838
 1874.5000   109.6108     9.4798     0.0763     2.4060   -18.8854     8.6724    10.0284
 1875.0000   107.3077     9.4800     0.0347     2.3921   -18.5759     8.2207     9.8770
 1875.5000   105.4661     9.4801     0.0209     2.3876   -18.5759     8.1479     9.6416
 1876.0000   106.0245     9.4803     0.0163     2.3938   -18.5759     8.0000     9.5688
 1876.5000   110.7189     9.4804     0.0287     2.4046   -18.2663     7.9166     9.4673
