~VERSION INFORMATION
 VERS.                2.0:   CWLS LOG ASCII STANDARD - VERSION 2.0
 WRAP.                 NO:   ONE LINE PER DEPTH STEP
~WELL INFORMATION
#MNEM.UNIT      DATA TYPE    INFORMATION
#----------   ------------   ------------------------------
 STRT.F          210.0000:   START DEPTH
 STOP.F         3128.0000:   STOP DEPTH
 STEP.F            0.5000:   STEP LENGTH
 NULL.          -999.2500:   NO VALUE
 COMP.    PENIX & SCISSON:   COMPANY
 WELL. FENIX NPR 3 "A" #14-27:   WELL
 FLD .                NPR:   FIELD
 LOC .      S27 T39N R78W:   LOCATION
 CNTY.            NATRONA:   COUNTY
 STAT.            WYOMING:   STATE
 CTRY. UNITED STATES OF AMERICA:   COUNTRY
 SRVC.      DRESSER ATLAS:   SERVICE COMPANY
 DATE.        31-AUG-1977:   LOGDATE
 API .     49025104280000:   API NUMBER
~CURVE INFORMATION
#MNEM.UNIT       API CODE    CURVE DESCRIPTION
#----------   ------------   ------------------------------
 DEPT.F                  :   
 GRD .GAPI   45 310 01 00:   GAMMA RAY FROM DENSITY LOG
 CALD.IN     45 280 60 00:   CALIPER FROM DENSITY LOG
 RHOB.G/C3   45 350 01 00:   BULK DENSITY
 CORR.G/C3   45 356 01 00:   DENSITY CORRECTION
 NPHI.DEC    42 890 03 00:   NEUTRON POROSITY SANDSTONE
 SPR .MV     11 010 01 00:   SPONTANEOUS POTENTIAL
 RXO .OHMM   11 220 01 00:   FLUSHED ZONE RESISTIVITY
 LLD .OHMM   11 220 10 00:   LATEROLOG LOG DEEP
 LLS .OHMM   11 220 09 00:   LATEROLOG LOG SHALLOW
 TENR.LBS    11 635 01 00:   TENSION FROM RESISTIVITY
 TEND.LBS    45 635 01 00:   TENSION FROM DENSITY LOG
~PARAMETER INFORMATION
#MNEM.UNIT          VALUE    DESCRIPTION
#----------   ------------   ------------------------------
 EKB .F         5046.0000:   Kelly bushing
 EGL .F         5036.0000:   Ground level
 TD  .F         3111.0000:   Total depth
 DATE.        31-AUG-1977:   Date logged
 CLNT.            A2DTECH:   Client Code
 SL  . 2310' FNL & 330' FWL:   Surface Location
 PD  .                 GL:   Permanent Datum
 EPD .F              5036:   Elevation Permanent Datum
 LMF .                 KB:   Log Measured From
 DMF .                 KB:   Drilling Measured From
 DAPD.F                10:   Feet Above Permanent Datum
 DD  .F              3109:   Depth driller
 DL  .F              3111:   Depth logger
 BLI .F              3109:   Bottom log interval
 TLI .F               217:   Top log interval
 CS1 .IN             8.75:   Casing size
 CBD1.       8.75" @ 215':   Casing driller 1
 CBL1.F               217:   Casing logger 1
 BS1 .IN            7.875:   Bit size
 BSD1.F              3109:   Depth drilled with bit1
 DFT .                GEL:   Type fluid in hole
 DFD .                8.8:   Density
 DFV .                 35:   Viscosity
 DFPH.                 10:   pH
 DFL .                8.8:   Fluid loss
 MSS .                PIT:   Source of sample
 RMS .OHMM            .36:   Rm
 MST .F                67:   Rm Meas. temp.
 RMF .OHMM            .24:   Rmf
 MFST.F                67:   Rmf Meas. temp.
 RMC .OHMM            .51:   Rmc
 MCST.F                67:   Rmc Meas. temp.
 MFSS.               MEAS:   Source Rmf.
 MCSS.               CALC:   Source Rmc.
 RMB .OHMM            .20:   Rm. at BHT
 BHT .F               121:   BHT.
 TCS .HRS               5:   Time Circ. stopped
 MRT .F               121:   Maximum recorded temp.
 LUN .               6080:   Logging unit number
 LUL .              WLSTN:   Logging unit location
 ENGI.               BALL:   Recorded By
 WITN.         PETTINGILL:   Witnessed by
 ORIG.      2.5" 5" PRINT:   Origin of data
 UWI .     49025104280000:   Unique Well ID
 DICO. A2D TECHNOLOGIES, INC.:   Digitizing Company
~OTHER INFORMATION
~A   DEPT      GRD         CALD     RHOB       CORR       NPHI        SPR        RXO        LLD        LLS        TENR      TEND   
# ...
  789.5000    92.1161    10.3474     2.5045     0.0160     0.2810   -30.4480     4.6723     6.4693     6.2566    87.2831    84.3571
  790.0000    93.2955    10.2673     2.4916     0.0100     0.2829   -30.8488     4.6719     6.4689     6.1430    87.2840    76.4859
  790.5000    91.2960    10.3461     2.4697    -0.0020     0.2893   -31.2479     4.6717     6.4686     6.2558    87.2848    84.5574
  791.0000    90.0911    10.3057     2.4666    -0.0041     0.2976   -31.2495     4.6714     6.4682     6.1423    87.2857    84.6175
  791.5000    88.0914    10.2455     2.4726    -0.0061     0.2992   -31.2506     4.6711     6.4679     6.1420    87.2866    84.7576
  792.0000    88.4759    10.1654     2.4795    -0.0062     0.3118   -30.8537     4.7568     6.4674     6.1416    87.2874    96.7647
  792.5000    89.2579    10.1051     2.4785    -0.0002     0.3154   -30.8548     4.7566     6.4671     6.2544    87.2883    84.9579
  793.0000    90.4374    10.1243     2.4825     0.0017     0.3138   -30.8564     4.7563     6.4667     6.2540    87.2892    85.0180
  793.5000    94.0015    10.1038     2.4914     0.0056     0.2984   -30.4590     4.7561     6.4664     6.2537    87.2900    85.1582
  794.0000    95.5785    10.1032     2.4854     0.0036     0.2948   -30.4607     4.6697     6.4660     6.2533    87.2909    85.2383
  794.5000    95.9634    10.1026     2.4724     0.0016     0.2988   -30.4618     4.7555     6.4657     6.2530    87.2918    89.3141
  795.0000    98.7329    10.1020     2.4674    -0.0005     0.2877   -30.8619     4.7552     6.3482     6.3678    87.2927    85.4185
  795.5000    97.1305    10.1013     2.4694    -0.0005     0.2842   -30.8630     4.8425     6.3479     6.3675    87.2935    85.5387
  796.0000    93.9381    10.0808     2.4823     0.0034     0.2830   -31.0646     4.8422     6.3475     6.4843    87.2944    81.6431
  796.5000    91.9379    10.1000     2.4942     0.0073     0.2917   -31.0657     4.9310     6.4642     6.4840    87.2953    89.7146
  797.0000    90.3352    10.0994     2.5041     0.0152     0.2968   -31.0674     4.9308     6.4638     6.4836    87.2961    85.7990
  797.5000    89.5274    10.0987     2.5091     0.0151     0.2948   -31.0684     4.9304     6.4633     6.6026    87.2970    89.9148
  798.0000    89.1171    10.0981     2.5100     0.0151     0.2956   -31.0701     4.9302     6.4630     6.6023    87.2979    82.0436
  798.5000    89.1043    10.0577     2.5031     0.0151     0.2964   -31.0712     5.0207     6.8267     6.7235    87.2987    86.1395
  799.0000    89.0915    10.0769     2.4951     0.0130     0.2913   -30.6744     5.0204     6.8264     6.7232    87.2996    86.2196
  799.5000    88.6811    10.0763     2.4861     0.0090     0.2814   -30.6755     5.0201     6.9518     6.8465    87.3005    94.2910
  800.0000    89.4634    10.0955     2.4801     0.0089     0.2794   -30.2787     5.0198     6.7020     7.1008    87.3014    90.4176
  800.5000    88.6581    10.1148     2.4849     0.0072     0.2860   -29.9091     5.0888     6.7015     6.8166    87.3022    92.3549
  801.0000    89.0456    10.1342     2.4920     0.0068     0.2905   -29.8779     5.1122     6.7019     6.7223    87.4955    90.5496
  801.5000    88.6379    10.1734     2.4989     0.0087     0.2925   -29.8768     5.1122     7.0794     6.8461    87.6888    90.6652
  802.0000    87.0374    10.1930     2.5137     0.0125     0.2925   -29.8751     5.4000     7.0794     6.9723    87.8821    94.7074
  802.5000    84.6417    10.2336     2.5186     0.0144     0.2822   -30.2724     5.4000     7.2099     6.9723    88.0754    94.8066
  803.0000    82.2457    10.2742     2.5116     0.0103     0.2696   -30.6692     5.4995     7.3428     7.3647    88.2686   106.7687
  803.5000    81.4402    10.3147     2.5036     0.0083     0.2632   -31.0666     5.7040     7.7563     7.9226    88.4619    98.9319
  804.0000    85.0087    10.3553     2.5006     0.0062     0.2565   -31.0649     6.6009     8.1932     8.0686    88.6552    87.0683
  804.5000    87.3843    10.4088     2.5075     0.0061     0.2530   -31.2623     6.4815     8.6546     8.5228    88.8485    95.1373
  805.0000    86.9766    10.4085     2.5154     0.0060     0.2522   -31.2607     6.7225     8.9766     8.5228    89.0418   103.1240
  805.5000    87.7617    10.3881     2.5154     0.0059     0.2538   -31.2596     6.7225     9.1421     8.6798    89.2351    95.3027
  806.0000    88.1513    10.3877     2.5133     0.0058     0.2589   -31.2580     6.7225     9.4822     9.0025    89.4284    91.3752
  806.5000    88.1412    10.4468     2.5083     0.0057     0.2657   -30.8578     6.8464     9.4822     9.1684    89.6216    95.4681
  807.0000    86.1407    10.4861     2.5062     0.0056     0.2641   -30.8568     6.8464     9.6427     9.1684    89.8149   103.4558
  807.5000    84.5398    10.5254     2.5042     0.0043     0.2605   -30.8551     6.8464     9.6570     9.1684    90.0082    99.6110
  808.0000    84.5295    10.5646     2.5032     0.0023     0.2613   -30.8540     6.8464     9.6570     9.1684    90.2015    91.7056
  808.5000    84.1216    10.6039     2.5031     0.0042     0.2621   -30.8524     6.8464     9.8350     9.1684    90.3948    91.8212
  809.0000    84.5091    10.6031     2.5041     0.0022     0.2673   -31.2498     6.8464     9.8350     9.1684    90.5881   103.7876
  809.5000    85.6921    10.5829     2.5030     0.0041     0.2708   -31.2482     6.9725     9.8350     9.1684    90.7813    91.9864
  810.0000    86.0817    10.4631     2.4990     0.0021     0.2748   -31.2471     6.9725     9.8350     9.1684    90.9746    72.1458
  810.5000    88.0602    10.4029     2.4970    -0.0019     0.2736   -31.2455     6.9725     9.8350     9.1684    91.1679    88.1735
  811.0000    86.8569    10.4224     2.4979     0.0020     0.2728   -31.2444     7.1009     9.8350     9.1684    91.3612    88.2065
  811.5000    87.2445    10.4219     2.4989    -0.0020     0.2681   -31.2428     7.1009    10.0163     9.3373    91.5545    92.3170
  812.0000    87.6321    10.4413     2.4740    -0.0100     0.2618   -30.8431     7.1009    10.0163     9.3373    91.7478   100.3236
  812.5000    88.0197    10.4408     2.4729    -0.0160     0.2594   -31.2401     7.3650    10.0163     9.3373    91.9410    92.4822
  813.0000    88.8050    10.4601     2.4848    -0.0175     0.2606   -31.2390     7.3650    10.0163     9.3373    92.1343    92.5153
  813.5000    89.1927    10.4795     2.4937    -0.0057     0.2606   -31.2373     7.3650    10.0163     9.5093    92.3276    96.6265
  814.0000    89.5804    10.4989     2.4936    -0.0038     0.2598   -30.8371     7.3650    10.0163     9.5093    92.5209    96.6761
  814.5000    89.1725    10.5183     2.4936    -0.0039     0.2574   -30.8360     7.3650    10.0163     9.5093    92.7142    88.8337
  815.0000    87.1734    10.5178     2.4955     0.0000     0.2527   -30.8349     7.3650    10.0163     9.5093    92.9075    92.8459
  815.5000    85.1743    10.4974     2.5064     0.0059     0.2527   -30.8333     7.3650    10.0163     9.5093    93.1008   100.9370
  816.0000    82.3794    10.4571     2.5094     0.0058     0.2543   -30.8317     7.3650    10.0163     9.6845    93.2940    96.9907
  816.5000    82.3692    10.4765     2.4954     0.0017     0.2555   -30.8311     7.3650    10.2009     9.6845    93.4873   101.1029
  817.0000    82.7568    10.4959     2.4794    -0.0024     0.2539   -30.8294     7.3650    10.3890     9.6845    93.6806    97.1564
  817.5000    83.5422    10.5153     2.4734    -0.0084     0.2523   -31.2265     7.5007    10.5805     9.8629    93.8739    97.2889
  818.0000    84.3276    10.5545     2.4744    -0.0085     0.2496   -31.2254     7.5007    10.7755     9.8629    94.0672   113.2583
  818.5000    85.1131    10.5739     2.4793    -0.0086     0.2488   -31.2238     7.5007    11.1764     9.8629    94.2605    97.4545
  819.0000    82.7056    10.6331     2.4822    -0.0028     0.2480   -30.8240     7.6388    11.1764    10.0446    94.4537    93.5075
  819.5000    81.7731    10.6525     2.4911     0.0051     0.2464   -30.8223     7.6388    11.3824    10.0446    94.6470    97.6202
