~VERSION INFORMATION
 VERS.                2.0:   CWLS LOG ASCII STANDARD - VERSION 2.0
 WRAP.                 NO:   ONE LINE PER DEPTH STEP
~WELL INFORMATION
#MNEM.UNIT      DATA TYPE    INFORMATION
#----------   ------------   ------------------------------
 STRT.F           96.5000:   START DEPTH
 STOP.F         2720.0000:   STOP DEPTH
 STEP.F            0.5000:   STEP LENGTH
 NULL.          -999.2500:   NO VALUE
 COMP.          INTEX OIL:   COMPANY
 WELL. INTEX NPR 65 "AX" #3-20:   WELL
 FLD .             TEAPOT:   FIELD
 LOC .      S20 T39N R78W:   LOCATION
 CNTY.            NATRONA:   COUNTY
 STAT.            WYOMING:   STATE
 CTRY. UNITED STATES OF AMERICA:   COUNTRY
 SRVC.       SCHLUMBERGER:   SERVICE COMPANY
 DATE.        04-MAY-1966:   LOGDATE
 API .     49025094910000:   API NUMBER
~CURVE INFORMATION
#MNEM.UNIT       API CODE    CURVE DESCRIPTION
#----------   ------------   ------------------------------
 DEPT.F                  :   
 SPR .MV     05 010 01 00:   SPONTANEOUS POTENTIAL FROM RES.
 SN  .OHMM   05 040 16 00:   SHORT NORMAL 16"
 ILD .OHMM   05 120 46 00:   INDUCTION LOG DEEP
 CALD.IN     45 280 60 00:   CALIPER FROM DENSITY LOG
 CORR.G/C3   45 356 01 00:   DENSITY CORRECTION
 GRD .GAPI   45 310 01 00:   GAMMA RAY FROM DENSITY LOG
 RHOB.G/C3   45 350 01 00:   BULK DENSITY
~PARAMETER INFORMATION
#MNEM.UNIT          VALUE    DESCRIPTION
#----------   ------------   ------------------------------
 EKB .F         5053.3000:   Kelly bushing
 EGL .F         5043.0000:   Ground level
 EDF .F            0.0000:   Drilling floor
 TD  .F         2720.0000:   Total depth
 DATE.        04-MAY-1966:   Date logged
 CLNT.            A2DTECH:   Client Code
 PD  .                 GL:   Permanent Datum
 EPD .F              5043:   Elevation Permanent Datum
 LMF .                 KB:   Log Measured From
 DMF .                 KB:   Drilling Measured From
 DAPD.F              10.3:   Feet Above Permanent Datum
 DD  .F              2720:   Depth driller
 DL  .F              2720:   Depth logger
 BLI .F              2719:   Bottom log interval
 TLI .F                97:   Top log interval
 CS1 .IN            10.75:   Casing size
 CBD1.       10.75" @ 30':   Casing driller 1
 BS1 .IN            7.875:   Bit size
 BSD1.F              2720:   Depth drilled with bit1
 DFT . GEL/Q-BROX/OIL/DAKOLITE:   Type fluid in hole
 DFD .               10.3:   Density
 DFV .                 41:   Viscosity
 DFPH.                7.2:   pH
 DFL .                8.8:   Fluid loss
 MSS .           FLOWLINE:   Source of sample
 RMS .OHMM              2:   Rm
 MST .F                61:   Rm Meas. temp.
 RMF .OHMM           1.31:   Rmf
 MFST.F                65:   Rmf Meas. temp.
 MFSS.                 FP:   Source Rmf.
 RMB .OHMM           1.15:   Rm. at BHT
 BHT .F               110:   BHT.
 TCS .HRS               2:   Time Circ. stopped
 MRT .F               110:   Maximum recorded temp.
 LUN .               4507:   Logging unit number
 LUL .               CSPR:   Logging unit location
 ENGI.            MANGOLD:   Recorded By
 WITN.             TUTTLE:   Witnessed by
 ORIG.       2", 5" PRINT:   Origin of data
 UWI .     49025094910000:   Unique Well ID
 DICO. A2D TECHNOLOGIES, INC.:   Digitizing Company
~OTHER INFORMATION
~A   DEPT      SPR         SN         ILD      CALD       CORR        GRD       RHOB   
# ...
 2053.0000   -33.0490     5.3940     3.9220     9.6910     0.0280   135.0840     2.4840
 2053.5000   -33.0880     5.3910     3.9560     9.6910     0.0260   134.2760     2.4780
 2054.0000   -33.1250     5.3890     3.9950     9.6910     0.0250   131.4430     2.4720
 2054.5000   -33.1690     5.3950     4.0040     9.6910     0.0240   129.2060     2.4730
 2055.0000   -33.2230     5.4000     3.9570     9.6910     0.0230   128.1970     2.4770
 2055.5000   -33.2630     5.3790     3.8660     9.6910     0.0220   128.3440     2.4810
 2056.0000   -33.2570     5.3130     3.7620     9.6910     0.0240   131.2410     2.4830
 2056.5000   -33.2070     5.2030     3.6570     9.6910     0.0230   135.7120     2.4740
 2057.0000   -33.1460     5.0640     3.5560     9.6910     0.0180   140.2330     2.4650
 2057.5000   -33.0930     4.9240     3.4690     9.6910     0.0160   141.0560     2.4590
 2058.0000   -33.0310     4.8260     3.3820     9.6910     0.0170   139.6990     2.4630
 2058.5000   -32.9670     4.7990     3.2650     9.6910     0.0100   139.6790     2.4660
 2059.0000   -32.9300     4.8310     3.1330     9.6910     0.0090   142.0130     2.4700
 2059.5000   -32.8880     4.8700     3.0620     9.6910     0.0100   143.1070     2.4640
 2060.0000   -32.7430     4.8850     3.0910     9.6920     0.0150   143.6960     2.4480
 2060.5000   -32.5230     4.8990     3.1630     9.6880     0.0210   143.5820     2.4600
 2061.0000   -32.4470     4.9370     3.2240     9.6820     0.0270   142.2810     2.4910
 2061.5000   -32.6770     4.9730     3.3190     9.6770     0.0330   139.5630     2.5010
 2062.0000   -33.0570     4.9670     3.5060     9.6720     0.0370   135.8140     2.5010
 2062.5000   -33.2710     4.9620     3.7570     9.6660     0.0380   132.3670     2.5050
 2063.0000   -33.2210     5.0660     4.0000     9.6610     0.0300   128.8220     2.5080
 2063.5000   -33.0860     5.3090     4.2170     9.6560     0.0200   125.4630     2.5110
 2064.0000   -33.0260     5.5970     4.4190     9.6370     0.0110   120.7010     2.5150
 2064.5000   -33.0080     5.8530     4.5750     9.5940     0.0000   122.0050     2.5140
 2065.0000   -32.9530     6.1200     4.6420     9.5540    -0.0050   124.4450     2.5120
 2065.5000   -32.8830     6.4370     4.6440     9.5120    -0.0020   124.1990     2.5120
 2066.0000   -32.8580     6.6890     4.6440     9.4700     0.0010   124.6040     2.5130
 2066.5000   -32.8720     6.7200     4.6670     9.4290     0.0040   124.9330     2.4950
 2067.0000   -32.8820     6.5520     4.6920     9.3870     0.0060   129.3910     2.4830
 2067.5000   -32.8760     6.3820     4.7070     9.3470     0.0060   130.0360     2.4800
 2068.0000   -32.8690     6.3560     4.7200     9.3040     0.0060   127.5030     2.4780
 2068.5000   -32.8720     6.4370     4.7370     9.3010     0.0060   123.3260     2.4800
 2069.0000   -32.8780     6.5200     4.7560     9.3010     0.0080   122.3450     2.5000
 2069.5000   -32.8770     6.5760     4.7740     9.3010     0.0130   123.2760     2.5190
 2070.0000   -32.8690     6.6450     4.7910     9.3010     0.0170   123.0390     2.5250
 2070.5000   -32.8680     6.7270     4.7980     9.3010     0.0230   122.5020     2.5210
 2071.0000   -32.8910     6.7610     4.7840     9.3010     0.0220   121.3610     2.5200
 2071.5000   -32.9400     6.7100     4.7530     9.3010     0.0170   122.6690     2.5250
 2072.0000   -33.0130     6.6160     4.7230     9.3010     0.0130   125.2410     2.5260
 2072.5000   -33.1050     6.5350     4.7070     9.3010     0.0130   127.7980     2.5200
 2073.0000   -33.1960     6.4500     4.6940     9.3010     0.0170   129.8480     2.5220
 2073.5000   -33.2290     6.3240     4.6570     9.3010     0.0260   130.7370     2.5260
 2074.0000   -33.1380     6.2150     4.6140     9.3010     0.0370   131.7470     2.5290
 2074.5000   -32.9220     6.2620     4.6350     9.3010     0.0330   131.3600     2.5130
 2075.0000   -32.6760     6.5180     4.7730     9.3010     0.0260   128.6230     2.5070
 2075.5000   -32.5250     6.8820     4.9980     9.3010     0.0210   128.7700     2.5270
 2076.0000   -32.5130     7.2410     5.2250     9.3010     0.0180   128.8780     2.5380
 2076.5000   -32.5870     7.5710     5.4290     9.3010     0.0150   127.6870     2.5340
 2077.0000   -32.6680     7.8760     5.6540     9.3010     0.0120   123.3930     2.5290
 2077.5000   -32.7270     8.1070     5.9130     9.3010     0.0090   120.4590     2.5250
 2078.0000   -32.7810     8.2210     6.1270     9.3010     0.0070   120.2400     2.5310
 2078.5000   -32.8480     8.2550     6.2210     9.3010     0.0080   118.6270     2.5350
 2079.0000   -32.9190     8.2850     6.2310     9.3010     0.0100   117.9790     2.5390
 2079.5000   -32.9810     8.3390     6.2540     9.3010     0.0120   117.5150     2.5310
 2080.0000   -33.0370     8.3980     6.3090     9.3010     0.0110   117.0650     2.5240
 2080.5000   -33.1020     8.4490     6.3330     9.3010     0.0080   116.5390     2.5170
 2081.0000   -33.1780     8.4930     6.3040     9.3010     0.0040   116.1850     2.5090
 2081.5000   -33.2370     8.5350     6.2850     9.3000     0.0040   114.9920     2.5130
 2082.0000   -33.2550     8.5860     6.3070     9.2990     0.0090   113.3330     2.5220
 2082.5000   -33.2590     8.6530     6.3190     9.2980     0.0110   112.6700     2.5310
 2083.0000   -33.2940     8.7040     6.2850     9.2970     0.0080   114.2060     2.5310
 2083.5000   -33.3590     8.6720     6.2470     9.2960     0.0040   117.4360     2.5280
 2084.0000   -33.4180     8.5160     6.2250     9.2950     0.0010   120.4850     2.5210
 2084.5000   -33.4810     8.2640     6.1290     9.2940     0.0020   123.6130     2.5140
 2085.0000   -33.5870     7.9990     5.8680     9.2940     0.0050   126.4550     2.5090
 2085.5000   -33.6800     7.8050     5.5150     9.2930     0.0070   127.6880     2.5090
 2086.0000   -33.6230     7.7230     5.2500     9.2920     0.0100   127.1350     2.5080
 2086.5000   -33.4150     7.7310     5.1620     9.2910     0.0090   126.9810     2.5130
 2087.0000   -33.2690     7.7630     5.1850     9.2900     0.0070   128.2810     2.5180
 2087.5000   -33.3510     7.7570     5.2140     9.2890     0.0110   131.1290     2.5220
 2088.0000   -33.5320     7.7010     5.2100     9.2880     0.0120   135.1430     2.5200
 2088.5000   -33.5210     7.6080     5.1830     9.2870     0.0110   138.9420     2.5160
 2089.0000   -33.2180     7.4760     5.1720     9.2860     0.0090   142.4720     2.5110
 2089.5000   -32.8080     7.3150     5.2330     9.2850     0.0080   142.2430     2.5070
 2090.0000   -32.5290     7.2040     5.4090     9.2840     0.0050   135.1010     2.5140
 2090.5000   -32.4490     7.2710     5.6630     9.2830     0.0070   126.7790     2.5250
 2091.0000   -32.4960     7.5910     5.9180     9.2820     0.0110   120.5960     2.5280
 2091.5000   -32.5840     8.1040     6.1520     9.2810     0.0150   117.7050     2.5230
 2092.0000   -32.6800     8.6340     6.4060     9.2800     0.0160   117.5660     2.5250
 2092.5000   -32.7760     9.0040     6.6840     9.2790     0.0160   119.3040     2.5380
 2093.0000   -32.8680     9.1480     6.9080     9.2790     0.0140   120.8480     2.5450
 2093.5000   -32.9590     9.1420     7.0140     9.2780     0.0120   122.3300     2.5400
 2094.0000   -33.0600     9.1070     7.0330     9.2770     0.0100   123.9950     2.5330
 2094.5000   -33.1650     9.1020     7.0450     9.2760     0.0100   124.6750     2.5260
 2095.0000   -33.2450     9.1180     7.0850     9.2750     0.0100   124.3500     2.5250
 2095.5000   -33.2770     9.1470     7.1340     9.2740     0.0100   124.2330     2.5200
 2096.0000   -33.2730     9.2230     7.1690     9.2730     0.0110   124.1030     2.5130
 2096.5000   -33.2630     9.3700     7.1950     9.2720     0.0110   125.8450     2.5170
 2097.0000   -33.2650     9.5490     7.2250     9.2710     0.0120   126.6120     2.5180
 2097.5000   -33.2700     9.6810     7.2700     9.2700     0.0130   126.5530     2.5180
 2098.0000   -33.2690     9.7090     7.3180     9.2690     0.0130   126.5650     2.5270
