~VERSION INFORMATION
 VERS.                2.0:   CWLS LOG ASCII STANDARD - VERSION 2.0
 WRAP.                 NO:   ONE LINE PER DEPTH STEP
~WELL INFORMATION
#MNEM.UNIT      DATA TYPE    INFORMATION
#----------   ------------   ------------------------------
 STRT.F          906.0000:   START DEPTH
 STOP.F         3426.0000:   STOP DEPTH
 STEP.F            0.5000:   STEP LENGTH
 NULL.          -999.2500:   NO VALUE
 COMP.    FENIX & SCISSON:   COMPANY
 WELL. FENIX NPR 3 "AX" #46-11:   WELL
 FLD .                NPR:   FIELD
 LOC .      S11 T38N R78W:   LOCATION
 CNTY.            NATRONA:   COUNTY
 STAT.            WYOMING:   STATE
 CTRY. UNITED STATES OF AMERICA:   COUNTRY
 SRVC.       SCHLUMBERGER:   SERVICE COMPANY
 DATE.        16-MAY-1981:   LOGDATE
 API .     49025108720000:   API NUMBER
~CURVE INFORMATION
#MNEM.UNIT       API CODE    CURVE DESCRIPTION
#----------   ------------   ------------------------------
 DEPT.F                  :   
 SPR .MV     07 010 01 00:   SPONTANEOUS POTENTIAL
 ILD .OHMM   07 120 46 00:   INDUCTION LOG DEEP RESISTIVITY
 SFL .OHMM   07 220 01 00:   SHALLOW FOCUSED LOG RESISTIVITY
 TENR.LBS    07 635 01 00:   TENSION
 ILM .OHMM   07 120 44 00:   INDUCTION LOG MEDIUM RESISTIVITY
 CALD.IN     45 280 60 00:   CALIPER FROM DENSITY LOG
 GRD .GAPI   45 310 01 00:   GAMMA RAY FROM DENSITY LOG
 RHOB.G/C3   45 350 01 00:   BULK DENSITY
 TEND.LBS    45 635 01 00:   TENSION FROM DENSITY LOG
 CORR.G/C3   45 356 01 00:   DENSITY CORRECTION
~PARAMETER INFORMATION
#MNEM.UNIT          VALUE    DESCRIPTION
#----------   ------------   ------------------------------
 EKB .F         5199.0000:   Kelly bushing
 EGL .F         5189.0000:   Ground level
 EDF .F            0.0000:   Drilling floor
 TD  .F         3422.0000:   Total depth
 DATE.        16-MAY-1981:   Date logged
 CLNT.            A2DTECH:   Client Code
 SL  . 1867' FSL & 2100' FWL:   Surface Location
 PD  .                 GL:   Permanent Datum
 EPD .F              5189:   Elevation Permanent Datum
 LMF .                 KB:   Log Measured From
 DMF .                 KB:   Drilling Measured From
 DAPD.F                10:   Feet Above Permanent Datum
 DD  .F              3421:   Depth driller
 DL  .F              3422:   Depth logger
 BLI .F              3416:   Bottom log interval
 TLI .F               926:   Top log interval
 CS1 .IN            8.625:   Casing size
 CBD1.      8.625" @ 925':   Casing driller 1
 CBL1.F               926:   Casing logger 1
 BS1 .IN            7.875:   Bit size
 BSD1.F              3421:   Depth drilled with bit1
 DFT .                FGM:   Type fluid in hole
 DFD .                8.5:   Density
 DFV .                 60:   Viscosity
 DFPH.                  9:   pH
 DFL .                 12:   Fluid loss
 MSS .               PITS:   Source of sample
 RMS .OHMM           1.17:   Rm
 MST .F                73:   Rm Meas. temp.
 RMF .OHMM           1.03:   Rmf
 MFST.F                73:   Rmf Meas. temp.
 MFSS.               MEAS:   Source Rmf.
 RMB .OHMM            .71:   Rm. at BHT
 BHT .F               120:   BHT.
 TCS .HRS            1200:   Time Circ. stopped
 TLAB.HRS            1745:   Time logger at bottom
 MRT .F               120:   Maximum recorded temp.
 LUN .               8133:   Logging unit number
 LUL .               CSPR:   Logging unit location
 ENGI.             TAYLOR:   Recorded By
 WITN.              RIVAS:   Witnessed by
 ORIG.           5" PRINT:   Origin of data
 UWI .     49025108720000:   Unique Well ID
 DICO. A2D TECHNOLOGIES, INC.:   Digitizing Company
~OTHER INFORMATION
~A   DEPT      SPR        ILD        SFL       TENR        ILM       CALD         GRD        RHOB     TEND        CORR  
# ...
 3385.0000    29.6150     2.9050     3.5630  1123.2600     2.9840     8.1050   116.8690     2.4630  1132.9310     0.0020
 3385.5000    29.6200     2.8460     3.5120  1123.2600     2.9050     8.1070   116.8690     2.4510  1132.9310     0.0030
 3386.0000    29.6250     2.7870     3.4430  1123.2600     2.8260     8.1080   116.8690     2.4480  1132.9310     0.0070
 3386.5000    29.6310     2.7270     3.2810  1123.2600     2.7470     8.1090   116.8690     2.4540  1132.9310     0.0110
 3387.0000    29.6360     2.6690     3.1190  1123.2600     2.6690     8.1100   116.8690     2.4620  1132.9310     0.0150
 3387.5000    29.6420     2.6560     2.9240  1123.2600     2.6640     8.1110   116.8690     2.4580  1132.9310     0.0150
 3388.0000    29.6470     2.6430     3.0380  1123.2600     2.6590     8.1080   116.8690     2.4530  1132.9310     0.0150
 3388.5000    29.6520     2.6310     3.1790  1123.2600     2.6550     8.0870   116.8690     2.4520  1132.9310     0.0190
 3389.0000    29.6580     2.6180     3.3240  1123.2600     2.6500     8.0480   116.8690     2.4520  1132.9310     0.0260
 3389.5000    29.6630     2.6060     3.2690  1123.2600     2.6450     8.0210   116.8690     2.4530  1132.9310     0.0320
 3390.0000    29.6690     2.5930     3.1720  1123.2600     2.6410     7.9940   116.8690     2.4470  1132.9310     0.0610
 3390.5000    29.6740     2.5810     3.0900  1123.2600     2.6360     7.9470  -999.2500     2.4140  1132.9310     0.0920
 3391.0000    29.6790     2.5730     3.1300  1123.2600     2.6320     7.7510  -999.2500     2.3860  1132.9310     0.1230
 3391.5000    29.6850     2.5430     3.1470  1123.2600     2.6270     7.5520  -999.2500     2.3760  1132.9310     0.1550
 3392.0000    29.6900     2.5120     3.0840  1123.2600     2.6220     7.3500  -999.2500     2.3740  1132.9310     0.1870
 3392.5000    29.6960     2.4810     2.9990  1123.2600     2.6200     7.2810  -999.2500     2.3630  1132.9310     0.1950
 3393.0000    29.7010     2.4500     2.9130  1123.2600     2.5850     7.2770  -999.2500     2.3490  1132.9310     0.1870
 3393.5000    29.7060     2.4350     2.8710  1123.2600     2.5530     7.2740  -999.2500     2.3340  1132.9310     0.1750
 3394.0000    29.7120     2.4220     2.9470  1123.2600     2.5220     7.2710  -999.2500     2.3340  1132.9310     0.1420
 3394.5000    29.7170     2.4100     3.0900  1123.2600     2.4900     7.2590  -999.2500     2.3390  1132.9310     0.0580
 3395.0000    29.7230     2.3980     3.0460  1123.2600     2.4780     7.1180  -999.2500     2.3210  1132.9310    -0.0670
 3395.5000    29.7280     2.3860     2.8930  1123.2600     2.4690     6.3460  -999.2500     2.2770  1133.1030    -0.1590
 3396.0000    29.7330     2.3740     2.7180  1123.2600     2.4610  -999.2500  -999.2500     2.2050  1134.0100    -0.0610
 3396.5000    29.7390     2.3610     2.7710  1123.2600     2.4520  -999.2500  -999.2500  -999.2500  1134.9180     0.0910
 3397.0000    29.7440     2.3480     2.8860  1123.2600     2.4430  -999.2500  -999.2500  -999.2500  1135.8260     0.1830
 3397.5000    29.7500     2.3910     3.0010  1123.2600     2.4350  -999.2500  -999.2500  -999.2500  1136.7330  -999.2500
 3398.0000    29.7550     2.4270     3.0670  1123.2600     2.6460  -999.2500  -999.2500  -999.2500  1137.6410  -999.2500
 3398.5000    29.7600     2.5830     2.9710  1123.2600     2.8490  -999.2500  -999.2500  -999.2500  1138.5490  -999.2500
 3399.0000    29.7660     2.7680     2.8760  1123.2600     3.0520  -999.2500  -999.2500  -999.2500  1139.4561  -999.2500
 3399.5000    29.7710     2.8550     2.8190  1123.2600     3.2550  -999.2500  -999.2500  -999.2500  1140.3640  -999.2500
 3400.0000    29.7770     3.0650     3.7790  1123.2600     3.4580  -999.2500  -999.2500  -999.2500  1141.2720  -999.2500
 3400.5000    29.7820     3.2750     5.1930  1123.2600     3.6600  -999.2500  -999.2500  -999.2500  1142.1790  -999.2500
 3401.0000    29.7870     3.4850     6.1120  1123.2600     3.8630  -999.2500  -999.2500  -999.2500  1143.0870  -999.2500
 3401.5000    29.7930     3.6950     6.7010  1123.2600     4.0660  -999.2500  -999.2500  -999.2500  1143.9950  -999.2500
 3402.0000    29.7980     3.7790     7.1730  1123.2600     4.0660  -999.2500  -999.2500  -999.2500  1144.9020  -999.2500
 3402.5000    29.8040     3.8050     5.2210  1123.2600     4.0660  -999.2500  -999.2500  -999.2500  1145.8101  -999.2500
 3403.0000    29.8090     3.8270     3.9200  1123.2600     4.0660  -999.2500  -999.2500  -999.2500  1146.7180  -999.2500
 3403.5000    29.8140     3.8490     3.9200  1123.2600     4.1390  -999.2500  -999.2500  -999.2500  1147.6250  -999.2500
 3404.0000    29.8200     4.0170     3.9200  1123.2600     4.2300  -999.2500  -999.2500  -999.2500  1148.5330  -999.2500
 3404.5000    29.8250     4.1860     5.1730  1123.2600     4.3200  -999.2500  -999.2500  -999.2500  1149.4410  -999.2500
 3405.0000    29.8300     4.3550     6.4270  1123.2600     4.4110  -999.2500  -999.2500  -999.2500  1150.3480  -999.2500
 3405.5000    29.8370     4.5800     6.3610  1123.2600     4.5020  -999.2500  -999.2500  -999.2500  1151.2560  -999.2500
 3406.0000    29.8440     4.8910     6.2780  1122.4320     4.7770  -999.2500  -999.2500  -999.2500  1152.1639  -999.2500
 3406.5000    29.8950     5.2020     6.1960  1121.0510     5.1760  -999.2500  -999.2500  -999.2500  1153.0720  -999.2500
 3407.0000    29.9550     5.4500     6.6400  1119.6710     5.6540  -999.2500  -999.2500  -999.2500  1151.1200  -999.2500
 3407.5000    30.0150     5.5460     7.0850  1118.2900     5.7390  -999.2500  -999.2500  -999.2500  1149.1680  -999.2500
 3408.0000    30.0740     5.6250     7.4410  1116.9100     5.8470  -999.2500  -999.2500  -999.2500  1147.2170  -999.2500
 3408.5000    30.1340     5.7050     7.1730  1115.5291     5.9540  -999.2500  -999.2500  -999.2500  1145.2650  -999.2500
 3409.0000    30.1940     5.7850     7.4330  1114.1479     6.0830  -999.2500  -999.2500  -999.2500  1143.3140  -999.2500
 3409.5000    30.2540     5.8640     7.6940  1112.7679     6.0830  -999.2500  -999.2500  -999.2500  1141.3621  -999.2500
 3410.0000    30.3130     5.7280     8.0060  1111.3870     6.0830  -999.2500  -999.2500  -999.2500  1139.4110  -999.2500
 3410.5000    30.3730     5.5920     7.8130  1110.0070     5.8460  -999.2500  -999.2500  -999.2500  1137.4590  -999.2500
 3411.0000    30.4330     5.4560     7.5730  1108.6260     5.6480  -999.2500  -999.2500  -999.2500  1135.5081  -999.2500
 3411.5000    30.4930     5.3190     7.3320  1107.2450     5.4500  -999.2500  -999.2500  -999.2500  1133.5560  -999.2500
 3412.0000    30.5520     5.1830     7.0430  1105.8650     5.3690  -999.2500  -999.2500  -999.2500  1131.6050  -999.2500
 3412.5000    30.6120     5.0470     6.6030  1104.4840     5.2880  -999.2500  -999.2500  -999.2500  1129.6530  -999.2500
 3413.0000    30.6720     4.8830     6.0540  1103.1040     5.2070  -999.2500  -999.2500  -999.2500  1127.7020  -999.2500
 3413.5000    30.7320     5.2000     5.5050  1101.7230     5.1590  -999.2500  -999.2500  -999.2500  1125.7500  -999.2500
 3414.0000    30.7910     5.5970     5.0650  1100.3420     5.2070  -999.2500  -999.2500  -999.2500  1123.7990  -999.2500
 3414.5000    30.8510     5.9930     7.5790  1098.9620     5.2870  -999.2500  -999.2500  -999.2500  1121.8470  -999.2500
 3415.0000    30.9110     6.3100     9.6730  1097.5811     5.3510  -999.2500  -999.2500  -999.2500  1119.8950  -999.2500
 3415.5000    30.9700     6.3100    11.1320  1096.2010     5.3190  -999.2500  -999.2500  -999.2500  1117.9440  -999.2500
 3416.0000    31.0250     5.8700  -999.2500  1094.8199     5.2920  -999.2500  -999.2500  -999.2500  1115.9919  -999.2500
 3416.5000  -999.2500     5.4300  -999.2500  1093.4390     5.2650  -999.2500  -999.2500  -999.2500  1114.0410  -999.2500
 3417.0000  -999.2500     5.2540  -999.2500  1092.0590     5.2540  -999.2500  -999.2500  -999.2500  1114.6100  -999.2500
 3417.5000  -999.2500  -999.2500  -999.2500  1090.6780  -999.2500  -999.2500  -999.2500  -999.2500  1119.6840  -999.2500
 3418.0000  -999.2500  -999.2500  -999.2500  1089.2980  -999.2500  -999.2500  -999.2500  -999.2500  1124.7581  -999.2500
