~VERSION INFORMATION
 VERS.                2.0:   CWLS LOG ASCII STANDARD - VERSION 2.0
 WRAP.                 NO:   ONE LINE PER DEPTH STEP
~WELL INFORMATION
#MNEM.UNIT      DATA TYPE    INFORMATION
#----------   ------------   ------------------------------
 STRT.F           31.0000:   START DEPTH
 STOP.F         2926.0000:   STOP DEPTH
 STEP.F            0.5000:   STEP LENGTH
 NULL.          -999.2500:   NO VALUE
 COMP. LAWERNCE ALLISON AND ASSOCIATES:   COMPANY
 WELL.   FENIX "X" #17-21:   WELL
 FLD .             NPR #3:   FIELD
 LOC .      S21 T39N R78W:   LOCATION
 CNTY.            NATRONA:   COUNTY
 STAT.            WYOMING:   STATE
 CTRY. UNITED STATES OF AMERICA:   COUNTRY
 SRVC.      WESTERN ATLAS:   SERVICE COMPANY
 DATE.        02-NOV-1987:   LOGDATE
 API .     49025111960000:   API NUMBER
~CURVE INFORMATION
#MNEM.UNIT       API CODE    CURVE DESCRIPTION
#----------   ------------   ------------------------------
 DEPT.F                  :   
 CALD.IN     45 280 60 00:   CALIPER FROM DENSITY LOG
 TEND.LBS    45 635 01 00:   TENSION FROM DENSITY LOG
 CORR.G/C3   45 356 01 00:   DENSITY CORRECTION
 RHOB.G/C3   45 350 01 00:   BULK DENSITY
 CNC .DEC    42 890 03 00:   NEUTRON POROSITY SANDSTONE
 SPR .MV     07 010 01 00:   SPONTANEOUS POTENTIAL
 GRR .GAPI   07 310 01 00:   GAMMA RAY FROM RESISTIVITY
 TENR.LBS    07 635 01 00:   TENSION FROM RESISTIVITY
 RFOC.OHMM   07 220 04 00:   RESISTIVITY FOCUSED LOG RES.
 RILD.OHMM   07 120 46 00:   DEEP INDUCTION RESISTIVITY
 RILM.OHMM   07 120 44 00:   INDUCTION LOG MEDIUM RESISTIVITY
~PARAMETER INFORMATION
#MNEM.UNIT          VALUE    DESCRIPTION
#----------   ------------   ------------------------------
 EKB .F         5006.0000:   Kelly bushing
 EGL .F         4995.0000:   Ground level
 EDF .F            0.0000:   Drilling floor
 TD  .F         2915.0000:   Total depth
 DATE.        02-NOV-1987:   Date logged
 CLNT.            A2DTECH:   Client Code
 SL  . 1824' FSL & 399' FWL:   Surface Location
 PD  .                 GL:   Permanent Datum
 DD  .F              2911:   Depth driller
 DL  .F              2915:   Depth logger
 BLI .F              2913:   Bottom log interval
 CS1 .IN            8.625:   Casing size
 CBD1.      8.625" @ 350':   Casing driller 1
 CBL1.F               350:   Casing logger 1
 BS1 .IN            7.875:   Bit size
 DFT .        KCL-POLYMER:   Type fluid in hole
 DFD .                8.8:   Density
 DFV .                 42:   Viscosity
 DFPH.                9.5:   pH
 DFL .                 11:   Fluid loss
 MSS .           FLOWLINE:   Source of sample
 RMS .OHMM           0.41:   Rm
 MST .F                78:   Rm Meas. temp.
 RMF .OHMM           0.29:   Rmf
 MFST.F                78:   Rmf Meas. temp.
 RMC .OHMM           0.51:   Rmc
 MCST.F                78:   Rmc Meas. temp.
 MFSS.               MEAS:   Source Rmf.
 RMB .OHMM           0.29:   Rm. at BHT
 BHT .F               108:   BHT.
 TCS .HRS               5:   Time Circ. stopped
 MRT .F               108:   Maximum recorded temp.
 LUN .            HL-6274:   Logging unit number
 LUL .           GILLETTE:   Logging unit location
 WITN.             STRONG:   Witnessed by
 ORIG.           5" PRINT:   Origin of data
 UWI .     49025111960000:   Unique Well ID
 DICO. A2D TECHNOLOGIES, INC.:   Digitizing Company
 DAPD.                 11:   Feet Above Permanent Datum
 BSD1.               2911:   Depth drilled with bit1
 MCSS.               CALC:   Source Rmc.
 EPD .               4995:   Elevation Permanent Datum
 LMF .                 KB:   Log Measured From
 DMF .                 KB:   Drilling Measured From
 TLI .                 11:   Top log interval
~OTHER INFORMATION
~A   DEPT     CALD       TEND       CORR       RHOB        CNC        SPR         GRR      TENR       RFOC       RILD       RILM   
# ...
  549.5000  -999.2500  -999.2500  -999.2500  -999.2500  -999.2500   -25.0670   109.4310   -46.1170     6.2000     6.9520     6.5320
  550.0000  -999.2500  -999.2500  -999.2500  -999.2500  -999.2500   -25.0070   112.0710   -46.1170     6.2710     6.9240     6.6490
  550.5000  -999.2500  -999.2500  -999.2500  -999.2500  -999.2500   -24.7740   114.6860   -46.1170     6.3410     6.8950     6.7180
  551.0000  -999.2500  -999.2500  -999.2500  -999.2500  -999.2500   -24.5780   117.8350   -46.1170     6.3740     6.8660     6.5870
  551.5000  -999.2500  -999.2500  -999.2500  -999.2500  -999.2500   -24.3800   118.8140   -46.1170     6.3990     6.8390     6.5360
  552.0000  -999.2500  -999.2500  -999.2500  -999.2500  -999.2500   -24.4110   119.0440   -46.1170     6.4250     6.8390     6.4820
  552.5000  -999.2500  -999.2500  -999.2500  -999.2500  -999.2500   -24.5640   119.1900   -50.6800     6.4510     6.8390     6.5150
  553.0000  -999.2500  -999.2500  -999.2500  -999.2500  -999.2500   -24.7070   119.3620   -55.6700     6.4770     6.8390     6.5500
  553.5000  -999.2500  -999.2500  -999.2500  -999.2500  -999.2500   -24.8490   117.4320   -60.6600     6.5030     6.8390     6.5860
  554.0000  -999.2500  -999.2500  -999.2500  -999.2500  -999.2500   -24.9970   115.4740   -65.5340     6.5290     6.8390     6.6220
  554.5000  -999.2500  -999.2500  -999.2500  -999.2500  -999.2500   -25.0970   113.4220   -66.8780     6.5550     6.8390     6.6570
  555.0000  -999.2500  -999.2500  -999.2500  -999.2500  -999.2500   -25.0960   113.4590   -68.1910     6.5810     6.8390     6.6930
  555.5000  -999.2500  -999.2500  -999.2500  -999.2500  -999.2500   -25.0980   116.8000   -69.5040     6.5990     6.9630     6.7380
  556.0000  -999.2500  -999.2500  -999.2500  -999.2500  -999.2500   -25.0980   120.0280   -70.8180     6.6460     6.9830     6.8060
  556.5000  -999.2500  -999.2500  -999.2500  -999.2500  -999.2500   -25.0980   121.8550   -72.1310     6.7360     7.0410     6.8740
  557.0000  -999.2500  -999.2500  -999.2500  -999.2500  -999.2500   -25.0980   119.7020   -73.4440     6.8250     7.0980     6.9420
  557.5000  -999.2500  -999.2500  -999.2500  -999.2500  -999.2500   -25.0980   117.7430   -74.7570     6.9150     7.1530     7.0100
  558.0000  -999.2500  -999.2500  -999.2500  -999.2500  -999.2500   -25.0970   117.3320   -76.0710     7.0050     7.2170     7.0880
  558.5000  -999.2500  -999.2500  -999.2500  -999.2500  -999.2500   -25.0990   117.7410   -77.3840     7.0880     7.2140     7.0330
  559.0000  -999.2500  -999.2500  -999.2500  -999.2500  -999.2500   -25.1010   117.5730   -78.6970     7.0450     7.2140     6.9630
  559.5000  -999.2500  -999.2500  -999.2500  -999.2500  -999.2500   -24.9940   115.8040   -80.0100     6.9820     7.2170     6.9290
  560.0000  -999.2500  -999.2500  -999.2500  -999.2500  -999.2500   -24.4830   115.2840   -81.3230     6.9200     7.1670     6.8920
  560.5000  -999.2500  -999.2500  -999.2500  -999.2500  -999.2500   -24.3090   114.7850   -82.6370     6.8570     7.1240     6.8550
  561.0000  -999.2500  -999.2500  -999.2500  -999.2500  -999.2500   -24.3190   116.0010   -83.9500     6.7940     7.0800     6.8180
  561.5000  -999.2500  -999.2500  -999.2500  -999.2500  -999.2500   -24.3190   115.3860   -84.8970     6.7310     7.0370     6.7810
  562.0000  -999.2500  -999.2500  -999.2500  -999.2500  -999.2500   -24.3170   114.5290   -84.6670     6.6680     6.9930     6.7440
  562.5000  -999.2500  -999.2500  -999.2500  -999.2500  -999.2500   -24.3190   114.2270   -84.4370     6.5990     6.7180     6.7180
  563.0000  -999.2500  -999.2500  -999.2500  -999.2500  -999.2500   -24.3170   113.2160   -84.2070     6.6170     6.7180     6.7180
  563.5000  -999.2500  -999.2500  -999.2500  -999.2500  -999.2500   -24.3190   112.3100   -83.9770     6.6510     6.8190     6.7180
  564.0000  -999.2500  -999.2500  -999.2500  -999.2500  -999.2500   -24.3230   113.0410   -83.7470     6.6850     6.9090     6.7180
  564.5000  -999.2500  -999.2500  -999.2500  -999.2500  -999.2500   -24.4350   114.2310   -83.5180     6.7200     6.9630     6.7180
  565.0000  -999.2500  -999.2500  -999.2500  -999.2500  -999.2500   -24.5640   114.8390   -83.2880     6.7540     6.9630     6.7180
  565.5000  -999.2500  -999.2500  -999.2500  -999.2500  -999.2500   -24.6950   114.6550   -83.0580     6.7880     6.9630     6.7180
  566.0000  -999.2500  -999.2500  -999.2500  -999.2500  -999.2500   -24.8240   114.8650   -82.8280     6.8220     6.9630     6.7180
  566.5000  -999.2500  -999.2500  -999.2500  -999.2500  -999.2500   -24.9530   116.3170   -82.5980     6.8390     6.9630     6.7180
  567.0000  -999.2500  -999.2500  -999.2500  -999.2500  -999.2500   -25.0840   118.1760   -82.3680     6.7540     6.9040     6.6940
  567.5000  -999.2500  -999.2500  -999.2500  -999.2500  -999.2500   -25.2120   119.6790   -82.1380     6.6770     6.8520     6.6590
  568.0000  -999.2500  -999.2500  -999.2500  -999.2500  -999.2500   -25.3410   118.4450   -81.9080     6.6010     6.7990     6.6250
  568.5000  -999.2500  -999.2500  -999.2500  -999.2500  -999.2500   -25.4810   116.3280   -81.6780     6.5240     6.7470     6.6030
  569.0000  -999.2500  -999.2500  -999.2500  -999.2500  -999.2500   -25.5870   114.9220   -81.4490     6.4820     6.7180     6.6170
  569.5000  -999.2500  -999.2500  -999.2500  -999.2500  -999.2500   -25.7420   115.3600   -81.2190     6.5990     6.7690     6.6300
  570.0000  -999.2500  -999.2500  -999.2500  -999.2500  -999.2500   -25.9360   115.7490   -80.9890     6.5990     6.8180     6.6440
  570.5000  -999.2500  -999.2500  -999.2500  -999.2500  -999.2500   -26.2320   116.2310   -80.7590     6.5990     6.8660     6.6580
  571.0000  -999.2500  -999.2500  -999.2500  -999.2500  -999.2500   -25.7440   116.3500   -80.5290     6.5990     6.9150     6.6720
  571.5000  -999.2500  -999.2500  -999.2500  -999.2500  -999.2500   -25.7020   116.2700   -80.2990     6.5990     6.9620     6.6860
  572.0000  -999.2500  -999.2500  -999.2500  -999.2500  -999.2500   -25.5730   115.2690   -80.0690     6.5990     6.9630     6.6990
  572.5000  -999.2500  -999.2500  -999.2500  -999.2500  -999.2500   -25.4560   114.6020   -79.8390     6.5990     6.9640     6.7130
  573.0000  -999.2500  -999.2500  -999.2500  -999.2500  -999.2500   -25.3540   112.6170   -79.6090     6.6070     6.9590     6.7180
  573.5000  -999.2500  -999.2500  -999.2500  -999.2500  -999.2500   -25.2350   111.6580   -79.3800     6.6140     6.9560     6.7180
  574.0000  -999.2500  -999.2500  -999.2500  -999.2500  -999.2500   -25.1250   111.6710   -79.1500     6.6220     6.9710     6.7180
  574.5000  -999.2500  -999.2500  -999.2500  -999.2500  -999.2500   -24.9120   111.7180   -78.9200     6.6290     6.8310     6.7180
  575.0000  -999.2500  -999.2500  -999.2500  -999.2500  -999.2500   -24.6610   112.6800   -78.6900     6.6370     6.8460     6.7180
  575.5000  -999.2500  -999.2500  -999.2500  -999.2500  -999.2500   -24.4030   113.3480   -78.4600     6.6440     6.8490     6.7180
  576.0000  -999.2500  -999.2500  -999.2500  -999.2500  -999.2500   -24.1590   112.0850   -78.2300     6.6520     6.8570     6.7170
  576.5000  -999.2500  -999.2500  -999.2500  -999.2500  -999.2500   -23.9460   109.9570   -78.0000     6.6590     6.8700     6.7280
  577.0000  -999.2500  -999.2500  -999.2500  -999.2500  -999.2500   -24.0710   109.0900   -77.7700     6.6670     6.8820     6.7450
  577.5000  -999.2500  -999.2500  -999.2500  -999.2500  -999.2500   -24.1870   111.3150   -77.5400     6.6740     6.8930     6.7620
  578.0000  -999.2500  -999.2500  -999.2500  -999.2500  -999.2500   -24.3180   113.9000   -77.3100     6.6820     6.9050     6.7780
  578.5000  -999.2500  -999.2500  -999.2500  -999.2500  -999.2500   -24.4430   115.6140   -77.0810     6.6890     6.9180     6.7940
  579.0000  -999.2500  -999.2500  -999.2500  -999.2500  -999.2500   -24.5680   117.3740   -76.8510     6.6970     6.9290     6.8110
  579.5000  -999.2500  -999.2500  -999.2500  -999.2500  -999.2500   -24.6940   118.8470   -76.6210     6.7040     6.9440     6.8270
