~VERSION INFORMATION
 VERS.                2.0:   CWLS LOG ASCII STANDARD - VERSION 2.0
 WRAP.                 NO:   ONE LINE PER DEPTH STEP
~WELL INFORMATION
#MNEM.UNIT      DATA TYPE    INFORMATION
#----------   ------------   ------------------------------
 STRT.F          492.0000:   START DEPTH
 STOP.F         3008.0000:   STOP DEPTH
 STEP.F            0.5000:   STEP LENGTH
 NULL.          -999.2500:   NO VALUE
 COMP.    FENIX & SCISSON:   COMPANY
 WELL. FENIX & SCISSON AX #24-28:   WELL
 FLD .             TEAPOT:   FIELD
 LOC .      S28 T39N R78W:   LOCATION
 CNTY.            NATRONA:   COUNTY
 STAT.            WYOMING:   STATE
 CTRY. UNITED STATES OF AMERICA:   COUNTRY
 SRVC.              WELEX:   SERVICE COMPANY
 DATE.        03-AUG-1980:   LOGDATE
 API .     49025108490000:   API NUMBER
~CURVE INFORMATION
#MNEM.UNIT       API CODE    CURVE DESCRIPTION
#----------   ------------   ------------------------------
 DEPT.F                  :   
 SPR .MV     07 010 01 00:   SPONTANEOUS POTENTIAL
 ILD .OHMM   07 120 46 00:   DEEP INDUCTION RESISTIVITY
 ILM .OHMM   07 120 44 00:   INDUCTION LOG MEDIUM RESISTIVITY
 SGRD.OHMM   07 220 05 00:   SHALLOW SHORT GUARD RESISTIVITY
 GRD .GAPI   45 310 01 00:   GAMMA RAY FROM DENSITY LOG
 CALD.IN     45 280 60 00:   CALIPER FROM DENSITY LOG
 CORR.G/C3   45 356 01 00:   DENSITY CORRECTION
 RHOB.G/C3   45 350 01 00:   BULK DENSITY
~PARAMETER INFORMATION
#MNEM.UNIT          VALUE    DESCRIPTION
#----------   ------------   ------------------------------
 EKB .F         5061.0000:   Kelly bushing
 EGL .F         5051.0000:   Ground level
 TD  .F         3000.0000:   Total depth
 CLNT.            A2DTECH:   Client Code
 SL  . 2350' FNL & 1000' FWL:   Surface Location
 DATE.         3-AUG-1980:   Date Logged [DD-MMM-YYYY]
 DD  .F              3000:   Depth driller
 DL  .F              3010:   Depth logger
 BLI .F              3008:   Bottom log interval
 TLI .F               308:   Top log interval
 CS1 .              8.625:   Casing size
 CBD1.      8.625" @ 393':   Casing driller 1
 BS1 .IN            7.875:   Bit size
 BSD1.F              3000:   Depth drilled with bit1
 DFT .     WATER BASE MUD:   Type fluid in hole
 DFD .                8.9:   Density
 TCS .HRS               8:   Time Circ. stopped
 MRT .F               115:   Maximum recorded temp.
 ENGI.           WACHTELL:   Recorded By
 WITN.           DINSMORE:   Witnessed by
 ORIG.      2.5" 5" PRINT:   Origin of data
 UWI .     49025108490000:   Unique Well ID
 DICO. A2D TECHNOLOGIES, INC.:   Digitizing Company
 PD  .                 GL:   Permanent Datum
 EPD .F              3051:   Elevation Permanent Datum
 LMF .                 KB:   Log Measured From
 DMF .                 KB:   Drilling Measured From
 DAPD.F                10:   Feet Above Permanent Datum
 DFV .                 43:   Viscosity
 DFPH.                9.5:   pH
 DFL .                7.2:   Fluid loss
 MSS .           FLOWLINE:   Source of sample
 RMS .OHMM             .9:   Rm
 MST .F                80:   Rm Meas. temp.
 RMF .OHMM            .72:   Rmf
 MFST.F                80:   Rmf Meas. temp.
 MFSS.               MEAS:   Source Rmf.
 RMC .OHMM           1.08:   Rmc
 MCST.F                80:   Rmc Meas. temp.
 MCSS.               MEAS:   Source Rmc.
 RMB .OHMM            .06:   Rm. at BHT
 BHT .F               115:   BHT.
 LUN .               1892:   Logging unit number
 LUL .             CASPER:   Logging unit location
~OTHER INFORMATION
~A   DEPT      SPR        ILD        ILM       SGRD        GRD       CALD       CORR       RHOB   
# ...
  654.0000   -89.9760     5.0041     5.6416     6.5910    86.3930     9.7237     0.0896     2.4880
  654.5000   -89.9805     4.9674     5.5606     6.5879    87.7467     9.6937     0.0958     2.4880
  655.0000   -89.6855     4.8954     5.7948     6.5848    88.8980     9.7387     0.1005     2.4974
  655.5000   -89.3895     4.8921     6.1237     6.6740    89.3307     9.8138     0.1004     2.5014
  656.0000   -89.3939     4.8888     6.2933     6.7667    88.8852     9.8739     0.0958     2.5068
  656.5000   -89.0976     4.8855     6.4726     6.8558    87.9900     9.8435     0.1005     2.5084
  657.0000   -89.1023     4.8822     6.5660     6.9648    87.3186     9.7688     0.1083     2.5060
  657.5000   -89.1067     4.8789     6.6433     7.1650    86.4245     9.7387     0.1177     2.4998
  658.0000   -89.1111     4.9485     6.6393     7.3710    86.5817     9.7988     0.1286     2.4801
  658.5000   -89.1156     5.0896     6.7597     7.6891    87.4813     9.8589     0.1068     2.4470
  659.0000   -89.1201     5.2495     6.9157     8.0726    88.3808     9.9047     0.0742     2.4300
  659.5000   -89.1246     5.4594     7.1001     8.4842    89.0555     9.9790     0.0677     2.4238
  660.0000   -89.2092     5.6150     7.3578     8.6545    89.5352     9.9339     0.0743     2.4214
  660.5000   -89.5330     5.7750     7.7166     8.8945    89.9550     9.7387     0.0804     2.4207
  661.0000   -89.7387     5.9788     7.9304     9.0149    90.1799     9.7838     0.0851     2.4215
  661.5000   -90.0435     6.2885     8.2645     9.0107    89.2804     9.8451     0.0929     2.4230
  662.0000   -90.0480     6.6792     8.6127     9.2606    88.3808     9.9189     0.0991     2.4254
  662.5000   -90.0526     7.0573     8.9755     9.2562    87.4813     9.9640     0.0074     2.4285
  663.0000   -90.0578     7.2518     9.3536     9.3854    88.6057    10.0090     0.0012     2.4340
  663.5000   -90.0622     7.5563     9.7492     9.5085    89.5052    10.0390     0.0136     2.4414
  664.0000   -90.0666     7.8735    10.1582     9.5036    89.9550    10.0691     0.0214     2.4589
  664.5000   -90.0709     8.0906    10.2952     9.4990    88.3808     9.9189     0.0278     2.4760
  665.0000   -90.0753     8.1986    10.2891     9.4943    84.5198     9.8288     0.0386     2.4884
  665.5000   -89.7794     8.4323    10.2428     9.4897    80.0600     9.8288     0.0401     2.4970
  666.0000   -89.7838     8.5370    10.1354     9.4851    78.4858     9.8438     0.0417     2.5041
  666.5000   -89.4878     8.5307     9.9313     9.4805    78.2609     9.8589     0.0526     2.5126
  667.0000   -89.4465     8.6452     9.7791     9.4750    79.3853     9.8438     0.0702     2.5141
  667.5000   -89.1962     8.5188     9.7042     9.4705    80.9595     9.8438     0.0822     2.5103
  668.0000   -88.9003     8.5129     9.9719     9.4661    81.4093     9.8739     0.0418     2.4916
  668.5000   -88.9054     8.5070     9.8295     9.4616    79.3853     9.9039     0.0511     2.4927
  669.0000   -88.9099     8.4383    10.1018     9.3265    77.5862     9.9489     0.0605     2.5189
  669.5000   -88.9144     8.2605    10.2613     9.3221    77.3613     9.9790     0.0760     2.5127
  670.0000   -88.9189     8.1407    10.5555     9.3177    78.2609     9.7838     0.0621     2.4839
  670.5000   -89.2246     8.1352    10.8132     9.2996    79.1881     9.7538     0.0434     2.4614
  671.0000   -89.5293     8.0173    10.7510     9.1800    80.2849     9.7988     0.0325     2.4637
  671.5000   -89.5336     8.0119    10.4598     9.1755    81.4093     9.8589     0.0148     2.4816
  672.0000   -89.8383     8.0065     9.8591     9.1711    81.8591     9.9039    -0.0001     2.4918
  672.5000   -89.8427     8.0011     9.3104     9.1666    81.6342     9.9790     0.0108     2.4832
  673.0000   -89.8470     7.9881     9.2491     9.1621    80.7015     9.8438     0.0202     2.4716
  673.5000   -89.8514     7.8794     9.5054     9.1577    78.4858     9.7831     0.0295     2.4685
  674.0000   -89.8438     7.8739     9.9058     9.1524    77.3613     9.7538     0.0513     2.4743
  674.5000   -89.5598     7.8684    10.1803     9.1481    77.5862     9.7838     0.0669     2.5291
  675.0000   -89.5646     7.8629    10.4623     9.1438    79.3853     9.7988     0.0467     2.5214
  675.5000   -89.2683     7.7487    10.6035     9.1395    81.8692     9.8589    -0.0031     2.4647
  676.0000   -89.2733     7.7433    10.5820     9.1352    83.6582     9.9201    -0.0140     2.4643
  676.5000   -88.9767     7.6309     9.8137     9.1309    83.2084     9.9790    -0.0031     2.5077
  677.0000   -88.9820     7.6245     8.9322     9.1265    82.0840    10.0240     0.0094     2.4686
  677.5000   -88.9865     7.6194     8.7048     9.1221    80.7346    10.0390     0.0250     2.4826
  678.0000   -88.3904     7.5089     8.5796     9.1176    79.8351     9.8589     0.0514     2.5222
  678.5000   -88.0946     7.5038     8.5748     9.1132    80.0600     9.8121     0.0825     2.5370
  679.0000   -88.0998     7.4988     8.5700     9.1088    80.7346     9.7838     0.1028     2.5401
  679.5000   -88.1042     7.4937     8.6291     9.1043    82.0840     9.7387     0.1090     2.5083
  680.0000   -88.1086     7.4887     8.8014     9.0999    83.6582     9.7988     0.0655     2.4640
  680.5000   -88.4132     7.4834     8.7967     9.0955    85.6822     9.8589    -0.0045     2.4547
  681.0000   -88.4176     7.4782     8.9160     9.0902    87.5322     9.9189     0.0049     2.4532
  681.5000   -89.0225     7.4730     8.9105     9.0859    89.2804     9.9039     0.0173     2.4586
  682.0000   -89.0270     7.4678     9.1574     9.0817    84.7826     9.7538     0.0282     2.4726
  682.5000   -89.3318     7.4626     9.5432     9.0774    81.6342     9.6937     0.0407     2.5030
  683.0000   -89.3904     7.4574    10.0861     8.9478    79.3853     9.7087     0.0500     2.5286
  683.5000   -89.6411     7.4522    10.3641     8.9436    77.5575     9.7838     0.0236     2.5411
  684.0000   -89.6456     7.4470     9.8940     8.8158    75.5622     9.8889    -0.0013     2.5566
  684.5000   -89.6501     7.4408     9.3624     8.8115    74.8876     9.9489    -0.0121     2.4881
  685.0000   -89.6546     7.4358     8.9656     8.8072    75.7871     9.9640    -0.0152     2.4673
  685.5000   -89.6592     7.4308     8.7486     8.7719    77.1364     9.8587    -0.0028     2.4751
  686.0000   -89.6637     7.3231     8.6227     8.6770    78.4888     9.7538     0.0206     2.4922
  686.5000   -89.3687     7.3181     8.6179     8.6728    80.0600     9.7538     0.0392     2.5062
  687.0000   -89.3731     7.3132     8.8022     8.6686    81.4093     9.7838     0.0595     2.5140
  687.5000   -89.0766     7.2071     9.1008     8.6644    82.5337     9.8138     0.0362     2.5109
  688.0000   -89.0815     7.2021     9.4842     8.5397    82.9835     9.8595     0.0253     2.5031
  688.5000   -88.4853     7.0975     9.8837     8.5357    82.0840     9.9189     0.0455     2.5016
  689.0000   -88.1892     7.0926     9.7417     8.5317    80.9252     9.9339     0.0502     2.5063
  689.5000   -87.8934     6.9895     9.0812     8.4099    80.7346     9.9489     0.0634     2.5117
  690.0000   -87.8979     6.9847     8.7047     8.4059    80.7346     9.9189     0.1218     2.5102
  690.5000   -87.9024     6.9798     8.4609     8.4020    80.9595     9.9039     0.0969     2.5086
  691.0000   -87.9069     6.9750     8.3391     8.3979    81.8591     9.9189     0.0409     2.5071
  691.5000   -87.9885     6.9701     8.4518     8.3938    82.9835     9.9640     0.0176     2.4939
  692.0000   -88.2162     6.9643     8.4752     8.3898    83.6582    10.0240    -0.0115     2.4279
  692.5000   -88.2207     6.9596     8.5975     8.3857    83.8831    10.1291    -0.0461     2.4186
  693.0000   -88.3593     6.9549     8.7216     8.3816    83.4333    10.1259    -0.0445     2.4287
  693.5000   -88.5300     6.9502     8.8475     8.3775    82.9835     9.9940    -0.0150     2.4396
  694.0000   -88.5345     6.9455     9.2288     8.3734    82.5337     9.9189     0.0068     2.4614
