~VERSION INFORMATION
 VERS.                2.0:   CWLS LOG ASCII STANDARD - VERSION 2.0
 WRAP.                 NO:   ONE LINE PER DEPTH STEP
~WELL INFORMATION
#MNEM.UNIT      DATA TYPE    INFORMATION
#----------   ------------   ------------------------------
 STRT.F          200.0000:   START DEPTH
 STOP.F         3196.5000:   STOP DEPTH
 STEP.F            0.5000:   STEP LENGTH
 NULL.          -999.2500:   NO VALUE
 COMP.    FENIX & SCISSON:   COMPANY
 WELL. FENIX & SCISSON #82-15:   WELL
 FLD .                NPR:   FIELD
 LOC .      S15 T38N R78W:   LOCATION
 CNTY.            NATRONA:   COUNTY
 STAT.            WYOMING:   STATE
 CTRY. UNITED STATES OF AMERICA:   COUNTRY
 SRVC.              WELEX:   SERVICE COMPANY
 DATE.        14-AUG-1977:   LOGDATE
 API .     49025104100000:   API NUMBER
~CURVE INFORMATION
#MNEM.UNIT       API CODE    CURVE DESCRIPTION
#----------   ------------   ------------------------------
 DEPT.F                  :   
 CALD.IN     45 280 60 00:   CALIPER FROM DENSITY LOG
 GRD .GAPI   45 310 01 00:   GAMMA RAY FROM DENSITY LOG
 RHOB.G/C3   45 350 01 00:   BULK DENSITY
 CORR.G/C3   45 356 01 00:   DENSITY CORRECTION
 SPR .MV     07 010 01 00:   SPONTANEOUS POTENTIAL
 ILD .OHMM   07 120 46 00:   DEEP INDUCTION RESISTIVITY
 ILM .OHMM   07 120 44 00:   INDUCTION LOG MEDIUM RESISTIVITY
 GURD.OHMM   07 220 05 00:   GUARD LOG RESISTIVITY
~PARAMETER INFORMATION
#MNEM.UNIT          VALUE    DESCRIPTION
#----------   ------------   ------------------------------
 EKB .F         5259.0000:   Kelly bushing
 EGL .F         5249.0000:   Ground level
 EDF .F            0.0000:   Drilling floor
 EPD .F            0.0000:   Permanent datum
 TD  .F         3197.0000:   Total depth
 CLNT.            A2DTECH:   Client Code
 SL  . 990' FNL & 330' FEL:   Surface Location
 PD  .                 GL:   Permanent Datum
 DAPD.F                10:   Feet Above Permanent Datum
 DATE.        14-AUG-1977:   Date Logged [DD-MMM-YYYY]
 DD  .F              3197:   Depth driller
 DL  .F              3200:   Depth logger
 BLI .F              3198:   Bottom log interval
 TLI .F               200:   Top log interval
 CS1 .IN            8.625:   Casing size
 CBD1.      8.625" @ 236':   Casing driller 1
 CBL1.F               220:   Casing logger 1
 BS1 .IN            7.875:   Bit size
 BSD1.F              3197:   Depth drilled with bit1
 DFT .            KCL MUD:   Type fluid in hole
 DFD .                9.1:   Density
 DFV .                 42:   Viscosity
 DFPH.               10.5:   pH
 DFL .                7.2:   Fluid loss
 MSS .           FLOWLINE:   Source of sample
 RMS .OHMM          0.240:   Rm
 MST .F                92:   Rm Meas. temp.
 RMF .OHMM          0.160:   Rmf
 MFST.F                92:   Rmf Meas. temp.
 MFSS.               MEAS:   Source Rmf.
 RMC .OHMM          0.238:   Rmc
 MCST.F                92:   Rmc Meas. temp.
 MCSS.               MEAS:   Source Rmc.
 RMB .OHMM          0.194:   Rm. at BHT
 BHT .F               114:   BHT.
 TCS .HRS               3:   Time Circ. stopped
 MRT .F               114:   Maximum recorded temp.
 LUN .               9685:   Logging unit number
 LUL .             CASPER:   Logging unit location
 ENGI.            C. DOAK:   Recorded By
 WITN.      W. PETTINGILL:   Witnessed by
 ORIG.           5" PRINT:   Origin of data
 UWI .     49025104100000:   Unique Well ID
 DICO. A2D TECHNOLOGIES, INC.:   Digitizing Company
~OTHER INFORMATION
~A   DEPT       CALD       GRD        RHOB      CORR       SPR        ILD        ILM       GURD   
# ...
 2954.0000     8.9525   141.4211     2.4985    -0.0076   -76.8629     4.8629     5.2783     6.1613
 2954.5000     8.9539   140.5446     2.4964    -0.0105   -77.1475     4.8662     5.3555     6.3395
 2955.0000     8.9554   140.2678     2.4987    -0.0147   -77.2795     4.8025     5.5088     6.4330
 2955.5000     8.9568   139.9909     2.5002    -0.0163   -77.2645     4.8399     5.6275     6.5280
 2956.0000     8.9732   139.4200     2.4987    -0.0174   -77.1002     4.9106     5.6696     6.5830
 2956.5000     8.9746   139.1425     2.4966    -0.0172   -76.9332     4.9481     5.7517     6.6310
 2957.0000     8.9764   138.8666     2.4951    -0.0170   -76.7693     4.9514     5.7990     6.6363
 2957.5000     8.9629   138.2908     2.4937    -0.0161   -76.7548     4.9552     5.8390     6.6416
 2958.0000     8.9643   137.7187     2.4960    -0.0135   -76.7404     5.0279     5.7610     6.6469
 2958.5000     8.9658   136.8421     2.4998    -0.0101   -76.7260     5.0313     5.7648     6.6523
 2959.0000     8.9373   135.9598     2.5051    -0.0057   -76.5620     5.0696     5.9299     6.7039
 2959.5000     8.9239   135.9886     2.5134    -0.0026   -76.5441     5.1083     6.0997     6.7560
 2960.0000     8.9257   136.9311     2.5187     0.0021   -76.5297     5.1117     6.1030     6.7626
 2960.5000     8.9118   138.7390     2.5240     0.0023   -76.5153     5.1151     6.1064     6.8625
 2961.0000     8.8834   139.6616     2.5300     0.0009   -76.5009     5.1186     6.1103     7.1099
 2961.5000     8.8699   141.1839     2.5353    -0.0019   -76.1898     5.1228     6.1136     7.2149
 2962.0000     8.8717   141.5067     2.5391    -0.0026   -76.4743     5.1262     5.8679     6.9749
 2962.5000     8.8881   140.6302     2.5384    -0.0030   -76.4562     5.1296     5.8297     7.0779
 2963.0000     8.8896   140.6537     2.5354    -0.0043   -76.4417     5.1330     5.9561     7.3407
 2963.5000     8.8910   141.0544     2.5280    -0.0056   -76.4273     5.1364     5.9593     7.8668
 2964.0000     8.8925   141.9010     2.5212    -0.0055   -76.4126     5.1399     5.9632     8.0368
 2964.5000     8.8942   141.9273     2.5169    -0.0053   -76.3947     5.1441     5.8034     7.6113
 2965.0000     8.8803   140.7510     2.5162    -0.0051   -76.3803     5.1476     5.6471     6.5409
 2965.5000     8.8821   139.8744     2.5177    -0.0049   -76.5153     5.1510     5.6509     6.2796
 2966.0000     8.8836   139.2977     2.5208    -0.0047   -76.6539     5.1544     5.3864     6.6428
 2966.5000     8.9003   139.6264     2.5261    -0.0046   -76.6358     5.1223     5.1342     6.2046
 2967.0000     8.9015   139.9492     2.5306    -0.0059   -76.7713     5.0552     5.1763     6.2095
 2967.5000     8.9181   139.6666     2.5317    -0.0057   -76.7563     4.9890     5.5858     6.2577
 2968.0000     8.9344   138.4960     2.5300    -0.0055   -76.7414     4.9931     5.4361     6.3062
 2968.5000     8.9359   137.3194     2.5270    -0.0069   -76.7238     4.9965     5.5149     6.3993
 2969.0000     8.9522   136.4431     2.5248    -0.0067   -76.7093     4.9998     5.5562     6.6301
 2969.5000     8.9540   137.3714     2.5249    -0.0050   -76.6966     5.0031     5.6759     7.2535
 2970.0000     8.9704   135.8951     2.5273    -0.0018   -76.6804     5.0413     5.7183     7.4704
 2970.5000     8.9718   137.1175     2.5355     0.0015   -76.6659     5.0447     5.8074     6.7856
 2971.0000     8.9732   137.7402     2.5400     0.0061   -76.6515     5.0488     5.8446     6.7441
 2971.5000     8.9747   137.1635     2.5416     0.0078   -76.4873     5.1941     5.7283     6.7978
 2972.0000     8.9612   135.3875     2.5394     0.0079   -76.4695     5.1976     5.5748     6.7083
 2972.5000     8.9630   136.3158     2.5342     0.0061   -76.4550     5.3102     5.5003     6.5315
 2973.0000     8.9644   138.4377     2.5305     0.0023   -76.4405     5.3507     5.7375     6.7320
 2973.5000     8.9506   140.2598     2.5298    -0.0006   -76.4261     5.3543     5.9470     7.4121
 2974.0000     8.9524   141.7821     2.5306    -0.0019   -76.4126     5.3959     6.2855     7.8951
 2974.5000     8.9538   142.7047     2.5329     0.0013   -76.3971     5.4748     6.1170     7.0727
 2975.0000     8.9552   144.5945     2.5337    -0.0045   -76.3827     5.5166     5.8704     6.9314
 2975.5000     8.9567   146.6545     2.5308    -0.0148   -76.2182     5.5586     5.9563     7.0351
 2976.0000     8.9582   147.8765     2.5211    -0.0267   -76.0512     5.5623     6.0426     7.1886
 2976.5000     8.9597   149.6001     2.5104    -0.0265   -76.0389     5.6828     6.0458     7.5629
 2977.0000     8.9762   150.9214     2.5040    -0.0154   -76.0239     5.7661     6.0491     7.6647
 2977.5000     8.9776   152.6015     2.5055    -0.0021   -76.0078     5.8109     6.0113     7.5653
 2978.0000     8.9791   154.6510     2.5108     0.0011   -75.9940     5.7736     5.8098     7.4157
 2978.5000     8.9806   156.6933     2.5116     0.0043   -75.9788     5.5818     5.6541     6.8773
 2979.0000     8.9823   158.5154     2.5079     0.0075   -75.9641     5.0694     5.4262     6.5119
 2979.5000     8.9838   159.1382     2.5072     0.0106   -75.9463     4.6361     5.1372     6.3390
 2980.0000     8.9852   160.3606     2.5103     0.0062   -75.9318     4.2654     4.7300     5.8277
 2980.5000     8.9867   161.8831     2.5051     0.0003   -75.9174     3.8246     4.3463     5.2311
 2981.0000     8.9732   161.0121     2.4946    -0.0041   -75.9029     3.5711     3.9829     4.7516
 2981.5000     8.9746   159.2360     2.4872    -0.0074   -75.8894     3.4281     3.7964     4.1118
 2982.0000     8.9764   155.0611     2.4888    -0.0125   -75.8740     3.3361     3.6187     3.6581
 2982.5000     8.9778   152.3854     2.5041    -0.0153   -75.8595     3.2928     3.5458     3.2319
 2983.0000     8.9640   146.7113     2.5226    -0.0121   -75.8445     3.3412     3.7502     2.8357
 2983.5000     8.9505   140.3010     2.5496    -0.0059   -75.8269     3.4852     4.1977     3.7652
 2984.0000     8.9523   135.6629     2.5489    -0.0042   -75.8125     3.6360     4.7516     5.9190
 2984.5000     8.9388   136.8911     2.5467    -0.0041   -75.7980     3.8457     4.9904     6.6178
 2985.0000     8.9406   136.6142     2.5482    -0.0039   -75.9366     4.0394     5.2527     6.7622
 2985.5000     8.9267   136.6372     2.5506    -0.0037   -76.0717     4.3320     5.4287     6.9097
 2986.0000     8.9285   137.2599     2.5558    -0.0020   -76.2033     4.5502     5.5456     7.0604
 2986.5000     8.9300   140.0283     2.5611     0.0026   -76.3381     4.7171     5.7440     7.2144
 2987.0000     8.9314   142.1093     2.5672     0.0089   -76.3229     5.0209     5.9085     7.2216
 2987.5000     8.9030   142.7320     2.5717     0.0105   -76.3055     5.3105     5.9528     7.1761
 2988.0000     8.8872   143.3547     2.5680     0.0077   -76.1416     5.3881     5.9560     6.9388
 2988.5000     8.8167   145.4767     2.5486     0.0049   -76.1271     5.3917     5.9599     6.8489
 2989.0000     8.7580   145.7995     2.5457     0.0017   -76.1126     5.3953     5.9220     6.7601
 2989.5000     8.7147   145.8231     2.5487     0.0007   -76.0982     5.3989     5.8834     6.7187
 2990.0000     8.7012   146.4510     2.5465    -0.0021   -76.0837     5.4034     5.8056     6.7243
 2990.5000     8.7030   147.0737     2.5406    -0.0034   -76.2187     5.4070     5.8095     6.7309
 2991.0000     8.7049   148.2961     2.5286    -0.0051   -76.2033     5.4106     5.7725     6.7363
 2991.5000     8.7212   150.1182     2.5212    -0.0076   -76.1862     5.4142     5.6133     6.7417
 2992.0000     8.7224   157.3376     2.5098    -0.0074   -76.1717     5.3064     5.3555     6.7471
 2992.5000     8.7240   161.3638     2.5011    -0.0042   -76.1572     5.2008     5.2120     6.7526
 2993.0000     8.7255   168.4839     2.4996     0.0022   -76.1435     4.9829     5.0025     6.7580
 2993.5000     8.7269   176.9027     2.5049     0.0067   -76.1283     4.7273     4.8015     6.7506
 2994.0000     8.7284   184.1221     2.5065     0.0084   -76.1136     4.5066     4.4826     6.0601
