~VERSION INFORMATION
 VERS.                2.0:   CWLS LOG ASCII STANDARD - VERSION 2.0
 WRAP.                 NO:   ONE LINE PER DEPTH STEP
~WELL INFORMATION
#MNEM.UNIT      DATA TYPE    INFORMATION
#----------   ------------   ------------------------------
 STRT.F           76.0000:   START DEPTH
 STOP.F         4972.0000:   STOP DEPTH
 STEP.F            0.5000:   STEP LENGTH
 NULL.          -999.2500:   NO VALUE
 COMP.    PENIX & SCISSON:   COMPANY
 WELL. FENIX NPR 3 "LX" #85-9:   WELL
 FLD .                NPR:   FIELD
 LOC .       S9 T38N R78W:   LOCATION
 CNTY.            NATRONA:   COUNTY
 STAT.            WYOMING:   STATE
 CTRY. UNITED STATES OF AMERICA:   COUNTRY
 SRVC.       SCHLUMBERGER:   SERVICE COMPANY
 DATE.        10-OCT-1978:   LOGDATE
 API .     49025107250000:   API NUMBER
~CURVE INFORMATION
#MNEM.UNIT       API CODE    CURVE DESCRIPTION
#----------   ------------   ------------------------------
 DEPT.F                  :   
 TENR.LBS    07 635 01 00:   TENSION FROM RESISTIVITY
 SPR .MV     07 010 01 00:   SPONTANEOUS POTENTIAL
 SFL .OHMM   07 220 01 00:   SHALLOW FOCUSED LOG RESISTIVITY
 ILD .OHMM   07 120 46 00:   DEEP INDUCTION RESISTIVITY
 ILM .OHMM   07 120 44 00:   INDUCTION LOG MEDIUM RESISTIVITY
 CALD.IN     45 280 60 00:   CALIPER FROM DENSITY LOG
 GRD .GAPI   45 310 01 00:   GAMMA RAY FROM DENSITY LOG
 CORR.G/C3   45 356 01 00:   DENSITY CORRECTION
 TEND.LBS    45 635 01 00:   TENSION FROM DENSITY LOG
 RHOB.G/C3   45 350 01 00:   BULK DENSITY
 NPHI.DEC    42 890 03 00:   NEUTRON POROSITY SANDSTONE
~PARAMETER INFORMATION
#MNEM.UNIT          VALUE    DESCRIPTION
#----------   ------------   ------------------------------
 EKB .F         5288.0000:   Kelly bushing
 EGL .F         5278.0000:   Ground level
 EDF .F            0.0000:   Drilling floor
 TD  .F         4950.0000:   Total depth
 DATE.        10-OCT-1978:   Date logged
 CLNT.            A2DTECH:   Client Code
 SL  . 2310' FSL & 230' FEL:   Surface Location
 PD  .                 GL:   Permanent Datum
 EPD .F              5278:   Elevation Permanent Datum
 LMF .                 KB:   Log Measured From
 DMF .                 KB:   Drilling Measured From
 DAPD.F                10:   Feet Above Permanent Datum
 DD  .F              4950:   Depth driller
 DL  .F              4950:   Depth logger
 BLI .F              4947:   Bottom log interval
 TLI .F               499:   Top log interval
 CS1 .IN            8.625:   Casing size
 CBD1.      8.625" @ 489':   Casing driller 1
 CBL1.F               499:   Casing logger 1
 BS1 .IN            7.875:   Bit size
 BSD1.F              4950:   Depth drilled with bit1
 DFT .            GEL/MUD:   Type fluid in hole
 DFD .                9.3:   Density
 DFV .                175:   Viscosity
 DFPH.                 12:   pH
 DFL .                  4:   Fluid loss
 MSS .               TANK:   Source of sample
 RMS .OHMM           .600:   Rm
 MST .F                71:   Rm Meas. temp.
 RMF .OHMM           .804:   Rmf
 MFST.F                71:   Rmf Meas. temp.
 MFSS.               MEAS:   Source Rmf.
 RMB .OHMM           .308:   Rm. at BHT
 BHT .F               138:   BHT.
 TCS .HRS            1200:   Time Circ. stopped
 TLAB.HRS            0330:   Time logger at bottom
 MRT .F               138:   Maximum recorded temp.
 LUN .               8035:   Logging unit number
 LUL .               CSPR:   Logging unit location
 ENGI.        CRAIG/DFARR:   Recorded By
 WITN.              AMEND:   Witnessed by
 ORIG.           5" PRINT:   Origin of data
 UWI .     49025107250000:   Unique Well ID
 DICO. A2D TECHNOLOGIES, INC.:   Digitizing Company
~OTHER INFORMATION
~A   DEPT     TENR        SPR        SFL        ILD        ILM       CALD         GRD      CORR       TEND       RHOB         NPHI 
# ...
 3156.5000  1535.4180   -19.9300     8.0040     6.6010     7.3760    10.1730   127.3370     0.0140  1681.9709     2.5500     0.2580
 3157.0000  1535.4880   -19.8570     8.2430     6.7200     7.3760    10.1810   125.8990     0.0100  1682.2390     2.5510     0.2560
 3157.5000  1535.5580   -19.7690     8.5630     6.6090     7.3760    10.1880   126.4640     0.0070  1682.5081     2.5460     0.2530
 3158.0000  1535.6281   -19.6970     8.3630     6.3660     7.3760    10.1970   129.4670     0.0280  1682.7770     2.5500     0.2500
 3158.5000  1535.6980   -19.4760     7.6030     6.1100     7.3760    10.2080   135.5170     0.0470  1683.0450     2.5570     0.2470
 3159.0000  1535.7679   -19.0760     6.8440     5.8390     6.7720    10.2770   141.1980     0.0680  1683.3140     2.5640     0.2440
 3159.5000  1535.8390   -18.7000     6.0840     5.5680     6.2050    10.3400   147.0650     0.0880  1683.5820     2.5700     0.2680
 3160.0000  1535.9091   -18.3150     5.3240     5.2730     5.6390    10.4020   155.3000     0.0990  1683.8510     2.5450     0.2900
 3160.5000  1535.9790   -17.9170     4.6280     5.4720     4.8940    10.4650   157.5270     0.0800  1684.1200     2.5030     0.3480
 3161.0000  1536.0490   -17.7480     5.0900     5.8830     5.1040    10.3970   153.7190     0.0550  1684.3879     2.4640     0.3340
 3161.5000  1536.1190   -18.0720     6.3960     6.2940     5.4090    10.2840   143.8410     0.0300  1684.6570     2.4480     0.3220
 3162.0000  1536.1899   -18.3790     7.7030     6.7060     5.7150    10.1650   130.5910     0.0150  1684.9250     2.4910     0.2750
 3162.5000  1536.2600   -18.7000     9.0090     7.1170     6.0200    10.1290   117.1600     0.0180  1685.1940     2.5270     0.2010
 3163.0000  1536.3300   -19.0170     9.3990     7.2750     6.3250    10.1490   114.4840     0.0210  1685.4630     2.5700     0.2030
 3163.5000  1536.4000   -19.3350     9.0690     7.3250     6.6310    10.1640   113.7820     0.0250  1685.7310     2.5800     0.2100
 3164.0000  1536.4700   -19.6510     8.7050     7.3740     6.8080    10.1790   114.6540     0.0280  1686.0000     2.5850     0.2220
 3164.5000  1536.5400   -19.9650     8.3400     7.4240     7.0930    10.1950   119.4900     0.0300  1686.2690     2.5890     0.2330
 3165.0000  1536.6110   -20.2970     7.8010     7.4740     7.3790    10.2100   120.1680     0.0300  1686.5370     2.5940     0.2340
 3165.5000  1536.6810   -20.4500     7.8610     7.5240     7.5150    10.2250   119.7410     0.0290  1686.8060     2.5910     0.2350
 3166.0000  1536.7510   -20.4350     7.9780     7.5740     7.4880    10.2410   118.4320     0.0230  1688.9740     2.5810     0.2310
 3166.5000  1536.8210   -20.4370     8.0950     7.6560     7.4040    10.2560   116.4460     0.0180  1695.4270     2.5660     0.2240
 3167.0000  1536.8910   -20.4390     8.2110     7.6180     7.3200    10.2720   116.0520     0.0230  1701.8800     2.5570     0.2180
 3167.5000  1536.9611   -20.4360     8.4040     7.5040     7.2360    10.2870   117.5370     0.0270  1708.3330     2.5590     0.2130
 3168.0000  1537.0320   -20.4370     8.2930     7.3900     7.1520    10.3030   120.8170     0.0310  1714.7870     2.5590     0.2110
 3168.5000  1537.1021   -20.4430     7.9670     7.2760     7.0680    10.3180   124.8970     0.0250  1721.2400     2.5380     0.2200
 3169.0000  1537.1720   -20.3610     7.6410     7.1620     6.9840    10.3340   125.6090     0.0190  1727.6420     2.5170     0.2300
 3169.5000  1537.2419   -20.1310     7.3150     7.0480     6.9000    10.3490   123.2060     0.0110  1727.6420     2.5150     0.2360
 3170.0000  1537.3120   -19.9090     6.9890     6.8460     6.8260    10.3620   121.9950     0.0120  1727.6420     2.5350     0.2340
 3170.5000  1537.3831   -19.6830     6.8460     6.7910     6.7680    10.3680   121.6720     0.0260  1727.6420     2.5530     0.2290
 3171.0000  1537.4530   -19.4580     7.3340     6.7340     6.7110    10.3730   122.0500     0.0390  1727.6420     2.5580     0.2400
 3171.5000  1537.5229   -19.2330     8.0970     6.6770     6.6540    10.3780   122.7340     0.0530  1727.6420     2.5530     0.2530
 3172.0000  1537.5930   -19.0080     7.9800     6.5960     6.5960    10.3830   121.1990     0.0470  1727.6420     2.5400     0.2660
 3172.5000  1537.6630   -18.7830     7.6670     6.7060     6.6770    10.3880   117.6150     0.0340  1727.6420     2.5280     0.2800
 3173.0000  1537.7330   -18.5570     7.3540     6.8960     6.8190    10.3930   114.3740     0.0200  1727.6420     2.5290     0.2670
 3173.5000  1537.8040   -18.3350     7.0410     7.0750     6.9600    10.3990   111.1010     0.0190  1727.6420     2.5560     0.2530
 3174.0000  1537.8740   -18.1020     7.3490     7.2460     7.1010    10.4040   108.9690     0.0260  1727.6420     2.5770     0.2390
 3174.5000  1537.9440   -17.8880     7.8240     7.4170     7.2430    10.4330   111.6210     0.0330  1727.6420     2.5870     0.2260
 3175.0000  1538.0140   -17.6830     8.2990     7.5880     7.3840    10.4570   114.7760     0.0310  1727.6420     2.5900     0.2170
 3175.5000  1538.0840   -17.9120     9.0550     7.7580     7.5250    10.4820   117.6700     0.0280  1727.6420     2.5860     0.2180
 3176.0000  1538.1550   -18.1500     9.0040     7.9290     7.6670    10.5070   118.3720     0.0240  1727.6420     2.5860     0.2180
 3176.5000  1538.2250   -18.4080     8.8770     8.1000     7.8080    10.5320   117.8000     0.0230  1727.6420     2.5860     0.2180
 3177.0000  1538.2950   -18.6540     8.7510     8.3570     7.9470    10.5580   117.7910     0.0290  1727.6420     2.5860     0.2180
 3177.5000  1538.3650   -18.9030     8.6240     8.2490     7.8730    10.5830   119.8000     0.0340  1727.6420     2.5870     0.2220
 3178.0000  1538.4351   -19.1530     8.4970     8.1860     7.7990    10.6080   123.2910     0.0400  1727.6420     2.5890     0.2290
 3178.5000  1538.5050   -19.4020     8.3710     8.1090     7.7260    10.6330   127.3800     0.0380  1727.6420     2.5920     0.2360
 3179.0000  1538.5760   -19.6510     8.2440     8.0330     7.6530    10.6580   131.2740     0.0360  1727.6420     2.5830     0.2440
 3179.5000  1538.6460   -19.9010     8.0970     7.9560     7.5790    10.6810   134.4880     0.0300  1727.6420     2.5710     0.2380
 3180.0000  1538.7159   -20.1480     8.2060     7.8790     7.5060    10.6970   134.5230     0.0240  1727.6420     2.5600     0.2310
 3180.5000  1538.7860   -20.3990     8.3350     7.8020     7.4330    10.7130   127.8490     0.0230  1727.6420     2.5680     0.2250
 3181.0000  1538.8560   -20.6520     8.4650     7.7260     7.3590    10.7270   123.5140     0.0370  1727.6420     2.5830     0.2290
 3181.5000  1538.9270   -20.8170     8.8880     7.6490     7.2860    10.7430   120.8300     0.0510  1727.6420     2.5960     0.2370
 3182.0000  1538.9969   -20.7540     8.6200     7.5720     7.2120    10.7580   118.3670     0.0590  1727.6420     2.5920     0.2450
 3182.5000  1539.0670   -20.6960     8.0290     7.4950     7.1390    10.7730   115.8410     0.0420  1727.6420     2.5710     0.2500
 3183.0000  1539.1370   -20.6310     7.2400     7.4180     7.0660    10.7880   113.0390     0.0330  1727.6420     2.5700     0.2410
 3183.5000  1539.2070   -20.5730     7.4170     7.3420     6.9920    10.8000   112.4280     0.0310  1727.6420     2.5730     0.2330
 3184.0000  1539.2770   -20.5040     7.6820     7.2650     6.9190    10.8210   113.5150     0.0330  1727.6420     2.5790     0.2250
 3184.5000  1539.3480   -20.4250     7.9480     7.1880     6.8460    10.8510   121.8860     0.0390  1727.6420     2.5890     0.2160
 3185.0000  1539.4180   -19.9690     8.2140     7.1110     6.7720    10.8790   124.2800     0.0450  1727.6420     2.5920     0.2170
 3185.5000  1539.4880   -19.4320     8.4040     7.0340     6.7200    10.9080   122.8110     0.0520  1727.6420     2.5880     0.2230
 3186.0000  1539.5580   -18.8890     8.2300     6.9580     6.7200    10.9370   121.4240     0.0490  1727.6420     2.5630     0.2310
 3186.5000  1539.6281   -18.3620     7.8710     6.8810     6.7360    10.9590   120.6890     0.0350  1727.6420     2.5320     0.2390
