~VERSION INFORMATION
 VERS.                2.0:   CWLS LOG ASCII STANDARD - VERSION 2.0
 WRAP.                 NO:   ONE LINE PER DEPTH STEP
~WELL INFORMATION
#MNEM.UNIT      DATA TYPE    INFORMATION
#----------   ------------   ------------------------------
 STRT.F          500.0000:   START DEPTH
 STOP.F         2517.0000:   STOP DEPTH
 STEP.F            0.5000:   STEP LENGTH
 NULL.          -999.2500:   NO VALUE
 COMP.    FENIX & SCISSON:   COMPANY
 WELL. FENIX & SCISSON SHX #46-33:   WELL
 FLD .  TEAPOT DOME NPR-3:   FIELD
 LOC .      S33 T39N R78W:   LOCATION
 CNTY.            NATRONA:   COUNTY
 STAT.            WYOMING:   STATE
 CTRY. UNITED STATES OF AMERICA:   COUNTRY
 SRVC.           BIRDWELL:   SERVICE COMPANY
 DATE.        04-APR-1979:   LOGDATE
 API .     49025107670000:   API NUMBER
~CURVE INFORMATION
#MNEM.UNIT       API CODE    CURVE DESCRIPTION
#----------   ------------   ------------------------------
 DEPT.F                  :   
 GRD .GAPI   45 310 01 00:   GAMMA RAY FROM DENSITY LOG
 CALD.IN     45 280 60 00:   CALIPER FROM DENSITY LOG
 CORR.G/C3   45 356 01 00:   DENSITY CORRECTION
 RHOB.G/C3   45 350 01 00:   BULK DENSITY
~PARAMETER INFORMATION
#MNEM.UNIT          VALUE    DESCRIPTION
#----------   ------------   ------------------------------
 EKB .F         5217.0000:   Kelly bushing
 EGL .F         5207.0000:   Ground level
 EDF .F            0.0000:   Drilling floor
 TD  .F         2630.0000:   Total depth
 CLNT.            A2DTECH:   Client Code
 SL  . 1955' FSL & 1970' FWL:   Surface Location
 PD  .                 GL:   Permanent Datum
 EPD .F              5207:   Elevation Permanent Datum
 LMF .                 KB:   Log Measured From
 DMF .                 KB:   Drilling Measured From
 DAPD.                 10:   Feet Above Permanent Datum
 DATE.        04-APR-1979:   Date Logged [DD-MMM-YYYY]
 DD  .F              2630:   Depth driller
 DL  .F              2517:   Depth logger
 BLI .F              2517:   Bottom log interval
 TLI .F               504:   Top log interval
 CS1 .              9.625:   Casing size
 CBD1.      9.625" @ 300':   Casing driller 1
 CBL1.IN              306:   Casing logger 1
 BS1 .IN            7.875:   Bit size
 BSD1.F              2630:   Depth drilled with bit1
 DFT .                OIL:   Type fluid in hole
 LUL .             CASPER:   Logging unit location
 ENGI.            ROLLINS:   Recorded By
 ORIG.           5" PRINT:   Origin of data
 UWI .     49025107670000:   Unique Well ID
 DICO. A2D TECHNOLOGIES ,INC.:   Digitizing Company
 WITN.              AMUND:   Witnessed by
~OTHER INFORMATION
~A   DEPT      GRD       CALD       CORR       RHOB   
# ...
  646.0000   148.0529     9.4795    -0.1132     2.3229
  646.5000   148.2147     9.4785    -0.1115     2.3207
  647.0000   148.2280     9.4775    -0.1098     2.3246
  647.5000   148.0926     9.4766    -0.1095     2.3352
  648.0000   147.9539     9.4756    -0.1094     2.3390
  648.5000   150.1992     9.4746    -0.1095     2.3421
  649.0000   152.7384     9.4737    -0.1097     2.3452
  649.5000   152.6031     9.4727    -0.1098     2.3513
  650.0000   151.8733     9.4717    -0.1099     2.3589
  650.5000   150.2521     9.4708    -0.1097     2.3628
  651.0000   147.7392     9.4698    -0.1094     2.3643
  651.5000   146.1180     9.4688    -0.1092     2.3652
  652.0000   145.9624     9.4679    -0.1089     2.3634
  652.5000   147.0359     9.4669    -0.1086     2.3533
  653.0000   148.2379     9.4671    -0.1084     2.3624
  653.5000   149.7469     9.4705    -0.1081     2.3655
  654.0000   154.0731     9.4739    -0.1064     2.3618
  654.5000   154.5336     9.4773    -0.1061     2.3612
  655.0000   152.7654     9.4807    -0.1059     2.3643
  655.5000   150.9971     9.4841    -0.1041     2.3844
  656.0000   150.1203     9.4875    -0.1023     2.4079
  656.5000   148.9464     9.4909    -0.1021     2.4117
  657.0000   148.0659     9.4943    -0.1003     2.4126
  657.5000   147.6349     9.4977    -0.0986     2.4128
  658.0000   148.0992     9.5011    -0.0983     2.4129
  658.5000   149.8970     9.5045    -0.0965     2.4115
  659.0000   151.8397     9.5065    -0.0963     2.4154
  659.5000   149.3322     9.5052    -0.0960     2.4209
  660.0000   148.7526     9.5039    -0.0958     2.4232
  660.5000   148.0244     9.5026    -0.0970     2.4202
  661.0000   145.3646     9.5013    -0.0968     2.4197
  661.5000   143.2991     9.5000    -0.0950     2.4223
  662.0000   140.4907     9.4987    -0.0948     2.4253
  662.5000   136.7908     9.4974    -0.0945     2.4271
  663.0000   135.7653     9.4961    -0.0943     2.4333
  663.5000   135.6316     9.4948    -0.0940     2.4482
  664.0000   132.8232     9.4936    -0.0937     2.4535
  664.5000   130.4606     9.4923    -0.0935     2.4161
  665.0000   132.2736     9.4910    -0.0947     2.4064
  665.5000   133.7847     9.4897    -0.0945     2.4081
  666.0000   135.4441     9.4890    -0.0942     2.4150
  666.5000   136.7761     9.4886    -0.0954     2.4158
  667.0000   137.0728     9.4882    -0.0967     2.4182
  667.5000   137.0876     9.4878    -0.0994     2.4206
  668.0000   139.1627     9.4875    -0.0992     2.4237
  668.5000   141.1322     9.4871    -0.1005     2.4178
  669.0000   138.9182     9.4867    -0.1017     2.4127
  669.5000   137.4471     9.4863    -0.1030     2.4113
  670.0000   135.2330     9.4860    -0.1042     2.4084
  670.5000   131.9789     9.4856    -0.1055     2.4010
  671.0000   132.2908     9.4852    -0.1067     2.3929
  671.5000   132.8999     9.4848    -0.1080     2.3938
  672.0000   133.3605     9.4845    -0.1077     2.3969
  672.5000   133.6724     9.4841    -0.1044     2.3948
  673.0000   133.8358     9.4837    -0.1026     2.3784
  673.5000   133.8505     9.4833    -0.0994     2.3724
  674.0000   133.1224     9.4830    -0.0961     2.3703
  674.5000   132.5391     9.4826    -0.0959     2.3705
  675.0000   133.1519     9.4822    -0.0941     2.3781
  675.5000   134.5040     9.4818    -0.0908     2.4001
  676.0000   136.3018     9.4815    -0.0891     2.4363
  676.5000   137.5053     9.4811    -0.0858     2.4530
  677.0000   137.9658     9.4807    -0.0840     2.4433
  677.5000   137.8320     9.4804    -0.0853     2.4359
  678.0000   137.3973     9.4815    -0.0881     2.4338
  678.5000   139.1989     9.4824    -0.0923     2.4881
  679.0000   140.2538     9.4833    -0.0936     2.5251
  679.5000   136.2567     9.4842    -0.0963     2.6509
  680.0000   133.7417     9.4851    -0.0976     2.7360
  680.5000   134.5031     9.4860    -0.0973     2.6903
  681.0000   135.4094     9.4869    -0.0971     2.6362
  681.5000   136.0186     9.4878    -0.0953     2.5611
  682.0000   135.8847     9.4887    -0.0950     2.4529
  682.5000   135.0080     9.4896    -0.0948     2.4086
  683.0000   134.2798     9.4904    -0.0945     2.3839
  683.5000   133.7002     9.4913    -0.0943     2.3773
  684.0000   133.4175     9.4922    -0.0940     2.3842
  684.5000   133.2838     9.4931    -0.0953     2.3843
  685.0000   133.2988     9.4940    -0.0950     2.3805
  685.5000   136.4339     9.4949    -0.0948     2.3753
  686.0000   140.4626     9.4958    -0.0945     2.3653
  686.5000   140.6240     9.4967    -0.0943     2.3431
  687.0000   140.0444     9.4976    -0.0955     2.3343
  687.5000   140.0594     9.4985    -0.0968     2.3267
  688.0000   141.1459     9.4992    -0.0995     2.3142
  688.5000   141.1099     9.4996    -0.1008     2.3040
  689.0000   140.6978     9.5000    -0.1020     2.3042
  689.5000   140.8612     9.5003    -0.1033     2.2991
  690.0000   140.2853     9.5007    -0.1030     2.2917
  690.5000   137.9226     9.5010    -0.1043     2.2888
  691.0000   136.8973     9.5014    -0.1040     2.2874
  691.5000   137.2092     9.5018    -0.1053     2.2890
  692.0000   139.4528     9.5021    -0.1050     2.2929
  692.5000   140.2068     9.5025    -0.1047     2.2976
  693.0000   138.1451     9.5029    -0.1060     2.3037
  693.5000   137.5655     9.5032    -0.1057     2.3099
  694.0000   137.4280     9.5036    -0.1038     2.3175
  694.5000   138.6352     9.5039    -0.1005     2.3267
  695.0000   139.6900     9.5043    -0.0975     2.3351
  695.5000   140.7449     9.5047    -0.0954     2.3420
  696.0000   141.0569     9.5050    -0.0924     2.3466
  696.5000   141.0717     9.5054    -0.0906     2.3513
  697.0000   140.6407     9.5057    -0.0888     2.3544
  697.5000   139.4668     9.5061    -0.0871     2.3568
  698.0000   137.2527     9.5065    -0.0868     2.3547
  698.5000   138.3076     9.5068    -0.0866     2.3540
  699.0000   140.1054     9.5072    -0.0863     2.3526
  699.5000   139.3772     9.5076    -0.0876     2.3505
  700.0000   138.3482     9.5079    -0.0858     2.3461
  700.5000   140.0011     9.5083    -0.0855     2.3575
  701.0000   140.7589     9.5086    -0.0853     2.3547
  701.5000   141.1681     9.5090    -0.0850     2.3510
  702.0000   142.1277     9.5092    -0.0877     2.3512
  702.5000   142.1424     9.5093    -0.0909     2.3505
  703.0000   141.5627     9.5093    -0.0939     2.3439
  703.5000   138.7542     9.5094    -0.0937     2.3403
  704.0000   140.1062     9.5094    -0.0935     2.3329
  704.5000   140.2695     9.5095    -0.0979     2.3255
  705.0000   139.8384     9.5096    -0.1007     2.3183
  705.5000   138.2186     9.5096    -0.1036     2.3132
  706.0000   136.8960     9.5097    -0.1050     2.3020
  706.5000   136.0191     9.5097    -0.1078     2.2900
  707.0000   136.1824     9.5098    -0.1106     2.2856
  707.5000   137.8315     9.5098    -0.1120     2.2812
  708.0000   139.7779     9.5099    -0.1163     2.2608
  708.5000   139.9851     9.5099    -0.1161     2.2565
  709.0000   137.2812     9.5100    -0.1160     2.2611
  709.5000   137.1396     9.5072    -0.1143     2.2619
  710.0000   137.9049     9.5040    -0.1111     2.2726
  710.5000   139.4132     9.5009    -0.1065     2.2839
  711.0000   140.6389     9.4978    -0.1033     2.2923
  711.5000   141.8573     9.4947    -0.1031     2.2969
  712.0000   142.7184     9.4916    -0.1014     2.3180
  712.5000   140.2108     9.4885    -0.1013     2.3377
  713.0000   139.4825     9.4853    -0.1011     2.3588
  713.5000   139.4972     9.4822    -0.1010     2.3800
  714.0000   140.2548     9.4791    -0.1008     2.4019
  714.5000   140.7152     9.4764    -0.1006     2.4125
  715.0000   139.9870     9.4776    -0.1004     2.4133
  715.5000   138.9615     9.4786    -0.1003     2.4149
  716.0000   138.3819     9.4797    -0.1001     2.4165
  716.5000   138.2443     9.4807    -0.0999     2.4151
  717.0000   138.8570     9.4818    -0.0998     2.4129
  717.5000   140.8033     9.4828    -0.0996     2.4175
  718.0000   141.4087     9.4838    -0.0994     2.4236
  718.5000   139.6439     9.4849    -0.0963     2.4214
