~VERSION INFORMATION
 VERS.                2.0:   CWLS LOG ASCII STANDARD - VERSION 2.0
 WRAP.                 NO:   ONE LINE PER DEPTH STEP
~WELL INFORMATION
#MNEM.UNIT      DATA TYPE    INFORMATION
#----------   ------------   ------------------------------
 STRT.F            0.0000:   START DEPTH
 STOP.F         3474.0000:   STOP DEPTH
 STEP.F            0.5000:   STEP LENGTH
 NULL.          -999.2500:   NO VALUE
 COMP. LAWRENCE ALLISON & ASSOCIATES:   COMPANY
 WELL. LAWRENCE ALLISON #13-AX-14:   WELL
 FLD .            WILDCAT:   FIELD
 LOC .      S14 T38N R78W:   LOCATION
 CNTY.            NATRONA:   COUNTY
 STAT.            WYOMING:   STATE
 CTRY. UNITED STATES OF AMERICA:   COUNTRY
 SRVC.      DRESSER ATLAS:   SERVICE COMPANY
 DATE.        31-MAR-1986:   LOGDATE
 API .     49025110640000:   API NUMBER
~CURVE INFORMATION
#MNEM.UNIT       API CODE    CURVE DESCRIPTION
#----------   ------------   ------------------------------
 DEPT.F                  :   
 TEND.LBS    45 635 01 00:   TENSION FROM DENSITY LOG
 RHOB.G/C3   45 350 01 00:   BULK DENSITY
 CORR.G/C3   45 356 01 00:   DENSITY CORRECTION
 CALD.IN     45 280 60 00:   CALIPER FROM DENSITY LOG
 NPHI.DEC    42 890 00 00:   NEUTRON POROSITY
 TENR.LBS    07 635 01 00:   TENSION FROM RESISTIVITY
 RFOC.OHMM   07 220 01 00:   RESISTIVITY FOCUSED LOG RES.
 RILD.OHMM   07 120 46 00:   DEEP INDUCTION RESISTIVITY
 RILM.OHMM   07 120 44 00:   INDUCTION LOG MEDIUM RESISTIVITY
 GRR .GAPI   07 310 01 00:   GAMMA RAY FROM RESISTIVITY
 SPR .MV     07 010 01 00:   SPONTANEOUS POTENTIAL
 TENS.LBS    60 635 01 00:   TENSION FROM SONIC LOG
 DT  .US/F   60 520 00 00:   DELTA TIME
~PARAMETER INFORMATION
#MNEM.UNIT          VALUE    DESCRIPTION
#----------   ------------   ------------------------------
 EKB .F         5251.0000:   Kelly bushing
 EGL .F         5239.2000:   Ground level
 EDF .F         5248.1000:   Drilling floor
 TD  .F         3456.0000:   Total depth
 DATE.        31-MAR-1986:   Date logged
 CLNT.            A2DTECH:   Client Code
 SL  . 238' FWL & 1739' FNL:   Surface Location
 PD  .                 GL:   Permanent Datum
 EPD .F            5239.2:   Elevation Permanent Datum
 LMF .                 KB:   Log Measured From
 DMF .                 KB:   Drilling Measured From
 DAPD.F              11.8:   Feet Above Permanent Datum
 DD  .F              3450:   Depth driller
 DL  .F              3456:   Depth logger
 BLI .F              3450:   Bottom log interval
 CS1 .IN            8.625:   Casing size
 CBD1.      8.625" @ 689':   Casing driller 1
 CBL1.F               692:   Casing logger 1
 BS1 .IN            7.875:   Bit size
 BSD1.F              3450:   Depth drilled with bit1
 DFT .        POLYMER/KCL:   Type fluid in hole
 DFD .                9.1:   Density
 DFV .                 38:   Viscosity
 DFPH.                8.5:   pH
 DFL .               11.2:   Fluid loss
 MSS .           FLOWLINE:   Source of sample
 RMS .OHMM            .29:   Rm
 MST .F                65:   Rm Meas. temp.
 RMF .OHMM           .235:   Rmf
 MFST.F                65:   Rmf Meas. temp.
 RMC .OHMM           .378:   Rmc
 MCST.F                65:   Rmc Meas. temp.
 MFSS.               MEAS:   Source Rmf.
 MCSS.               MEAS:   Source Rmc.
 RMB .OHMM           .163:   Rm. at BHT
 BHT .F               115:   BHT.
 TCS .HRS               3:   Time Circ. stopped
 MRT .F               115:   Maximum recorded temp.
 LUN .            HL-6274:   Logging unit number
 LUL .           GILLETTE:   Logging unit location
 ENGI.             RAUTIO:   Recorded By
 WITN.             STRONG:   Witnessed by
 ORIG.           5" PRINT:   Origin of data
 UWI .     49025110640000:   Unique Well ID
 DICO. A2D TECHNOLOGIES, INC.:   Digitizing Company
~OTHER INFORMATION
~A    DEPT    TEND       RHOB       CORR       CALD       NPHI       TENR       RFOC       RILD       RILM          GRR      SPR       TENS         DT   
# ...
 2730.0000   -54.8050     2.3940     0.0130     8.9950     0.1990   -61.1000    17.7370    22.8680    17.5620    62.6970   -13.2680   -66.5930    76.6380
 2730.5000   -54.8050     2.3980     0.0160     8.9620     0.1970   -64.4430    16.2740    22.9730    17.1940    68.2870   -14.2480   -67.1120    76.7840
 2731.0000   -54.8050     2.3990     0.0160     8.9320     0.1960   -64.4430    15.2720    22.9730    16.8260    69.1100   -14.7350   -67.6300    76.9300
 2731.5000   -54.8050     2.3990     0.0150     8.9370     0.2020   -64.4430    15.1700    22.7580    16.4730    70.0320   -15.0530   -68.1490    77.0760
 2732.0000   -54.8050     2.4040     0.0140     8.9410     0.2110   -64.4430    15.0680    22.5560    16.4730    71.9780   -15.5290   -68.6680    77.1040
 2732.5000   -54.8050     2.4110     0.0160     8.9460     0.2170   -64.4430    14.9650    22.3530    17.0050    76.2630   -16.3030   -69.1860    76.7600
 2733.0000   -54.8050     2.4150     0.0160     8.9510     0.2140   -64.4430    14.8810    22.1510    17.5540    79.2020   -17.0760   -69.7050    76.4160
 2733.5000   -54.8050     2.4190     0.0160     8.9550     0.2110   -64.4430    15.7090    21.9490    17.8540    82.2300   -17.5980   -70.2230    76.0710
 2734.0000   -54.8050     2.4240     0.0160     8.9600     0.2110   -64.4430    16.8230    21.7340    17.3500    82.5210   -17.0640   -70.7420    75.3340
 2734.5000   -54.8050     2.4210     0.0130     8.9650     0.2100   -64.4430    17.5740    21.3690    16.9460    78.5080   -16.4210   -71.2610    74.9550
 2735.0000   -54.8050     2.4080     0.0130     8.9690     0.2040   -64.4430    16.8310    20.9800    16.5430    74.2900   -16.1300   -71.7790    74.6670
 2735.5000   -54.8050     2.3950     0.0190     8.9740     0.1990   -64.4430    15.8760    20.5910    16.1390    71.4650   -15.9560   -72.2980    74.6060
 2736.0000   -54.8050     2.3850     0.0140     8.9790     0.1970   -64.4430    15.1980    20.2030    15.7360    70.2200   -15.7880   -72.8160    74.8200
 2736.5000   -52.6840     2.3760     0.0030     8.9830     0.1970   -64.4430    14.5720    19.8140    15.3320    67.6710   -15.6200   -73.3350    75.1850
 2737.0000   -49.6000     2.3760     0.0010     8.9880     0.1990   -64.4430    14.3420    19.4250    15.0200    66.7350   -15.4510   -73.8540    75.6980
 2737.5000   -46.5150     2.3830    -0.0010     8.9880     0.2020   -64.4430    14.3420    19.2740    15.4420    67.3690   -15.2800   -74.3720    75.8860
 2738.0000   -43.4310     2.3900    -0.0030     8.9840     0.2010   -64.4430    14.9080    19.4530    16.1720    71.4980   -15.3020   -74.8910    75.6710
 2738.5000   -40.3470     2.3980    -0.0050     8.9800     0.1890   -64.4430    15.4750    20.0000    17.6910    73.9090   -15.7470   -75.4090    75.2720
 2739.0000   -37.2620     2.4050     0.0020     8.9750     0.1670   -64.4430    15.8620    21.6090    19.8160    75.2200   -16.1960   -75.9280    74.8080
 2739.5000   -34.1780     2.4310     0.0170     8.9710     0.1360   -64.4430    16.1030    26.6320    27.7410    75.3960   -16.6450   -76.4470    74.1740
 2740.0000   -31.0940     2.4890     0.0070     8.9720     0.1060   -64.4430    16.4730    39.3820    36.1820    73.0970   -17.0870   -76.9650    72.6860
 2740.5000   -28.0090     2.5460    -0.0030     8.9730     0.0930   -64.4430    22.1390    53.2650    44.6240    66.4180   -17.4290   -77.4840    68.2680
 2741.0000   -24.7750     2.5820    -0.0090     8.9750     0.0900   -64.4430    85.6230    67.0820    53.0660    59.9100   -17.2870   -78.0020    63.8500
 2741.5000   -24.7750     2.5880    -0.0150     8.9760     0.0930   -64.4430   144.3160    65.7500    61.7300    54.9210   -16.6300   -78.5210    59.1690
 2742.0000   -37.1070     2.5640    -0.0130     8.9770     0.1100   -64.4430   167.4170    62.4730    57.6580    54.8640   -15.6440   -79.0400    55.8660
 2742.5000   -50.2670     2.5000    -0.0040     8.9790     0.1300   -64.4430   102.2780    55.4300    47.0350    56.5490   -14.6830   -79.5580    56.0660
 2743.0000   -64.8150     2.4380    -0.0040     8.9800     0.1490   -64.4430    49.0820    48.3880    36.4110    58.3320   -13.7960   -80.0770    58.9410
 2743.5000   -64.2140     2.3850    -0.0050     8.9820     0.1690   -64.4430    28.4380    41.3450    25.7880    60.1160   -12.9190   -80.5950    63.9740
 2744.0000   -62.1140     2.3580    -0.0060     8.9830     0.1930   -64.4430    21.1140    35.1150    21.2540    61.8720   -11.5290   -81.1140    68.4060
 2744.5000   -60.0140     2.3430    -0.0070     8.9850     0.1930   -64.4430    16.6260    29.5480    18.6950    62.6520    -9.9880   -81.6330    72.4330
 2745.0000   -57.9140     2.3410    -0.0070     8.9860     0.2070   -64.4430    15.6310    23.9800    15.8760    60.5960    -8.4700   -82.1510    74.6450
 2745.5000   -55.8140     2.3470    -0.0030     8.9870     0.2090   -64.4430    15.1150    20.5480    15.2480    59.8230    -7.9690   -82.6700    75.8530
 2746.0000   -53.7140     2.3590     0.0020     8.9890     0.2070   -64.4430    14.6090    19.3410    15.0200    61.5390    -7.5270   -83.1890    76.0860
 2746.5000   -51.6140     2.3710     0.0050     8.9900     0.2080   -63.8700    14.8040    18.7480    15.0200    66.0700    -7.2730   -83.7070    76.0350
 2747.0000   -49.5140     2.3730     0.0020     8.9900     0.2140   -62.9920    15.1030    18.7480    15.3770    68.5370    -7.2790   -84.2260    75.9330
 2747.5000   -47.4140     2.3720    -0.0040     8.9900     0.2200   -62.1130    15.4020    19.1410    15.7230    71.4940    -7.4530   -84.7440    75.8300
 2748.0000   -45.3140     2.3720    -0.0080     8.9900     0.2190   -61.2350    15.5690    20.2170    16.0680    73.1350    -8.4370   -82.5570    75.7270
 2748.5000   -44.7950     2.3740    -0.0020     8.9900     0.1920   -60.3570    15.4420    21.3360    16.4140    74.0080    -9.4160   -78.8850    75.0490
 2749.0000   -49.1990     2.3760     0.0090     8.9900     0.1870   -59.4790    15.9590    21.3360    16.7800    73.5790   -10.3920   -75.2120    73.4390
 2749.5000   -57.4240     2.3760     0.0200     8.9900     0.1900   -58.6000    16.3220    21.0910    16.7800    73.1470   -11.1670   -71.5400    71.4170
 2750.0000   -64.8150     2.3750     0.0200     8.9900     0.1970   -57.7220    15.8280    20.9100    16.1720    72.5480   -11.5120   -67.8680    69.3950
 2750.5000   -61.8290     2.3770     0.0020     8.9900     0.2010   -56.8440    15.1370    20.7280    15.6200    69.6120   -11.8570   -64.1950    68.5790
 2751.0000   -57.5380     2.3870     0.0020     8.9900     0.2040   -55.9660    14.4460    20.5460    15.1200    70.1100   -12.2030   -60.5230    70.1940
 2751.5000   -53.2470     2.3960     0.0020     8.9900     0.2060   -55.0880    14.1770    20.3730    14.7150    70.5480   -12.5480   -56.8500    72.3280
 2752.0000   -48.9550     2.3990     0.0020     8.9900     0.2090   -56.7000    14.1060    20.1210    14.5990    70.0950   -12.8910   -58.4420    74.4620
 2752.5000   -44.7950     2.3950     0.0030     8.9900     0.2080   -66.5500    13.8850    19.8800    14.4830    67.0880   -13.2340   -66.6500    75.8960
 2753.0000   -44.7950     2.3890     0.0090     8.9900     0.2050   -74.4730    13.5730    19.6390    14.3660    65.8770   -13.4830   -74.8250    76.1680
 2753.5000   -45.1010     2.3870     0.0150     8.9900     0.2030   -74.4730    13.4440    19.3980    14.3420    68.6260   -13.6900   -74.4480    76.0780
 2754.0000   -46.5970     2.3910     0.0200     8.9900     0.2050   -74.4730    13.8610    19.1570    14.3050    73.5100   -13.8980   -72.4780    75.9860
 2754.5000   -48.0920     2.3930     0.0210     8.9900     0.2080   -74.4730    14.8570    19.0970    14.2400    78.3500   -14.1010   -70.5090    76.2590
 2755.0000   -49.5870     2.3930     0.0210     8.9900     0.2070   -74.4730    15.5850    19.2550    14.2100    79.2230   -14.2430   -68.5390    76.6570
 2755.5000   -51.0830     2.3880     0.0210     8.9900     0.2030   -74.4730    15.3690    19.3940    14.4750    78.8290   -14.0320   -66.5690    77.0870
