~VERSION INFORMATION
 VERS.                2.0:   CWLS LOG ASCII STANDARD - VERSION 2.0
 WRAP.                 NO:   ONE LINE PER DEPTH STEP
~WELL INFORMATION
#MNEM.UNIT      DATA TYPE    INFORMATION
#----------   ------------   ------------------------------
 STRT.F          218.5000:   START DEPTH
 STOP.F         3291.0000:   STOP DEPTH
 STEP.F            0.5000:   STEP LENGTH
 NULL.          -999.2500:   NO VALUE
 COMP.    FENIX & SCISSON:   COMPANY
 WELL.   FENIX SHX #63-23:   WELL
 FLD .  TEAPOT DOME NPR-3:   FIELD
 LOC .      S23 T38N R78W:   LOCATION
 CNTY.            NATRONA:   COUNTY
 STAT.            WYOMING:   STATE
 CTRY. UNITED STATES OF AMERICA:   COUNTRY
 SRVC.           BIRDWELL:   SERVICE COMPANY
 DATE.        08-JUL-1978:   LOGDATE
 API .     49025106600000:   API NUMBER
~CURVE INFORMATION
#MNEM.UNIT       API CODE    CURVE DESCRIPTION
#----------   ------------   ------------------------------
 DEPT.F                  :   
 GRD .GAPI   45 310 01 00:   GAMMA RAY FROM DENSITY LOG
 CALD.IN     45 280 60 00:   CALIPER FROM DENSITY LOG
 CORR.G/C3   45 356 01 00:   DENSITY CORRECTION
 RHOB.G/C3   45 350 01 00:   BULK DENSITY
 GR  .GAPI   35 310 01 00:   GAMMA RAY
 NEUT.NAPI   35 330 01 00:   NEUTRON
~PARAMETER INFORMATION
#MNEM.UNIT          VALUE    DESCRIPTION
#----------   ------------   ------------------------------
 EKB .F         5368.0000:   Kelly bushing
 EGL .F         5358.0000:   Ground level
 TD  .F         3299.0000:   Total depth
 CLNT.            A2DTECH:   Client Code
 PD  .                 GL:   Permanent Datum
 EPD .F              5358:   Elevation Permanent Datum
 LMF .                 KB:   Log Measured From
 DMF .                 KB:   Drilling Measured From
 DAPD.F                10:   Feet Above Permanent Datum
 DATE.        08-JUL-1978:   Date Logged [DD-MMM-YYYY]
 DD  .F              3299:   Depth driller
 DL  .F              3291:   Depth logger
 BLI .F              3291:   Bottom log interval
 TLI .F              1430:   Top log interval
 CS1 .IN            9.625:   Casing size
 CBD1.     9.625" @ 1450':   Casing driller 1
 CBL1.F              1442:   Casing logger 1
 BS1 .IN            8.750:   Bit size
 BSD1.F              3299:   Depth drilled with bit1
 DFT .          KCL WATER:   Type fluid in hole
 BHT .F               118:   BHT.
 TCS .HRS               2:   Time Circ. stopped
 MRT .F               118:   Maximum recorded temp.
 LUN .               2958:   Logging unit number
 LUL .               CASP:   Logging unit location
 ENGI.             MILLER:   Recorded By
 WITN.           MCGINLEY:   Witnessed by
 ORIG.           5" PRINT:   Origin of data
 UWI .     49025106600000:   Unique Well ID
 DICO. A2D TECHNOLOGIES, INC.:   Digitizing Company
 SL  . 1800' FNL & 1825' FEL:   Surface Location
~OTHER INFORMATION
~A   DEPT      GRD       CALD       CORR       RHOB          GR      NEUT   
# ...
 2974.5000    87.7286     8.9260     0.0290     2.5252  -999.2500  -999.2500
 2975.0000    88.3279     8.9254     0.0275     2.5259  -999.2500  -999.2500
 2975.5000    89.5351     8.9247     0.0274     2.5341  -999.2500  -999.2500
 2976.0000    86.6368     8.9386     0.0273     2.5311  -999.2500  -999.2500
 2976.5000    86.4762     8.9377     0.0258     2.5244  -999.2500  -999.2500
 2977.0000    85.5557     8.9370     0.0272     2.5207  -999.2500  -999.2500
 2977.5000    85.2406     8.9511     0.0272     2.5237  -999.2500  -999.2500
 2978.0000    86.7521     8.9503     0.0271     2.5133  -999.2500  -999.2500
 2978.5000    87.0496     8.9804     0.0270     2.5141  -999.2500  -999.2500
 2979.0000    87.0388     9.0803     0.0272     2.5163  -999.2500  -999.2500
 2979.5000    87.7901     9.2114     0.0284     2.5141  -999.2500  -999.2500
 2980.0000    90.1423     9.0643     0.0284     2.5111  -999.2500  -999.2500
 2980.5000    92.0260     9.0197     0.0298     2.5141  -999.2500  -999.2500
 2981.0000    92.0174     9.0043     0.0297     2.5185  -999.2500  -999.2500
 2981.5000    92.4647     9.0036     0.0297     2.5230  -999.2500  -999.2500
 2982.0000    93.3841     9.0029     0.0296     2.5215  -999.2500  -999.2500
 2982.5000    95.0289     9.0022     0.0296     2.5163  -999.2500  -999.2500
 2983.0000    96.8439     9.0013     0.0295     2.5133  -999.2500  -999.2500
 2983.5000    99.1149     8.9860     0.0294     2.5096  -999.2500  -999.2500
 2984.0000   100.1825     8.9853     0.0294     2.5059  -999.2500  -999.2500
 2984.5000    96.6639     8.9846     0.0293     2.5007  -999.2500  -999.2500
 2985.0000    95.4395     8.9985     0.0292     2.5059  -999.2500  -999.2500
 2985.5000    94.2151     8.9977     0.0307     2.5156  -999.2500  -999.2500
 2986.0000    95.4223     8.9991     0.0322     2.5363  -999.2500  -999.2500
 2986.5000    96.3255     9.0111     0.0321     2.5141  -999.2500  -999.2500
 2987.0000    96.0108     9.0176     0.0335     2.5163  -999.2500  -999.2500
 2987.5000    92.2028     9.0242     0.0365     2.5223  -999.2500  -999.2500
 2988.0000    85.5072     9.0233     0.0380     2.5311  -999.2500  -999.2500
 2988.5000    81.3754     9.0226     0.0379     2.5400  -999.2500  -999.2500
 2989.0000    79.7127     9.0219     0.0378     2.5333  -999.2500  -999.2500
 2989.5000    79.7041     9.0211     0.0378     2.5311  -999.2500  -999.2500
 2990.0000    79.6955     9.0204     0.0377     2.5244  -999.2500  -999.2500
 2990.5000    79.8388     9.0197     0.0377     2.5193  -999.2500  -999.2500
 2991.0000    79.9822     9.0190     0.0376     2.5170  -999.2500  -999.2500
 2991.5000    80.1255     9.0183     0.0406     2.5237  -999.2500  -999.2500
 2992.0000    80.2667     9.0174     0.0435     2.5393  -999.2500  -999.2500
 2992.5000    80.4103     9.0167     0.0465     2.5259  -999.2500  -999.2500
 2993.0000    82.6495     9.0160     0.0465     2.5185  -999.2500  -999.2500
 2993.5000    87.2296     9.0301     0.0464     2.5319  -999.2500  -999.2500
 2994.0000    87.6769     9.1607     0.0494     2.5178  -999.2500  -999.2500
 2994.5000    87.9722     9.0284     0.0493     2.5215  -999.2500  -999.2500
 2995.0000    88.5765     8.9692     0.0492     2.5259  -999.2500  -999.2500
 2995.5000    89.1708     8.9393     0.0522     2.5333  -999.2500  -999.2500
 2996.0000    89.4661     9.1431     0.0619     2.5681  -999.2500  -999.2500
 2996.5000    89.3034     9.6835     0.0688     2.5380  -999.2500  -999.2500
 2997.0000    89.1428     9.0248     0.0444     2.5200  -999.2500  -999.2500
 2997.5000    89.1341     9.0107     0.0368     2.5244  -999.2500  -999.2500
 2998.0000    89.2775     9.0205     0.0306     2.5267  -999.2500  -999.2500
 2998.5000    89.2667     9.0383     0.0245     2.5030  -999.2500  -999.2500
 2999.0000    89.1061     9.0519     0.0259     2.5007  -999.2500  -999.2500
 2999.5000    89.0816     9.0507     0.0274     2.5059  -999.2500  -999.2500
 3000.0000    80.8226     9.0497     0.0273     2.5304  -999.2500  -999.2500
 3000.5000    73.8797     9.0634     0.0258     2.5496  -999.2500  -999.2500
 3001.0000    74.0251     9.0621     0.0242     2.5526  -999.2500  -999.2500
 3001.5000    74.4723     9.0612     0.0226     2.5511  -999.2500  -999.2500
 3002.0000    74.4614     9.0602     0.0195     2.5426  -999.2500  -999.2500
 3002.5000    74.3007     9.0592     0.0164     2.5311  -999.2500  -999.2500
 3003.0000    71.4837     9.0436     0.0148     2.5296  -999.2500  -999.2500
 3003.5000    66.5303     9.0424     0.0147     2.5356  -999.2500  -999.2500
 3004.0000    67.1295     9.0414     0.0147     2.5323  -999.2500  -999.2500
 3004.5000    71.2241     9.0404     0.0161     2.5256  -999.2500  -999.2500
 3005.0000    74.4069     9.0395     0.0176     2.5271  -999.2500  -999.2500
 3005.5000    75.7659     9.0385     0.0236     2.5347  -999.2500  -999.2500
 3006.0000    77.4776     9.0373     0.0251     2.5308  -999.2500  -999.2500
 3006.5000    78.6338     9.0363     0.0265     2.5253  -999.2500  -999.2500
 3007.0000    75.5856     9.0353     0.0265     2.5200  -999.2500  -999.2500
 3007.5000    76.3367     9.0343     0.0264     2.5131  -999.2500  -999.2500
 3008.0000    78.9116     9.0333     0.0263     2.5100  -999.2500  -999.2500
 3008.5000    81.6662     9.0321     0.0263     2.5145  -999.2500  -999.2500
 3009.0000    84.3631     9.0460     0.0262     2.5144  -999.2500  -999.2500
 3009.5000    88.7617     9.0594     0.0295     2.5159  -999.2500  -999.2500
 3010.0000    92.5523     9.0584     0.0432     2.5266  -999.2500  -999.2500
 3010.5000    92.5436     9.0721     0.0503     2.5227  -999.2500  -999.2500
 3011.0000    92.0789     9.0563     0.0547     2.5127  -999.2500  -999.2500
 3011.5000    89.4020     9.1869     0.0607     2.5249  -999.2500  -999.2500
 3012.0000    85.2204     9.0982     0.0637     2.5355  -999.2500  -999.2500
 3012.5000    84.7579     9.0387     0.0499     2.5256  -999.2500  -999.2500
 3013.0000    86.8747     9.0523     0.0468     2.5248  -999.2500  -999.2500
 3013.5000    88.9936     9.0806     0.0467     2.5355  -999.2500  -999.2500
 3014.0000    91.2645     9.1381     0.0466     2.5386  -999.2500  -999.2500
 3014.5000    91.1016     9.1079     0.0465     2.5307  -999.2500  -999.2500
 3015.0000    90.7890     9.2824     0.0464     2.5338  -999.2500  -999.2500
 3015.5000    90.4763     9.1777     0.0463     2.5460  -999.2500  -999.2500
 3016.0000    88.7958     9.1337     0.0462     2.5536  -999.2500  -999.2500
 3016.5000    84.6838     9.1037     0.0461     2.5558  -999.2500  -999.2500
 3017.0000    82.6442     9.1610     0.0460     2.5566  -999.2500  -999.2500
 3017.5000    81.7766     9.1749     0.0459     2.5611  -999.2500  -999.2500
 3018.0000    86.1752     9.1737     0.0458     2.5664  -999.2500  -999.2500
 3018.5000    91.6376     9.1873     0.0457     2.5755  -999.2500  -999.2500
 3019.0000   100.5954     9.1715     0.0441     2.5655  -999.2500  -999.2500
 3019.5000   113.5573     9.1559     0.0395     2.5426  -999.2500  -999.2500
 3020.0000   120.6366     9.1403     0.0394     2.5316  -999.2500  -999.2500
 3020.5000   113.9409     9.1101     0.0454     2.5302  -999.2500  -999.2500
 3021.0000   104.8136     9.3576     0.0498     2.5134  -999.2500  -999.2500
 3021.5000    99.6377     9.1371     0.0512     2.5018  -999.2500  -999.2500
 3022.0000    98.2612     9.0777     0.0542     2.4942  -999.2500  -999.2500
 3022.5000    98.4346     9.0474     0.0602     2.5003  -999.2500  -999.2500
 3023.0000   100.2173     9.1196     0.0678     2.4994  -999.2500  -999.2500
 3023.5000   101.7283     9.1186     0.0691     2.4986  -999.2500  -999.2500
 3024.0000   102.6314     9.4098     0.0720     2.5054  -999.2500  -999.2500
 3024.5000   102.4707     9.1457     0.0750     2.5146  -999.2500  -999.2500
 3025.0000   101.5502     9.1740     0.0794     2.5161  -999.2500  -999.2500
 3025.5000   100.1715     9.2897     0.0841     2.5191  -999.2500  -999.2500
 3026.0000    99.8588     9.6545     0.0899     2.5022  -999.2500  -999.2500
