~VERSION INFORMATION
 VERS.                2.0:   CWLS LOG ASCII STANDARD - VERSION 2.0
 WRAP.                 NO:   ONE LINE PER DEPTH STEP
~WELL INFORMATION
#MNEM.UNIT      DATA TYPE    INFORMATION
#----------   ------------   ------------------------------
 STRT.F            5.0000:   START DEPTH
 STOP.F         5604.0000:   STOP DEPTH
 STEP.F            0.5000:   STEP LENGTH
 NULL.          -999.2500:   NO VALUE
 COMP.   LAWRENCE ALLISON:   COMPANY
 WELL. LAWRENCE 62 TPX #10-10:   WELL
 FLD .           NPR NO 3:   FIELD
 LOC .      S10 T38N R78W:   LOCATION
 CNTY.            NATRONA:   COUNTY
 STAT.            WYOMING:   STATE
 CTRY. UNITED STATES OF AMERICA:   COUNTRY
 SRVC.      DRESSER ATLAS:   SERVICE COMPANY
 DATE.        08-NOV-1985:   LOGDATE
 API .     49025110490000:   API NUMBER
~CURVE INFORMATION
#MNEM.UNIT       API CODE    CURVE DESCRIPTION
#----------   ------------   ------------------------------
 DEPT.F                  :   
 TEND.LBS    45 635 01 00:   TENSION FORM DENSITY LOG
 CNC .DEC    42 890 03 00:   NEUTRON POROSITY SANDSTONE
 CORR.G/C3   45 356 01 00:   DENSITY CORRECTION
 RHOB.G/C3   45 350 01 00:   BULK DENSITY
 TENR.LBS    11 635 01 00:   TENSION FROM RESISTIVITY
 GRR .GAPI   11 310 01 00:   GAMMA RAY FROM RESISTIVITY
 SPR .MV     11 010 01 00:   SPONTANEOUS POTENTIAL FROM RES.
 CALR.IN     11 280 01 00:   CALIPER FROM RESISTIVITY
 RD  .OHMM   11 220 10 00:   RESISTIVITY DEEP
 RS  .OHMM   11 220 09 00:   RESISTIVITY SHALLOW
 RMLL.OHMM   11 270 04 00:   MICRO LATEROLOG
 TENS.LBS    60 635 01 00:   TENSION FROM SONIC
 DT  .US/F   60 520 00 00:   DELTA TIME
~PARAMETER INFORMATION
#MNEM.UNIT          VALUE    DESCRIPTION
#----------   ------------   ------------------------------
 EKB .F         5167.0000:   Kelly bushing
 EGL .F         5155.0000:   Ground level
 EDF .F            0.0000:   Drilling floor
 TD  .F         5600.0000:   Total depth
 CLNT.            A2DTECH:   Client Code
 PD  .                 GL:   Permanent Datum
 EPD .F              5155:   Elevation Permanent Datum
 LMF .                 KB:   Log Measured From
 DMF .                 KB:   Drilling Measured From
 DAPD.F                12:   Feet Above Permanent Datum
 DATE.        08-NOV-1985:   Date Logged [DD-MMM-YYYY]
 DD  .F              5600:   Depth driller
 DL  .F              5600:   Depth logger
 BLI .F              5597:   Bottom log interval
 TLI .F               467:   Top log interval
 CS1 .IN            9.625:   Casing size
 CBD1.      9.625" @ 467':   Casing driller 1
 CBL1.F               465:   Casing logger 1
 BS1 .IN             8.75:   Bit size
 BSD1.F              5600:   Depth drilled with bit1
 DFT .        KCL POLYMER:   Type fluid in hole
 DFD .                9.2:   Density
 DFV .                 38:   Viscosity
 DFPH.                8.5:   pH
 DFL .                8.6:   Fluid loss
 MSS .           FLOWLINE:   Source of sample
 RMS .OHMM           0.28:   Rm
 MST .F                75:   Rm Meas. temp.
 RMF .OHMM           0.21:   Rmf
 MFST.F                75:   Rmf Meas. temp.
 MFSS.               CALC:   Source Rmf.
 RMC .OHMM           0.35:   Rmc
 MCST.F                75:   Rmc Meas. temp.
 MCSS.               CALC:   Source Rmc.
 RMB .OHMM           0.13:   Rm. at BHT
 BHT .F               168:   BHT.
 TCS .HRS               7:   Time Circ. stopped
 MRT .F               168:   Maximum recorded temp.
 LUN .               6274:   Logging unit number
 LUL .               GLTE:   Logging unit location
 ENGI.               MACK:   Recorded By
 WITN.             STRONG:   Witnessed by
 ORIG.      2.5" 5" PRINT:   Origin of data
 UWI .     49025110490000:   Unique Well ID
 DICO. A2D TECHNOLOGIES, INC.:   Digitizing Company
~OTHER INFORMATION
~A  DEPTH     TEND        CNC       CORR       RHOB       TENR        GRR        SPR       CALR         RD         RS       RMLL       TENS         DT
# ...
 2163.0000  -999.2500  -999.2500  -999.2500  -999.2500   -73.5887    80.3585   -75.9166    10.3545     8.1805     7.1593     7.2096  -999.2500  -999.2500
 2163.5000  -999.2500  -999.2500  -999.2500  -999.2500   -73.5887    83.3918   -75.9001    10.3559     8.4194     7.2671     7.5243  -999.2500  -999.2500
 2164.0000  -999.2500  -999.2500  -999.2500  -999.2500   -73.5887    87.6227   -75.8835    10.3584     8.9071     7.4263     7.9058  -999.2500  -999.2500
 2164.5000  -999.2500  -999.2500  -999.2500  -999.2500   -73.5887    91.8535   -75.8670    10.3744     9.5548     7.8028     8.4228  -999.2500  -999.2500
 2165.0000  -999.2500  -999.2500  -999.2500  -999.2500   -84.0726    93.3898   -76.0001    10.3763    10.1787     8.3132     8.9737  -999.2500  -999.2500
 2165.5000  -999.2500  -999.2500  -999.2500  -999.2500   -93.9314    97.0218   -75.9835    10.4083    10.6940     9.2338     9.4944  -999.2500  -999.2500
 2166.0000  -999.2500  -999.2500  -999.2500  -999.2500  -103.8306   101.8515   -76.1208    10.4102    11.2354     9.7696     9.9067  -999.2500  -999.2500
 2166.5000  -999.2500  -999.2500  -999.2500  -999.2500  -103.8306   105.4836   -76.1001    10.4122    11.3994     9.9837     9.9841  -999.2500  -999.2500
 2167.0000  -999.2500  -999.2500  -999.2500  -999.2500  -103.8306   104.8559   -76.2374    10.4142    11.0991     9.6510     9.9213  -999.2500  -999.2500
 2167.5000  -999.2500  -999.2500  -999.2500  -999.2500  -101.4545   104.0070   -76.2201    10.4161    10.8044     8.9486     9.7268  -999.2500  -999.2500
 2168.0000  -999.2500  -999.2500  -999.2500  -999.2500   -94.4124   102.2193   -76.1797    10.4180    10.0889     8.4720     9.4682  -999.2500  -999.2500
 2168.5000  -999.2500  -999.2500  -999.2500  -999.2500   -87.3704    99.0472   -76.0374    10.4199     9.2910     8.1896     9.0264  -999.2500  -999.2500
 2169.0000  -999.2500  -999.2500  -999.2500  -999.2500   -80.3283    96.9808   -76.0210    10.4219     8.9800     8.3112     9.2242  -999.2500  -999.2500
 2169.5000  -999.2500  -999.2500  -999.2500  -999.2500   -73.5887    97.9281   -76.0045    10.4240     9.3065     8.5525     9.4921  -999.2500  -999.2500
 2170.0000  -999.2500  -999.2500  -999.2500  -999.2500   -72.7389    99.4545   -75.9880    10.4260     9.7101     8.9861     9.7120  -999.2500  -999.2500
 2170.5000  -999.2500  -999.2500  -999.2500  -999.2500   -71.9242    97.1084   -75.9652    10.4277    10.3441     9.3764     9.9357  -999.2500  -999.2500
 2171.0000  -999.2500  -999.2500  -999.2500  -999.2500   -71.1094    94.7524   -75.8054    10.4300    10.7927     9.7836    10.2101  -999.2500  -999.2500
 2171.5000  -999.2500  -999.2500  -999.2500  -999.2500   -70.2946    93.2849   -75.7889    10.4166    11.1828     9.9980    10.5153  -999.2500  -999.2500
 2172.0000  -999.2500  -999.2500  -999.2500  -999.2500   -69.4798    98.4237   -75.6227    10.4033    11.0380    10.1464    10.8836  -999.2500  -999.2500
 2172.5000  -999.2500  -999.2500  -999.2500  -999.2500   -68.6650    99.9502   -75.6061    10.4058    10.7450     9.9455    10.7260  -999.2500  -999.2500
 2173.0000  -999.2500  -999.2500  -999.2500  -999.2500   -67.8502    96.7058   -75.5895    10.4078    10.5325     9.6141    10.5152  -999.2500  -999.2500
 2173.5000  -999.2500  -999.2500  -999.2500  -999.2500   -67.0355    93.7511   -75.5730    10.4094    10.3961     9.2937    10.3083  -999.2500  -999.2500
 2174.0000  -999.2500  -999.2500  -999.2500  -999.2500   -66.2207    91.6945   -75.7066    10.4117    10.1905     9.1078     9.9635  -999.2500  -999.2500
 2174.5000  -999.2500  -999.2500  -999.2500  -999.2500   -65.4059    87.2427   -75.6895    10.4137    10.2700     9.1793     9.5699  -999.2500  -999.2500
 2175.0000  -999.2500  -999.2500  -999.2500  -999.2500   -64.5911    83.9886   -75.5233    10.4156    10.7899     9.4568     9.8478  -999.2500  -999.2500
 2175.5000  -999.2500  -999.2500  -999.2500  -999.2500   -63.7763    87.6206   -75.2073    10.4176    11.4150     9.7297    10.4918  -999.2500  -999.2500
 2176.0000  -999.2500  -999.2500  -999.2500  -999.2500   -62.9615    97.5401   -74.8913    10.4196    11.9100    10.0022    11.1006  -999.2500  -999.2500
 2176.5000  -999.2500  -999.2500  -999.2500  -999.2500   -62.1468   105.9626   -74.5754    10.4215    11.7558    10.1574    11.8266  -999.2500  -999.2500
 2177.0000  -999.2500  -999.2500  -999.2500  -999.2500   -61.3320   112.5803   -74.2594    10.4231    11.7656    10.3064    12.0021  -999.2500  -999.2500
 2177.5000  -999.2500  -999.2500  -999.2500  -999.2500   -60.5172   117.3104   -74.2428    10.4250    11.6940    10.5268    11.8464  -999.2500  -999.2500
 2178.0000  -999.2500  -999.2500  -999.2500  -999.2500   -59.7024   118.9448   -74.2263    10.4270    11.3836    10.6830    11.5315  -999.2500  -999.2500
 2178.5000  -999.2500  -999.2500  -999.2500  -999.2500   -58.8876   113.4151   -74.3635    10.4291    11.0048    10.6179    11.1472  -999.2500  -999.2500
 2179.0000  -999.2500  -999.2500  -999.2500  -999.2500   -58.0728   107.2881   -74.4967    10.4309    10.5628    10.4076    10.7012  -999.2500  -999.2500
 2179.5000  -999.2500  -999.2500  -999.2500  -999.2500   -57.2581   103.7931   -74.7795    10.4409    11.0232    10.0608    10.7848  -999.2500  -999.2500
 2180.0000  -999.2500  -999.2500  -999.2500  -999.2500   -56.4433   106.8263   -75.3576    10.4498    11.4357    10.0692    11.4901  -999.2500  -999.2500
 2180.5000  -999.2500  -999.2500  -999.2500  -999.2500   -55.6285   105.9674   -75.7902    10.4517    11.2572    10.0777    11.4201  -999.2500  -999.2500
 2181.0000  -999.2500  -999.2500  -999.2500  -999.2500   -54.8137   104.2102   -76.0730    10.4537    10.7210    10.2272    11.1165  -999.2500  -999.2500
 2181.5000  -999.2500  -999.2500  -999.2500  -999.2500   -53.9989   102.4521   -76.2103    10.4557    10.6070    10.3072    10.6717  -999.2500  -999.2500
 2182.0000  -999.2500  -999.2500  -999.2500  -999.2500   -52.4124   104.5881   -76.3434    10.4576    10.8506    10.3877    10.6045  -999.2500  -999.2500
 2182.5000  -999.2500  -999.2500  -999.2500  -999.2500   -49.0128   104.9268   -76.1462    10.4595    11.1639    10.3964    11.0674  -999.2500  -999.2500
 2183.0000  -999.2500  -999.2500  -999.2500  -999.2500   -45.6132   104.6647   -75.8917    10.4465    11.4864    10.2616    11.4681  -999.2500  -999.2500
 2183.5000  -999.2500  -999.2500  -999.2500  -999.2500   -42.2136   104.3967   -75.6371    10.4484    11.4695     9.9196    11.4777  -999.2500  -999.2500
 2184.0000  -999.2500  -999.2500  -999.2500  -999.2500   -38.8140   103.8371   -75.5245    10.4355    10.8546     9.4568    10.8664  -999.2500  -999.2500
 2184.5000  -999.2500  -999.2500  -999.2500  -999.2500   -35.4143   104.4850   -75.5080    10.4225    10.3574     9.0784    10.2164  -999.2500  -999.2500
 2185.0000  -999.2500  -999.2500  -999.2500  -999.2500   -36.0577   106.9194   -75.4914    10.4245    10.0934     8.6548     9.4729  -999.2500  -999.2500
 2185.5000  -999.2500  -999.2500  -999.2500  -999.2500   -43.6414   107.5575   -75.4748    10.4109    10.1019     8.3085     8.6622  -999.2500  -999.2500
 2186.0000  -999.2500  -999.2500  -999.2500  -999.2500   -51.2252   108.1955   -75.4583    10.4132    10.1103     8.3734     8.4889  -999.2500  -999.2500
 2186.5000  -999.2500  -999.2500  -999.2500  -999.2500   -58.8089   109.1330   -75.4417    10.4154    10.1187     8.7980     9.0460  -999.2500  -999.2500
 2187.0000  -999.2500  -999.2500  -999.2500  -999.2500   -66.3927   113.3639   -75.2754    10.4173    10.1281     8.9907     8.9890  -999.2500  -999.2500
 2187.5000  -999.2500  -999.2500  -999.2500  -999.2500   -73.5887   118.4929   -75.1092    10.4193    10.1356     9.0610     9.4468  -999.2500  -999.2500
 2188.0000  -999.2500  -999.2500  -999.2500  -999.2500   -72.9361   121.5164   -75.0926    10.4063    10.4294     9.1318     9.9949  -999.2500  -999.2500
 2188.5000  -999.2500  -999.2500  -999.2500  -999.2500   -72.1653   114.6792   -75.0793    10.4082    10.1525     9.1395    10.6464  -999.2500  -999.2500
