~VERSION INFORMATION
 VERS.                2.0:   CWLS LOG ASCII STANDARD - VERSION 2.0
 WRAP.                 NO:   ONE LINE PER DEPTH STEP
~WELL INFORMATION
#MNEM.UNIT      DATA TYPE    INFORMATION
#----------   ------------   ------------------------------
 STRT.F           35.5000:   START DEPTH
 STOP.F         6235.5000:   STOP DEPTH
 STEP.F            0.5000:   STEP LENGTH
 NULL.          -999.2500:   NO VALUE
 COMP. LAWRENCE-ALLISON ASSOCIATES:   COMPANY
 WELL. LAWRENCE-ALLISON "X" #62-11:   WELL
 FLD .                NPR:   FIELD
 LOC .      S11 T38N R78W:   LOCATION
 CNTY.            NATRONA:   COUNTY
 STAT.            WYOMING:   STATE
 CTRY. UNITED STATES OF AMERICA:   COUNTRY
 SRVC.      DRESSER ATLAS:   SERVICE COMPANY
 DATE.        18-DEC-1982:   LOGDATE
 API .     49025109020000:   API NUMBER
~CURVE INFORMATION
#MNEM.UNIT       API CODE    CURVE DESCRIPTION
#----------   ------------   ------------------------------
 DEPT.F                  :   
 ILM .OHMM   07 120 44 00:   INDUCTION LOG MEDIUM
 ILD .OHMM   07 120 46 00:   DEEP RESISTIVITY
 RFOC.OHMM   07 220 04 00:   RESISTIVITY FOCUSED LOG RES.
 DT  .US/F   60 520 00 00:   DELTA TIME
 TENS.LBS    60 635 01 00:   TENSION FROM SONIC LOG.
 RS  .OHMM   11 220 09 00:   RESISTIVITY SHALLOW
 RD  .OHMM   11 220 10 00:   RESISTIVITY DEEP
 RLL .OHMM   11 220 00 00:   LATEROLOG RESISTIVITY
 SPR .MV     07 010 01 00:   SPONTANEOUS POTENTIAL
 TENR.LBS    07 635 01 00:   TENSION FROM RES. LOG
 CALD.IN     45 280 60 00:   CALIPER FROM DENSITY LOG
 GRD .GAPI   45 310 01 00:   GAMMA RAY FROM DENSITY LOG
 DEN .G/C3   45 350 01 00:   FORMATION FACTOR DENSITY
 DRHO.G/C3   45 356 01 00:   DENSITY CORRECTION
 TEND.LBS    45 635 01 00:   TENSION FROM DENSITY LOG
 CN  .DEC    42 890 00 00:   NEUTRON POROSITY
~PARAMETER INFORMATION
#MNEM.UNIT          VALUE    DESCRIPTION
#----------   ------------   ------------------------------
 EKB .F         5218.0000:   Kelly bushing
 EGL .F         5208.0000:   Ground level
 EDF .F            0.0000:   Drilling floor
 TD  .F         6232.0000:   Total depth
 DATE.        18-DEC-1982:   Date logged
 CLNT.            A2DTECH:   Client Code
 SL  . 971' FNL & 1898' FEL:   Surface Location
 PD  .                 GL:   Permanent Datum
 EPD .F              5208:   Elevation Permanent Datum
 LMF .                 KB:   Log Measured From
 DMF .                 KB:   Drilling Measured From
 DAPD.F                10:   Feet Above Permanent Datum
 DD  .F              6222:   Depth driller
 DL  .F              6232:   Depth logger
 BLI .F              6230:   Bottom log interval
 CS1 .IN            9.625:   Casing size
 CBD1.     9.625" @ 1002':   Casing driller 1
 CBL1.F              1002:   Casing logger 1
 BS1 .IN             8.75:   Bit size
 BSD1.F              6222:   Depth drilled with bit1
 DFT .                KCL:   Type fluid in hole
 DFD .                  9:   Density
 DFV .                 37:   Viscosity
 DFPH.                  8:   pH
 DFL .                8.4:   Fluid loss
 MSS .           FLOWLINE:   Source of sample
 RMS .OHMM            .25:   Rm
 MST .F                60:   Rm Meas. temp.
 RMF .OHMM            .18:   Rmf
 MFST.F                62:   Rmf Meas. temp.
 RMC .OHMM            .32:   Rmc
 MCST.F                60:   Rmc Meas. temp.
 MFSS.               MEAS:   Source Rmf.
 MCSS.               CALC:   Source Rmc.
 RMB .OHMM            .09:   Rm. at BHT
 BHT .F               166:   BHT.
 TCS .HRS               6:   Time Circ. stopped
 MRT .F               166:   Maximum recorded temp.
 LUN .               6274:   Logging unit number
 LUL .               GLTE:   Logging unit location
 ENGI.             RAUTIO:   Recorded By
 WITN.           JENNINGS:   Witnessed by
 ORIG.           5" PRINT:   Origin of data
 UWI .     49025109020000:   Unique Well ID
 DICO. A2D TECHNOLOGIES, INC.:   Digitizing Company
~OTHER INFORMATION
~A  DEPTH      ILM        ILD       RFOC         DT       TENS         RS         RD        RLL        SPR       TENR       CALD        GRD        DEN       DRHO       TEND         CN
# ...
 3755.0000  -999.2500  -999.2500  -999.2500    79.1108   -35.9428     6.4618     6.3491     6.1532   -81.8227   -70.0513    10.2735    79.0110     2.4930    -0.0178     2.7343     0.2484
 3755.5000  -999.2500  -999.2500  -999.2500    78.8127   -35.7035     6.1948     6.2126     5.9819   -81.6909   -66.7085    10.2723    82.5893     2.4938    -0.0227     3.0123     0.2600
 3756.0000  -999.2500  -999.2500  -999.2500    80.7792   -35.4766     5.8565     6.0377     5.7347   -81.5666   -67.1308    10.2863    86.4744     2.4960    -0.0140    -0.6394     0.2656
 3756.5000  -999.2500  -999.2500  -999.2500    81.9146   -35.2496     5.6145     5.7860     5.5364   -81.5927   -67.6232    10.2851    88.2584     2.4991    -0.0044    -4.2578     0.2725
 3757.0000  -999.2500  -999.2500  -999.2500    82.2960   -35.0227     5.4199     5.5841     5.3450   -81.6187   -64.3508    10.2840    87.3118     2.5029     0.0078    -7.9428     0.2775
 3757.5000  -999.2500  -999.2500  -999.2500    82.3763   -34.7958     5.3416     5.3886     5.2320   -81.6391   -64.7730    10.2977    84.2639     2.5083     0.0169    -7.6172     0.2519
 3758.0000  -999.2500  -999.2500  -999.2500    82.1543   -34.5689     5.7219     5.3102     5.2661   -81.5130   -65.1953    10.3118    81.2161     2.5145     0.0230    -7.3437     0.2417
 3758.5000  -999.2500  -999.2500  -999.2500    80.9519   -34.3419     6.2575     5.4548     5.6419   -81.2383   -65.6880    10.3103    81.4917     2.5066     0.0259   -10.9765     0.2385
 3759.0000  -999.2500  -999.2500  -999.2500    78.7699   -34.1150     6.7030     5.9657     6.0871   -81.1065   -66.1103    10.3092    80.2434     2.4987     0.0303   -10.6612     0.2395
 3759.5000  -999.2500  -999.2500  -999.2500    77.7183   -33.8881     7.1795     6.6148     6.8464   -81.1338   -66.5325    10.3079    78.4023     2.4908     0.0067   -14.3553     0.2401
 3760.0000  -999.2500  -999.2500  -999.2500    77.4209   -33.6611     7.5847     7.2847     7.2343   -81.1586   -67.0252    10.3065    78.9691     2.4892    -0.0402   -14.0583     0.2405
 3760.5000  -999.2500  -999.2500  -999.2500    77.4258   -33.4342     7.5803     7.5363     7.3832   -81.1819   -67.4473    10.3056    80.7479     2.4930    -0.0435   -13.7612     0.2389
 3761.0000  -999.2500  -999.2500  -999.2500    78.0334   -33.2073     7.3169     7.0732     7.2271   -81.2070   -67.9400    10.3043    83.1247     2.4953    -0.0126   -13.4643     0.2414
 3761.5000  -999.2500  -999.2500  -999.2500    79.3958   -32.9804     7.0146     6.8740     6.8334   -81.2331   -66.4797    10.3030    85.2051     2.4976     0.0105   -17.1584     0.2486
 3762.0000  -999.2500  -999.2500  -999.2500    80.1542   -32.7534     6.7709     6.7731     5.9854   -81.1013   -61.2544    10.3020    82.7606     2.4983     0.0275   -16.8614     0.2511
 3762.5000  -999.2500  -999.2500  -999.2500    80.5362   -32.5265     6.7202     6.7210     5.4661   -81.1278   -61.7469    10.3007    82.1208     2.4967     0.0288   -12.6582     0.2521
 3763.0000  -999.2500  -999.2500  -999.2500    80.6913   -32.2996     6.6698     6.7149     5.2771   -81.1534   -58.4394    10.2994    83.3015     2.4950     0.0177    -7.4040     0.2458
 3763.5000  -999.2500  -999.2500  -999.2500    80.6956   -32.0726     6.8528     6.8035     5.4229   -81.1795   -55.1319    10.3023    86.2790     2.4918     0.0081    -4.3052     0.2399
 3764.0000  -999.2500  -999.2500  -999.2500    80.2473   -31.8457     7.0904     6.9889     5.7302   -81.0477   -53.6714    10.3122    85.0411     2.4871    -0.0077     3.7730     0.2346
 3764.5000  -999.2500  -999.2500  -999.2500    79.3473   -31.6188     7.5420     7.2807     6.1819   -80.9234   -48.5164    10.3108    79.2732     2.4855    -0.0141     4.0699     0.2306
 3765.0000  -999.2500  -999.2500  -999.2500    77.8439   -31.3919     8.0789     7.6375     6.5321   -80.7953   -48.9388    10.3098    75.0187     2.4846    -0.0081     4.3244     0.2253
 3765.5000  -999.2500  -999.2500  -999.2500    76.2645   -31.1649     8.5934     8.1794     7.3470   -80.8211   -45.5959    10.3086    73.1775     2.4869    -0.0052     4.6215     0.2259
 3766.0000  -999.2500  -999.2500  -999.2500    74.9867   -30.9380     9.0156     8.5209     7.9819   -80.6933   -42.3235    10.3073    72.2361     2.4896    -0.0086     4.8760     0.2303
 3766.5000  -999.2500  -999.2500  -999.2500    74.3883   -30.7111     9.3932     9.5139     8.4342   -80.5684   -39.0511    10.3060    71.9032     2.4930    -0.0103     5.1172     0.2281
 3767.0000  -999.2500  -999.2500  -999.2500    74.3926   -30.4841     9.7857     9.9801     8.4297   -80.2943   -35.6730    10.3200    72.4701     2.4976    -0.0043     9.5549     0.2253
 3767.5000  -999.2500  -999.2500  -999.2500    74.5483   -30.2572    10.1955    10.1824     8.4259   -80.3204   -32.3655    10.3187    73.9472     2.5007     0.0032    13.4946     0.2260
 3768.0000  -999.2500  -999.2500  -999.2500    74.5526   -30.0303    10.6955    10.4598     8.9647   -80.1849   -32.8581    10.3174    75.1278     2.5045     0.0092    21.6041     0.2285
 3768.5000  -999.2500  -999.2500  -999.2500    74.3306   -29.8034    10.9139    10.8950    10.0139   -80.2109   -33.2804    10.3164    74.1812     2.5068     0.0184    21.8586     0.2291
 3769.0000  -999.2500  -999.2500  -999.2500    73.8076   -29.5764    10.9835    11.0389    10.5080   -80.0866   -29.9374    10.3301    73.2450     2.5098     0.0214    26.0619     0.2279
 3769.5000  -999.2500  -999.2500  -999.2500    73.6603   -29.3144    10.6757    10.8029    10.2147   -80.1126   -34.1951    10.3290    73.2137     2.5074     0.0148    26.2890     0.2282
 3770.0000  -999.2500  -999.2500  -999.2500    73.7414   -25.3404    10.3058    10.3525     9.2639   -80.4361   -34.6175    10.3429    74.3839     2.5042     0.0022    26.5625     0.2298
 3770.5000  -999.2500  -999.2500  -999.2500    74.1227   -25.3624     9.9478    10.0610     8.0023   -80.4618   -35.1101    10.3417    76.1627     2.5034    -0.0105    26.8359     0.2323
 3771.0000  -999.2500  -999.2500  -999.2500    74.2778   -25.5555     9.8050     9.8446     7.7257   -80.7886   -39.2974    10.3403    78.5395     2.5064    -0.0061    27.1094     0.2320
 3771.5000  -999.2500  -999.2500  -999.2500    74.1312   -25.7485     9.8675     9.7689     7.8302   -80.9594   -51.0147    10.3390    82.1282     2.5079    -0.0016    23.4284     0.2329
 3772.0000  -999.2500  -999.2500  -999.2500    73.9846   -25.9416    10.4234    10.1050     9.9107   -81.1340   -59.0375    10.3380    83.6052     2.5047    -0.0018    23.7678     0.2408
 3772.5000  -999.2500  -999.2500  -999.2500    74.3674   -26.1347    10.4898    10.9748    11.3825   -81.1600   -63.2249    10.3368    80.5522     2.5022    -0.0036    24.0648     0.2495
 3773.0000  -999.2500  -999.2500  -999.2500    75.2766   -26.3277    10.0554    11.3539    11.7794   -81.1861   -63.7176    10.3354    79.6160     2.5015    -0.0038    24.3406     0.2623
 3773.5000  -999.2500  -999.2500  -999.2500    75.8842   -26.5208     9.2470     9.8723    10.8317   -81.3588   -60.3747    10.3344    79.5848     2.5068    -0.0024    24.5951     0.2645
 3774.0000  -999.2500  -999.2500  -999.2500    76.8695   -26.7139     8.3277     8.3489     8.8508   -81.3848   -53.3372    10.3332    80.7550     2.5115     0.0082    24.8438     0.2667
 3774.5000  -999.2500  -999.2500  -999.2500    77.5525   -26.9069     8.0951     7.7287     7.8615   -81.4072   -49.9943    10.3320    81.9356     2.5044     0.0282    25.1172     0.2745
 3775.0000  -999.2500  -999.2500  -999.2500    78.0099   -26.8088     7.7606     7.4591     7.6426   -81.4295   -50.4869    10.3307    82.5077     2.4910     0.0218    21.4313     0.2880
 3775.5000  -999.2500  -999.2500  -999.2500    78.6175   -34.2309     7.2860     7.0987     7.2760   -81.4556   -54.6742    10.3294    84.8793     2.4831     0.0097    17.8221     0.2921
 3776.0000  -999.2500  -999.2500  -999.2500    80.0546   -41.5464     6.7939     6.4359     6.5077   -81.4767   -55.0965    10.3283    89.0713     2.4760     0.0011    18.1615     0.2964
