~VERSION INFORMATION
 VERS.                2.0:   CWLS LOG ASCII STANDARD - VERSION 2.0
 WRAP.                 NO:   ONE LINE PER DEPTH STEP
~WELL INFORMATION
#MNEM.UNIT      DATA TYPE    INFORMATION
#----------   ------------   ------------------------------
 STRT.F          199.5000:   START DEPTH
 STOP.F         2983.0000:   STOP DEPTH
 STEP.F            0.5000:   STEP LENGTH
 NULL.          -999.2500:   NO VALUE
 COMP.    FENIX & SCISSON:   COMPANY
 WELL. FENIX (UE-49) "AX" #52-29:   WELL
 FLD . U.S. NAVAL PETROLEUM RESERVE #3:   FIELD
 LOC .      S29 T39N R78W:   LOCATION
 CNTY.            NATRONA:   COUNTY
 STAT.            WYOMING:   STATE
 CTRY. UNITED STATES OF AMERICA:   COUNTRY
 SRVC.           BIRDWELL:   SERVICE COMPANY
 DATE.        07-AUG-1977:   LOGDATE
 API .     49025104090000:   API NUMBER
~CURVE INFORMATION
#MNEM.UNIT       API CODE    CURVE DESCRIPTION
#----------   ------------   ------------------------------
 DEPT.F                  :   
 GRD .GAPI   45 310 01 00:   GAMMA RAY FROM DENSITY LOG
 CALD.IN     45 280 60 00:   CALIPER FROM DENSITY LOG
 DEN .G/C3   45 350 01 00:   BULK DENSITY
 DCOR.G/C3   45 356 01 00:   DENSITY CORRECTION
 SN  .OHMM   05 040 16 00:   SHORT NORMAL 16"
 ILD .OHMM   05 120 46 00:   INDUCTION LOG DEEP RESISTIVITY
~PARAMETER INFORMATION
#MNEM.UNIT          VALUE    DESCRIPTION
#----------   ------------   ------------------------------
 EKB .F         4995.0000:   Kelly bushing
 EGL .F         4985.0000:   Ground level
 EDF .F            0.0000:   Drilling floor
 TD  .F         2973.0000:   Total depth
 DATE.         7-AUG-1977:   Date logged
 CLNT.            A2DTECH:   Client Code
 SL  . 1400' FNL & 2380' FEL:   Surface Location
 PD  .                 GL:   Permanent Datum
 EPD .F              4985:   Elevation Permanent Datum
 LMF .                 KB:   Log Measured From
 DMF .                 KB:   Drilling Measured From
 DAPD.F                10:   Feet Above Permanent Datum
 DD  .F              2972:   Depth driller
 DL  .F              2973:   Depth logger
 BLI .F              2968:   Bottom log interval
 TLI .F               216:   Top log interval
 CS1 .IN            8.625:   Casing size
 CBD1.      8.625" @ 216':   Casing driller 1
 CBL1.F               216:   Casing logger 1
 BS1 .IN            7.875:   Bit size
 BSD1.F              2972:   Depth drilled with bit1
 DFT .            GEL-KCL:   Type fluid in hole
 DFD .                8.9:   Density
 DFV .                 33:   Viscosity
 DFL .                  9:   Fluid loss
 MSS .            MUD PIT:   Source of sample
 RMS .OHMM           0.26:   Rm
 MST .F                73:   Rm Meas. temp.
 RMF .OHMM           0.26:   Rmf
 MFST.F                72:   Rmf Meas. temp.
 RMC .OHMM           0.96:   Rmc
 MCST.F                72:   Rmc Meas. temp.
 MFSS.              PRESS:   Source Rmf.
 RMB .OHMM           0.14:   Rm. at BHT
 BHT .F               130:   BHT.
 TCS .HRS               5:   Time Circ. stopped
 MRT .F               130:   Maximum recorded temp.
 LUN .               2958:   Logging unit number
 LUL .             CASPER:   Logging unit location
 ENGI.                LAW:   Recorded By
 WITN.             RHODES:   Witnessed by
 ORIG.           5" PRINT:   Origin of data
 UWI .     49025104090000:   Unique Well ID
 DICO. A2D TECHNOLOGIES, INC.:   Digitizing Company
~OTHER INFORMATION
~A   DEPT       GRD      CALD        DEN       DCOR         SN        ILD   
# ...
 1863.5000    96.5500     8.4520     2.4530     0.0180    10.4800    12.5350
 1864.0000    99.8110     8.4510     2.4530     0.0180    10.4980    12.6480
 1864.5000   107.1020     8.4500     2.4530     0.0180    10.5160    12.5320
 1865.0000   102.7500     8.4490     2.4520     0.0180    10.5290    12.4180
 1865.5000    90.0900     8.4480     2.4520     0.0200    10.5010    12.4420
 1866.0000    84.7280     8.4470     2.4490     0.0220    10.4760    12.4710
 1866.5000    77.0510     8.4460     2.4460     0.0230    10.4520    12.4990
 1867.0000    74.1390     8.4460     2.4420     0.0250    10.4160    12.5280
 1867.5000    76.8660     8.4450     2.4420     0.0220    10.3340    12.6140
 1868.0000    78.4810     8.4440     2.4420     0.0160    10.2530    12.7110
 1868.5000    73.9280     8.4430     2.4320     0.0170    10.1720    12.7650
 1869.0000    74.5870     8.4420     2.4330     0.0170    10.0910    11.4350
 1869.5000    70.7450     8.4410     2.4350     0.0190    10.0100    11.7540
 1870.0000    68.2340     8.4440     2.4310     0.0230     9.7620    11.0240
 1870.5000    72.0120     8.4550     2.4340     0.0270     9.4330    11.3980
 1871.0000    79.6370     8.4660     2.4320     0.0280     9.2980    11.9880
 1871.5000    85.4810     8.4770     2.4300     0.0240     8.9010    12.4710
 1872.0000    87.6350     8.4870     2.4330     0.0230     8.7660    12.6650
 1872.5000    84.7770     8.5090     2.4370     0.0250     8.8280    12.8820
 1873.0000    79.8920     8.9370     2.4390     0.0320     8.9200    12.2000
 1873.5000    76.8580     8.9970     2.4300     0.0410     9.0110    11.6470
 1874.0000    76.8960     8.9940     2.4210     0.0500     9.0940    11.6470
 1874.5000    79.1600     8.9310     2.4230     0.0530     9.0480    11.3720
 1875.0000    80.6710     8.8470     2.4170     0.0680     9.0110    10.8000
 1875.5000    79.0380     8.5150     2.4120     0.1030     8.5900    10.1510
 1876.0000    79.9110     8.4020     2.4400     0.1360     8.5290     9.8760
 1876.5000    86.8520     8.4160     2.4660     0.1140     8.7310     8.9290
 1877.0000    85.4850     8.4260     2.4780     0.0890     8.9670     9.3960
 1877.5000    83.8540     8.4380     2.4820     0.0780     9.2620    10.0520
 1878.0000    77.5400     8.4410     2.4810     0.0600     9.3260    10.6540
 1878.5000    79.7800     8.4410     2.4780     0.0670     9.3950    10.8750
 1879.0000    76.3750     8.4410     2.4880     0.0740     9.4650    11.0240
 1879.5000    78.0910     8.4410     2.5150     0.0650     9.5340    10.9280
 1880.0000    72.6750     8.4410     2.5070     0.0440     9.6080    10.8230
 1880.5000    73.3300     8.4410     2.4780     0.0350     9.4850    10.8870
 1881.0000    72.2860     8.4410     2.4840     0.0390     9.3470    11.0030
 1881.5000    71.4200     8.4410     2.4890     0.0340     9.3970    11.1250
 1882.0000    67.7500     8.4410     2.4790     0.0370     9.4490    11.1860
 1882.5000    73.9440     8.4410     2.4700     0.0250     9.5010    11.2280
 1883.0000    71.3660     8.4410     2.4620     0.0120     9.5540    11.1240
 1883.5000    73.4990     8.4410     2.4570     0.0140     9.6080    11.0470
 1884.0000    74.0020     8.4410     2.4580     0.0150     9.4980    10.9710
 1884.5000    79.0960     8.4410     2.4610     0.0140     9.3840    10.9230
 1885.0000    77.2650     8.4410     2.4650     0.0120     9.2700    11.1790
 1885.5000    73.5140     8.4410     2.4630     0.0120     9.1730    11.3310
 1886.0000    74.2490     8.4410     2.4590     0.0160     9.1510    11.2040
 1886.5000    77.5920     8.4410     2.4590     0.0150     9.1290    11.0280
 1887.0000    73.8150     8.4410     2.4660     0.0220     9.1070    10.7790
 1887.5000    74.1780     8.4410     2.4720     0.0330     9.0850    10.5300
 1888.0000    76.0230     8.4410     2.4780     0.0310     9.0630    10.4750
 1888.5000    74.5760     8.4410     2.4740     0.0370     9.0410    10.4200
 1889.0000    75.5250     8.4410     2.4790     0.0410     9.0110    10.3640
 1889.5000    79.1280     8.4410     2.4790     0.0420     9.0150    10.3090
 1890.0000    83.7380     8.4410     2.4760     0.0470     9.0230    10.2440
 1890.5000    79.5830     8.4410     2.4840     0.0470     9.0310    10.3060
 1891.0000    76.3720     8.4410     2.4930     0.0460     9.0390    10.3820
 1891.5000    73.1180     8.4410     2.5020     0.0410     9.0470    10.4570
 1892.0000    67.6740     8.4410     2.4990     0.0410     9.0550    10.5300
 1892.5000    65.7850     8.4410     2.4930     0.0410     9.0630    10.7250
 1893.0000    61.1560     8.4410     2.4860     0.0320     9.0710    11.0160
 1893.5000    66.9670     8.4410     2.4800     0.0340     9.0780    11.2490
 1894.0000    59.2700     8.4410     2.4750     0.0380     9.0860    11.3310
 1894.5000    61.9580     8.4410     2.4810     0.0490     9.0930    11.0900
 1895.0000    66.7550     8.4410     2.4980     0.0610     9.0570    10.8230
 1895.5000    72.2670     8.4410     2.4930     0.0640     9.0230    10.6670
 1896.0000    70.5580     8.4410     2.4820     0.0820     8.9880    10.5300
 1896.5000    73.7250     8.4410     2.4940     0.0490     8.9540    10.5060
 1897.0000    76.6410     8.4410     2.5060     0.0160     8.9290    10.4850
 1897.5000    81.5070     8.4410     2.4500     0.0160     8.9650    10.4630
 1898.0000    79.6110     8.4410     2.4610     0.0160     8.9940    10.4410
 1898.5000    78.1130     8.4410     2.4640     0.0200     9.0220    10.4090
 1899.0000    77.6740     8.4410     2.4720     0.0260     9.0510    10.3720
 1899.5000    75.0970     8.4410     2.4810     0.0240     9.0790    10.3390
 1900.0000    71.3310     8.4410     2.4890     0.0230     9.0940    10.2330
 1900.5000    74.1900     8.4410     2.4830     0.0310     9.0440    10.1360
 1901.0000    75.8750     8.4410     2.4900     0.0330     9.0110    10.0390
 1901.5000    70.6820     8.4410     2.5000     0.0320     8.9780     9.9430
 1902.0000    72.1660     8.4410     2.5070     0.0260     8.9290     9.8760
 1902.5000    68.5210     8.4410     2.4930     0.0170     8.9330     9.9970
 1903.0000    74.5050     8.4410     2.4810     0.0080     8.9400    10.0900
 1903.5000    71.2200     8.4410     2.4660     0.0060     8.9480    10.1820
 1904.0000    82.5020     8.4410     2.4600     0.0140     8.9560    10.2750
 1904.5000    78.2130     8.4410     2.4660     0.0190     8.9640    10.3390
 1905.0000    73.3920     8.4410     2.4700     0.0180     8.9720    10.3390
 1905.5000    73.4450     8.4410     2.4700     0.0170     8.9800    10.3480
 1906.0000    75.8460     8.4410     2.4670     0.0160     8.9880    10.4340
 1906.5000    70.9170     8.4410     2.4690     0.0150     8.9960    10.3510
 1907.0000    67.4540     8.4410     2.4720     0.0150     9.0040    10.2610
 1907.5000    74.1860     8.4410     2.4730     0.0150     9.0100    10.1720
 1908.0000    75.6100     8.4410     2.4670     0.0180     8.9270    10.0820
 1908.5000    78.4570     8.4410     2.4700     0.0210     8.8470    10.0580
 1909.0000    81.1060     8.4410     2.4800     0.0240     8.9020    10.0580
 1909.5000    77.7430     8.4410     2.4910     0.0220     8.9600    10.0870
 1910.0000    71.6100     8.4410     2.4900     0.0220     9.0110    10.1720
 1910.5000    69.1860     8.4410     2.4910     0.0240     8.9330    10.2440
 1911.0000    66.2400     8.4410     2.4960     0.0230     8.8650     9.6960
 1911.5000    69.4230     8.4410     2.4960     0.0220     8.7490     9.9110
 1912.0000    69.6090     8.4410     2.4940     0.0260     8.6160    10.1510
 1912.5000    68.3420     8.4410     2.4970     0.0270     8.4840     9.6080
 1913.0000    78.1760     8.4410     2.4990     0.0210     8.4100     9.3730
 1913.5000    70.1630     8.4410     2.4950     0.0140     8.3550     9.2040
 1914.0000    68.8780     8.4410     2.4950     0.0160     8.2970     9.0990
 1914.5000    70.9030     8.4410     2.4920     0.0070     8.2710     9.0040
 1915.0000    75.7150     8.4410     2.4880     0.0080     8.2440     8.9580
