~VERSION INFORMATION
 VERS.                2.0:   CWLS LOG ASCII STANDARD - VERSION 2.0
 WRAP.                 NO:   ONE LINE PER DEPTH STEP
~WELL INFORMATION
#MNEM.UNIT      DATA TYPE    INFORMATION
#----------   ------------   ------------------------------
 STRT.F          198.5000:   START DEPTH
 STOP.F         3172.0000:   STOP DEPTH
 STEP.F            0.5000:   STEP LENGTH
 NULL.          -999.2500:   NO VALUE
 COMP.    FENIX & SCISSON:   COMPANY
 WELL. FENIX & SCISSON AX #26-11:   WELL
 FLD .              NPR-3:   FIELD
 LOC .      S11 T38N R78W:   LOCATION
 CNTY.            NATRONA:   COUNTY
 STAT.            WYOMING:   STATE
 CTRY. UNITED STATES OF AMERICA:   COUNTRY
 SRVC.              WELEX:   SERVICE COMPANY
 DATE.        11-NOV-1977:   LOGDATE
 API .     49025104420000:   API NUMBER
~CURVE INFORMATION
#MNEM.UNIT       API CODE    CURVE DESCRIPTION
#----------   ------------   ------------------------------
 DEPT.F                  :   
 GRD .GAPI   45 310 01 00:   GAMMA RAY FROM DENSITY LOG
 CALD.IN     45 280 60 00:   CALIPER FROM DENSITY LOG
 CORR.G/C3   45 356 01 00:   DENSITY CORRECTION
 TEND.LBS    45 635 01 00:   TENSION FROM DENSITY LOG
 RHOB.G/C3   45 350 01 00:   BULK DENSITY
 SPR .MV     07 010 01 00:   SPONTANEOUS POTENTIAL
 ILD .OHMM   07 120 46 00:   DEEP INDUCTION RESISTIVITY
 ILM .OHMM   07 120 44 00:   INDUCTION LOG MEDIUM RESISTIVITY
 SGRD.OHMM   07 220 05 00:   SHALLOW SHORT GUARD RESISTIVITY
~PARAMETER INFORMATION
#MNEM.UNIT          VALUE    DESCRIPTION
#----------   ------------   ------------------------------
 EKB .F         5187.0000:   Kelly bushing
 EGL .F         5177.0000:   Ground level
 EDF .F            0.0000:   Drilling floor
 EPD .F         5177.0000:   Permanent datum
 TD  .F         3174.0000:   Total depth
 CLNT.            A2DTECH:   Client Code
 SL  . 1650' FSL & 840' FWL:   Surface Location
 PD  .                 GL:   Permanent Datum
 LMF .                 KB:   Log Measured From
 DMF .                 KB:   Drilling Measured From
 DAPD.F                10:   Feet Above Permanent Datum
 DATE.        11-NOV-1977:   Date Logged [DD-MMM-YYYY]
 DD  .F              3170:   Depth driller
 DL  .F              3174:   Depth logger
 BLI .F              3172:   Bottom log interval
 TLI .F               200:   Top log interval
 CS1 .              8.625:   Casing size
 CBD1.      8.625" @ 220':   Casing driller 1
 CBL1.IN              220:   Casing logger 1
 BS1 .IN            7.875:   Bit size
 BSD1.F              3170:   Depth drilled with bit1
 DFT .            KCL MUD:   Type fluid in hole
 DFD .                8.9:   Density
 DFV .                 37:   Viscosity
 DFPH.               11.0:   pH
 DFL .                6.4:   Fluid loss
 MSS .           FLOWLINE:   Source of sample
 RMS .OHMM           2.79:   Rm
 MST .F                50:   Rm Meas. temp.
 RMF .OHMM           2.16:   Rmf
 MFST.F                50:   Rmf Meas. temp.
 MFSS.               FANN:   Source Rmf.
 MCSS.               TEST:   Source Rmc.
 RMB .OHMM           1.22:   Rm. at BHT
 BHT .F               114:   BHT.
 TCS .HRS               3:   Time Circ. stopped
 MRT .F               114:   Maximum recorded temp.
 LUN .               8611:   Logging unit number
 LUL .             CASPER:   Logging unit location
 ENGI.            C. DOAK:   Recorded By
 WITN.         HARRINGTON:   Witnessed by
 ORIG.      2.5" 5" PRINT:   Origin of data
 UWI .     49025104420000:   Unique Well ID
 DICO. A2D TECHNOLOGIES, INC.:   Digitizing Company
~OTHER INFORMATION
~A   DEPT       GRD      CALD       CORR       TEND       RHOB        SPR        ILD        ILM       SGRD   
# ...
  235.0000    99.8799     9.8359     0.0214   843.7499     2.4607   -79.2326     7.1406     5.6337     8.7458
  235.5000    98.2493     9.8659     0.0219   843.8987     2.4637   -79.3876     7.1398     5.7516     8.7417
  236.0000    96.3468     9.8650     0.0130   844.0476     2.4672   -79.5426     6.9437     5.8312     8.7986
  236.5000    93.0345     9.8641     0.0112   834.2746     2.4803   -79.6976     6.7032     5.9120     8.7943
  237.0000    90.6231     9.8632     0.0242   814.5585     2.4954   -79.8526     6.4252     5.9524     8.8515
  237.5000    92.7162     9.8622     0.0260   824.6522     2.4881   -80.3088     6.3869     5.9516     8.7756
  238.0000    96.6111     9.8613     0.0259   844.6428     2.4762   -80.9196     6.5658     5.9508     8.5397
  238.5000    99.7647     9.8604     0.0229   844.7916     2.4738   -82.1416     6.6569     5.9088     8.3594
  239.0000   102.0316     9.8594     0.0239   844.9404     2.4757   -83.3352     6.7492     5.8669     8.1261
  239.5000   104.2986     9.8895     0.0328   845.0892     2.4784   -84.2432     6.7954     5.7852     7.8993
  240.0000   106.2863     9.8885     0.0347   845.2380     2.4802   -85.0007     6.6545     5.7844     7.8956
  240.5000   106.9780     9.9186     0.0317   845.3868     2.4832   -85.4569     6.3821     5.7436     8.0024
  241.0000   107.3709     9.9176     0.0356   845.5356     2.4847   -85.6119     6.0153     5.7030     8.1116
  241.5000   106.1591     9.9477     0.0415   845.6845     2.4836   -85.7669     5.3281     5.6628     8.3356
  242.0000   105.8513     9.9467     0.0474   845.8333     2.4726   -85.7713     4.9021     5.6228     8.3315
  242.5000   107.4424     9.9458     0.0358   845.9821     2.4624   -85.7757     4.7017     5.6221     8.0429
  243.0000   108.2357     9.9449     0.0227   846.1309     2.4564   -85.7801     4.7012     5.6213     8.0390
  243.5000   107.9249     9.9749     0.0226   846.2797     2.4551   -85.7847     4.7335     5.6597     8.2037
  244.0000   104.1121     9.9740     0.0226   846.4285     2.4616   -85.6384     4.6354     5.6984     8.1430
  244.5000   101.2002     9.9421     0.0226   846.5773     2.4694   -85.6439     4.3847     5.6974     8.0266
  245.0000   100.9925     9.9102     0.0255   846.7261     2.4783   -85.6483     4.2940     5.6967     7.8571
  245.5000   102.6837     9.8783     0.0262   846.8749     2.4811   -85.6527     4.4449     5.7358     7.7998
  246.0000   103.7758     9.8464     0.0291   847.0237     2.4762   -85.6571     4.7635     5.7348     8.1274
  246.5000   103.9685     9.8455     0.0314   847.1726     2.4685   -85.6615     5.0698     5.7742     8.4698
  247.0000   103.0571     9.8755     0.0254   847.3214     2.4607   -85.6659     5.2481     5.8948     8.7047
  247.5000   100.7457     9.9365     0.0224   847.4702     2.4546   -85.6703     5.4327     5.9764     8.7613
  248.0000   100.3378     9.9666     0.0218   847.6190     2.4486   -85.6748     5.6237     6.1014     8.7571
  248.5000   100.6291     9.9966     0.0194   847.7678     2.4471   -85.5221     5.8620     6.2725     8.8140
  249.0000   100.6186    10.0266     0.0193   847.9166     2.4517   -85.2318     6.1605     6.4037     8.7485
  249.5000   100.7097    10.0567     0.0172   848.0654     2.4578   -85.2373     6.5483     6.4509     8.6829
  250.0000   101.1011    10.0248    -0.0045   848.2142     2.4639   -85.0900     6.9212     6.5823     8.6788
  250.5000   103.0941    10.0238    -0.0010   848.3630     2.4700   -84.9438     7.2646     6.6732     8.7352
  251.0000   103.5871    10.0229     0.0048   848.5118     2.4746   -84.6481     7.6252     6.7659     8.9151
  251.5000   100.6403    10.0220     0.0107   848.6607     2.4792   -84.6525     7.6776     6.9074     9.1623
  252.0000    98.0621    10.0211     0.0196   848.8095     2.4853   -84.5052     7.6765     7.0517     9.4164
  252.5000    97.2523     9.9892     0.0254   848.9583     2.4914   -84.4661     7.6693     7.1496     9.5449
  253.0000    96.7427     9.9882     0.0313   849.1071     2.4975   -84.3703     7.8829     7.1985     9.4731
  253.5000    96.1331     9.9563     0.0342   849.2559     2.5021   -84.2746     8.6243     7.2979     9.6012
  254.0000    93.7217     9.9554     0.0339   849.4047     2.5036   -84.1789     9.4354     7.3478     9.8027
  254.5000    89.6086     9.9854     0.0339   849.5535     2.5037   -84.0832     9.8336     7.4496    10.4436
  255.0000    88.8003    10.0155     0.0338   849.7023     2.4974   -83.9874     9.8309     7.5031    10.2770
  255.5000    91.4925    10.0455     0.0338   849.8511     2.4881   -83.8917     9.2978     7.5517     9.9902
  256.0000    92.9850    10.0446     0.0334   849.9999     2.4789   -83.7960     9.4312     7.5504    10.0563
  256.5000    93.8784    10.0746     0.0215   850.1488     2.4589   -83.6835     9.5541     7.4972     9.8428
  257.0000    91.3654    10.0737     0.0097   850.2976     2.4512   -83.6054     9.2896     7.4442     9.4359
  257.5000    91.1562    10.0728     0.0008   850.4464     2.4465   -83.6983     8.5454     7.3405     9.3660
  258.0000    91.4490    10.0409    -0.0079   850.5952     2.4434   -83.7057     8.3093     7.3395     9.3616
  258.5000    91.1381    10.0399     0.0042   850.7440     2.4419   -83.7131     8.4817     7.2373     9.3571
  259.0000    91.1291    10.0390     0.0128   850.8928     2.4434   -83.7205     8.9012     7.1365     9.2878
  259.5000    90.2192    10.0381     0.0129   851.0416     2.4449   -83.7279     8.9613     7.1355     9.0286
  260.0000    88.6087    10.0372     0.0306   851.1904     2.4464   -83.7353     8.3580     7.0852     8.7035
  260.5000    86.1972    10.0362     0.0246   821.5526     2.4479   -83.7427     7.9598     7.0842     8.7017
  261.0000    86.3884    10.0353     0.0216   821.7261     2.4479   -83.7501     7.7399     7.1326     8.6999
  261.5000    88.3814    10.0344     0.0216   821.8749     2.4494   -83.7575     7.6312     7.1314     8.6981
  262.0000    93.6777    10.0334     0.0215   822.0237     2.4493   -83.7651     7.6291     7.1304     8.8182
  262.5000    96.4714    10.0325     0.0215   822.1726     2.4524   -83.9232     7.8415     7.1295     8.8779
  263.0000    97.3649    10.0625     0.0215   822.3214     2.4554   -83.9321     8.6388     7.1285     8.9381
  263.5000    97.3543    10.0616     0.0215   822.4702     2.4600   -83.9395     9.5979     7.1275     9.0698
  264.0000    97.3453    10.0607     0.0214   822.6190     2.4630   -83.7945    10.9381     7.0772     8.9339
  264.5000    97.0360    10.0598     0.0214   822.7678     2.4523   -83.6513    10.5786     7.0763     8.7476
  265.0000    96.5265    10.0588     0.0154   822.9166     2.4415   -83.6605     9.7761     7.0753     8.5652
  265.5000    95.5166    10.0579     0.0124   823.0654     2.4338   -83.6679     9.7734     7.0254     8.4451
  266.0000    92.4044    10.0570     0.0094   823.2143     2.4276   -83.5228     9.8394     6.9758     8.3849
  266.5000    93.6967    10.0560     0.0005   823.3631     2.4245   -83.2309    10.0428     6.9266     8.3250
  267.0000    95.1892    10.0551    -0.0084   823.5119     2.4275   -83.0877    10.0401     6.9174     8.2083
  267.5000    96.2813    10.0542    -0.0114   823.6607     2.4336   -83.0951     9.6952     6.7817     7.9814
  268.0000    97.0731    10.0842    -0.0085   823.8095     2.4351   -83.1025     9.3622     6.7807     7.9798
  268.5000    97.2658    10.0833    -0.0026   823.9583     2.4336   -82.9593     9.2308     6.7329     7.9781
  269.0000    97.2552    10.0824     0.0033   824.1071     2.4335   -82.9668     9.2282     6.7320     7.9765
  269.5000    96.6456    10.0814     0.0122   824.2559     2.4350   -82.9759     9.3546     6.7311     7.9749
  270.0000    90.6306    10.1115     0.0151   824.4048     2.4384   -82.9833     9.5486     6.7301     7.9732
  270.5000    92.0231    10.1105     0.0121   824.5536     2.4420   -82.9907     9.6794     6.6826     7.9716
  271.0000    94.4164    10.1096     0.0121   824.7024     2.4435   -82.9981     9.8119     6.5896     7.9699
