~VERSION INFORMATION
 VERS.                2.0:   CWLS LOG ASCII STANDARD - VERSION 2.0
 WRAP.                 NO:   ONE LINE PER DEPTH STEP
~WELL INFORMATION
#MNEM.UNIT      DATA TYPE    INFORMATION
#----------   ------------   ------------------------------
 STRT.F           10.0000:   START DEPTH
 STOP.F         4008.0000:   STOP DEPTH
 STEP.F            0.5000:   STEP LENGTH
 NULL.          -999.2500:   NO VALUE
 COMP. LAWRENCE ALLISON & ASSOC.:   COMPANY
 WELL. LAWRENCE NPR 3 "AX" #75-28:   WELL
 FLD .                NPR:   FIELD
 LOC .      S28 T39N R78W:   LOCATION
 CNTY.            NATRONA:   COUNTY
 STAT.            WYOMING:   STATE
 CTRY. UNITED STATES OF AMERICA:   COUNTRY
 SRVC.      DRESSER ATLAS:   SERVICE COMPANY
 DATE.        28-APR-1983:   LOGDATE
 API .     49025109060000:   API NUMBER
~CURVE INFORMATION
#MNEM.UNIT       API CODE    CURVE DESCRIPTION
#----------   ------------   ------------------------------
 DEPT.F                  :   
 RHOB.G/C3   45 350 01 00:   BULK DENSITY
 CORR.G/C3   45 356 01 00:   DENSITY CORRECTION
 TEND.LBS    45 635 01 00:   TENSION FROM DENSITY LOG
 NPHI.DEC    42 890 03 00:   NEUTRON POROSITY SANDSTONE
 GRR .GAPI   07 310 01 00:   GAMMA RAY FROM RESISTIVITY
 CALR.IN     07 280 01 00:   CALIPER FROM RESISTIVITY
 RFOC.OHMM   07 220 01 00:   RESISTIVITY FOCUSED LOG RES.
 RILD.OHMM   07 120 46 00:   DEEP INDUCTION RESISTIVITY
 TENR.LBS    01 635 01 00:   TENSION FROM RES.
 RILM.OHMM   07 120 44 00:   INDUCTION LOG MEDIUM RESISTIVITY
 TENS.LBS    60 635 01 00:   TENSION FROM SONIC LOG
 DT  .US/F   60 520 00 00:   DELTA TIME
 SPR .MV     07 010 01 00:   SPONTANEOUS POTENTIAL
~PARAMETER INFORMATION
#MNEM.UNIT          VALUE    DESCRIPTION
#----------   ------------   ------------------------------
 EKB .F         5068.0000:   Kelly bushing
 EGL .F         5058.0000:   Ground level
 EDF .F            0.0000:   Drilling floor
 TD  .F         4003.0000:   Total depth
 DATE.        28-APR-1983:   Date logged
 CLNT.            A2DTECH:   Client Code
 SL  . 2100' FSL & 1050' FEL:   Surface Location
 PD  .                 GL:   Permanent Datum
 EPD .F              5058:   Elevation Permanent Datum
 LMF .                 KB:   Log Measured From
 DMF .                 KB:   Drilling Measured From
 DAPD.F                10:   Feet Above Permanent Datum
 DD  .F              4000:   Depth driller
 DL  .F              4003:   Depth logger
 BLI .F              4000:   Bottom log interval
 CS1 .IN            8.625:   Casing size
 CBD1.      8.625" @ 498':   Casing driller 1
 CBL1.F               497:   Casing logger 1
 BS1 .IN            7.875:   Bit size
 BSD1.F              4000:   Depth drilled with bit1
 DFT .            KCL/GEL:   Type fluid in hole
 DFD .                  9:   Density
 DFV .                 43:   Viscosity
 DFPH.                8.5:   pH
 DFL .               12.4:   Fluid loss
 MSS .           MUD/TANK:   Source of sample
 RMS .OHMM            .45:   Rm
 MST .F                43:   Rm Meas. temp.
 RMF .OHMM            .27:   Rmf
 MFST.F                51:   Rmf Meas. temp.
 RMC .OHMM            .56:   Rmc
 MCST.F                43:   Rmc Meas. temp.
 MFSS.               MEAS:   Source Rmf.
 MCSS.               CALC:   Source Rmc.
 RMB .OHMM            .16:   Rm. at BHT
 BHT .F               121:   BHT.
 TCS .HRS               7:   Time Circ. stopped
 MRT .F               121:   Maximum recorded temp.
 LUN .               6274:   Logging unit number
 LUL .               GLTE:   Logging unit location
 ENGI.            WACDELL:   Recorded By
 WITN.             STRONG:   Witnessed by
 ORIG.           5" PRINT:   Origin of data
 UWI .     49025109060000:   Unique Well ID
 DICO. A2D TECHNOLOGIES, INC.:   Digitizing Company
~OTHER INFORMATION
~A   DEPT     RHOB       CORR       TEND       NPHI         GRR      CALR       RFOC       RILD       TENR       RILM       TENS         DT        SPR   
# ...
 2350.0000     2.5420     0.0180   -41.9620     0.2370    87.7020    10.3210     6.2450     6.0440   -62.1460     5.9840   -38.0380    84.2750   -39.6250
 2350.5000     2.5400     0.0260   -43.0880     0.2390    87.0930    10.3330     6.0000     6.0010   -62.7540     5.9410   -38.0380    84.6210   -39.5740
 2351.0000     2.5390     0.0280   -44.2130     0.2310    86.2620    10.3440     5.8070     5.9570   -63.3630     5.8990   -38.0380    84.7830   -39.5020
 2351.5000     2.5430     0.0160   -45.3390     0.2250    85.6530    10.3550     5.8070     5.9150   -63.9720     5.8560   -38.0380    84.4920   -39.3980
 2352.0000     2.5470     0.0040   -46.4640     0.2180    85.2750    10.3670     6.1260     6.3090   -64.5810     5.8070   -38.0380    83.8330   -39.2950
 2352.5000     2.5500     0.0010   -47.5900     0.2160    85.0820    10.3790     6.3500     6.6940   -65.1890     6.1220   -38.0380    83.1750   -39.2560
 2353.0000     2.5490     0.0020   -48.7160     0.2200    85.3470    10.3910     6.6080     6.9840   -65.7980     6.5000   -38.0380    82.5170   -39.3120
 2353.5000     2.5470     0.0030   -49.8410     0.2260    86.5660    10.4020     6.5650     6.8290   -66.4070     6.8560   -38.0380    81.9850   -39.4300
 2354.0000     2.5410     0.0050   -50.9670     0.2300    89.0220    10.4140     6.4870     6.7040   -67.0160     6.7270   -38.0380    82.4340   -39.5360
 2354.5000     2.5350    -0.0210   -52.0920     0.2310    92.4470    10.4250     6.4870     6.5790   -67.6240     6.6040   -38.0380    82.9580   -39.5740
 2355.0000     2.5290    -0.0370   -53.2180     0.2330    95.9920    10.4370     6.2740     6.4540   -68.2330     6.4820   -38.0380    84.1260   -39.5480
 2355.5000     2.5260    -0.0230   -54.3430     0.2340    98.5620    10.4490     6.1290     6.3290   -68.8420     6.3590   -38.0380    84.7700   -39.5030
 2356.0000     2.5250    -0.0030   -55.4690     0.2380    99.3940    10.4610     5.9840     6.2040   -69.4510     6.2370   -38.0380    85.4690   -39.4760
 2356.5000     2.5240     0.0170   -56.5950     0.2410    98.5850    10.4720     5.8390     6.0790   -70.0590     6.1140   -38.0380    86.2200   -39.4710
 2357.0000     2.5220     0.0340   -57.7200     0.2370    97.0620    10.4840     5.6940     5.9540   -70.6680     5.9910   -38.0380    86.3120   -39.4670
 2357.5000     2.5200     0.0400   -58.8460     0.2330    95.8210    10.4950     5.5490     5.8300   -71.2770     5.8690   -38.0380    86.4120   -39.4530
 2358.0000     2.5190     0.0430   -59.9710     0.2320    95.1010    10.5070     5.3940     5.7050   -71.8860     5.7460   -38.0380    86.5120   -39.4320
 2358.5000     2.5210     0.0420   -61.0970     0.2370    94.3090    10.5190     5.3940     5.5970   -72.4940     5.6240   -38.0380    86.6190   -39.4140
 2359.0000     2.5240     0.0270   -62.2230     0.2410    92.8670    10.5300     5.4430     5.5770   -73.1030     5.4940   -38.0380    86.0800   -39.3990
 2359.5000     2.5260     0.0110   -63.3480     0.2420    91.0510    10.5420     5.4750     5.6880   -73.7120     5.3940   -38.0380    85.5040   -39.3860
 2360.0000     2.5250     0.0070   -64.4740     0.2400    89.8580    10.5540     5.5070     5.8000   -74.3210     5.5550   -38.0380    84.9280   -39.3720
 2360.5000     2.5240     0.0050   -64.8150     0.2370    90.0150    10.5650     5.5390     5.9110   -74.9290     5.6590   -38.0380    84.3520   -39.3560
 2361.0000     2.5220     0.0030   -66.0600     0.2360    91.2280    10.5770     5.5700     6.0250   -75.5380     5.8070   -38.0380    83.7750   -39.3400
 2361.5000     2.5190     0.0030   -67.2020     0.2430    92.4680    10.5890     5.5970     6.0250   -76.1470     5.8070   -38.0380    83.7280   -39.3250
 2362.0000     2.5170     0.0030   -68.3440     0.2490    92.9130    10.6000     5.4620     5.7490   -76.7560     5.5830   -38.0380    84.4250   -39.3090
 2362.5000     2.5230     0.0110   -69.4850     0.2520    92.5630    10.6120     5.3480     5.5740   -77.3640     5.4420   -38.0380    85.1620   -39.2940
 2363.0000     2.5260     0.0300   -70.6270     0.2530    91.9980    10.6240     5.2350     5.4000   -77.9730     5.3000   -38.0380    85.9000   -39.2790
 2363.5000     2.5280     0.0490   -71.7690     0.2540    91.7170    10.6350     5.1210     5.2250   -78.5820     5.1590   -38.0380    86.6370   -39.2630
 2364.0000     2.5290     0.0530   -72.9100     0.2550    91.7450    10.6460     5.0100     5.0500   -79.1910     5.0170   -38.0380    86.7550   -39.2480
 2364.5000     2.5310     0.0460   -74.0520     0.2560    91.7540    10.6580     4.9880     4.8750   -79.6590     4.8760   -38.0380    86.5140   -39.2330
 2365.0000     2.5310     0.0370   -75.1940     0.2440    91.4610    10.6710     4.9670     4.7000   -78.7720     4.7340   -38.0380    86.1480   -39.2180
 2365.5000     2.5250     0.0380   -76.3360     0.2340    91.0100    10.6830     4.9460     4.4850   -78.0500     4.5930   -38.0380    85.7820   -39.2020
 2366.0000     2.5200     0.0420   -77.4770     0.2330    91.0530    10.6940     4.9180     4.3620   -77.3290     4.4030   -38.0380    85.9430   -39.1870
 2366.5000     2.5140     0.0390   -78.6190     0.2430    92.3120    10.7040     4.9180     4.2180   -76.6080     4.4030   -38.0380    86.6340   -39.1720
 2367.0000     2.5090     0.0310   -79.7610     0.2530    94.8240    10.7180     4.5630     4.0740   -75.8860     4.1680   -38.0380    87.9280   -39.1570
 2367.5000     2.5020     0.0220   -80.9020     0.2640    97.5630    10.7400     4.3490     3.9300   -75.1650     4.0260   -38.0380    89.2210   -39.1410
 2368.0000     2.4930     0.0120   -82.0440     0.2670    99.0350    10.7710     4.1350     3.7980   -74.4430     3.8850   -38.0380    90.5150   -39.1260
 2368.5000     2.4830     0.0390   -83.1860     0.2650    98.5780    10.8050     3.9210     3.7980   -73.7220     3.7290   -38.0380    91.8090   -39.1110
 2369.0000     2.4840     0.0520   -84.3270     0.2640    97.0990    10.8300     3.7290     3.7980   -73.0000     3.7290   -38.0380    92.0370   -39.0950
 2369.5000     2.4870     0.0680   -85.4690     0.2620    96.3350    10.8370     3.6970     3.7980   -72.2790     3.7290   -38.0380    91.5930   -39.0800
 2370.0000     2.4910     0.0840   -86.6110     0.2560    97.1950    10.8290     3.6610     3.7980   -71.5570     3.7290   -38.0380    90.8860   -39.0650
 2370.5000     2.4890     0.0660   -87.7520     0.2480    98.8040    10.8130     3.6610     4.0490   -70.8360     3.7290   -38.0380    90.2390   -39.0500
 2371.0000     2.4860     0.0380   -88.8940     0.2460    99.3060    10.7970     3.6610     4.2430   -70.1150     3.9330   -38.0380    90.0210   -39.0340
 2371.5000     2.4840     0.0300   -90.0360     0.2510    97.7310    10.7860     3.6610     4.2430   -69.3930     4.1660   -38.0380    90.0540   -39.0190
 2372.0000     2.4880     0.0290   -91.1780     0.2520    95.0400    10.7760     3.9900     4.2430   -68.6720     4.1660   -38.0380    90.0870   -39.0040
 2372.5000     2.4990     0.0290   -92.3190     0.2350    93.2280    10.7650     4.2350     4.1940   -67.9500     4.1660   -38.0380    89.8810   -38.9880
 2373.0000     2.5100     0.0190   -93.4610     0.2260    93.3400    10.7530     4.4800     4.1500   -67.2290     4.1250   -38.0380    89.1590   -38.9730
 2373.5000     2.5130     0.0090   -94.6030     0.2270    94.4480    10.7410     4.8280     4.0890   -66.5070     4.0830   -38.1100    87.8480   -38.9580
 2374.0000     2.5130     0.0110   -95.7440     0.2340    94.6440    10.7290     4.8280     4.0890   -65.7860     4.0150   -38.1820    86.8500   -38.9420
 2374.5000     2.5100     0.0230   -96.8860     0.2410    93.0330    10.7170     4.7670     4.2230   -65.0640     4.0150   -38.2550    86.3190   -38.9280
 2375.0000     2.5060     0.0340   -98.0280     0.2420    90.6770    10.7040     4.7290     4.3080   -64.3430     4.1850   -38.3270    86.8180   -38.9130
 2375.5000     2.5020     0.0350   -99.1690     0.2480    89.5440    10.6900     4.6900     4.3920   -63.6220     4.3080   -38.3990    87.3170   -38.8980
