~VERSION INFORMATION
 VERS.                2.0:   CWLS LOG ASCII STANDARD - VERSION 2.0
 WRAP.                 NO:   ONE LINE PER DEPTH STEP
~WELL INFORMATION
#MNEM.UNIT      DATA TYPE    INFORMATION
#----------   ------------   ------------------------------
 STRT.F           50.5000:   START DEPTH
 STOP.F         5694.0000:   STOP DEPTH
 STEP.F            0.5000:   STEP LENGTH
 NULL.          -999.2500:   NO VALUE
 COMP. LAWRENCE ALLISON AND ASSOCIATES WEST:   COMPANY
 WELL. LAWRENCE "TX" #57-28:   WELL
 FLD .        TEAPOT DOME:   FIELD
 LOC .      S28 T39N R78W:   LOCATION
 CNTY.            NATRONA:   COUNTY
 STAT.            WYOMING:   STATE
 CTRY. UNITED STATES OF AMERICA:   COUNTRY
 SRVC.       SCHLUMBERGER:   SERVICE COMPANY
 DATE.        26-FEB-1982:   LOGDATE
 API .     49025108850000:   API NUMBER
~CURVE INFORMATION
#MNEM.UNIT       API CODE    CURVE DESCRIPTION
#----------   ------------   ------------------------------
 DEPT.F                  :   
 GRR .GAPI   11 310 01 00:   GAMMA RAY FROM RES.
 CALD.IN     45 280 60 00:   CALIPER FROM DENSITY LOG
 TEND.LBS    45 635 01 00:   TENSION FORM DENSITY LOG
 CORR.G/C3   45 356 01 00:   DENSITY CORRECTION
 RHOB.G/C3   45 350 01 00:   BULK DENSITY
 NPHI.DEC    42 890 03 00:   NEUTRON POROSITY SANDSTONE
 TENR.LBS    06 635 01 00:   TENSION FROM RESISTIVITY
 SPR .MV     11 010 01 00:   SPONTANEOUS POTENTIAL FROM RES.
 LLS .OHMM   11 220 09 00:   LATEROLOG LOG SHALLOW
 LLD .OHMM   11 220 10 00:   LATEROLOG DEEP
 MSFL.OHMM   11 270 04 00:   MICRO SPHERICALLY FOCUSED
~PARAMETER INFORMATION
#MNEM.UNIT          VALUE    DESCRIPTION
#----------   ------------   ------------------------------
 EKB .F         5101.0000:   Kelly bushing
 EGL .F         5091.0000:   Ground level
 EDF .F            0.0000:   Drilling floor
 TD  .F         3248.0000:   Total depth
 CLNT.            A2DTECH:   Client Code
 SL  . 950' FSL & 2100' FEL:   Surface Location
 PD  .                 GL:   Permanent Datum
 EPD .F              5091:   Elevation Permanent Datum
 LMF .                 KB:   Log Measured From
 DMF .                 KB:   Drilling Measured From
 DAPD.F                10:   Feet Above Permanent Datum
 DATE.        26-FEB-1982:   Date Logged [DD-MMM-YYYY]
 DD  .F              3243:   Depth driller
 DL  .F              3248:   Depth logger
 BLI .F              3216:   Bottom log interval
 TLI .F                 0:   Top log interval
 CS1 .IN            9.625:   Casing size
 CBD1.      9.625" @ 401':   Casing driller 1
 CBL1.F               401:   Casing logger 1
 BS1 .IN            7.875:   Bit size
 BSD1.F              3243:   Depth drilled with bit1
 DFT .           CHEM GEL:   Type fluid in hole
 DFD .                8.9:   Density
 DFV .                 55:   Viscosity
 DFPH.                9.5:   pH
 DFL .                 10:   Fluid loss
 MSS .            MUD PIT:   Source of sample
 RMS .OHMM           1.82:   Rm
 MST .F                76:   Rm Meas. temp.
 RMF .OHMM           1.64:   Rmf
 MFST.F                75:   Rmf Meas. temp.
 MFSS.               MEAS:   Source Rmf.
 RMB .OHMM           1.15:   Rm. at BHT
 BHT .F               120:   BHT.
 TCS .HRS            1330:   Time Circ. stopped
 TLAB.HRS            1715:   Time logger at bottom
 MRT .F               120:   Maximum recorded temp.
 LUN .               8043:   Logging unit number
 LUL .               CSPR:   Logging unit location
 ENGI.             TAYLOR:   Recorded By
 WITN.       FIVAS/STRONG:   Witnessed by
 ORIG.      1" 2.5" PRINT:   Origin of data
 UWI .     49025108850000:   Unique Well ID
 DICO. A2D TECHNOLOGIES, INC.:   Digitizing Company
~OTHER INFORMATION
~A   DEPT       GRR      CALD       TEND       CORR       RHOB       NPHI       TENR        SPR        LLS        LLD       MSFL   
# ...
  477.5000    67.0359  -999.2500  -999.2500  -999.2500  -999.2500  -999.2500  -999.2500  -999.2500  -999.2500  -999.2500  -999.2500
  478.0000    65.5329  -999.2500  -999.2500  -999.2500  -999.2500  -999.2500  -999.2500  -999.2500  -999.2500  -999.2500  -999.2500
  478.5000    64.0299  -999.2500  -999.2500  -999.2500  -999.2500  -999.2500  -999.2500  -999.2500  -999.2500  -999.2500  -999.2500
  479.0000    62.3273  -999.2500  -999.2500  -999.2500  -999.2500  -999.2500  -999.2500  -999.2500  -999.2500  -999.2500  -999.2500
  479.5000    61.7226  -999.2500  -999.2500  -999.2500  -999.2500  -999.2500  -999.2500  -999.2500  -999.2500  -999.2500  -999.2500
  480.0000    66.7066  -999.2500  -999.2500  -999.2500  -999.2500  -999.2500  -999.2500  -999.2500  -999.2500  -999.2500  -999.2500
  480.5000    71.6906  -999.2500  -999.2500  -999.2500  -999.2500  -999.2500  -999.2500  -999.2500  -999.2500  -999.2500  -999.2500
  481.0000    74.2795  -999.2500  -999.2500  -999.2500  -999.2500  -999.2500  -999.2500  -999.2500  -999.2500  -999.2500  -999.2500
  481.5000    75.0719  -999.2500  -999.2500  -999.2500  -999.2500  -999.2500  -999.2500  -999.2500  -999.2500  -999.2500  -999.2500
  482.0000    74.8663  -999.2500  -999.2500  -999.2500  -999.2500  -999.2500  -999.2500  -999.2500  -999.2500  -999.2500  -999.2500
  482.5000    74.2615  -999.2500  -999.2500  -999.2500  -999.2500  -999.2500  -999.2500  -999.2500  -999.2500  -999.2500  -999.2500
  483.0000    73.2575  -999.2500  -999.2500  -999.2500  -999.2500  -999.2500  -999.2500  -999.2500  -999.2500  -999.2500  -999.2500
  483.5000    72.2535  -999.2500  -999.2500  -999.2500  -999.2500  -999.2500  -999.2500  -999.2500  -999.2500  -999.2500  -999.2500
  484.0000    71.2495  -999.2500  -999.2500  -999.2500  -999.2500  -999.2500  -999.2500  -999.2500  -999.2500  -999.2500  -999.2500
  484.5000    70.5449  -999.2500  -999.2500  -999.2500  -999.2500  -999.2500  -999.2500  -999.2500  -999.2500  -999.2500  -999.2500
  485.0000    70.2395  -999.2500  -999.2500  -999.2500  -999.2500  -999.2500  -999.2500  -999.2500  -999.2500  -999.2500  -999.2500
  485.5000    70.1337  -999.2500  -999.2500  -999.2500  -999.2500  -999.2500  -999.2500  -999.2500  -999.2500  -999.2500  -999.2500
  486.0000    69.6287  -999.2500  -999.2500  -999.2500  -999.2500     0.3895  -999.2500  -999.2500  -999.2500  -999.2500  -999.2500
  486.5000    69.6228  -999.2500  -999.2500  -999.2500  -999.2500     0.3943  -999.2500  -999.2500  -999.2500  -999.2500  -999.2500
  487.0000    69.2176  -999.2500  -999.2500  -999.2500  -999.2500     0.4004  -999.2500  -999.2500  -999.2500  -999.2500  -999.2500
  487.5000    68.4131  -999.2500  -999.2500  -999.2500  -999.2500     0.4011  -999.2500  -999.2500  -999.2500  -999.2500  -999.2500
  488.0000    65.6085  -999.2500  -999.2500  -999.2500  -999.2500     0.4011  -999.2500  -999.2500  -999.2500  -999.2500  -999.2500
  488.5000    66.8136  -999.2500  -999.2500  -999.2500  -999.2500     0.4023  -999.2500  -999.2500  -999.2500  -999.2500  -999.2500
  489.0000    68.0954  -999.2500  -999.2500  -999.2500  -999.2500     0.4117  -999.2500  -999.2500  -999.2500  -999.2500  -999.2500
  489.5000    69.3333  -999.2500  -999.2500  -999.2500  -999.2500     0.4305  -999.2500  -999.2500  -999.2500  -999.2500  -999.2500
  490.0000    70.4290  -999.2500  -999.2500  -999.2500  -999.2500     0.4630  -999.2500  -999.2500  -999.2500  -999.2500  -999.2500
  490.5000    70.1565  -999.2500  -999.2500  -999.2500  -999.2500     0.4856  -999.2500  -999.2500  -999.2500  -999.2500  -999.2500
  491.0000    67.2582  -999.2500  -999.2500  -999.2500  -999.2500     0.5259  -999.2500  -999.2500  -999.2500  -999.2500  -999.2500
  491.5000    61.8420  -999.2500  -999.2500  -999.2500  -999.2500     0.5780  -999.2500  -999.2500  -999.2500  -999.2500  -999.2500
  492.0000    61.0813  -999.2500  -999.2500  -999.2500  -999.2500     0.6006  -999.2500  -999.2500  -999.2500  -999.2500  -999.2500
  492.5000    62.4230  -999.2500  -999.2500  -999.2500  -999.2500     0.5973  -999.2500  -999.2500  -999.2500  -999.2500  -999.2500
  493.0000    63.0306  -999.2500  -999.2500  -999.2500  -999.2500     0.5891  -999.2500  -999.2500  -999.2500  -999.2500  -999.2500
  493.5000    65.7552  -999.2500  -999.2500  -999.2500     2.1767     0.5283  -999.2500  -999.2500  -999.2500  -999.2500  -999.2500
  494.0000    72.2765     9.5580   433.8742    -0.2295     2.7004     0.4834   449.0909    -1.0734     1.4888     0.3093     1.3972
  494.5000    77.9985     9.8162   405.2201    -0.1019     2.8034     0.3983   430.9091    -5.7044     4.4154     2.1166     5.8478
  495.0000    83.7958    10.0744   407.2948     0.1822     2.7973     0.3795   412.7273   -12.0493     6.8977     7.1039     9.7650
  495.5000    89.2062    10.3197   423.6574     0.1802     2.7049     0.3720   394.5454   -28.5099     6.0579     7.2761     7.6662
  496.0000    93.0407    10.6068   441.3374     0.1172     2.4977     0.3448   380.0000   -37.8185     4.7193     6.1702     6.2256
  496.5000    93.3994    10.9878   443.4499     0.0806     2.4756     0.3511   380.0000   -41.9530     4.1073     5.5506     5.6482
  497.0000    94.6009    11.1104   445.1909     0.0388     2.4729     0.3626   380.0000   -44.8830     4.1044     5.3625     5.4162
  497.5000    95.1963    11.2023   446.9318     0.0126     2.4707     0.3656   380.0000   -46.7294     4.2836     5.7436     5.6695
  498.0000    95.7927    11.2326   448.6728     0.0040     2.4698     0.3656   380.0000   -48.2700     4.4220     5.9021     5.9809
  498.5000    96.9968    11.2629   450.4559     0.0055     2.4683     0.3656   380.0000   -50.1164     4.5814     6.1493     6.1279
  499.0000    98.2602    11.2625   452.2797     0.0100     2.4698     0.3650   380.0000   -52.0204     4.7000     6.2415     6.2104
  499.5000    99.4070    11.2928   454.1034     0.0145     2.4758     0.3620   380.0000   -53.6351     4.8380     6.3165     6.2559
  500.0000   100.2032    11.2923   455.9271     0.0160     2.4803     0.3547   380.0000   -54.9439     4.9032     6.3136     6.2918
  500.5000   100.5945    11.2918   470.7695     0.0220     2.4820     0.3444   380.0000   -56.1142     4.9012     6.2245     6.3769
  501.0000   100.5793    11.2914   489.9696     0.0207     2.4836     0.3408   380.0000   -57.3864     4.9677     6.1366     6.5531
  501.5000    99.9520    11.2908   522.5207     0.0092     2.4853     0.3365   379.9846   -58.4483     5.0704     6.1336     6.5503
  502.0000    98.1084    11.2904   493.8665     0.0152     2.4884     0.3280   380.0107   -59.0714     5.1120     6.1312     6.2524
  502.5000    91.9964    11.2900   465.0456     0.0295     2.4892     0.3122   380.1010   -59.6946     5.2444     6.1288     5.9038
  503.0000    90.7625    11.2280   436.4742     0.0521     2.4877     0.3152   380.2997   -60.3506     5.3415     6.0413     5.6962
  503.5000    92.1636    11.1017   468.6945     0.0702     2.4801     0.3381   380.6065   -61.3007     5.4224     5.7948     5.6938
  504.0000    93.3415    10.9366   470.5167     0.0720     2.4558     0.3666   380.9626   -61.9613     5.5355     5.7130     5.6915
  504.5000    94.6179    10.7729   472.3404     0.0488     2.4573     0.3656   381.2671   -62.6218     5.6888     5.7106     5.6888
  505.0000    94.9695    10.6000   474.1641     0.0226     2.4618     0.3600   381.4199   -63.1397     5.7659     5.7453     5.7661
  505.5000    94.9516    10.5934   475.9879     0.0055     2.4600     0.3538   420.0000   -63.7451     5.9255     5.7852     5.8439
  506.0000    94.7886    10.6439   477.8116    -0.0019     2.4587     0.3486   420.0000   -64.0625     6.0096     5.8629     5.9231
  506.5000    94.9238    10.7324   462.3621    -0.0010     2.4600     0.3629   420.0000   -64.3798     6.1857     5.9421     5.9304
  507.0000    95.5183    10.7319   451.0639     0.0043     2.4712     0.3720   420.0000   -64.6973     6.2794     6.1061     6.0200
  507.5000    96.7886    10.7930   453.0979     0.0138     2.4965     0.3757   420.0000   -64.7503     6.3404     6.1885     6.1961
