~VERSION INFORMATION
 VERS.                2.0:   CWLS LOG ASCII STANDARD - VERSION 2.0
 WRAP.                 NO:   ONE LINE PER DEPTH STEP
~WELL INFORMATION
#MNEM.UNIT      DATA TYPE    INFORMATION
#----------   ------------   ------------------------------
 STRT.F           35.5000:   START DEPTH
 STOP.F         6235.5000:   STOP DEPTH
 STEP.F            0.5000:   STEP LENGTH
 NULL.          -999.2500:   NO VALUE
 COMP. LAWRENCE-ALLISON ASSOCIATES:   COMPANY
 WELL. LAWRENCE-ALLISON "X" #62-11:   WELL
 FLD .                NPR:   FIELD
 LOC .      S11 T38N R78W:   LOCATION
 CNTY.            NATRONA:   COUNTY
 STAT.            WYOMING:   STATE
 CTRY. UNITED STATES OF AMERICA:   COUNTRY
 SRVC.      DRESSER ATLAS:   SERVICE COMPANY
 DATE.        18-DEC-1982:   LOGDATE
 API .     49025109020000:   API NUMBER
~CURVE INFORMATION
#MNEM.UNIT       API CODE    CURVE DESCRIPTION
#----------   ------------   ------------------------------
 DEPT.F                  :   
 ILM .OHMM   07 120 44 00:   INDUCTION LOG MEDIUM
 ILD .OHMM   07 120 46 00:   DEEP RESISTIVITY
 RFOC.OHMM   07 220 04 00:   RESISTIVITY FOCUSED LOG RES.
 DT  .US/F   60 520 00 00:   DELTA TIME
 TENS.LBS    60 635 01 00:   TENSION FROM SONIC LOG.
 RS  .OHMM   11 220 09 00:   RESISTIVITY SHALLOW
 RD  .OHMM   11 220 10 00:   RESISTIVITY DEEP
 RLL .OHMM   11 220 00 00:   LATEROLOG RESISTIVITY
 SPR .MV     07 010 01 00:   SPONTANEOUS POTENTIAL
 TENR.LBS    07 635 01 00:   TENSION FROM RES. LOG
 CALD.IN     45 280 60 00:   CALIPER FROM DENSITY LOG
 GRD .GAPI   45 310 01 00:   GAMMA RAY FROM DENSITY LOG
 DEN .G/C3   45 350 01 00:   FORMATION FACTOR DENSITY
 DRHO.G/C3   45 356 01 00:   DENSITY CORRECTION
 TEND.LBS    45 635 01 00:   TENSION FROM DENSITY LOG
 CN  .DEC    42 890 00 00:   NEUTRON POROSITY
~PARAMETER INFORMATION
#MNEM.UNIT          VALUE    DESCRIPTION
#----------   ------------   ------------------------------
 EKB .F         5218.0000:   Kelly bushing
 EGL .F         5208.0000:   Ground level
 EDF .F            0.0000:   Drilling floor
 TD  .F         6232.0000:   Total depth
 DATE.        18-DEC-1982:   Date logged
 CLNT.            A2DTECH:   Client Code
 SL  . 971' FNL & 1898' FEL:   Surface Location
 PD  .                 GL:   Permanent Datum
 EPD .F              5208:   Elevation Permanent Datum
 LMF .                 KB:   Log Measured From
 DMF .                 KB:   Drilling Measured From
 DAPD.F                10:   Feet Above Permanent Datum
 DD  .F              6222:   Depth driller
 DL  .F              6232:   Depth logger
 BLI .F              6230:   Bottom log interval
 CS1 .IN            9.625:   Casing size
 CBD1.     9.625" @ 1002':   Casing driller 1
 CBL1.F              1002:   Casing logger 1
 BS1 .IN             8.75:   Bit size
 BSD1.F              6222:   Depth drilled with bit1
 DFT .                KCL:   Type fluid in hole
 DFD .                  9:   Density
 DFV .                 37:   Viscosity
 DFPH.                  8:   pH
 DFL .                8.4:   Fluid loss
 MSS .           FLOWLINE:   Source of sample
 RMS .OHMM            .25:   Rm
 MST .F                60:   Rm Meas. temp.
 RMF .OHMM            .18:   Rmf
 MFST.F                62:   Rmf Meas. temp.
 RMC .OHMM            .32:   Rmc
 MCST.F                60:   Rmc Meas. temp.
 MFSS.               MEAS:   Source Rmf.
 MCSS.               CALC:   Source Rmc.
 RMB .OHMM            .09:   Rm. at BHT
 BHT .F               166:   BHT.
 TCS .HRS               6:   Time Circ. stopped
 MRT .F               166:   Maximum recorded temp.
 LUN .               6274:   Logging unit number
 LUL .               GLTE:   Logging unit location
 ENGI.             RAUTIO:   Recorded By
 WITN.           JENNINGS:   Witnessed by
 ORIG.           5" PRINT:   Origin of data
 UWI .     49025109020000:   Unique Well ID
 DICO. A2D TECHNOLOGIES, INC.:   Digitizing Company
~OTHER INFORMATION
~A  DEPTH      ILM        ILD       RFOC         DT       TENS         RS         RD        RLL        SPR       TENR       CALD        GRD        DEN       DRHO       TEND         CN
# ...
 4572.0000  -999.2500  -999.2500  -999.2500    67.2823    -2.4924    10.1153     8.8880     9.6850   -73.8729   -66.7221     9.9651    41.6744     2.5477    -0.0019    -4.3644     0.1468
 4572.5000  -999.2500  -999.2500  -999.2500    65.8527    -2.4515    11.1381    10.2100    12.0028   -73.7355   -66.8276     9.9647    37.4155     2.5532    -0.0035    -4.2968     0.1349
 4573.0000  -999.2500  -999.2500  -999.2500    65.1013    -2.4165    12.9623    12.3982    14.1708   -73.5980   -63.1680     9.9642    35.5749     2.5579     0.0011    -1.9019     0.1289
 4573.5000  -999.2500  -999.2500  -999.2500    65.0283    -9.9400    14.5729    14.3415    16.3855   -73.6093   -59.5261     9.9637    33.7293     2.5625     0.0010    -0.2344     0.1274
 4574.0000  -999.2500  -999.2500  -999.2500    65.2582   -17.4693    16.3838    16.7043    18.8131   -73.4681   -55.8665     9.9783    37.3186     2.5688     0.0009     3.7555     0.1274
 4574.5000  -999.2500  -999.2500  -999.2500    64.8844   -25.0045    18.0403    17.7773    18.9319   -73.6338   -48.4594     9.9778    43.6178     2.5727    -0.0023     3.8652     0.1258
 4575.0000  -999.2500  -999.2500  -999.2500    62.7002   -28.7516    16.9333    17.2857    17.4064   -73.6469   -48.5649     9.9775    46.0005     2.5852    -0.0070    11.7308     0.1167
 4575.5000  -999.2500  -999.2500  -999.2500    59.7623   -28.6991    15.4593    16.2333    13.7346   -73.6582   -48.6879     9.9921    43.2524     2.5961    -0.0087    11.8092     0.1048
 4576.0000  -999.2500  -999.2500  -999.2500    57.9551   -24.8820    14.9208    15.4588    11.4577   -73.6695   -45.0284     9.9916    38.9935     2.6000    -0.0087    15.7878     0.0973
 4576.5000  -999.2500  -999.2500  -999.2500    57.1279   -19.4568    15.1174    15.3472     9.7586   -73.6827   -41.3688     9.9911    37.7563     2.5992    -0.0088    19.7784     0.0948
 4577.0000  -999.2500  -999.2500  -999.2500    57.9612   -13.4644    16.7596    17.0281    10.0968   -73.8446   -41.4918     9.9906    38.6256     2.5913    -0.0089    19.8438     0.0942
 4577.5000  -999.2500  -999.2500  -999.2500    59.2461    -9.6426    19.5070    21.4083    13.0471   -74.0083   -49.1275     9.9902    42.5166     2.5835    -0.0040    19.9231     0.1235
 4578.0000  -999.2500  -999.2500  -999.2500    61.8888   -17.1660    24.1640    26.7301    28.3820   -74.0196   -45.4854     9.9898    47.9108     2.5765     0.0034    20.0000     0.1575
 4578.5000  -999.2500  -999.2500  -999.2500    63.9278   -28.4775    27.1666    29.4524    30.1931   -74.1815   -41.8259     9.9893    52.4050     2.5741     0.0065    20.0859     0.1790
 4579.0000  -999.2500  -999.2500  -999.2500    66.4952   -39.7831    27.5246    29.2396    30.1734   -74.1947   -34.4188    10.0040    56.3573     2.5835     0.0095    20.1642     0.1875
 4579.5000  -999.2500  -999.2500  -999.2500    67.7801   -39.7481    20.6934    25.6180    28.3233   -74.2059   -34.5243    10.0034    61.0844     2.5960     0.0125    20.2344     0.1865
 4580.0000  -999.2500  -999.2500  -999.2500    68.0096   -39.7126    13.8291    17.9708    11.7146   -74.5203   -38.3949    10.0180    62.8637     2.6037     0.0156    16.4147     0.1759
 4580.5000  -999.2500  -999.2500  -999.2500    67.7107   -39.6723    10.5422    12.0923    10.7707   -74.6822   -34.7528    10.0326    62.8280     2.6100     0.0186    12.5687     0.1727
 4581.0000  -999.2500  -999.2500  -999.2500    66.4319   -39.6315     9.3624     9.7468     9.4987   -74.6935   -31.0933    10.0472    62.1941     2.6108     0.0170     8.7500     0.1715
 4581.5000  -999.2500  -999.2500  -999.2500    65.6806   -35.8144     8.7890     8.7801     8.3180   -74.7067   -34.9813    10.0468    59.1419     2.5881     0.0091     4.9219     0.1715
 4582.0000  -999.2500  -999.2500  -999.2500    65.4567   -31.9914     8.4231     8.7779     8.2550   -74.5655   -46.3820    10.0463    51.8715     2.5701     0.0028     5.0000     0.1714
 4582.5000  -999.2500  -999.2500  -999.2500    66.1391   -24.3921     9.0210     9.8751     9.3472   -74.4299   -46.4875    10.0458    51.2427     2.5505     0.0027     5.0781     0.1705
 4583.0000  -999.2500  -999.2500  -999.2500    66.8961   -24.3513    10.0010    11.1873    11.8294   -74.2906   -42.8455    10.0454    52.7102     2.5380    -0.0005     5.1563     0.1674
 4583.5000  -999.2500  -999.2500  -999.2500    67.8043   -31.8806    11.0888    11.0297    13.5835   -74.1513   -35.4209    10.0450    52.0712     2.5357     0.0072     5.2384     0.1633
 4584.0000  -999.2500  -999.2500  -999.2500    68.4858   -39.4040    10.7756    10.7246    12.7506   -74.0101   -28.0138    10.0495    46.9124     2.5325     0.0227     1.4063     0.1589
 4584.5000  -999.2500  -999.2500  -999.2500    69.0924   -39.3690    10.4002    10.4276    10.1321   -73.7221   -28.1193    10.0591    45.6701     2.5036     0.0367    -2.4294     0.1601
 4585.0000  -999.2500  -999.2500  -999.2500    69.4174   -39.3282    10.1781    10.2099     8.8736   -73.4340   -28.2424    10.0737    45.9412     2.4919     0.0195    -2.3438     0.1639
 4585.5000  -999.2500  -999.2500  -999.2500    69.5510   -35.5144     9.9595    10.0660     8.5049   -72.9935   -35.8779    10.0732    45.6038     2.4801     0.0085    -2.2606     0.1682
 4586.0000  -999.2500  -999.2500  -999.2500    69.7800   -35.4761     9.8830     9.9246     9.0476   -72.4043   -39.7485    10.0727    44.0598     2.4731     0.0162    -2.1762     0.1723
 4586.5000  -999.2500  -999.2500  -999.2500    70.4620   -35.4352     9.8057     9.8533     9.8266   -71.8131   -36.1064    10.0908    41.9176     2.4684     0.0177    -2.1094     0.1763
 4587.0000  -999.2500  -999.2500  -999.2500    70.7665   -35.4003     9.7981     9.7822     9.9575   -71.2220   -32.4469    10.1020    40.0720     2.4668     0.0082    -2.0194     0.1782
 4587.5000  -999.2500  -999.2500  -999.2500    70.8442   -35.3594     9.7228     9.7797     9.4788   -70.4822   -25.0399    10.1166    39.4381     2.4684     0.0019    -1.9532     0.1803
 4588.0000  -999.2500  -999.2500  -999.2500    70.7721   -35.3186     9.7140     9.7090     8.8976   -69.8929   -21.3861    10.1161    40.6091     2.4707     0.0081    -1.8750     0.1819
 4588.5000  -999.2500  -999.2500  -999.2500    70.9267   -35.2836     9.7064     9.7065     8.4698   -69.3018   -21.5034    10.1156    43.5951     2.4675     0.0314    -1.7969     0.1825
 4589.0000  -999.2500  -999.2500  -999.2500    71.2311   -35.2428     9.6306     9.6364     8.2897   -68.7126   -29.1389    10.1302    42.6544     2.4425     0.0453    -1.7059     0.1822
 4589.5000  -999.2500  -999.2500  -999.2500    72.2902   -31.4257     9.5565     9.6339     8.2269   -68.4207   -33.0095    10.1147    38.7023     2.4316     0.0172    -1.6406     0.1812
 4590.0000  -999.2500  -999.2500  -999.2500    73.1225   -31.3848     9.4176     9.5647     8.2207   -67.8334   -44.4278    10.1143    32.9351     2.4253     0.0140    -1.5492     0.1824
 4590.5000  -999.2500  -999.2500  -999.2500    73.9549   -35.1378     9.1516     9.2999     8.2144   -67.3762   -52.0633    10.1138    31.7029     2.4214     0.0217    -1.4843     0.1868
 4591.0000  -999.2500  -999.2500  -999.2500    74.4107   -38.8791     9.0185     9.1692     8.2090   -66.9523   -52.1864    10.1054    32.2680     2.4190     0.0279    -1.4046     0.1911
 4591.5000  -999.2500  -999.2500  -999.2500    74.8660   -38.8383     8.8862     8.9774     8.2037   -66.5099   -52.2918    10.0979    35.2490     2.4151     0.0309    -1.3201     0.1946
 4592.0000  -999.2500  -999.2500  -999.2500    75.1709   -35.0153     8.6363     8.7291     8.1407   -66.0331   -52.4149    10.0974    37.0334     2.4096     0.0293    -1.2358     0.1955
 4592.5000  -999.2500  -999.2500  -999.2500    75.2491   -34.9803     8.5107     8.6061     7.9953   -65.3333   -52.5204    10.0820    35.4843     2.4034     0.0183    -1.1634     0.1948
 4593.0000  -999.2500  -999.2500  -999.2500    75.1765   -34.9395     8.5030     8.6039     7.7982   -64.8910   -52.6259    10.0664    33.6438     2.3994     0.0120    -1.0791     0.1983
