~VERSION INFORMATION
 VERS.                2.0:   CWLS LOG ASCII STANDARD - VERSION 2.0
 WRAP.                 NO:   ONE LINE PER DEPTH STEP
~WELL INFORMATION
#MNEM.UNIT      DATA TYPE    INFORMATION
#----------   ------------   ------------------------------
 STRT.F          176.0000:   START DEPTH
 STOP.F         3442.0000:   STOP DEPTH
 STEP.F            0.5000:   STEP LENGTH
 NULL.          -999.2500:   NO VALUE
 COMP.  FENIX AND SCISSON:   COMPANY
 WELL.  FENIX "AX" #65-15:   WELL
 FLD . NAVAL PETROLEUM RESERVE #3:   FIELD
 LOC .      S15 T38N R78W:   LOCATION
 CNTY.            NATRONA:   COUNTY
 STAT.            WYOMING:   STATE
 CTRY. UNITED STATES OF AMERICA:   COUNTRY
 SRVC.       SCHLUMBERGER:   SERVICE COMPANY
 DATE.        09-APR-1981:   LOGDATE
 API .     49025108710000:   API NUMBER
~CURVE INFORMATION
#MNEM.UNIT       API CODE    CURVE DESCRIPTION
#----------   ------------   ------------------------------
 DEPT.F                  :   
 TENR.LBS    07 635 01 00:   TENSION
 SPR .MV     07 010 01 00:   SPONTANEOUS POTENTIAL
 ILD .OHMM   07 120 46 00:   INDUCTION LOG DEEP RESISTIVITY
 ILM .OHMM   07 120 44 00:   INDUCTION LOG MEDIUM RESISTIVITY
 SFL .OHMM   07 220 01 00:   SHALLOW FOCUSED LOG RESISTIVITY
 TEND.LBS    45 635 01 00:   TENSION FROM DENSITY LOG
 CALD.IN     45 280 60 00:   CALIPER FROM DENSITY LOG
 GRD .GAPI   45 310 01 00:   GAMMA RAY FROM DENSITY LOG
 RHOB.G/C3   45 350 01 00:   BULK DENSITY
 CORR.G/C3   45 356 01 00:   DENSITY CORRECTION
~PARAMETER INFORMATION
#MNEM.UNIT          VALUE    DESCRIPTION
#----------   ------------   ------------------------------
 EKB .F         5287.0000:   Kelly bushing
 EGL .F         5277.0000:   Ground level
 EDF .F            0.0000:   Drilling floor
 TD  .F         5476.0000:   Total depth
 DATE.        09-APR-1981:   Date logged
 CLNT.            A2DTECH:   Client Code
 SL  . 1945' FSL & 1161' FEL:   Surface Location
 PD  .                 GL:   Permanent Datum
 EPD .F              5277:   Elevation Permanent Datum
 LMF .                 KB:   Log Measured From
 DMF .                 KB:   Drilling Measured From
 DAPD.F                10:   Feet Above Permanent Datum
 DD  .F              5476:   Depth driller
 DL  .F              5436:   Depth logger
 BLI .F              5430:   Bottom log interval
 TLI .F               190:   Top log interval
 CS1 .IN            8.625:   Casing size
 CBD1.      8.625" @ 190':   Casing driller 1
 CBL1.F               190:   Casing logger 1
 BS1 .IN            7.875:   Bit size
 BSD1.F              5476:   Depth drilled with bit1
 DFT .           CHEM GEL:   Type fluid in hole
 DFD .                9.1:   Density
 DFV .                 42:   Viscosity
 DFPH.                9.5:   pH
 DFL .                  8:   Fluid loss
 MSS .            MUDTANK:   Source of sample
 RMS .OHMM           1.62:   Rm
 MST .F                71:   Rm Meas. temp.
 RMF .OHMM           1.45:   Rmf
 MFST.F                71:   Rmf Meas. temp.
 MFSS.               MEAS:   Source Rmf.
 RMB .OHMM           1.02:   Rm. at BHT
 BHT .F               116:   BHT.
 TCS .HRS            1600:   Time Circ. stopped
 TLAB.HRS            1830:   Time logger at bottom
 MRT .F               116:   Maximum recorded temp.
 LUN .               8035:   Logging unit number
 LUL .               CSPR:   Logging unit location
 ENGI.            BEATTIE:   Recorded By
 WITN.              EIVAS:   Witnessed by
 ORIG.           5" PRINT:   Origin of data
 UWI .     49025108710000:   Unique Well ID
 DICO. A2D TECHNOLOGIES, INC.:   Digitizing Company
~OTHER INFORMATION
~A   DEPT     TENR        SPR        ILD        ILM        SFL       TEND       CALD         GRD      RHOB       CORR   
# ...
 1884.5000   528.7440   -21.2290     7.8330     7.7730     8.7560   503.9920     8.8070   103.1110     2.5450     0.0320
 1885.0000   528.9410   -21.3380     7.8330     7.8060     9.1200   503.9920     8.6970   103.2220     2.5490     0.0400
 1885.5000   529.1380   -21.4460     7.8330     7.8330     9.4850   503.9920     8.5090   102.3130     2.5600     0.0630
 1886.0000   529.3350   -21.5590     7.7300     7.5540     9.7450   503.9920     8.5150   101.7170     2.5830     0.0980
 1886.5000   529.5320   -21.6650     7.4540     7.3740     9.5690   503.9920     8.6180   103.4320     2.6080     0.1670
 1887.0000   529.7290   -21.7520     7.1790     7.1950     8.6990   503.9920     8.6630   104.7430     2.6170     0.2410
 1887.5000   529.9250   -21.6270     6.9030     7.0160     7.9630   503.9920     8.7300   104.5830     2.6000     0.2410
 1888.0000   530.1220   -21.5100     6.6280     6.8370     7.2270   506.2650     8.7500   102.8170     2.5500     0.2060
 1888.5000   530.3190   -21.3830     6.4110     6.6580     6.5290   508.3340     8.7950   101.3940     2.5170     0.1570
 1889.0000   530.5160   -21.2610     6.2960     6.4110     6.5290   510.4040     8.9440   102.1930     2.5100     0.1070
 1889.5000   530.7130   -21.1380     6.3580     6.7710     6.9170   512.4730     8.9830   105.6880     2.5120     0.0650
 1890.0000   530.9100   -21.0150     6.6290     6.8700     7.5350   514.5420     8.8510   108.3100     2.5200     0.0530
 1890.5000   531.1070   -20.8920     6.8990     7.0980     8.1530   516.6120     8.7030   106.5870     2.5640     0.0570
 1891.0000   531.3030   -20.7690     7.1700     7.3250     8.7370   518.6810     8.7800   104.6770     2.5740     0.0620
 1891.5000   531.5000   -20.6440     7.4400     7.5520     8.8970   520.7500     8.8640   104.1800     2.5660     0.0550
 1892.0000   531.6970   -20.5470     7.6910     7.7790     8.8970   522.8200     8.9150   107.2250     2.5550     0.0400
 1892.5000   531.8940   -20.4710     7.8330     8.0060     8.9250   523.9520     8.8400   109.2720     2.5590     0.0350
 1893.0000   532.0910   -20.3980     7.8970     8.1230     8.9660   523.9520     8.7690   108.2050     2.5660     0.0360
 1893.5000   532.2880   -20.3190     7.9770     8.2720     9.0070   523.9520     8.7330   105.3830     2.5630     0.0370
 1894.0000   532.4840   -20.2400     8.1230     8.2720     9.0480   523.9520     8.7590   103.3180     2.5580     0.0390
 1894.5000   532.6810   -20.2030     8.1800     8.2720     9.0610   523.9520     8.7840   103.9830     2.5540     0.0400
 1895.0000   532.8780   -20.3850     8.2310     8.2720     9.2410   523.9520     8.8090   105.8520     2.5560     0.0410
 1895.5000   533.0750   -20.5730     8.2820     8.2720     9.4390   523.9520     8.8240   107.7600     2.5640     0.0450
 1896.0000   533.2720   -20.5830     8.3340     8.2720     9.6370   523.9520     8.7730   106.9850     2.5700     0.0520
 1896.5000   533.4690   -20.4040     8.3850     8.2720     9.9240   523.9520     8.7580   105.7770     2.5710     0.0700
 1897.0000   533.6660   -20.1970     8.4360     8.2720     9.8060   523.9520     8.7690   105.4360     2.5660     0.0770
 1897.5000   533.8620   -20.2000     8.4880     8.2720     9.5900   523.9520     8.7810   105.3570     2.5500     0.0660
 1898.0000   534.0590   -20.2070     8.5390     8.2720     9.3750   523.9520     8.7880   105.2880     2.5290     0.0450
 1898.5000   534.2560   -20.3660     8.5900     8.2720     9.1590   523.9520     8.7200   105.2230     2.5210     0.0350
 1899.0000   534.4530   -20.5090     8.6420     8.2730     8.8970   523.9520     8.6500   105.8770     2.5510     0.0450
 1899.5000   534.6500   -20.5970     8.6930     8.2720     9.0950   523.9520     8.6140   107.3970     2.5750     0.0560
 1900.0000   534.8470   -20.5860     8.7440     8.2720     9.6020   523.9520     8.6040   108.6190     2.5790     0.0530
 1900.5000   535.0440   -20.5880     8.7960     8.2750    10.1060   523.9520     8.5930   106.4880     2.5730     0.0370
 1901.0000   535.2400   -20.5910     8.8470     8.2680    10.1060   523.9520     8.5830   104.8450     2.5670     0.0260
 1901.5000   535.4370   -20.5630     8.8970     8.2570    10.1060   523.9520     8.5720   104.6020     2.5610     0.0180
 1902.0000   535.6340   -20.4990     9.0610     8.4420    10.1060   523.9520     8.5610   104.7160     2.5590     0.0210
 1902.5000   535.8310   -20.4380     9.0280     8.4140    10.2920   523.9520     8.5530   104.8210     2.5700     0.0500
 1903.0000   536.0280   -20.3740     8.9550     8.3810    10.2280   523.9520     8.5800   105.3090     2.5820     0.0760
 1903.5000   536.2250   -20.3160     8.8810     8.3420     9.9700   523.9520     8.6150   106.8330     2.5780     0.0950
 1904.0000   536.4210   -20.2480     8.8080     8.2980     9.7110   523.9520     8.6500   109.4720     2.5700     0.1090
 1904.5000   536.6180   -20.1860     8.7340     8.2550     9.4530   523.9520     8.6840   112.1450     2.5760     0.1210
 1905.0000   536.8150   -20.0130     8.6610     8.2140     9.1940   523.9520     8.7130   114.3950     2.5850     0.1190
 1905.5000   537.0120   -19.8390     8.5870     8.1720     8.8970   523.9520     8.7120   114.3080     2.5760     0.1120
 1906.0000   537.2090   -19.9330     8.5140     8.1300     9.0430   523.9520     8.7180   112.6420     2.5660     0.0910
 1906.5000   537.4060   -20.3380     8.4400     8.0880     9.2550   523.9520     8.6310   110.9180     2.5610     0.0720
 1907.0000   537.6030   -20.7290     8.3660     8.0470     9.5690   523.9520     8.6330   109.0710     2.5640     0.0550
 1907.5000   537.7990   -21.1530     8.2720     8.0050     9.4240   523.9520     8.6260   106.7550     2.5670     0.0390
 1908.0000   537.9960   -21.3900     8.2760     7.9770     9.1410   523.9520     8.6190   104.8050     2.5690     0.0330
 1908.5000   538.1930   -21.2900     8.2890     7.9770     8.8970   523.4530     8.6130   104.0550     2.5620     0.0310
 1909.0000   538.3900   -21.2220     8.3010     8.0830     9.1010   522.8740     8.6070   105.3820     2.5550     0.0330
 1909.5000   538.5870   -21.1450     8.3130     8.1770     9.3970   522.2940     8.6010   106.1620     2.5550     0.0350
 1910.0000   538.7840   -21.0690     8.3260     8.2710     9.2450   521.7150     8.5950   105.7590     2.5690     0.0360
 1910.5000   538.9800   -20.9870     8.3380     8.4240     9.0610   521.1360     8.5890   103.5360     2.5800     0.0300
 1911.0000   539.1770   -20.9810     8.3510     8.3990     9.4630   520.5570     8.5830   102.5010     2.5780     0.0240
 1911.5000   539.3740   -20.9790     8.3630     8.3300     9.7450   519.9770     8.5770   103.2500     2.5660     0.0180
 1912.0000   539.5710   -20.9810     8.3750     8.2610     9.9240   519.3980     8.5930   104.7940     2.5540     0.0130
 1912.5000   539.7680   -20.9800     8.3880     8.1920     9.9240   518.8190     8.6270   106.2740     2.5560     0.0180
 1913.0000   539.9650   -20.9790     8.4010     8.1230     9.9240   518.2390     8.6620   108.2020     2.5670     0.0230
 1913.5000   540.1620   -20.9940     8.4120     8.1230     9.5510   517.6600     8.6970   111.1310     2.5750     0.0410
 1914.0000   540.3580   -21.0380     8.4240     8.1240     9.1820   517.0810     8.7320   114.2770     2.5710     0.0590
 1914.5000   540.5550   -21.0800     8.4530     8.1260     8.8970   516.5010     8.7050   116.0480     2.5600     0.0700
 1915.0000   540.7520   -21.1240     8.5000     8.1380     9.1740   515.9220     8.6700   114.9520     2.5520     0.0680
 1915.5000   540.9490   -21.1670     8.5460     8.1500     9.5070   515.3430     8.6350   112.3210     2.5550     0.0660
 1916.0000   541.1460   -21.2100     8.5920     8.1620     9.8390   514.7640     8.6000   110.5820     2.5750     0.0710
 1916.5000   541.3430   -21.2530     8.6390     8.1740    10.1720   514.1840     8.5930   109.1360     2.6180     0.1150
 1917.0000   541.5390   -21.2960     8.6850     8.1870    10.4810   513.9720     8.5940   107.0120     2.6430     0.1610
 1917.5000   541.7360   -21.3390     8.7370     8.1990    10.2740   511.7270     8.6140   105.6480     2.6150     0.1790
