~VERSION INFORMATION
 VERS.                2.0:   CWLS LOG ASCII STANDARD - VERSION 2.0
 WRAP.                 NO:   ONE LINE PER DEPTH STEP
~WELL INFORMATION
#MNEM.UNIT      DATA TYPE    INFORMATION
#----------   ------------   ------------------------------
 STRT.F          200.0000:   START DEPTH
 STOP.F         3000.0000:   STOP DEPTH
 STEP.F            0.5000:   STEP LENGTH
 NULL.          -999.2500:   NO VALUE
 COMP.    FENIX & SCISSON:   COMPANY
 WELL.   FENIX "A" #65-28:   WELL
 FLD .              NPR 3:   FIELD
 LOC .      S28 T39N R78W:   LOCATION
 CNTY.            NATRONA:   COUNTY
 STAT.            WYOMING:   STATE
 CTRY. UNITED STATES OF AMERICA:   COUNTRY
 SRVC.              WELEX:   SERVICE COMPANY
 DATE.        25-JUL-1977:   LOGDATE
 API .     49025104010000:   API NUMBER
~CURVE INFORMATION
#MNEM.UNIT       API CODE    CURVE DESCRIPTION
#----------   ------------   ------------------------------
 DEPT.F                  :   
 GRD .GAPI   45 310 01 00:   GAMMA RAY FROM DENSITY LOG
 CALD.IN     45 280 60 00:   CALIPER FROM DENSITY LOG
 RHOB.G/C3   45 350 01 00:   BULK DENSITY
 DCOR.G/C3   45 356 01 00:   DENSITY CORRECTION
 SPR .MV     07 010 01 00:   SPONTANEOUS POTENTIAL
 RILM.OHMM   07 120 44 00:   INDUCTION LOG MEDIUM RESISTIVITY
 RILD.OHMM   07 120 46 00:   DEEP INDUCTION RESISTIVITY
 SGRD.OHMM   07 220 05 00:   SHALLOW GUARD
~PARAMETER INFORMATION
#MNEM.UNIT          VALUE    DESCRIPTION
#----------   ------------   ------------------------------
 EKB .F         5069.0000:   Kelly bushing
 EGL .F         5059.0000:   Ground level
 EDF .F            0.0000:   Drilling floor
 TD  .F         3006.0000:   Total depth
 DATE.        25-JUL-1977:   Date logged
 CLNT.            A2DTECH:   Client Code
 SL  . 2310' FSL & 1650' FEL:   Surface Location
 PD  .                 GL:   Permanent Datum
 EPD .F              5059:   Elevation Permanent Datum
 LMF .                 KB:   Log Measured From
 DMF .                 KB:   Drilling Measured From
 DAPD.F                10:   Feet Above Permanent Datum
 DD  .F              3006:   Depth driller
 DL  .F              3006:   Depth logger
 BLI .F              3004:   Bottom log interval
 TLI .F               200:   Top log interval
 CS1 .IN            8.625:   Casing size
 CBD1.      8.625" @ 205':   Casing driller 1
 CBL1.F               220:   Casing logger 1
 BS1 .IN            7.875:   Bit size
 BSD1.F              3006:   Depth drilled with bit1
 DFT .            KCL MUD:   Type fluid in hole
 DFD .                8.9:   Density
 DFV .                 39:   Viscosity
 DFPH.                7.5:   pH
 DFL .                7.2:   Fluid loss
 MSS .           FLOWLINE:   Source of sample
 RMS .OHMM           0.29:   Rm
 MST .F                78:   Rm Meas. temp.
 RMF .OHMM           0.19:   Rmf
 MFST.F                78:   Rmf Meas. temp.
 RMC .OHMM           0.80:   Rmc
 MCST.F                78:   Rmc Meas. temp.
 MFSS.               FANN:   Source Rmf.
 MCSS.                KIT:   Source Rmc.
 RMB .OHMM           0.20:   Rm. at BHT
 BHT .F               113:   BHT.
 TCS .HRS               3:   Time Circ. stopped
 MRT .F               113:   Maximum recorded temp.
 LUN .               8766:   Logging unit number
 LUL .             CASPER:   Logging unit location
 ENGI.         G. BENTSEN:   Recorded By
 WITN.      B. HARRINGTON:   Witnessed by
 ORIG.           5" PRINT:   Origin of data
 UWI .     49025104010000:   Unique Well ID
 DICO. A2D TECHNOLOGIES, INC.:   Digitizing Company
~OTHER INFORMATION
~A   DEPT       GRD        CALD       RHOB      DCOR       SPR       RILM         RILD       SGRD 
# ...
 2751.5000    95.0300     8.7560     2.5230     0.0460   -39.9380     7.8250     6.3280     8.9570
 2752.0000    94.9410     8.7680     2.5290     0.0480   -39.9880     7.7540     6.0280     8.4190
 2752.5000    94.8540     8.7780     2.5330     0.0510   -40.0390     8.0430     5.9400     8.4950
 2753.0000    94.9510     8.7830     2.5360     0.0540   -40.0890     7.0110     5.8510     8.6440
 2753.5000    95.4610     8.7890     2.5390     0.0520   -40.1390     7.6830     5.7630     8.7930
 2754.0000    95.9500     8.7950     2.5360     0.0480   -40.1900     6.9470     5.6740     8.8950
 2754.5000    96.8600     8.8000     2.5300     0.0530   -40.2400     7.0040     5.5860     8.2670
 2755.0000    98.1740     8.8060     2.5240     0.0490   -40.2900     7.0750     5.5060     8.5280
 2755.5000    96.7290     8.8120     2.5170     0.0490   -40.3410     6.9120     5.4460     8.7340
 2756.0000    95.9200     8.8180     2.5110     0.0450   -40.3910     6.7340     5.3850     8.2230
 2756.5000    95.0080     8.8250     2.5150     0.0460   -40.4270     6.5560     5.3250     7.8090
 2757.0000    94.0720     8.8320     2.5200     0.0500   -40.4500     6.3790     5.2640     7.6810
 2757.5000    93.3070     8.8390     2.5250     0.0550   -40.4730     6.2240     5.2040     7.5530
 2758.0000    95.6400     8.8460     2.5310     0.0570   -40.4960     6.2240     5.1430     7.4240
 2758.5000    94.7010     8.8530     2.5280     0.0530   -40.5190     6.3140     5.0820     7.3390
 2759.0000    93.7990     8.8600     2.5250     0.0490   -40.5420     6.4470     5.0370     7.4350
 2759.5000    92.8730     8.8670     2.5230     0.0440   -40.5650     6.9470     5.0200     7.5080
 2760.0000    91.9770     8.8740     2.5260     0.0420   -40.5890     6.8400     5.0040     7.5800
 2760.5000    93.3980     8.8810     2.5230     0.0430   -40.6120     6.7590     4.9960     7.7580
 2761.0000    94.5010     8.8880     2.5180     0.0430   -40.5880     6.8210     5.0990     8.0430
 2761.5000    92.8790     8.8950     2.5130     0.0390   -40.5550     6.9510     5.1760     8.1070
 2762.0000    92.2730     8.8860     2.5140     0.0410   -40.5220     7.0750     5.2530     8.1760
 2762.5000    92.9550     8.8750     2.5220     0.0450   -40.4890     7.2060     5.3300     8.2440
 2763.0000    93.6110     8.8630     2.5180     0.0420   -40.4560     7.1690     5.4060     8.3430
 2763.5000    93.3990     8.8520     2.5150     0.0380   -40.4210     7.1310     5.4610     8.2850
 2764.0000    92.1190     8.8410     2.5110     0.0330   -40.4780     7.0750     5.5080     8.1810
 2764.5000    91.4970     8.8290     2.5120     0.0340   -40.5580     7.1160     5.5560     8.0770
 2765.0000    92.9910     8.8180     2.5160     0.0340   -40.5640     7.1910     5.5760     7.9690
 2765.5000    94.4280     8.8060     2.5190     0.0350   -40.4210     7.2650     5.5760     7.9150
 2766.0000    95.8590     8.7950     2.5180     0.0340   -40.2780     7.3390     5.5770     7.8580
 2766.5000    94.5970     8.7840     2.5160     0.0300   -40.3160     7.4130     5.5610     7.8010
 2767.0000    97.4200     8.7760     2.5130     0.0250   -40.4870     7.4750     5.5410     7.7540
 2767.5000    95.9560     8.7800     2.5070     0.0250   -40.6590     7.4140     5.5210     7.8000
 2768.0000    93.9540     8.7830     2.5010     0.0150   -40.8330     7.3510     5.5010     7.8430
 2768.5000    95.2830     8.7870     2.4910     0.0130   -40.9980     7.2880     5.4810     7.8910
 2769.0000    96.7480     8.7900     2.4820     0.0130   -40.8490     7.2250     5.4610     7.9390
 2769.5000    95.6640     8.7930     2.4790     0.0120   -40.6830     7.1620     5.4410     8.0430
 2770.0000    94.1020     8.7930     2.4770     0.0120   -40.5160     7.0990     5.4200     7.9240
 2770.5000    92.5390     8.7860     2.4750     0.0110   -40.3520     7.0360     5.4000     7.8970
 2771.0000    91.0050     8.7790     2.4720     0.0110   -40.2300     6.9730     5.3760     7.6830
 2771.5000    90.4900     8.7720     2.4700     0.0100   -40.3300     6.9470     5.3830     7.6830
 2772.0000    92.0490     8.7650     2.4700     0.0110   -40.4270     6.9470     5.3910     7.6830
 2772.5000    93.5080     8.7580     2.4750     0.0150   -40.5220     6.9470     5.4000     7.6130
 2773.0000    92.6240     8.7520     2.4800     0.0180   -40.6180     7.0230     5.4080     7.7540
 2773.5000    91.5990     8.7450     2.4850     0.0210   -40.7150     7.1400     5.4170     7.8250
 2774.0000    90.5410     8.7380     2.4880     0.0180   -40.8060     7.1020     5.4250     7.8970
 2774.5000    91.5760     8.7310     2.4870     0.0210   -40.7680     7.0530     5.4610     7.8970
 2775.0000    93.0790     8.7240     2.4880     0.0180   -40.7250     7.0050     5.4960     7.6500
 2775.5000    94.6090     8.7170     2.4930     0.0210   -40.6810     6.9560     5.5310     7.4770
 2776.0000    95.1750     8.7140     2.4970     0.0150   -40.6380     6.9080     5.5660     7.3390
 2776.5000    95.1860     8.7130     2.5030     0.0210   -40.5950     6.8590     5.6020     8.1910
 2777.0000    94.8060     8.7110     2.5100     0.0270   -40.5520     6.8030     5.6370     7.6830
 2777.5000    96.4520     8.7090     2.5170     0.0240   -40.5090     6.7170     5.6720     8.0430
 2778.0000    96.5160     8.7080     2.5240     0.0320   -40.4660     6.6310     5.7070     7.7890
 2778.5000    98.2060     8.7060     2.5310     0.0390   -40.4230     6.5440     5.7430     7.5430
 2779.0000    98.7640     8.7050     2.5350     0.0480   -40.3800     6.4580     5.7840     7.6660
 2779.5000    98.2650     8.7030     2.5360     0.0460   -40.3370     6.3720     5.7470     7.7660
 2780.0000    97.4600     8.7010     2.5290     0.0480   -40.2940     6.2860     5.6870     7.8250
 2780.5000    98.2550     8.7000     2.5230     0.0370   -40.2510     6.2000     5.6260     7.2920
 2781.0000    99.8110     8.6980     2.5220     0.0400   -40.2290     6.1540     5.5660     7.0750
 2781.5000    98.9460     8.6970     2.5270     0.0440   -40.2950     6.1320     5.5060     8.0430
 2782.0000    97.7130     8.6970     2.5320     0.0490   -40.3590     6.1110     5.4450     8.0050
 2782.5000    99.8060     8.7030     2.5340     0.0540   -40.4230     6.0970     5.3850     7.9440
 2783.0000    99.9930     8.7090     2.5320     0.0480   -40.4870     6.0840     5.3250     7.8830
 2783.5000    97.4680     8.7140     2.5250     0.0420   -40.5510     6.0710     5.2780     7.8250
 2784.0000    95.7400     8.7200     2.5180     0.0360   -40.6130     6.0560     5.2860     6.8540
 2784.5000    96.6450     8.7260     2.5110     0.0350   -40.6540     6.0820     5.2470     6.7590
 2785.0000    95.1370     8.7320     2.5030     0.0320   -40.6930     6.1130     5.2070     7.0920
 2785.5000    93.2590     8.7380     2.4990     0.0300   -40.7330     6.1440     5.1680     7.4340
 2786.0000    92.8160     8.7440     2.4940     0.0300   -40.7730     6.1760     5.1280     7.8970
 2786.5000    93.5300     8.7490     2.4900     0.0320   -40.8070     6.2240     5.0890     7.8310
 2787.0000    91.6940     8.7550     2.4890     0.0340   -40.7490     6.2010     5.0490     7.7280
 2787.5000    91.0180     8.7560     2.4950     0.0340   -40.6890     6.1660     4.9960     7.6260
 2788.0000    93.9880     8.7560     2.5060     0.0400   -40.6290     6.1300     5.0310     7.5240
 2788.5000    93.3500     8.7560     2.5170     0.0520   -40.5700     6.1110     5.0850     7.4220
 2789.0000    93.7030     8.7560     2.5200     0.0500   -40.5110     6.1930     5.1380     7.3390
 2789.5000    95.3240     8.7560     2.5150     0.0490   -40.4510     6.3300     5.1920     7.5780
 2790.0000    93.7410     8.7560     2.5110     0.0440   -40.3920     6.8840     5.2450     7.7430
 2790.5000    91.3510     8.7560     2.5060     0.0380   -40.3320     6.7830     5.2980     7.8970
 2791.0000    90.2440     8.7560     2.5020     0.0310   -40.2730     6.6310     5.3520     7.4070
 2791.5000    90.2130     8.7560     2.4970     0.0320   -40.2160     6.4780     5.4050     7.8160
