~VERSION INFORMATION
 VERS.                2.0:   CWLS LOG ASCII STANDARD - VERSION 2.0
 WRAP.                 NO:   ONE LINE PER DEPTH STEP
~WELL INFORMATION
#MNEM.UNIT      DATA TYPE    INFORMATION
#----------   ------------   ------------------------------
 STRT.F          298.0000:   START DEPTH
 STOP.F         3084.0000:   STOP DEPTH
 STEP.F            0.5000:   STEP LENGTH
 NULL.          -999.2500:   NO VALUE
 COMP. LAWERNCE ALLISON AND ASSOCIATED:   COMPANY
 WELL. LAWERNCE "TX" #77-20:   WELL
 FLD .        TEAPOT DOME:   FIELD
 LOC .      S20 T39N R78W:   LOCATION
 CNTY.            NATRONA:   COUNTY
 STAT.            WYOMING:   STATE
 CTRY. UNITED STATES OF AMERICA:   COUNTRY
 SRVC.       SCHLUMBERGER:   SERVICE COMPANY
 DATE.        22-JAN-1982:   LOGDATE
 API .     49025108840000:   API NUMBER
~CURVE INFORMATION
#MNEM.UNIT       API CODE    CURVE DESCRIPTION
#----------   ------------   ------------------------------
 DEPT.F                  :   
 CALD.IN     45 280 60 00:   CALIPER FROM DENSITY LOG
 GRD .GAPI   45 310 01 00:   GAMMA RAY FROM DENSITY LOG
 TEND.LBS    45 635 01 00:   TENSION FROM DENSITY LOG
 RHOB.G/C3   45 350 01 00:   BULK DENSITY
 NPHI.DEC    42 890 03 00:   NEUTRON POROSITY SANDSTONE
 CORR.G/C3   45 356 01 00:   DENSITY CORRECTION
 SFLU.OHMM   07 220 01 00:   SPHERICALLY FOCUSED LOG UNAVERAGED RESISTIVITY
 ILD .OHMM   07 120 46 00:   INDUCTION LOG DEEP RESISTIVITY
 ILM .OHMM   07 120 44 00:   INDUCTION LOG MEDIUM RESISTIVITY
 TENR.LBS    07 635 01 00:   TENSION
 SPR .MV     07 010 01 00:   SPONTANEOUS POTENTIAL
~PARAMETER INFORMATION
#MNEM.UNIT          VALUE    DESCRIPTION
#----------   ------------   ------------------------------
 EKB .F         5022.0000:   Kelly bushing
 EGL .F         5012.0000:   Ground level
 EDF .F         5021.0000:   Drilling floor
 TD  .F         3079.0000:   Total depth
 DATE.        22-JAN-1982:   Date logged
 CLNT.            A2DTECH:   Client Code
 SL  . 986' FSL & 779' FEL:   Surface Location
 PD  .                 GL:   Permanent Datum
 EPD .F              5012:   Elevation Permanent Datum
 LMF .                 KB:   Log Measured From
 DMF .                 KB:   Drilling Measured From
 DAPD.F                10:   Feet Above Permanent Datum
 DD  .F              3079:   Depth driller
 DL  .F              3070:   Depth logger
 BLI .F              3064:   Bottom log interval
 TLI .F               328:   Top log interval
 CS1 .IN            9.625:   Casing size
 CBD1.      9.625" @ 300':   Casing driller 1
 CBL1.F               328:   Casing logger 1
 BS1 .IN            7.875:   Bit size
 BSD1.F              3079:   Depth drilled with bit1
 DFT .           CHEM/GEL:   Type fluid in hole
 DFD .                8.9:   Density
 DFV .                 50:   Viscosity
 DFPH.               10.5:   pH
 DFL .                  8:   Fluid loss
 MSS .           FLOWLINE:   Source of sample
 RMS .OHMM           2.53:   Rm
 MST .F                49:   Rm Meas. temp.
 RMF .OHMM           2.04:   Rmf
 MFST.F                49:   Rmf Meas. temp.
 RMC .OHMM           3.80:   Rmc
 MCST.F                49:   Rmc Meas. temp.
 MFSS.               MEAS:   Source Rmf.
 MCSS.               CALC:   Source Rmc.
 RMB .OHMM           1.04:   Rm. at BHT
 BHT .F               119:   BHT.
 TCS .HRS            0330:   Time Circ. stopped
 TLAB.HRS            0800:   Time logger at bottom
 MRT .F               119:   Maximum recorded temp.
 LUN .               8043:   Logging unit number
 LUL .               CSPR:   Logging unit location
 ENGI.            PERAKIS:   Recorded By
 WITN.              SCOTT:   Witnessed by
 ORIG.           5" PRINT:   Origin of data
 UWI .     49025108840000:   Unique Well ID
 DICO. A2D TECHNOLOGIES, INC.:   Digitizing Company
~OTHER INFORMATION
~A   DEPT       CALD       GRD      TEND         RHOB       NPHI     CORR       SFLU        ILD        ILM       TENR        SPR   
# ...
 1426.5000    11.1420    92.9890   834.8110     2.5500     0.3020     0.1000     7.8920     7.2750     7.3960   808.0100   -22.5090
 1427.0000    11.1360    93.1470   831.6810     2.5250     0.3050     0.0800     7.6770     7.2530     7.3960   806.5720   -22.6350
 1427.5000    11.1460    92.2510   828.5510     2.5100     0.3100     0.0640     7.7800     7.2450     7.3960   805.1330   -22.8780
 1428.0000    11.1800    91.1610   825.4210     2.5070     0.3140     0.0520     7.9150     7.2380     7.3960   803.6950   -23.1150
 1428.5000    11.2140    90.1170   822.3350     2.5040     0.3110     0.0440     8.0440     7.2300     7.3960   802.2560   -23.3550
 1429.0000    11.2480    90.4380   835.7360     2.5000     0.3080     0.0360     8.1200     7.2220     7.3890   821.8980   -23.5200
 1429.5000    11.2820    92.2180   857.5340     2.5010     0.3050     0.0300     8.1200     7.2150     7.3730   845.4670   -23.6870
 1430.0000    11.3150    92.2750   879.3330     2.5090     0.2950     0.0300     8.0890     7.2070     7.3570   861.0590   -23.7550
 1430.5000    11.3700    91.9790   883.2490     2.5180     0.2840     0.0400     8.0600     7.2000     7.3420   853.7640   -23.6440
 1431.0000    11.4280    91.6540   881.8140     2.5240     0.2920     0.0520     7.9460     7.1920     7.3270   846.4680   -23.3410
 1431.5000    11.4860    91.9690   878.4230     2.5240     0.3060     0.0650     7.5840     7.2980     7.4030   839.1730   -23.0410
 1432.0000    11.5450    91.8590   875.0320     2.5230     0.3190     0.0790     7.3960     7.4200     7.5160   831.8780   -22.7430
 1432.5000    11.5690    91.0250   871.6410     2.5200     0.3270     0.0690     7.3960     7.5420     7.6300   824.5830   -22.5720
 1433.0000    11.4720    89.0520   868.2500     2.5150     0.3270     0.0520     8.1110     7.6770     7.7430   817.2880   -22.7500
 1433.5000    11.3380    86.4550   864.8600     2.5130     0.3130     0.0330     8.8320     7.6000     7.8220   809.9930   -22.9310
 1434.0000    11.2170    85.5710   862.9440     2.5350     0.2990     0.0300     9.1680     7.4890     7.6920   802.6980   -22.8070
 1434.5000    11.2240    89.2240   860.9200     2.5610     0.2980     0.0480     9.2540     7.3780     7.5930   795.4020   -22.4520
 1435.0000    11.2990    92.2270   857.7410     2.5740     0.3040     0.0530     8.4900     7.2590     7.4930   788.1070   -22.0980
 1435.5000    11.3720    95.2240   854.5620     2.5650     0.3120     0.0490     7.9080     7.2260     7.4360   784.1240   -21.7730
 1436.0000    11.4450    98.2220   851.3830     2.5630     0.3090     0.0450     7.4420     7.1910     7.3950   803.2740   -21.7690
 1436.5000    11.5180   101.2560   848.2040     2.5840     0.3030     0.0770     6.9930     7.1560     7.3550   822.4240   -22.0620
 1437.0000    11.5760   102.3200   845.0250     2.6030     0.3010     0.1150     6.9930     7.1210     7.3140   842.6400   -22.3960
 1437.5000    11.5930   101.0790   841.8460     2.6050     0.3110     0.1500     7.3190     7.0850     7.2740   842.4420   -22.7300
 1438.0000    11.5980    98.0600   838.6680     2.5380     0.3230     0.1350     7.6750     7.0500     7.2330   841.1150   -23.0650
 1438.5000    11.5510    94.9150   835.4890     2.4930     0.3180     0.0960     8.0440     7.0150     7.1910   839.7890   -23.4020
 1439.0000    11.5040    92.9460   832.3100     2.5000     0.3120     0.0940     8.0440     6.9930     7.2810   838.4630   -23.7410
 1439.5000    11.4880    94.0930   829.1310     2.5210     0.3070     0.1060     7.4620     7.1670     7.3980   837.1360   -23.5590
 1440.0000    11.5070    95.9260   825.9520     2.5330     0.3170     0.1160     7.3270     7.3170     7.5150   835.8100   -23.3390
 1440.5000    11.5180    95.0500   822.7730     2.5300     0.3290     0.1030     7.7690     7.4670     7.6310   834.4830   -23.1200
 1441.0000    11.4200    94.5190   819.5940     2.5320     0.3230     0.0870     8.2170     7.6170     7.7490   833.1570   -22.9050
 1441.5000    11.3240    94.9520   816.4150     2.5430     0.3100     0.0700     8.6610     7.6770     7.6720   831.8310   -22.8860
 1442.0000    11.2580    96.2280   813.2360     2.5480     0.3010     0.0540     8.7500     7.5460     7.5740   830.5040   -23.2460
 1442.5000    11.2710    97.4460   810.0570     2.5440     0.3010     0.0490     8.6850     7.4360     7.4770   829.1780   -23.5990
 1443.0000    11.2950    96.3770   806.8780     2.5550     0.3010     0.0650     8.3740     7.3260     7.3790   827.8520   -23.9440
 1443.5000    11.3400    94.8600   803.6990     2.5690     0.3020     0.0890     8.0630     7.2170     7.2820   826.5250   -23.7090
 1444.0000    11.4130    93.3310   822.9070     2.5840     0.3060     0.1100     7.7510     7.1070     7.1840   825.1990   -23.2970
 1444.5000    11.4860    91.8070   824.9830     2.5920     0.3120     0.1300     7.4400     6.9970     7.0870   823.8720   -22.8880
 1445.0000    11.5590    90.5020   827.0590     2.5990     0.3190     0.1510     7.2930     6.8870     6.9890   822.5460   -22.5620
 1445.5000    11.6290    91.6330   829.1350     2.6010     0.3270     0.1710     7.2390     6.7780     6.8920   822.3350   -22.8060
 1446.0000    11.6640    93.4170   831.2110     2.5770     0.3380     0.1760     7.1840     6.6740     6.7990   822.3350   -23.0460
 1446.5000    11.6780    95.2060   833.2870     2.5490     0.3360     0.1520     7.1300     6.6740     6.8530   822.3350   -23.2850
 1447.0000    11.6910    96.5360   835.3630     2.5280     0.3330     0.1410     7.0580     6.7400     6.9040   822.3350   -23.5320
 1447.5000    11.7030    96.4320   837.4390     2.5320     0.3290     0.1320     7.3340     6.7930     6.9560   822.3350   -23.7180
 1448.0000    11.6380    95.0080   839.5150     2.5300     0.3260     0.0990     7.7470     6.7990     6.9930   822.3350   -23.5910
 1448.5000    11.5490    93.7540   841.5910     2.5330     0.3180     0.0740     8.0440     6.7690     6.9520   822.3350   -23.2180
 1449.0000    11.5490    93.4870   844.0110     2.5700     0.3080     0.1020     8.0440     6.7440     6.9190   822.3350   -22.8480
 1449.5000    11.5710    93.2500   846.7820     2.5890     0.3050     0.1350     7.7250     6.7200     6.8870   822.3350   -22.4670
 1450.0000    11.5940    92.3540   849.5530     2.5630     0.3170     0.1460     7.3650     6.6960     6.8550   847.8330   -22.3640
 1450.5000    11.5830    90.7650   852.3240     2.4960     0.3260     0.0570     7.2590     6.6720     6.8230   883.2490   -22.5430
 1451.0000    11.5520    90.8410   855.0960     2.5120     0.3270     0.0660     7.2490     6.6470     6.7900   875.3980   -22.7930
 1451.5000    11.5200    91.2560   857.8670     2.5390     0.3280     0.0970     7.2180     6.6230     6.7580   866.8190   -23.0450
 1452.0000    11.5720    93.3610   860.6380     2.5590     0.3390     0.1350     7.1910     6.5990     6.7260   842.6400   -23.1600
 1452.5000    11.6320    94.4160   862.9440     2.5420     0.3540     0.1270     7.2180     6.5750     6.6770   842.6400   -23.1600
 1453.0000    11.6810    94.6650   863.3690     2.5260     0.3660     0.1120     7.2410     6.5500     6.7120   842.6400   -23.1610
 1453.5000    11.6010    95.0390   865.7080     2.5310     0.3590     0.1040     7.2590     6.6050     6.8120   842.6400   -23.1630
 1454.0000    11.5360    96.6950   868.0480     2.5410     0.3410     0.1030     7.2590     6.6990     6.9120   842.6400   -23.1630
 1454.5000    11.5830    99.4650   870.3880     2.5340     0.3220     0.0940     7.2590     6.7920     7.0130   842.6400   -23.3680
 1455.0000    11.6410   102.1450   872.7270     2.5240     0.3100     0.0800     7.2590     6.8630     7.1130   842.6400   -23.7000
 1455.5000    11.6560   100.3220   875.0670     2.5340     0.3130     0.0850     7.4170     7.0090     7.2130   842.6400   -24.0330
 1456.0000    11.4770    96.7180   877.4070     2.5470     0.3170     0.0960     7.8590     7.1360     7.3140   842.6400   -24.3630
 1456.5000    11.2940    93.0580   879.7460     2.5400     0.3340     0.0970     8.4570     7.3270     7.4650   842.6400   -24.4520
