~VERSION INFORMATION
 VERS.                2.0:   CWLS LOG ASCII STANDARD - VERSION 2.0
 WRAP.                 NO:   ONE LINE PER DEPTH STEP
~WELL INFORMATION
#MNEM.UNIT      DATA TYPE    INFORMATION
#----------   ------------   ------------------------------
 STRT.F          620.0000:   START DEPTH
 STOP.F         4350.5000:   STOP DEPTH
 STEP.F            0.5000:   STEP LENGTH
 NULL.          -999.2500:   NO VALUE
 COMP.    FENIX & SCISSON:   COMPANY
 WELL. FENIX NPR 3 "LX" #25-10:   WELL
 FLD .                NPR:   FIELD
 LOC .      S10 T38N R78W:   LOCATION
 CNTY.            NATRONA:   COUNTY
 STAT.            WYOMING:   STATE
 CTRY. UNITED STATES OF AMERICA:   COUNTRY
 SRVC.              WELEX:   SERVICE COMPANY
 DATE.        06-MAR-1980:   LOGDATE
 API .     49025108070000:   API NUMBER
~CURVE INFORMATION
#MNEM.UNIT       API CODE    CURVE DESCRIPTION
#----------   ------------   ------------------------------
 DEPT.F                  :   
 CALD.IN     45 280 60 00:   CALIPER FROM DENSITY LOG
 GRD .GAPI   45 310 01 00:   GAMMA RAY FROM DENSITY LOG
 RHOB.G/C3   45 350 01 00:   BULK DENSITY
 CORR.G/C3   45 356 01 00:   DENSITY CORRECTION
 NPHI.DEC    42 890 03 00:   NEUTRON POROSITY SANDSTONE
 SPR .MV     07 010 01 00:   SPONTANEOUS POTENTIAL
 ILD .OHMM   07 120 46 00:   DEEP INDUCTION RESISTIVITY
 ILM .OHMM   07 120 44 00:   INDUCTION LOG MEDIUM RESISTIVITY
 SGRD.OHMM   07 220 05 00:   SHALLOW SHORT GUARD RESISTIVITY
~PARAMETER INFORMATION
#MNEM.UNIT          VALUE    DESCRIPTION
#----------   ------------   ------------------------------
 EKB .F         5247.0000:   Kelly bushing
 EGL .F         5237.0000:   Ground level
 EDF .F            0.0000:   Drilling floor
 TD  .F         4352.0000:   Total depth
 DATE.        06-MAR-1980:   Date logged
 CLNT.            A2DTECH:   Client Code
 SL  . 1075' FWL & 2450' FSL:   Surface Location
 PD  .                 GL:   Permanent Datum
 EPD .F              5237:   Elevation Permanent Datum
 LMF .                 KB:   Log Measured From
 DMF .                 KB:   Drilling Measured From
 DAPD.F                10:   Feet Above Permanent Datum
 DD  .F              4350:   Depth driller
 DL  .F              4352:   Depth logger
 BLI .F              4350:   Bottom log interval
 TLI .F               630:   Top log interval
 CS1 .IN            8.625:   Casing size
 CBD1.      8.625" @ 600':   Casing driller 1
 CBL1.F               632:   Casing logger 1
 BS1 .IN            7.875:   Bit size
 BSD1.F              4350:   Depth drilled with bit1
 DFT .           CHEM/GEL:   Type fluid in hole
 DFD .                8.9:   Density
 DFV .                 47:   Viscosity
 DFPH.               10.3:   pH
 DFL .                 10:   Fluid loss
 MSS .           FLOWLINE:   Source of sample
 RMS .OHMM            .89:   Rm
 MST .F                90:   Rm Meas. temp.
 RMF .OHMM            .71:   Rmf
 MFST.F                90:   Rmf Meas. temp.
 RMC .OHMM           1.06:   Rmc
 MCST.F                90:   Rmc Meas. temp.
 MFSS.               MEAS:   Source Rmf.
 MCSS.               MEAS:   Source Rmc.
 RMB .OHMM            .60:   Rm. at BHT
 BHT .F               112:   BHT.
 TCS .HRS               1:   Time Circ. stopped
 MRT .F               132:   Maximum recorded temp.
 LUN .               1892:   Logging unit number
 LUL .             CASPER:   Logging unit location
 ENGI.               REIN:   Recorded By
 WITN.           DINSMORE:   Witnessed by
 ORIG.           5" PRINT:   Origin of data
 UWI .     49025108070000:   Unique Well ID
 DICO. A2D TECHNOLOGIES, INC.:   Digitizing Company
~OTHER INFORMATION
~A   DEPT     CALD        GRD       RHOB       CORR       NPHI         SPR       ILD        ILM         SGRD 
# ...
 2554.5000    12.2460    89.1350     2.0210    -0.0330     0.1870   -27.2860     5.0180     5.3020     5.8070
 2555.0000    12.2530    89.5110     2.0450    -0.0240     0.1910   -27.3380     4.9600     5.2620     5.9660
 2555.5000    12.2490    89.8320     2.0250    -0.0150     0.1940   -27.3890     4.9010     5.2210     6.2480
 2556.0000    12.2510    90.1210     2.0070    -0.0090     0.1960   -27.4400     4.8420     5.1810     6.4870
 2556.5000    12.2820    90.3740     1.9910    -0.0120     0.1940   -27.4910     4.7840     5.1410     6.3320
 2557.0000    12.2870    90.6650     1.9840    -0.0140     0.1860   -27.5420     4.7250     5.1010     6.1260
 2557.5000    12.2830    90.7780     1.9750    -0.0250     0.1790   -27.5930     4.6660     5.0610     5.9200
 2558.0000    12.2780    90.5420     1.9920    -0.0440     0.1720   -27.6440     4.5680     5.0210     5.7140
 2558.5000    12.2740    90.2350     2.0830    -0.0590     0.1650   -27.6960     4.6150     5.0860     5.4940
 2559.0000    12.2700    89.9370     2.1890    -0.0520     0.1600   -27.7470     4.7560     5.1890     5.9000
 2559.5000    12.2660    89.6070     2.2030    -0.0470     0.1590   -27.7980     4.8970     5.2920     6.3680
 2560.0000    12.2610    89.1580     2.2020    -0.0400     0.1620   -27.8490     5.0380     5.3950     7.0310
 2560.5000    12.2570    89.0760     2.1910    -0.0430     0.1690   -27.9000     5.1790     5.4980     8.0960
 2561.0000    12.2530    89.3100     2.1820    -0.0470     0.1750   -27.9510     5.3200     5.6010     7.9810
 2561.5000    12.2550    89.4870     2.1780    -0.0440     0.1810   -28.0020     5.4610     5.7040     7.7590
 2562.0000    12.2740    89.5400     2.1740    -0.0350     0.1840   -28.0530     5.6020     5.8070     7.5370
 2562.5000    12.2900    88.7370     2.1720    -0.0280     0.1860   -28.1040     5.7140     5.9100     7.3150
 2563.0000    12.3100    88.0350     2.1720    -0.0200     0.1820   -28.1560     5.7560     6.0140     7.1140
 2563.5000    12.3360    87.2530     2.1770    -0.0130     0.1780   -28.2070     5.7990     6.1170     7.1840
 2564.0000    12.4730    87.1970     2.1860    -0.0050     0.1750   -28.2580     5.8410     6.2200     7.2850
 2564.5000    12.6260    87.2130     2.1950     0.0000     0.1780   -28.3090     5.8840     6.2610     7.3860
 2565.0000    12.8630    87.2380     2.1940    -0.0030     0.1810   -28.3600     5.9260     6.2730     7.4870
 2565.5000    12.7820    88.8120     2.1860    -0.0070     0.1780   -28.4110     5.9690     6.2860     7.5870
 2566.0000    12.4380    91.0510     2.1720    -0.0110     0.1760   -28.4620     6.0110     6.2990     7.6880
 2566.5000    12.3600    93.2560     2.1540    -0.0140     0.1740   -28.5140     6.0250     6.3110     7.8020
 2567.0000    12.3440    94.6230     2.1380    -0.0180     0.1720   -28.5640     6.0250     6.3240     7.7640
 2567.5000    12.3260    93.6640     2.1280    -0.0220     0.1690   -28.6160     6.0250     6.3360     7.6830
 2568.0000    12.3070    91.6750     2.1320    -0.0250     0.1700   -28.6680     6.0250     6.3490     7.6020
 2568.5000    12.2890    88.9840     2.1370    -0.0260     0.1690   -28.7160     6.0260     6.3620     7.5200
 2569.0000    12.2710    88.2010     2.1450    -0.0270     0.1670   -28.7730     6.0260     6.3690     7.4390
 2569.5000    12.2520    87.8290     2.1520    -0.0270     0.1650   -28.8170     6.0250     6.3690     7.3580
 2570.0000    12.2340    88.6850     2.1650    -0.0250     0.1650   -28.8490     6.0240     6.3690     7.2470
 2570.5000    12.2170    90.1260     2.1770    -0.0340     0.1650   -28.5710     6.0470     6.3680     7.4030
 2571.0000    12.2010    89.9740     2.1710    -0.0420     0.1650   -28.2980     6.0850     6.3680     7.6460
 2571.5000    12.1850    89.8120     2.1560    -0.0510     0.1660   -28.0080     6.1230     6.3850     7.8900
 2572.0000    12.1700    89.6300     2.1390    -0.0590     0.1680   -27.7300     6.1600     6.4540     8.1340
 2572.5000    12.1550    89.4560     2.1250    -0.0680     0.1700   -27.4450     6.1970     6.5230     8.3780
 2573.0000    12.1400    89.2700     2.1110    -0.0690     0.1720   -27.1620     6.2350     6.5930     8.7160
 2573.5000    12.1260    89.1140     2.0990    -0.0640     0.1710   -26.8920     6.2720     6.6620     8.5460
 2574.0000    12.1110    88.6680     2.0890    -0.0590     0.1690   -26.5720     6.3090     6.7310     8.2690
 2574.5000    12.0960    87.6860     2.1040    -0.0540     0.1680   -26.6790     6.3460     6.7310     7.9920
 2575.0000    12.0800    87.1540     2.1320    -0.0510     0.1680   -27.1090     6.3830     6.7310     7.7150
 2575.5000    12.0660    87.2250     2.1690    -0.0490     0.1690   -27.6720     6.4200     6.7310     7.4390
 2576.0000    12.0540    87.1860     2.1970    -0.0460     0.1700   -28.2290     6.4570     6.7310     7.6140
 2576.5000    12.0810    87.2080     2.2110    -0.0450     0.1710   -28.1570     6.4870     6.7310     7.9070
 2577.0000    12.1070    87.2970     2.2020    -0.0390     0.1740   -28.0530     6.4430     6.7310     8.1990
 2577.5000    12.1360    88.6210     2.1980    -0.0310     0.1760   -27.9280     6.4070     6.7300     8.4900
 2578.0000    12.1640    89.9080     2.1910    -0.0240     0.1740   -27.8230     6.3700     6.7300     8.3700
 2578.5000    12.1920    91.3660     2.1790    -0.0160     0.1720   -27.7020     6.3340     6.7300     8.1310
 2579.0000    12.2200    91.7670     2.1670    -0.0080     0.1690   -27.7360     6.2970     6.6710     7.8910
 2579.5000    12.2500    91.1080     2.1540    -0.0050     0.1670   -27.9070     6.2610     6.5950     7.6520
 2580.0000    12.2860    90.5130     2.1420    -0.0090     0.1640   -28.0660     6.1960     6.5190     7.4120
 2580.5000    12.3270    90.2300     2.1310    -0.0120     0.1610   -28.2370     6.1220     6.4420     7.1260
 2581.0000    12.3660    90.5240     2.1290    -0.0130     0.1640   -28.2670     6.0480     6.3650     7.1500
 2581.5000    12.4060    90.7650     2.1310    -0.0130     0.1650   -28.2690     5.9750     6.2880     7.1970
 2582.0000    12.3980    90.9970     2.1390    -0.0140     0.1650   -27.6240     5.9010     6.2120     7.2470
 2582.5000    12.3870    91.3120     2.1370    -0.0150     0.1670   -26.7160     5.8270     6.1350     7.1120
 2583.0000    12.3750    90.9780     2.1390    -0.0150     0.1690   -25.8370     5.7540     6.0580     6.9690
 2583.5000    12.3650    90.1640     2.1480    -0.0160     0.1710   -24.9460     5.6800     5.9820     6.7310
 2584.0000    12.3530    89.4310     2.1500    -0.0120     0.1730   -24.6880     5.6060     5.9050     6.8160
 2584.5000    12.3430    88.6560     2.1490    -0.0090     0.1750   -24.6980     5.5330     5.8280     7.0730
 2585.0000    12.3290    88.4310     2.1480    -0.0060     0.1770   -24.7070     5.4590     5.7940     7.2470
 2585.5000    12.3400    88.5760     2.1400    -0.0030     0.1790   -24.7220     5.3940     5.7770     7.1010
 2586.0000    12.3680    88.6710     2.1300     0.0000     0.1820   -25.0400     5.3850     5.7590     6.9410
 2586.5000    12.3940    88.7920     2.1220     0.0030     0.1820   -25.3240     5.3580     5.7410     6.7820
 2587.0000    12.4210    88.8820     2.1150     0.0070     0.1810   -25.6280     5.3310     5.7240     6.6080
 2587.5000    12.4480    88.9390     2.1090     0.0090     0.1810   -25.9230     5.3040     5.7060     6.4570
 2588.0000    12.4740    88.2700     2.0990     0.0090     0.1820   -26.2160     5.2770     5.6340     6.2900
 2588.5000    12.5010    87.5970     2.0860     0.0100     0.1840   -26.5200     5.2500     5.5380     6.1380
 2589.0000    12.5270    87.1630     2.0720     0.0110     0.1850   -26.8100     5.2230     5.4430     6.2170
 2589.5000    12.5540    87.2020     2.0560     0.0120     0.1860   -27.0610     5.1980     5.3470     6.3680
 2590.0000    12.5800    87.3480     2.0390     0.0140     0.1860   -26.9050     5.0550     5.2510     6.2490
 2590.5000    12.6070    87.7980     1.9870     0.0180     0.1880   -26.7580     4.9220     5.1550     6.0740
