~VERSION INFORMATION
 VERS.                2.0:   CWLS LOG ASCII STANDARD - VERSION 2.0
 WRAP.                 NO:   ONE LINE PER DEPTH STEP
~WELL INFORMATION
#MNEM.UNIT      DATA TYPE    INFORMATION
#----------   ------------   ------------------------------
 STRT.F          200.0000:   START DEPTH
 STOP.F         3248.0000:   STOP DEPTH
 STEP.F            0.5000:   STEP LENGTH
 NULL.          -999.2500:   NO VALUE
 COMP.    FENIX & SCISSON:   COMPANY
 WELL.   FENIX "AX" #28-3:   WELL
 FLD .              NPR-3:   FIELD
 LOC .       S3 T38N R78W:   LOCATION
 CNTY.            NATRONA:   COUNTY
 STAT.            WYOMING:   STATE
 CTRY. UNITED STATES OF AMERICA:   COUNTRY
 SRVC.              WELEX:   SERVICE COMPANY
 DATE.        30-JUN-1977:   LOGDATE
 API .     49025104200000:   API NUMBER
~CURVE INFORMATION
#MNEM.UNIT       API CODE    CURVE DESCRIPTION
#----------   ------------   ------------------------------
 DEPT.F                  :   
 CALD.IN     45 280 60 00:   CALIPER FROM DENSITY LOG
 GRD .GAPI   45 310 01 00:   GAMMA RAY FROM DENSITY LOG
 RHOB.G/C3   45 350 01 00:   BULK DENSITY
 CORR.G/C3   45 356 01 00:   DENSITY CORRECTION
 SPR .MV     07 010 01 00:   SPONTANEOUS POTENTIAL
 ILD .OHMM   07 120 46 00:   DEEP INDUCTION RESISTIVITY
 ILM .OHMM   07 120 44 00:   INDUCTION LOG MEDIUM RESISTIVITY
 SGRD.OHMM   07 220 05 00:   SHALLOW SHORT GUARD RESISTIVITY
~PARAMETER INFORMATION
#MNEM.UNIT          VALUE    DESCRIPTION
#----------   ------------   ------------------------------
 EKB .F         4969.0000:   Kelly bushing
 EGL .F         4959.0000:   Ground level
 TD  .F         3250.0000:   Total depth
 CLNT.            A2DTECH:   Client Code
 SL  . 500' FSL & 800' FWL:   Surface Location
 PD  .                 GL:   Permanent Datum
 EPD .F              4959:   Elevation Permanent Datum
 LMF .                 KB:   Log Measured From
 DMF .                 KB:   Drilling Measured From
 DAPD.F                10:   Feet Above Permanent Datum
 DATE.        30-JUN-1977:   Date Logged [DD-MMM-YYYY]
 DD  .F              3250:   Depth driller
 DL  .F              3250:   Depth logger
 BLI .F              3248:   Bottom log interval
 TLI .F               200:   Top log interval
 CS1 .IN            8.625:   Casing size
 CBD1.      8.625" @ 217':   Casing driller 1
 CBL1.F               225:   Casing logger 1
 BS1 .IN            7.875:   Bit size
 BSD1.F              3250:   Depth drilled with bit1
 DFT .                KCL:   Type fluid in hole
 DFD .                8.9:   Density
 RMS .OHMM           1.76:   Rm
 MST .F                63:   Rm Meas. temp.
 TCS .HRS             2.5:   Time Circ. stopped
 MRT .F                68:   Maximum recorded temp.
 LUN .               8611:   Logging unit number
 ENGI.         G. BENTSEN:   Recorded By
 WITN.         PETTINGILL:   Witnessed by
 ORIG.         2.5" PRINT:   Origin of data
 UWI .     49025104200000:   Unique Well ID
 DICO. A2D TECHNOLOGIES, INC.:   Digitizing Company
 DFV .                 30:   Viscosity
 DFPH.                  7:   pH
 DFL .                 10:   Fluid loss
 MSS .                PIT:   Source of sample
 RMF .OHMM           1.09:   Rmf
 MFST.F                68:   Rmf Meas. temp.
 MFSS.               MEAS:   Source Rmf.
 RMC .OHMM           2.01:   Rmc
 MCST.F                68:   Rmc Meas. temp.
 MCSS.               MEAS:   Source Rmc.
 RMB .OHMM           1.01:   Rm. at BHT
 BHT .F               118:   BHT.
 LUL .             CASPER:   Logging unit location
~OTHER INFORMATION
~A   DEPT       CALD       GRD        RHOB      CORR       SPR        ILD        ILM       SGRD   
# ...
 2792.0000     8.3579    91.8072     2.4710     0.0165   -38.1937    10.9721    14.6699    15.8540
 2792.5000     8.3567    91.7922     2.4598     0.0150   -38.4826    11.1259    14.6708    14.7821
 2793.0000     8.3556    91.7771     2.4444     0.0134   -38.4780    11.4400    14.6793    13.7830
 2793.5000     8.3653    92.3645     2.4383     0.0134   -38.4736    11.5984    15.0812    13.6414
 2794.0000     8.3825    93.2410     2.4459     0.0134   -38.4692    11.6008    15.5021    14.5082
 2794.5000     8.3813    93.8542     2.4535     0.0136   -38.4648    11.6032    15.7547    15.7752
 2795.0000     8.3801    95.0704     2.4596     0.0151   -38.4604    11.6376    15.9356    18.1298
 2795.5000     8.3789    95.9187     2.4657     0.0163   -38.7500    11.6077    15.3415    20.8370
 2796.0000     8.3776    96.5035     2.4657     0.0158   -39.1438    11.6103    14.6777    16.5669
 2796.5000     8.3764    95.8863     2.4517     0.0151   -39.6211    11.6127    14.6789    13.6205
 2797.0000     8.4045    95.8716     2.4411     0.0132   -39.6158    11.3963    14.6799    13.7989
 2797.5000     8.4034    95.8568     2.4417     0.0116   -39.6114    11.1702    14.7705    14.5909
 2798.0000     8.4022    97.0469     2.4490     0.0116   -39.6070    10.8563    14.7860    15.1168
 2798.5000     8.4011    98.2379     2.4540     0.0116   -39.6026    10.6266    14.3678    14.0048
 2799.0000     8.4292    98.8253     2.4583     0.0115   -39.5982    10.4158    13.7902    13.2446
 2799.5000     8.4280   100.6171     2.4575     0.0119   -39.5930    10.4183    13.5240    12.8507
 2800.0000     8.4269   101.2048     2.4561     0.0130   -39.5887    10.3937    13.7379    13.8291
 2800.5000     8.4203    99.9099     2.4543     0.0145   -39.5844    10.3147    14.4835    14.8070
 2801.0000     8.4137    98.1506     2.4563     0.0160   -39.5801    10.2780    14.2841    13.8291
 2801.5000     8.4070    96.6544     2.4624     0.0175   -39.5758    10.4201    14.2822    12.3970
 2802.0000     8.4004    95.6988     2.4685     0.0144   -39.8651    10.4201    14.6777    13.8291
 2802.5000     8.3938    97.5143     2.4715     0.0128   -40.4469    10.4201    14.6758    14.6060
 2803.0000     8.3913    98.4055     2.4745     0.0082   -40.7358    10.4201    14.6738    14.4078
 2803.5000     8.3903    98.6476     2.4684     0.0051   -41.6113    10.4201    14.8746    14.0193
 2804.0000     8.3893    98.6228     2.4408     0.0020   -42.4867    10.2780    15.0865    13.6414
 2804.5000     8.3883    98.6021     2.4224     0.0035   -43.3654    10.2171    15.4958    13.6492
 2805.0000     8.3873    98.5814     2.4286     0.0035   -44.2376    10.1379    15.4935    14.0353
 2805.5000     8.3863    99.1631     2.4378     0.0065   -44.5266    10.1379    15.4534    14.6311
 2806.0000     8.3853   100.3473     2.4504     0.0096   -44.5591    10.1379    15.2309    14.8958
 2806.5000     8.3843   102.1338     2.4626     0.0111   -44.8112     9.9997    14.8069    14.4067
 2807.0000     8.3833   102.7169     2.4573     0.0110   -45.1001     9.8634    14.6577    14.0181
 2807.5000     8.3823   105.1045     2.4431     0.0110   -45.3891     9.5963    14.3837    13.8282
 2808.0000     8.3813   105.6862     2.4406     0.0108   -45.6780     9.3364    14.1766    14.0200
 2808.5000     8.3803   103.8583     2.4536     0.0079   -45.7664     9.3364    14.0606    13.6418
 2809.0000     8.3792   101.4139     2.4563     0.0068   -46.3599     9.3364    14.1546    13.6427
 2809.5000     8.3828   100.2018     2.4486     0.0049   -46.5448     9.3364    13.9507    12.9158
 2810.0000     8.4065   100.9647     2.4234     0.0030   -46.8328     9.3364    13.4875    12.2276
 2810.5000     8.4054   103.8574     2.3991     0.0011   -47.1217     9.3364    13.6720    12.2251
 2811.0000     8.4044   104.9597     2.4165     0.0001   -47.2668     9.3364    14.2449    13.2870
 2811.5000     8.4034   104.9367     2.4278     0.0046   -47.5671     9.3364    14.6397    13.8496
 2812.0000     8.4023   104.7628     2.4444     0.0062   -47.6950     9.3364    14.0469    13.8140
 2812.5000     8.4013   103.5140     2.4562     0.0092   -47.6898     9.3098    13.8536    13.4633
 2813.0000     8.4003   102.2650     2.4643     0.0107   -47.6855     9.2091    13.8517    13.5040
 2813.5000     8.3993   100.4138     2.4748     0.0109   -47.3879     9.2091    13.8499    13.6511
 2814.0000     8.3982    98.5624     2.4830     0.0139   -47.0903     9.3364    14.2334    13.6520
 2814.5000     8.3972    98.4517     2.4902     0.0152   -46.7928     9.3364    14.2276    13.3383
 2815.0000     8.3960    99.9699     2.4922     0.0136   -46.7885     9.3364    13.8442    12.9790
 2815.5000     8.3658   100.5512     2.4878     0.0120   -46.7841     9.4007    13.8639    12.9264
 2816.0000     8.3648   101.4697     2.4831     0.0120   -46.7798     9.5369    14.2258    13.7486
 2816.5000     8.3638   102.3163     2.4761     0.0115   -47.0688     9.5963    14.2643    14.4263
 2817.0000     8.3628   102.8938     2.4682     0.0104   -47.0644     9.5963    14.6178    14.4273
 2817.5000     8.3618   103.4756     2.4696     0.0098   -47.3534     9.5963    15.0227    14.8294
 2818.0000     8.3608   103.4549     2.4859     0.0104   -47.6423     9.4655    14.7455    14.4294
 2818.5000     8.3598   103.4342     2.4935     0.0110   -47.6378     9.4655    14.6115    14.4304
 2819.0000     8.3588   103.4135     2.5011     0.0141   -47.6334     9.4655    14.6985    14.6305
 2819.5000     8.3577   103.3928     2.4980     0.0149   -47.6290     9.3364    14.7112    14.4323
 2820.0000     8.3567   103.9745     2.4919     0.0133   -47.5660     9.0836    13.9045    13.8519
 2820.5000     8.3557   103.9538     2.4857     0.0124   -47.3270     8.8376    13.1608    13.2947
 2821.0000     8.3548   104.5361     2.4818     0.0102   -47.0293     8.7136    13.2635    13.4791
 2821.5000     8.3556   105.1173     2.4718     0.0071   -46.9324     8.4721    13.2617    13.4775
 2822.0000     8.3565   106.9156     2.4618     0.0055   -46.7273     8.3655    12.5515    12.7340
 2822.5000     8.3573   107.5203     2.4690     0.0086   -46.6081     8.3655    12.2100    12.0817
 2823.0000     8.3581   108.1245     2.4718     0.0101   -46.4252     8.3655    12.3773    12.2740
 2823.5000     8.3589   109.2514     2.4748     0.0116   -46.0411     8.3968    12.7200    12.5906
 2824.0000     8.3598   109.9356     2.4779     0.0146   -45.7478     8.6749    12.3738    11.4846
 2824.5000     8.3606   109.6830     2.4518     0.0146   -45.7478     8.8826    11.0855    10.9795
 2825.0000     8.3614   107.2291     2.4609     0.0145   -45.6499     9.1889    10.9329    11.2856
 2825.5000     8.3622   105.2035     2.4732     0.0145   -45.4545     9.5880    12.6263    14.6436
 2826.0000     8.3631   102.1245     2.4777     0.0145   -45.1613    10.2153    15.2958    15.8998
 2826.5000     8.3639    99.8674     2.4609     0.0129   -44.7351    10.8776    17.2233    17.7435
 2827.0000     8.3647    99.4639     2.4486     0.0129   -44.4302    11.4709    17.6663    19.0033
 2827.5000     8.3655    99.1766     2.4424     0.0083   -44.1251    11.9532    17.6637    20.3526
 2828.0000     8.3664    98.8193     2.4485     0.0036   -43.5268    12.2859    17.6612    19.0059
 2828.5000     8.3672    98.1958     2.4607     0.0036   -43.1085    12.2859    17.6588    17.2683
 2829.0000     8.3675    98.1747     2.4669     0.0051   -43.1085    12.4557    17.6564    17.2790
 2829.5000     8.3665    98.1494     2.4701     0.0068   -43.1085    12.4557    17.6540    17.7720
 2830.0000     8.3653    98.1287     2.4763     0.0096   -43.1085    12.2859    18.0109    18.5312
 2830.5000     8.3643    98.1080     2.4855     0.0099   -43.1085    12.2859    18.7776    19.0124
 2831.0000     8.3633    97.4850     2.4917     0.0129   -43.1085    12.1184    19.1616    19.2759
 2831.5000     8.3623    97.4643     2.4961     0.0157   -43.1085    12.1184    19.4237    18.3642
 2832.0000     8.3321    97.4436     2.5011     0.0172   -42.8153    12.1184    19.4206    17.7566
