~VERSION INFORMATION
 VERS.                2.0:   CWLS LOG ASCII STANDARD - VERSION 2.0
 WRAP.                 NO:   ONE LINE PER DEPTH STEP
~WELL INFORMATION
#MNEM.UNIT      DATA TYPE    INFORMATION
#----------   ------------   ------------------------------
 STRT.F          590.0000:   START DEPTH
 STOP.F         3123.0000:   STOP DEPTH
 STEP.F            0.5000:   STEP LENGTH
 NULL.          -999.2500:   NO VALUE
 COMP.         U. S. NAVY:   COMPANY
 WELL. U.S. NPR 3 "A" #402-33:   WELL
 FLD .             TEAPOT:   FIELD
 LOC .      S33 T39N R78W:   LOCATION
 CNTY.            NATRONA:   COUNTY
 STAT.            WYOMING:   STATE
 CTRY. UNITED STATES OF AMERICA:   COUNTRY
 SRVC.         MCCULLOUGH:   SERVICE COMPANY
 DATE.        23-OCT-1967:   LOGDATE
 API .     49025104460000:   API NUMBER
~CURVE INFORMATION
#MNEM.UNIT       API CODE    CURVE DESCRIPTION
#----------   ------------   ------------------------------
 DEPT.F                  :   
 GRN .GAPI   35 310 01 00:   GAMMA RAY FROM NEUTRON
 NEUT.NAPI   35 330 01 00:   NEUTRON
~PARAMETER INFORMATION
#MNEM.UNIT          VALUE    DESCRIPTION
#----------   ------------   ------------------------------
 EKB .F            0.0000:   Kelly bushing
 EGL .F         5160.5000:   Ground level
 EDF .F         5162.0000:   Drilling floor
 TD  .F         3123.5000:   Total depth
 CLNT.            A2DTECH:   Client Code
 PD  .                 GL:   Permanent Datum
 EPD .F            5160.5:   Elevation Permanent Datum
 LMF .                 DF:   Log Measured From
 DMF .                 DF:   Drilling Measured From
 DAPD.F               1.5:   Feet Above Permanent Datum
 DATE.        23-OCT-1967:   Date Logged [DD-MMM-YYYY]
 DL  .F            3123.5:   Depth logger
 BLI .F              3122:   Bottom log interval
 TLI .F               600:   Top log interval
 CS1 .IN           5.1875:   Casing size
 DFT .              WATER:   Type fluid in hole
 TCS .HRS             4.5:   Time Circ. stopped
 ENGI.         COWLTHORPE:   Recorded By
 WITN.           THOMASON:   Witnessed by
 ORIG.         2.5" PRINT:   Origin of data
 UWI .     49025104460000:   Unique Well ID
 DICO. A2D TECHNOLOGIES, INC.:   Digitizing Company
 LUN .               1498:   Logging unit number
~OTHER INFORMATION
~A   DEPT       GRN      NEUT   
# ...
 2048.0000    42.1253   424.1577
 2048.5000    42.7384   402.9102
 2049.0000    42.9514   397.3514
 2049.5000    43.3426   353.7478
 2050.0000    40.7746   347.3279
 2050.5000    35.2646   392.5871
 2051.0000    33.8752   409.2105
 2051.5000    32.9206   428.3556
 2052.0000    33.9130   452.3168
 2052.5000    33.2802   472.0794
 2053.0000    34.8352   472.9435
 2053.5000    35.2134   422.6729
 2054.0000    34.1673   397.9696
 2054.5000    32.1844   400.4399
 2055.0000    30.0024   397.9696
 2055.5000    31.5508   388.0883
 2056.0000    31.8783   370.7960
 2056.5000    32.4605   378.2070
 2057.0000    34.7589   422.6729
 2057.5000    35.9482   423.6029
 2058.0000    34.3685   407.8509
 2058.5000    33.6866   378.2070
 2059.0000    35.0500   353.5037
 2059.5000    34.7087   397.9696
 2060.0000    36.2556   373.2663
 2060.5000    40.2160   346.0927
 2061.0000    36.6725   357.0736
 2061.5000    36.0472   402.6683
 2062.0000    34.3796   432.5542
 2062.5000    32.0868   383.1476
 2063.0000    29.5855   416.7377
 2063.5000    31.6699   402.9102
 2064.0000    34.1712   413.7787
 2064.5000    34.7593   423.7822
 2065.0000    31.2530   442.4355
 2065.5000    30.0024   395.4993
 2066.0000    30.2108   419.7041
 2066.5000    33.1290   442.4355
 2067.0000    35.0050   411.9266
 2067.5000    35.0050   391.1768
 2068.0000    35.6303   395.0032
 2068.5000    36.6725   403.9595
 2069.0000    38.3400   405.3806
 2069.5000    37.7073   399.2671
 2070.0000    36.2206   414.0304
 2070.5000    33.7198   407.9755
 2071.0000    33.1290   428.1071
 2071.5000    33.1084   443.8551
 2072.0000    32.5037   437.4948
 2072.5000    32.9798   407.8509
 2073.0000    33.5459   398.5853
 2073.5000    32.5582   415.2619
 2074.0000    30.0318   432.5542
 2074.5000    29.3771   489.3717
 2075.0000    28.5433   504.1936
 2075.5000    29.0735   509.1343
 2076.0000    30.6135   489.3717
 2076.5000    36.8809   442.4355
 2077.0000    35.8387   449.8464
 2077.5000    37.2544   451.0779
 2078.0000    38.9945   438.2393
 2078.5000    39.5906   452.3168
 2079.0000    37.3616   432.5542
 2079.5000    29.7703   390.5586
 2080.0000    29.3631   380.6773
 2080.5000    29.2657   383.2698
 2081.0000    32.4996   415.8734
 2081.5000    31.7675   422.6729
 2082.0000    30.3296   417.7322
 2082.5000    28.7517   443.3591
 2083.0000    32.1708   421.0577
 2083.5000    31.0446   389.2611
 2084.0000    28.7517   379.6902
 2084.5000    27.9180   371.0455
 2085.0000    27.8519   358.4444
 2085.5000    30.4193   379.8123
 2086.0000    30.7238   397.9696
 2086.5000    29.1686   389.7547
 2087.0000    27.0842   402.4191
 2087.5000    28.1264   432.5542
 2088.0000    28.3738   399.9488
 2088.5000    27.7095   407.1130
 2089.0000    25.4167   387.9637
 2089.5000    27.9180   390.3094
 2090.0000    30.6277   406.6157
 2090.5000    31.0446   410.1966
 2091.0000    30.4193   399.3281
 2091.5000    28.9602   399.7582
 2092.0000    28.9602   412.7915
 2092.5000    27.0768   393.0289
 2093.0000    25.8336   378.2070
 2093.5000    27.7095   383.1476
 2094.0000    26.0420   393.0289
 2094.5000    27.8083   392.3496
 2095.0000    28.7517   405.3806
 2095.5000    29.0466   388.0883
 2096.0000    30.6526   378.2070
 2096.5000    33.4132   343.6224
 2097.0000    31.6240   368.3257
 2097.5000    29.3978   373.2663
 2098.0000    27.8151   400.4399
 2098.5000    26.7079   385.6180
 2099.0000    26.0420   346.0927
 2099.5000    26.6540   383.1476
 2100.0000    28.8910   355.9740
 2100.5000    30.1501   415.0128
 2101.0000    27.7095   424.5999
 2101.5000    27.0842   414.3649
 2102.0000    27.5011   404.1334
 2102.5000    29.1686   395.0065
 2103.0000    29.4194   405.9572
 2103.5000    27.5011   419.6131
 2104.0000    22.9154   401.3768
 2104.5000    23.5407   365.4024
 2105.0000    31.8783   416.4963
 2105.5000    33.5459   375.2301
 2106.0000    28.9602   414.6262
 2106.5000    29.3771   388.5022
 2107.0000    31.8783   377.6566
 2107.5000    31.6699   397.3486
 2108.0000    30.8308   370.2433
 2108.5000    31.2819   404.6475
 2109.0000    28.7279   432.6541
 2109.5000    28.8493   413.4892
 2110.0000    31.1486   398.5224
 2110.5000    33.0225   369.1341
 2111.0000    32.0868   389.0079
 2111.5000    32.2952   398.3514
 2112.0000    30.8193   429.2523
 2112.5000    29.9067   448.9443
 2113.0000    31.5146   421.8389
 2113.5000    29.9317   404.5856
 2114.0000    28.3349   414.4255
 2114.5000    28.5433   468.5998
 2115.0000    31.2530   477.8254
 2115.5000    32.7806   439.0192
 2116.0000    30.8361   406.9879
 2116.5000    31.4615   434.0688
 2117.0000    32.9206   453.7609
 2117.5000    30.4193   453.7487
 2118.0000    30.4193   451.2735
 2118.5000    30.5020   409.3900
 2119.0000    27.2927   409.2539
 2119.5000    29.7939   421.6808
 2120.0000    30.6833   453.6879
 2120.5000    31.0446   498.0100
 2121.0000    32.5037   463.0183
 2121.5000    31.8783   442.8853
 2122.0000    29.1686   424.0824
 2122.5000    26.8758   431.4689
 2123.0000    27.7095   451.1519
 2123.5000    27.9180   433.8975
 2124.0000    27.9921   433.8852
 2124.5000    30.9128   442.9210
 2125.0000    33.7543   431.3991
 2125.5000    33.3374   443.7020
 2126.0000    35.2134   421.0312
 2126.5000    34.5570   410.0550
 2127.0000    34.8004   409.1833
 2127.5000    37.5462   428.5636
 2128.0000    37.0005   412.1238
 2128.5000    36.1087   404.8979
 2129.0000    35.3683   412.9505
 2129.5000    35.2134   389.7882
 2130.0000    37.3188   358.6093
 2130.5000    36.8962   349.9825
 2131.0000    36.2556   376.6931
 2131.5000    37.0894   366.0807
 2132.0000    35.0997   352.4062
 2132.5000    34.1712   345.0049
 2133.0000    34.4693   367.1599
 2133.5000    35.0789   386.0524
 2134.0000    36.3544   384.3767
 2134.5000    33.9741   379.4385
 2135.0000    31.5902   438.5388
 2135.5000    34.7324   457.7454
 2136.0000    35.6054   413.8843
 2136.5000    35.2134   408.0847
 2137.0000    36.2556   394.1558
 2137.5000    36.9591   426.1629
 2138.0000    35.4218   432.3076
 2138.5000    35.0050   416.1018
 2139.0000    34.7965   433.5154
 2139.5000    34.5881   443.3555
 2140.0000    35.4218   443.3432
 2140.5000    39.5906   458.4250
 2141.0000    42.3004   480.8729
 2141.5000    46.2607   492.5670
 2142.0000    50.4295   476.5362
 2142.5000    50.4627   445.7520
 2143.0000    47.9283   422.8249
 2143.5000    44.5932   413.7018
 2144.0000    39.5906   421.5696
 2144.5000    38.5484   443.2337
 2145.0000    38.5484   433.3695
 2145.5000    39.5906   406.6937
 2146.0000    43.9679   401.3241
 2146.5000    44.8017   416.8298
 2147.0000    39.8629   434.1803
 2147.5000    35.4218   429.9200
 2148.0000    38.3733   424.9193
 2148.5000    39.8238   419.1803
 2149.0000    44.0167   442.1373
 2149.5000    46.6776   442.7904
 2150.0000    45.2886   409.8474
 2150.5000    45.5842   418.7029
 2151.0000    46.0780   435.9288
 2151.5000    41.6750   444.4754
 2152.0000    40.8244   413.4890
 2152.5000    43.5510   409.7797
 2153.0000    41.0497   418.5171
 2153.5000    42.3004   425.7676
 2154.0000    46.0523   401.1252
 2154.5000    43.9381   383.8719
 2155.0000    42.7172   462.6764
 2155.5000    44.8017   433.1080
 2156.0000    38.2583   440.4849
 2156.5000    35.0050   440.9050
 2157.0000    35.4790   420.7564
 2157.5000    36.9797   408.1208
 2158.0000    38.2440   440.4362
 2158.5000    38.7569   449.5047
 2159.0000    37.5062   413.3187
 2159.5000    40.4244   415.9524
 2160.0000    36.6725   415.7574
 2160.5000    37.0894   408.2343
 2161.0000    36.5433   395.7801
 2161.5000    36.1173   393.5537
 2162.0000    35.2745   405.3640
 2162.5000    34.4319   395.9924
 2163.0000    34.9587   413.2214
 2163.5000    41.8872   411.0521
 2164.0000    43.6427   393.4930
 2164.5000    44.2409   419.2156
 2165.0000    45.0450   432.8769
 2165.5000    41.1467   400.1057
 2166.0000    40.0188   366.3511
 2166.5000    43.8393   378.5912
 2167.0000    45.5458   393.5421
 2167.5000    45.5121   408.4906
 2168.0000    42.0919   422.9518
 2168.5000    42.5088   381.0663
 2169.0000    43.1341   383.5172
