~VERSION INFORMATION
 VERS.                2.0:   CWLS LOG ASCII STANDARD - VERSION 2.0
 WRAP.                 NO:   ONE LINE PER DEPTH STEP
~WELL INFORMATION
#MNEM.UNIT      DATA TYPE    INFORMATION
#----------   ------------   ------------------------------
 STRT.F           70.0000:   START DEPTH
 STOP.F         2751.5000:   STOP DEPTH
 STEP.F            0.5000:   STEP LENGTH
 NULL.          -999.2500:   NO VALUE
 COMP.          INTEX OIL:   COMPANY
 WELL. INTEX N.P.R. "AX" #75-20:   WELL
 FLD .             TEAPOT:   FIELD
 LOC .      S20 T39N R78W:   LOCATION
 CNTY.            NATRONA:   COUNTY
 STAT.            WYOMING:   STATE
 CTRY. UNITED STATES OF AMERICA:   COUNTRY
 SRVC.       SCHLUMBERGER:   SERVICE COMPANY
 DATE.        06-MAY-1966:   LOGDATE
 API .     49025095120000:   API NUMBER
~CURVE INFORMATION
#MNEM.UNIT       API CODE    CURVE DESCRIPTION
#----------   ------------   ------------------------------
 DEPT.F                  :   
 CALD.IN     45 280 60 00:   CALIPER FROM DENSITY LOG
 GRD .GAPI   45 310 01 00:   GAMMA RAY FROM DENSITY LOG
 RHOB.G/C3   45 350 01 00:   BULK DENSITY
 CORR.G/C3   45 356 01 00:   DENSITY CORRECTION
 SPR .MV     05 010 01 00:   SPONTANEOUS POTENTIAL
 ILD .OHMM   05 120 46 00:   DEEP INDUCTION RESISTIVITY
 ASN .OHMM   05 041 16 00:   AMPLIFIED SHORT NORMAL 16"
~PARAMETER INFORMATION
#MNEM.UNIT          VALUE    DESCRIPTION
#----------   ------------   ------------------------------
 EKB .F         5016.3000:   Kelly bushing
 EGL .F         5006.0000:   Ground level
 EDF .F            0.0000:   Drilling floor
 TD  .F         2750.0000:   Total depth
 DATE.        06-MAY-1966:   Date logged
 CLNT.            A2DTECH:   Client Code
 PD  .                 GL:   Permanent Datum
 DD  .F              2750:   Depth driller
 DL  .F              2746:   Depth logger
 BLI .F              2745:   Bottom log interval
 CS1 .IN            10.75:   Casing size
 CBD1.       10.75" @ 30':   Casing driller 1
 BS1 .IN            7.875:   Bit size
 DFT .           OIL/EMUL:   Type fluid in hole
 DFD .                9.8:   Density
 DFV .                 43:   Viscosity
 DFPH.                  8:   pH
 DFL .               11.8:   Fluid loss
 MSS .         CIRCULATED:   Source of sample
 RMS .OHMM           1.84:   Rm
 MST .F                73:   Rm Meas. temp.
 RMF .OHMM           1.21:   Rmf
 MFST.F                74:   Rmf Meas. temp.
 MFSS.                 FP:   Source Rmf.
 RMB .OHMM           1.27:   Rm. at BHT
 BHT .F               106:   BHT.
 TCS .HRS             1.5:   Time Circ. stopped
 MRT .F               106:   Maximum recorded temp.
 LUN .               3527:   Logging unit number
 LUL .               CSPR:   Logging unit location
 ENGI.               HAUG:   Recorded By
 WITN.      TUTTLE/HUDSON:   Witnessed by
 ORIG.           5" PRINT:   Origin of data
 UWI .     49025095120000:   Unique Well ID
 DICO. A2D TECHNOLOGIES, INC.:   Digitizing Company
 DAPD.F              10.3:   Feet Above Permanent Datum
 BSD1.F              2750:   Depth drilled with bit1
 MCSS.                 FP:   Source Rmc.
 EPD .F              5006:   Elevation Permanent Datum
 LMF .                 KB:   Log Measured From
 DMF .                 KB:   Drilling Measured From
 TLI .F                88:   Top log interval
~OTHER INFORMATION
~A   DEPT     CALD        GRD       RHOB       CORR        SPR        ILD          ASN 
# ...
 2481.5000     8.0160    98.0150     2.5260     0.0160   -39.4530     9.7390    15.0480
 2482.0000     8.0200    93.7640     2.5290     0.0090   -39.3210     9.9780    15.4660
 2482.5000     8.0210    89.6320     2.5390     0.0070   -39.1890    10.0550    15.8860
 2483.0000     8.0230    88.1390     2.5490     0.0140   -39.0600    10.0550    16.3060
 2483.5000     8.0250    89.7720     2.5610     0.0190   -38.9940     9.9870    16.7330
 2484.0000     8.0270    91.8850     2.5600     0.0150   -39.1900     9.9170    16.7850
 2484.5000     8.0290    94.7580     2.5550     0.0110   -39.3830     9.8450    16.1390
 2485.0000     8.0310    98.9560     2.5430     0.0090   -39.5730     9.7750    15.4830
 2485.5000     8.0330   101.2400     2.5350     0.0090   -39.7290     9.5820    14.8600
 2486.0000     8.0350   100.1820     2.5370     0.0120   -39.6310     9.2960    14.4380
 2486.5000     8.0370    99.0210     2.5390     0.0160   -39.5300     8.9440    14.1360
 2487.0000     8.0390    99.5810     2.5440     0.0190   -39.4290     8.5890    13.9270
 2487.5000     8.0410    99.7600     2.5530     0.0220   -39.3280     8.2330    13.9260
 2488.0000     8.0420   101.3880     2.5550     0.0250   -39.2280     7.8760    13.8250
 2488.5000     8.0440   103.7230     2.5430     0.0270   -39.1280     7.5200    13.1440
 2489.0000     8.0460   106.4970     2.5320     0.0260   -39.0300     7.1630    12.4760
 2489.5000     8.0480   108.9860     2.5210     0.0250   -39.0260     6.8070    11.8120
 2490.0000     8.0500   110.1260     2.5090     0.0170   -39.3070     6.4500    11.0110
 2490.5000     8.0520   111.1570     2.4990     0.0070   -39.5800     6.0910    10.4020
 2491.0000     8.0540   112.3280     2.4960     0.0010   -39.7020     5.7020     9.8510
 2491.5000     8.0560   112.3990     2.4970     0.0010   -39.6010     5.3870     9.3070
 2492.0000     8.0580   118.6530     2.4990     0.0040   -39.5030     5.0740     8.7710
 2492.5000     8.0580   128.2610     2.4940     0.0090   -39.4040     4.7640     8.2390
 2493.0000     8.0700   140.0000     2.4900     0.0140   -39.3040     4.4530     7.7060
 2493.5000     8.0920   151.6330     2.4910     0.0180   -39.2030     4.1430     7.1660
 2494.0000     8.1110   160.7640     2.4870     0.0220   -38.8660     3.8330     6.5560
 2494.5000     8.1300   159.0620     2.4730     0.0240   -38.7310     3.5230     5.9470
 2495.0000     8.1490   154.5240     2.4580     0.0120   -38.6960     3.2080     5.5970
 2495.5000     8.1700   151.3600     2.4490     0.0000   -38.6620     2.9380     5.2530
 2496.0000     8.1770   151.2980     2.4500     0.0050   -38.6290     2.6130     4.8690
 2496.5000     8.1770   155.0500     2.4500     0.0150   -38.5950     2.2950     4.5110
 2497.0000     8.1680   160.6750     2.4400     0.0250   -38.5610     1.9790     4.1530
 2497.5000     8.1510   164.8070     2.4380     0.0340   -38.5280     1.6610     3.7950
 2498.0000     8.1350   177.1220     2.4260     0.0430   -38.4940     1.5390     3.4360
 2498.5000     8.1200   196.5560     2.4000     0.0360   -38.4600     1.5420     3.0790
 2499.0000     8.1040   211.7500     2.3760     0.0250   -38.4270     1.5700     2.7130
 2499.5000     8.0890   219.4710     2.3560     0.0240   -38.3930     1.5980     2.5270
 2500.0000     8.0730   220.3300     2.3140     0.0280   -38.3650     1.6270     2.4630
 2500.5000     8.0570   211.5030     2.2910     0.0230   -38.3920     1.6550     2.4080
 2501.0000     8.0420   198.9400     2.3130     0.0160   -38.4190     1.6840     2.4060
 2501.5000     8.0250   191.9930     2.3290     0.0080   -38.4460     1.7140     2.4970
 2502.0000     8.0320   196.4600     2.3410     0.0050   -38.4730     1.7430     2.6170
 2502.5000     8.0870   198.5130     2.3490     0.0060   -38.4990     1.8160     2.7790
 2503.0000     8.1470   191.5360     2.3300     0.0100   -38.5260     2.0660     3.0660
 2503.5000     8.1790   164.4570     2.3340     0.0130   -38.5530     2.5790     3.3590
 2504.0000     8.1750   125.3700     2.3480     0.0170   -38.5800     3.0860     3.8570
 2504.5000     8.1790   108.5090     2.4200     0.0200   -38.6060     3.5920     4.9980
 2505.0000     8.1370   103.8470     2.4600     0.0240   -38.6330     4.0990     6.0940
 2505.5000     7.9850   108.1060     2.4730     0.0240   -38.6600     4.6050     6.7770
 2506.0000     7.8240   109.7100     2.4690     0.0160   -38.6860     4.9050     7.0440
 2506.5000     7.7420   112.3410     2.4760     0.0160   -38.7120     4.9980     7.3090
 2507.0000     7.8040   114.2010     2.4820     0.0190   -38.7330     5.1690     7.5730
 2507.5000     7.8510   114.8720     2.4760     0.0200   -38.6020     5.3390     7.8330
 2508.0000     7.9050   115.2640     2.4720     0.0160   -38.0790     5.5080     8.1650
 2508.5000     7.9570   111.3290     2.4760     0.0110   -37.9080     5.6770     8.6940
 2509.0000     8.0080   107.2350     2.4810     0.0060   -38.2690     5.8490     9.2150
 2509.5000     8.0620   103.2930     2.4840     0.0030   -38.1970     6.1220     9.7340
 2510.0000     8.0970   104.1830     2.4870     0.0030   -37.9630     6.6300    10.4370
 2510.5000     8.0940   105.8570     2.4890     0.0040   -37.7250     7.1300    11.1250
 2511.0000     8.0930   106.3100     2.4990     0.0060   -37.4850     7.6260    12.0180
 2511.5000     8.0900   105.5580     2.5060     0.0090   -37.4460     8.1230    13.0010
 2512.0000     8.0880   103.3520     2.5060     0.0070   -37.5670     8.6010    13.9730
 2512.5000     8.0860   100.3310     2.5080     0.0040   -37.6860     9.4600    14.9480
 2513.0000     8.0840    98.4530     2.5100     0.0030   -37.8070    10.2880    15.9210
 2513.5000     8.0810    96.7350     2.5220     0.0050   -37.9280    11.1010    16.9050
 2514.0000     8.0790    95.1040     2.5200     0.0060   -38.0490    11.4480    17.7500
 2514.5000     8.0770    91.7280     2.5150     0.0080   -38.1700    11.5450    18.0150
 2515.0000     8.0750    89.1780     2.5130     0.0090   -38.2910    11.0690    18.2810
 2515.5000     8.0720    88.3390     2.5160     0.0090   -38.4120     9.8900    18.3840
 2516.0000     8.0700    92.1390     2.5220     0.0090   -38.5350     8.8170    18.1210
 2516.5000     8.0680    94.2370     2.5250     0.0080   -38.4160     7.7240    16.1280
 2517.0000     8.0660    97.8520     2.5300     0.0080   -38.1740     6.6020    13.8950
 2517.5000     8.0630   103.0560     2.5360     0.0070   -37.9300     6.0610    11.2940
 2518.0000     8.0610   112.5690     2.5440     0.0070   -37.6860     5.6990    10.2340
 2518.5000     8.0590   123.5040     2.5360     0.0060   -37.4400     5.3460     9.4200
 2519.0000     8.0830   131.5900     2.5160     0.0060   -37.1920     4.9930     8.4720
 2519.5000     8.1160   134.3830     2.5020     0.0050   -37.1790     4.6410     7.4710
 2520.0000     8.1490   136.3440     2.4970     0.0040   -37.1790     4.3190     7.3510
 2520.5000     8.1750   136.4530     2.4950     0.0040   -37.1800     4.3110     7.2660
 2521.0000     8.1760   136.2300     2.4950     0.0030   -37.1790     4.3110     7.2220
 2521.5000     8.1770   135.6830     2.4930     0.0030   -37.1780     4.3110     7.1750
 2522.0000     8.1760   134.2320     2.4820     0.0020   -37.1780     4.3110     7.1540
 2522.5000     8.1760   132.8630     2.4740     0.0020   -37.1830     4.3110     7.2030
 2523.0000     8.1760   131.7050     2.4750     0.0010   -36.8770     4.3110     7.2520
 2523.5000     8.1760   131.0200     2.4790     0.0010   -36.7650     4.3110     7.2790
 2524.0000     8.1760   130.2620     2.4840     0.0050   -37.1500     4.3110     7.2350
 2524.5000     8.1760   130.2140     2.4840     0.0070   -37.5200     4.3030     7.1920
 2525.0000     8.1760   130.2070     2.4810     0.0070   -37.0810     4.2820     7.1490
 2525.5000     8.1760   130.3580     2.4800     0.0060   -36.6290     4.2620     7.0600
 2526.0000     8.1760   131.6360     2.4830     0.0050   -36.9020     4.2420     6.9170
 2526.5000     8.1760   132.7690     2.4870     0.0050   -37.1830     4.2220     6.7740
