~VERSION INFORMATION
 VERS.                2.0:   CWLS LOG ASCII STANDARD - VERSION 2.0
 WRAP.                 NO:   ONE LINE PER DEPTH STEP
~WELL INFORMATION
#MNEM.UNIT      DATA TYPE    INFORMATION
#----------   ------------   ------------------------------
 STRT.F           42.0000:   START DEPTH
 STOP.F         2778.0000:   STOP DEPTH
 STEP.F            0.5000:   STEP LENGTH
 NULL.          -999.2500:   NO VALUE
 COMP.    FENIX & SCISSON:   COMPANY
 WELL. FENIX & SCISSON SHX #56-23:   WELL
 FLD .        TEAPOT DOME:   FIELD
 LOC .      S23 T38N R78W:   LOCATION
 CNTY.            NATRONA:   COUNTY
 STAT.            WYOMING:   STATE
 CTRY. UNITED STATES OF AMERICA:   COUNTRY
 SRVC.           BIRDWELL:   SERVICE COMPANY
 DATE.        29-AUG-1979:   LOGDATE
 API .     49025107920000:   API NUMBER
~CURVE INFORMATION
#MNEM.UNIT       API CODE    CURVE DESCRIPTION
#----------   ------------   ------------------------------
 DEPT.F                  :   
 GRD .GAPI   45 310 01 00:   GAMMA RAY FROM DENSITY LOG
 CALD.IN     45 280 60 00:   CALIPER FROM DENSITY LOG
 RHOB.G/C3   45 350 01 00:   BULK DENSITY
 CORR.G/C3   45 356 01 00:   DENSITY CORRECTION
 ILD .OHMM   07 120 46 00:   DEEP INDUCTION RESISTIVITY
 SFL .OHMM   07 220 01 00:   SHALLOW FOCUSED LOG RESISTIVITY
 SPR .MV     07 010 01 00:   SPONTANEOUS POTENTIAL
~PARAMETER INFORMATION
#MNEM.UNIT          VALUE    DESCRIPTION
#----------   ------------   ------------------------------
 EKB .F         5361.0000:   Kelly bushing
 EGL .F         5351.0000:   Ground level
 EDF .F         5360.0000:   Drilling floor
 TD  .F         1465.0000:   Total depth
 DATE.        29-AUG-1979:   Date logged
 CLNT.            A2DTECH:   Client Code
 PD  .                 GL:   Permanent Datum
 EPD .F              5351:   Elevation Permanent Datum
 LMF .                 KB:   Log Measured From
 DMF .                 KB:   Drilling Measured From
 DAPD.F                 9:   Feet Above Permanent Datum
 DD  .F              1465:   Depth driller
 DL  .F              1462:   Depth logger
 BLI .F              1457:   Bottom log interval
 TLI .F                40:   Top log interval
 CBD1.F                40:   Casing driller 1
 CBL1.F                40:   Casing logger 1
 BS1 .IN            12.25:   Bit size
 BSD1.F              1465:   Depth drilled with bit1
 DFT .            GEL/MUD:   Type fluid in hole
 DFD .                9.5:   Density
 DFV .                 40:   Viscosity
 DFPH.                9.0:   pH
 DFL .                 40:   Fluid loss
 MSS .            MUD PIT:   Source of sample
 RMS .OHMM            2.6:   Rm
 MST .F                68:   Rm Meas. temp.
 RMF .OHMM            1.8:   Rmf
 MFST.F                78:   Rmf Meas. temp.
 RMC .OHMM            2.8:   Rmc
 MCST.F                76:   Rmc Meas. temp.
 MFSS.               MEAS:   Source Rmf.
 MCSS.               MEAS:   Source Rmc.
 RMB .OHMM           1.96:   Rm. at BHT
 BHT .F                90:   BHT.
 TCS .HRS               5:   Time Circ. stopped
 MRT .F                90:   Maximum recorded temp.
 LUN .               2959:   Logging unit number
 LUL .             CASPER:   Logging unit location
 ENGI.         B. ROLLINS:   Recorded By
 WITN.              AMEND:   Witnessed by
 ORIG.           5" PRINT:   Origin of data
 UWI .     49025107920000:   Unique Well ID
 DICO. A2D TECHNOLOGIES, INC.:   Digitizing Company
~OTHER INFORMATION
~A   DEPT       GRD      CALD       RHOB         CORR      ILD        SFL         SPR  
# ...
 1043.0000   101.8060    13.0440     2.4910     0.2060     7.2270     6.8280   -51.1940
 1043.5000    98.5530    13.0440     2.4870     0.2070     7.3480     6.9280   -51.2780
 1044.0000    96.0810    13.0440     2.4850     0.2090     7.4690     7.0280   -51.3680
 1044.5000    93.7520    13.0440     2.4850     0.2100     7.5900     7.1280   -51.4030
 1045.0000    93.9280    13.0440     2.4850     0.2110     7.7110     7.2280   -51.3990
 1045.5000    94.0090    13.0440     2.4870     0.2130     7.8320     7.3280   -51.4060
 1046.0000    94.4220    13.0440     2.4970     0.2140     7.9530     7.4280   -51.3850
 1046.5000    94.9350    13.0440     2.5050     0.2150     8.0740     7.5280   -51.5700
 1047.0000    98.3790    13.0440     2.5050     0.2160     8.1950     7.6280   -51.9470
 1047.5000    95.4070    13.0440     2.5040     0.2160     8.3150     7.7280   -52.3040
 1048.0000    92.0410    13.0440     2.5020     0.2130     8.4360     7.8280   -52.6500
 1048.5000    88.6810    13.0440     2.5000     0.2100     8.5570     7.9280   -53.0010
 1049.0000    85.2620    13.0440     2.4980     0.2070     8.6780     8.0280   -52.7840
 1049.5000    87.0000    13.0440     2.4960     0.2040     8.7990     8.1280   -52.3960
 1050.0000    89.8110    13.0440     2.4950     0.2050     8.9200     8.2080   -51.9950
 1050.5000    93.0250    13.0440     2.4960     0.2080     9.0410     8.2080   -51.8130
 1051.0000    93.7120    13.0440     2.4970     0.2100     9.1620     8.2080   -51.9180
 1051.5000    93.1420    13.0440     2.4980     0.2130     9.1880     8.1740   -51.9890
 1052.0000    96.0130    13.0440     2.4990     0.2150     9.1880     8.1310   -52.0700
 1052.5000    95.0100    13.0540     2.5010     0.2180     9.1580     8.0870   -52.1510
 1053.0000    92.1990    13.0680     2.5010     0.2200     9.1180     8.0440   -52.2270
 1053.5000    91.9290    13.0820     2.4990     0.2200     9.0780     8.0000   -52.3080
 1054.0000    91.4780    13.0960     2.4940     0.2160     9.0380     7.9570   -52.3860
 1054.5000    88.3370    13.1100     2.4890     0.2120     8.9970     7.9130   -52.4640
 1055.0000    88.4970    13.1240     2.4850     0.2080     8.9570     7.8700   -52.5550
 1055.5000    91.9060    13.1380     2.4850     0.2110     8.9170     7.8270   -52.5540
 1056.0000    95.1670    13.1520     2.4870     0.2120     8.8770     7.7830   -52.3780
 1056.5000    94.5030    13.1590     2.4910     0.2130     8.8360     7.7400   -52.2180
 1057.0000    93.1150    13.1460     2.4880     0.2130     8.7960     7.6960   -52.0560
 1057.5000    91.7000    13.1330     2.4800     0.2110     8.7560     7.6530   -51.8710
 1058.0000    88.9340    13.1190     2.4740     0.2090     8.7160     7.6100   -51.8990
 1058.5000    86.1180    13.1060     2.4650     0.2070     8.6760     7.5660   -52.1730
 1059.0000    85.9910    13.0930     2.4620     0.2060     8.6360     7.5230   -52.4200
 1059.5000    87.9670    13.0790     2.4660     0.2100     8.5960     7.4790   -52.5820
 1060.0000    89.2460    13.0660     2.4740     0.2130     8.5550     7.4360   -52.6440
 1060.5000    88.3680    13.0520     2.4770     0.2160     8.5150     7.3920   -52.0440
 1061.0000    87.8510    13.0440     2.4760     0.2150     8.4750     7.3490   -51.0300
 1061.5000    86.9750    13.0460     2.4730     0.2120     8.4350     7.3060   -51.0930
 1062.0000    84.9150    13.0480     2.4740     0.2110     8.3950     7.2620   -51.3890
 1062.5000    85.1880    13.0500     2.4830     0.2120     8.3550     7.2190   -51.7640
 1063.0000    86.1270    13.0520     2.4850     0.2150     8.3140     7.1750   -51.6590
 1063.5000    86.1410    13.0530     2.4880     0.2190     8.2740     7.1320   -51.4770
 1064.0000    86.1220    13.0550     2.5020     0.2230     8.2340     7.0880   -51.3010
 1064.5000    85.3130    13.0570     2.5030     0.2230     8.1940     7.0450   -51.1040
 1065.0000    84.3380    13.0590     2.5020     0.2230     8.1540     7.0020   -50.8770
 1065.5000    83.3470    13.0610     2.4970     0.2230     8.1140     6.9580   -50.6620
 1066.0000    82.8630    13.0620     2.4940     0.2200     8.0730     6.9100   -51.2630
 1066.5000    82.7830    13.0640     2.4850     0.2160     8.0550     6.8530   -51.8490
 1067.0000    82.6730    13.0660     2.4730     0.2130     7.9850     6.7960   -52.2390
 1067.5000    84.3780    13.0680     2.4680     0.2130     7.9230     6.7390   -52.0160
 1068.0000    86.7640    13.0700     2.4690     0.2120     7.8610     6.6810   -51.9210
 1068.5000    86.5790    13.0710     2.4740     0.2110     7.7990     6.6240   -51.4640
 1069.0000    86.6480    13.0730     2.4800     0.2110     7.7370     6.5670   -51.5310
 1069.5000    90.2620    13.0750     2.4820     0.2100     7.6760     6.5100   -51.9810
 1070.0000    92.8970    13.0770     2.4780     0.2090     7.6140     6.4530   -52.4410
 1070.5000    91.8120    13.0790     2.4720     0.2090     7.5520     6.3960   -52.8780
 1071.0000    90.3330    13.0810     2.4730     0.2100     7.4900     6.3390   -53.3560
 1071.5000    88.7060    13.0820     2.4800     0.2150     7.4280     6.3080   -53.3560
 1072.0000    86.6680    13.0840     2.5010     0.2200     7.3660     6.3570   -52.8290
 1072.5000    88.2000    13.0860     2.4950     0.2160     7.3320     6.4030   -52.3120
 1073.0000    91.1520    13.0880     2.4800     0.2110     7.3320     6.4490   -51.7480
 1073.5000    91.2150    13.0900     2.4700     0.2060     7.3320     6.4950   -51.2570
 1074.0000    90.2950    13.0910     2.4670     0.2030     7.3320     6.5500   -50.6560
 1074.5000    88.3670    13.0930     2.4670     0.2030     7.3320     6.5500   -50.5280
 1075.0000    85.8050    13.0950     2.4690     0.2030     7.3320     6.5500   -50.1650
 1075.5000    83.4170    13.0970     2.4710     0.2030     7.3320     6.5500   -50.5250
 1076.0000    81.0450    13.0990     2.4740     0.2020     7.3320     6.4780   -50.8780
 1076.5000    79.1040    13.1010     2.4730     0.2020     7.1950     6.3570   -51.2740
 1077.0000    81.4550    13.1020     2.4680     0.2010     7.1110     6.2360   -51.6370
 1077.5000    84.6480    13.1040     2.4630     0.2020     6.9650     6.1150   -52.0620
 1078.0000    87.8450    13.1060     2.4680     0.2040     6.8180     5.9940   -51.9960
 1078.5000    91.2990    13.1080     2.4710     0.2080     6.6720     5.8730   -51.5310
 1079.0000    93.4560    13.1100     2.4700     0.2120     6.5250     5.7520   -51.1190
 1079.5000    92.4940    13.1110     2.4600     0.2130     6.3780     5.6310   -50.9870
 1080.0000    91.6570    13.1130     2.4510     0.2090     6.2320     5.5100   -51.0840
 1080.5000    91.4930    13.1150     2.4460     0.2060     6.1900     5.3260   -51.2720
 1081.0000    93.0970    13.1170     2.4460     0.2030     6.1900     5.3590   -51.4400
 1081.5000    93.8460    13.1190     2.4460     0.2010     6.1900     5.3950   -51.6170
 1082.0000    85.7140    13.1200     2.4460     0.2020     6.1900     5.4320   -51.7940
 1082.5000    86.7370    13.1220     2.4500     0.2060     6.3080     5.4680   -51.9600
 1083.0000    87.8360    13.1230     2.4550     0.2090     6.3240     5.5050   -52.1470
 1083.5000    87.7560    13.1210     2.4610     0.2120     6.3580     5.5410   -52.1990
 1084.0000    87.8190    13.1210     2.4660     0.2150     6.3920     5.5770   -52.1660
 1084.5000    88.6360    13.1200     2.4720     0.2140     6.4270     5.6140   -51.7170
 1085.0000    91.3220    13.1190     2.4720     0.2130     6.4600     5.6500   -51.2760
 1085.5000    91.9480    13.1180     2.4730     0.2120     6.4940     5.6870   -50.8280
 1086.0000    91.8370    13.1170     2.4710     0.2110     6.5280     5.7230   -50.3570
 1086.5000    94.6590    13.1160     2.4660     0.2090     6.5620     5.7600   -50.2880
 1087.0000    94.8120    13.1150     2.4640     0.2070     6.5960     5.7960   -50.5010
 1087.5000    93.8740    13.1140     2.4650     0.2050     6.6300     5.8330   -50.6740
 1088.0000    92.0480    13.1130     2.4730     0.2050     6.6640     5.8690   -50.8530
