~VERSION INFORMATION
 VERS.                2.0:   CWLS LOG ASCII STANDARD - VERSION 2.0
 WRAP.                 NO:   ONE LINE PER DEPTH STEP
~WELL INFORMATION
#MNEM.UNIT      DATA TYPE    INFORMATION
#----------   ------------   ------------------------------
 STRT.F          634.0000:   START DEPTH
 STOP.F         3464.0000:   STOP DEPTH
 STEP.F            0.5000:   STEP LENGTH
 NULL.          -999.2500:   NO VALUE
 COMP. LAWRENCE-ALLISON & ASSOCIATES W:   COMPANY
 WELL. LAWRENCE "TX" #44-27:   WELL
 FLD .   NAVAL RESERVE #3:   FIELD
 LOC .      S27 T39N R78W:   LOCATION
 CNTY.            NATRONA:   COUNTY
 STAT.            WYOMING:   STATE
 CTRY. UNITED STATES OF AMERICA:   COUNTRY
 SRVC.       SCHLUMBERGER:   SERVICE COMPANY
 DATE.        13-MAR-1982:   LOGDATE
 API .     49025108870000:   API NUMBER
~CURVE INFORMATION
#MNEM.UNIT       API CODE    CURVE DESCRIPTION
#----------   ------------   ------------------------------
 DEPT.F                  :   
 TENR.LBS    07 635 01 00:   TENSION FROM RESISTIVITY
 ILD .OHMM   07 120 46 00:   DEEP INDUCTION RESISTIVITY
 ILM .OHMM   07 120 44 00:   INDUCTION LOG MEDIUM RESISTIVITY
 SFLU.OHMM   07 220 01 00:   SPHERICALLY FOCUSED LOG UNAVERAGED RESISTIVITY
 SPR .MV     07 010 01 00:   SPONTANEOUS POTENTIAL
 TENN.LBS    42 635 01 00:   TENSION FROM COMPENSATE NEUTRON
 CALD.IN     45 280 60 00:   CALIPER FROM DENSITY LOG
 GRD .GAPI   45 310 01 00:   GAMMA RAY FROM DENSITY LOG
 RHOB.G/C3   45 350 01 00:   BULK DENSITY
 DRHO.G/C3   45 356 01 00:   DENSITY CORRECTION
 NPHI.DEC    42 890 03 00:   NEUTRON POROSITY SANDSTONE
~PARAMETER INFORMATION
#MNEM.UNIT          VALUE    DESCRIPTION
#----------   ------------   ------------------------------
 EKB .F         5049.0000:   Kelly bushing
 EGL .F         5039.0000:   Ground level
 EDF .F            0.0000:   Drilling floor
 EPD .F            0.0000:   Permanent datum
 TD  .F         3440.0000:   Total depth
 DATE.        13-MAR-1982:   Date logged
 CLNT.            A2DTECH:   Client Code
 PD  .                 GL:   Permanent Datum
 DD  .F              3440:   Depth driller
 DL  .F              3439:   Depth logger
 BLI .F              3433:   Bottom log interval
 CS1 .IN            9.625:   Casing size
 CBD1.      9.625" @ 650':   Casing driller 1
 CBL1.F               647:   Casing logger 1
 BS1 .IN            7.875:   Bit size
 DFT .                GEL:   Type fluid in hole
 DFD .                9.3:   Density
 DFV .                 48:   Viscosity
 DFPH.                 10:   pH
 DFL .                  8:   Fluid loss
 MSS .                PIT:   Source of sample
 RMS .OHMM           1.82:   Rm
 MST .F                67:   Rm Meas. temp.
 RMF .OHMM           1.32:   Rmf
 MFST.F                67:   Rmf Meas. temp.
 MFSS.               MEAS:   Source Rmf.
 RMB .OHMM           1.09:   Rm. at BHT
 BHT .F               112:   BHT.
 TCS .HRS            1300:   Time Circ. stopped
 MRT .F               112:   Maximum recorded temp.
 LUN .               8039:   Logging unit number
 LUL .               CSPR:   Logging unit location
 ENGI.   WAGNER/CONOSENTI:   Recorded By
 WITN.           JENNINGS:   Witnessed by
 ORIG.           5" PRINT:   Origin of data
 UWI .     49025108870000:   Unique Well ID
 DICO. A2D TECHNOLOGIES, INC.:   Digitizing Company
 DAPD.                 10:   Feet Above Permanent Datum
 BSD1.F              3440:   Depth drilled with bit1
 TLI .F               647:   Top log interval
 TLAB.HRS            1800:   Time logger at bottom
~OTHER INFORMATION
~A   DEPT     TENR        ILD        ILM       SFLU        SPR       TENN       CALD         GRD      RHOB       DRHO       NPHI   
# ...
  817.0000   728.5430     9.3690     8.6340    10.1490   -30.4610  1193.5210    10.7740    89.7300     2.5260     0.0310     0.2540
  817.5000   728.5430     9.3690     8.5360    10.0850   -30.1120  1194.2430    10.7710    91.7650     2.5450     0.0390     0.2540
  818.0000   728.5430     9.2790     8.4390    10.0210   -29.7650  1194.9650    10.7770    93.2750     2.5600     0.0470     0.2510
  818.5000   728.5430     9.1810     8.3420     9.9560   -29.4170  1195.6870    10.8110    94.2240     2.5720     0.0520     0.2490
  819.0000   728.5430     9.0830     8.2380     9.8780   -29.0680  1196.4080    10.8440    94.4620     2.5590     0.0490     0.2490
  819.5000   728.5430     8.9850     8.1900     9.7060   -28.7100  1197.1300    10.8780    94.6970     2.5430     0.0470     0.2510
  820.0000   728.5430     8.8860     8.1240     9.5340   -28.5830  1197.8521    10.9120    93.8410     2.5270     0.0610     0.2580
  820.5000   728.5430     8.7880     8.0590     9.3630   -28.4180  1198.5740    10.9450    92.8040     2.5200     0.0750     0.2640
  821.0000   728.5430     8.6900     7.9940     9.1910   -28.2560  1199.2950    10.9110    91.6950     2.5280     0.0890     0.2740
  821.5000   728.5430     8.5910     7.9280     9.0960   -28.3680  1200.0170    10.8660    92.8690     2.5320     0.0810     0.2820
  822.0000   728.5430     8.4930     7.8630     9.0460   -28.5530  1201.0811    10.8200    94.9820     2.5150     0.0610     0.2830
  822.5000   728.5430     8.3950     7.7960     8.9960   -28.7410  1202.5250    10.7750    96.7850     2.4940     0.0270     0.2710
  823.0000   728.5430     8.2980     7.7960     8.9460   -28.9280  1203.9680    10.7300    97.6130     2.4900     0.0150     0.2590
  823.5000   728.5430     8.2090     7.6990     8.8960   -29.1140  1205.4120    10.6890    98.7790     2.4910     0.0130     0.2560
  824.0000   728.5430     8.1200     7.5990     8.8450   -29.2320  1206.8550    10.6890   100.2920     2.4980     0.0150     0.2600
  824.5000   728.5430     8.0310     7.5000     8.7950   -29.2570  1208.2990    10.6950   101.6600     2.4970     0.0130     0.2640
  825.0000   728.5430     7.9420     7.4010     8.6310   -29.3270  1209.7419    10.7000   101.9390     2.4880     0.0100     0.2710
  825.5000   728.5430     7.8530     7.3020     8.4370   -29.3970  1211.1860    10.7050   101.1170     2.4780     0.0070     0.2800
  826.0000   728.5430     7.7640     7.2030     8.2430   -29.4670  1212.6290    10.7110   100.5750     2.4760     0.0070     0.2900
  826.5000   728.5430     7.6750     7.1030     8.0490   -29.5380  1214.0730    10.7160   101.3120     2.4930     0.0130     0.2890
  827.0000   728.5430     7.5860     7.0460     7.9770   -29.5990  1215.5160    10.7220   103.5230     2.5060     0.0200     0.2830
  827.5000   728.5430     7.4970     7.0160     7.9190   -29.7990  1216.9600    10.7270   105.7640     2.5190     0.0260     0.2790
  828.0000   728.5430     7.4080     6.9470     7.8600   -29.5570  1218.4030    10.7320   104.3500     2.5220     0.0260     0.2750
  828.5000   728.5430     7.3190     6.8780     7.8020   -29.3310  1219.8470    10.7380   102.3630     2.5150     0.0230     0.2670
  829.0000   728.5430     7.2310     6.8090     7.7440   -29.1080  1219.1860    10.7430    98.3880     2.5070     0.0200     0.2600
  829.5000   728.5430     7.1420     6.7400     7.6850   -28.8830  1217.7419    10.7480    96.5840     2.5000     0.0170     0.2580
  830.0000   728.5430     7.0470     6.6710     7.5330   -28.6590  1216.2990    10.7540    98.4270     2.5010     0.0150     0.2630
  830.5000   728.5430     6.9490     6.6010     7.3360   -28.4370  1214.8550    10.7590   100.4580     2.5110     0.0230     0.2710
  831.0000   728.5430     6.8520     6.5320     7.1390   -28.2100  1213.4120    10.7640   102.4740     2.5210     0.0310     0.2800
  831.5000   728.5430     6.7540     6.4630     6.9410   -27.7360  1211.9680    10.7690   101.4660     2.5260     0.0280     0.2880
  832.0000   728.5430     6.6070     6.3920     6.9180   -27.2750  1210.5240    10.7700    98.1940     2.5060     0.0200     0.2870
  832.5000   728.5430     6.6500     6.3190     7.0150   -26.8160  1209.0811    10.7650    94.8320     2.4880     0.0130     0.2820
  833.0000   728.5430     6.7400     6.2520     7.0910   -26.3430  1207.6370    10.7500    94.4740     2.5000     0.0200     0.2750
  833.5000   728.5430     6.8290     6.3230     7.1670   -26.4380  1206.1940    10.7530    96.4310     2.5080     0.0300     0.2750
  834.0000   728.5430     6.9190     6.4030     7.2440   -26.8650  1204.7500    10.7580    98.5270     2.5130     0.0250     0.2830
  834.5000   728.5430     7.0080     6.4820     7.3200   -27.2970  1203.3070    10.7630    99.9460     2.5180     0.0190     0.2860
  835.0000   728.5430     7.0980     6.5610     7.3960   -27.7380  1201.8630    10.7680   100.1420     2.5210     0.0140     0.2810
  835.5000   728.5430     7.1870     6.6410     7.4720   -28.2190  1200.4200    10.7730   100.3600     2.5240     0.0120     0.2750
  836.0000   728.5430     7.2770     6.7200     7.5480   -28.4570  1198.9760    10.7780   100.1440     2.5150     0.0090     0.2690
  836.5000   728.5430     7.3660     6.7990     7.6570   -28.6570  1197.5330    10.7830    99.3230     2.5060     0.0060     0.2640
  837.0000   728.5430     7.4560     6.8790     7.7950   -28.8560  1196.0890    10.7870    97.9640     2.5030     0.0040     0.2630
  837.5000   728.5430     7.5240     6.9580     7.9330   -29.0360  1194.6460    10.8250    97.2200     2.4960     0.0040     0.2700
  838.0000   728.5430     7.5910     7.0370     8.0710   -29.0580  1193.2020    10.8700    97.4680     2.4870     0.0080     0.2750
  838.5000   728.5430     7.6580     7.1170     8.2090   -29.1080  1191.7590    10.9140    97.7470     2.4810     0.0130     0.2730
  839.0000   728.5430     7.7250     7.1960     8.3470   -29.1580  1190.3149    10.9590    96.2320     2.5020     0.0250     0.2620
  839.5000   728.5430     7.7920     7.2760     8.4840   -29.2070  1188.8719    11.0040    94.4700     2.5240     0.0530     0.2510
  840.0000   728.5430     7.8590     7.3550     8.6250   -29.1160  1187.4280    11.0490    94.1230     2.5450     0.0910     0.2510
  840.5000   728.5430     7.9260     7.4340     8.5800   -28.8060  1185.9850    11.0920    93.8840     2.5530     0.0870     0.2560
  841.0000   728.5430     7.9400     7.5140     8.5330   -28.4980  1184.5410    11.1090    93.0980     2.5400     0.0800     0.2600
  841.5000   728.5430     7.9400     7.5140     8.4870   -28.1930  1183.0980    11.0580    91.3060     2.5290     0.0560     0.2640
  842.0000   728.5430     7.9400     7.5140     8.4400   -27.9010  1181.6541    11.0080    93.4600     2.5180     0.0330     0.2640
  842.5000   728.5430     7.9400     7.5140     8.3940   -27.6080  1180.5560    10.9580    96.2080     2.5080     0.0260     0.2640
  843.0000   728.5430     7.8680     7.4990     8.3480   -27.5730  1180.5560    10.9070    98.5500     2.4990     0.0200     0.2660
  843.5000   728.5430     7.8380     7.4620     8.3010   -27.5330  1180.5560    10.8570    99.1710     2.4890     0.0140     0.2670
  844.0000   728.5430     7.8090     7.4260     8.2550   -27.4940  1180.5560    10.8070    98.7780     2.4880     0.0160     0.2650
  844.5000   728.5430     7.7800     7.3890     8.2090   -27.4550  1180.5560    10.7570    99.9010     2.5040     0.0220     0.2590
  845.0000   728.5430     7.7500     7.3520     8.1640   -27.4370  1180.5560    10.7310   102.2250     2.5200     0.0340     0.2600
  845.5000   728.5430     7.7210     7.3150     8.1190   -27.8390  1180.5560    10.7350   103.4870     2.5330     0.0490     0.2610
  846.0000   728.5430     7.6920     7.2380     8.0740   -28.2460  1180.5560    10.7390   102.4300     2.5380     0.0490     0.2630
  846.5000   728.5430     7.6630     7.2280     8.0140   -28.6520  1180.5560    10.7440   100.4780     2.5360     0.0420     0.2620
  847.0000   728.5430     7.6340     7.2180     8.0270   -29.0230  1180.5560    10.7480    98.7040     2.5340     0.0350     0.2610
