~VERSION INFORMATION
 VERS.                2.0:   CWLS LOG ASCII STANDARD - VERSION 2.0
 WRAP.                 NO:   ONE LINE PER DEPTH STEP
~WELL INFORMATION
#MNEM.UNIT      DATA TYPE    INFORMATION
#----------   ------------   ------------------------------
 STRT.F          480.0000:   START DEPTH
 STOP.F         4609.5000:   STOP DEPTH
 STEP.F            0.5000:   STEP LENGTH
 NULL.          -999.2500:   NO VALUE
 COMP.   FENNIX & SCISSON:   COMPANY
 WELL. FENNIX NPR-3 "LX" #58-14:   WELL
 FLD .              NPR-3:   FIELD
 LOC .      S14 T38N R78W:   LOCATION
 CNTY.            NATRONA:   COUNTY
 STAT.            WYOMING:   STATE
 CTRY. UNITED STATES OF AMERICA:   COUNTRY
 SRVC.       SCHLUMBERGER:   SERVICE COMPANY
 DATE.        08-MAR-1978:   LOGDATE
 API .     49025105920000:   API NUMBER
~CURVE INFORMATION
#MNEM.UNIT       API CODE    CURVE DESCRIPTION
#----------   ------------   ------------------------------
 DEPT.F                  :   
 SPR .MV     07 010 01 00:   SPONTANEOUS POTENTIAL
 SFL .OHMM   07 220 01 00:   SHALLOW FOCUSED LOG RESISTIVITY
 ILD .OHMM   07 120 46 00:   DEEP INDUCTION RESISTIVITY
 ILM .OHMM   07 120 44 00:   INDUCTION LOG MEDIUM RESISTIVITY
 CALD.IN     45 280 60 00:   CALIPER FROM DENSITY LOG
 GRD .GAPI   45 310 01 00:   GAMMA RAY FROM DENSITY LOG
 CORR.G/C3   45 356 01 00:   DENSITY CORRECTION
 RHOB.G/C3   45 350 01 00:   BULK DENSITY
 NPHI.DEC    42 890 03 00:   NEUTRON POROSITY SANDSTONE
~PARAMETER INFORMATION
#MNEM.UNIT          VALUE    DESCRIPTION
#----------   ------------   ------------------------------
 EKB .F         5320.0000:   Kelly bushing
 EGL .F         5310.0000:   Ground level
 EDF .F            0.0000:   Drilling floor
 TD  .F         4635.0000:   Total depth
 DATE.        08-MAR-1978:   Date logged
 CLNT.            A2DTECH:   Client Code
 SL  . 810' FSL & 1830' FEL:   Surface Location
 PD  .                 GL:   Permanent Datum
 DD  .F              4635:   Depth driller
 DL  .F              4608:   Depth logger
 BLI .F              4607:   Bottom log interval
 DFT .                FGM:   Type fluid in hole
 DFD .                9.1:   Density
 DFV .                 38:   Viscosity
 DFPH.                 11:   pH
 MSS .           FLOWLINE:   Source of sample
 RMS .OHMM           1.53:   Rm
 MST .F                58:   Rm Meas. temp.
 RMF .OHMM           1.06:   Rmf
 MFST.F                58:   Rmf Meas. temp.
 MFSS.               MEAS:   Source Rmf.
 RMB .OHMM           0.68:   Rm. at BHT
 BHT .F               131:   BHT.
 TCS .HRS            0630:   Time Circ. stopped
 MRT .F               131:   Maximum recorded temp.
 LUN .               8039:   Logging unit number
 LUL .               CSPP:   Logging unit location
 ENGI.           PETERSON:   Recorded By
 ORIG.           5" PRINT:   Origin of data
 UWI .     49025105920000:   Unique Well ID
 DICO. A2D TECHNOLOGIES, INC.:   Digitizing Company
 DAPD.                 20:   Feet Above Permanent Datum
 BSD1.               4635:   Depth drilled with bit1
 EPD .               5310:   Elevation Permanent Datum
 LMF .                 KB:   Log Measured From
 DMF .                 KB:   Drilling Measured From
 TLI .                508:   Top log interval
 CS1 .              8.625:   Casing size
 CBL1.                508:   Casing logger 1
 BS1 .              7.875:   Bit size
~OTHER INFORMATION
~A   DEPT      SPR        SFL        ILD        ILM       CALD         GRD      CORR       RHOB         NPHI 
# ...
 1319.5000   -49.3940     5.6060     6.3140     6.0950    13.6910   103.7770     0.0010     2.4750     0.3270
 1320.0000   -49.2130     5.6640     6.4930     6.0950    13.6590   101.6820     0.0120     2.4830     0.3180
 1320.5000   -49.2410     5.7960     6.6870     6.0940    13.6260    99.1390     0.0210     2.5070     0.3020
 1321.0000   -49.2750     6.1820     6.8810     6.0930    13.5930    96.6630     0.0200     2.5200     0.2950
 1321.5000   -49.3080     6.7560     7.0670     6.1910    13.5590    94.1600     0.0130     2.5140     0.2890
 1322.0000   -49.3410     7.3290     7.3140     6.5300    13.5670    93.4760     0.0050     2.5000     0.2840
 1322.5000   -49.3730     7.6090     7.5520     6.8260    13.5920    95.6930     0.0060     2.4920     0.2790
 1323.0000   -49.4100     7.6090     7.7890     7.0020    13.6170    98.2930     0.0120     2.5010     0.2860
 1323.5000   -49.5730     7.5580     8.0270     7.1320    13.6430   100.5390     0.0180     2.5150     0.2930
 1324.0000   -49.7380     7.4080     8.1180     7.1260    13.6680    99.6340     0.0200     2.5210     0.3010
 1324.5000   -49.9020     7.1940     8.1180     7.1090    13.6890    94.9150     0.0120     2.5160     0.3040
 1325.0000   -50.0660     7.0100     8.1180     7.0930    13.6820    91.7580     0.0060     2.5110     0.3020
 1325.5000   -50.2320     7.0760     8.1180     7.0770    13.6760    89.5410     0.0090     2.5130     0.2980
 1326.0000   -50.3870     7.2660     8.0330     7.0620    13.6700    89.4500     0.0140     2.5190     0.2970
 1326.5000   -50.2480     7.1030     7.9460     7.0480    13.6640    91.7030     0.0280     2.5290     0.2980
 1327.0000   -50.0950     7.0670     7.8600     7.0350    13.6580    93.3960     0.0410     2.5400     0.3030
 1327.5000   -49.9440     7.0480     7.8020     7.0210    13.6520    94.1060     0.0490     2.5530     0.3090
 1328.0000   -49.7920     6.9400     7.7430     7.0080    13.6510    93.6290     0.0520     2.5480     0.3120
 1328.5000   -49.6370     6.8330     7.6840     6.9720    13.6560    93.1550     0.0340     2.5260     0.3070
 1329.0000   -49.6280     6.7250     7.6250     6.9200    13.6610    93.7030     0.0180     2.5050     0.3020
 1329.5000   -49.6580     6.6170     7.5660     6.8680    13.6660    95.6540     0.0060     2.4910     0.3020
 1330.0000   -49.6890     6.5020     7.5360     6.8150    13.6740    97.6300     0.0030     2.4860     0.3020
 1330.5000   -49.7190     6.4430     7.5290     6.7630    13.6940    99.3490     0.0020     2.4830     0.2990
 1331.0000   -49.7490     6.4430     7.5220     6.7100    13.7130    98.2600     0.0110     2.4870     0.2970
 1331.5000   -49.7840     6.4910     7.5150     6.6850    13.7310    95.1410     0.0220     2.4970     0.2870
 1332.0000   -49.9140     6.5840     7.5090     6.6850    13.7860    93.4070     0.0330     2.5030     0.2870
 1332.5000   -50.3220     6.6850     7.5020     6.6850    13.8410    93.0480     0.0300     2.5000     0.2870
 1333.0000   -50.7020     6.6640     7.4950     6.6850    13.8950    93.8150     0.0230     2.4940     0.2860
 1333.5000   -51.0860     6.6400     7.4880     6.6850    13.9490    91.6790     0.0210     2.4920     0.2840
 1334.0000   -51.2720     6.6240     7.4820     6.6860    14.0010    89.2060     0.0250     2.4940     0.2850
 1334.5000   -51.3860     6.6240     7.4750     6.6540    14.0520    89.9310     0.0280     2.4920     0.2910
 1335.0000   -51.3860     6.5840     7.4610     6.6090    14.1040    93.5730     0.0240     2.4810     0.2970
 1335.5000   -51.3850     6.5390     7.4280     6.5630    14.1230    95.4920     0.0150     2.4600     0.3130
 1336.0000   -51.2980     6.4940     7.3950     6.5180    14.1140    95.1640     0.0070     2.4480     0.3310
 1336.5000   -51.1100     6.4490     7.3620     6.4570    14.1040    94.4120     0.0000     2.4540     0.3600
 1337.0000   -50.9230     6.4430     7.3290     6.3830    14.0630    95.6860     0.0060     2.4780     0.3630
 1337.5000   -50.7370     6.4430     7.2960     6.4740    14.0200    96.4740     0.0160     2.4950     0.3580
 1338.0000   -50.5900     6.4920     7.2630     6.5400    13.9920    96.8970     0.0220     2.4960     0.3410
 1338.5000   -50.5930     6.6850     7.2310     6.6850    13.9620    97.7550     0.0200     2.4850     0.3150
 1339.0000   -50.6010     6.5460     7.1990     6.6230    13.9330    98.1920     0.0140     2.4810     0.3000
 1339.5000   -50.7960     6.4720     7.1710     6.5620    13.9030    96.6730     0.0110     2.4820     0.2990
 1340.0000   -50.9940     6.3980     7.1450     6.5020    13.8740    95.6720     0.0100     2.4880     0.2930
 1340.5000   -51.1910     6.3250     7.1180     6.4420    13.8480    95.4520     0.0130     2.4960     0.3000
 1341.0000   -51.3880     6.3830     7.0920     6.3820    13.8520    97.3810     0.0150     2.5020     0.3030
 1341.5000   -51.5860     6.2660     7.0650     6.3210    13.8570    99.3650     0.0180     2.5050     0.3050
 1342.0000   -51.7770     6.0950     7.0390     6.2610    13.8620    99.2400     0.0200     2.5080     0.3080
 1342.5000   -51.7830     6.2090     7.0120     6.2010    13.8670    99.0580     0.0230     2.5080     0.3110
 1343.0000   -51.7830     6.0020     6.9860     6.1520    13.8550    99.4870     0.0210     2.5020     0.3150
 1343.5000   -51.7820     6.0540     6.9590     6.0950    13.8410   100.1860     0.0140     2.4900     0.3210
 1344.0000   -51.7460     6.2090     6.8730     6.0950    13.8260    99.5730     0.0060     2.4800     0.3300
 1344.5000   -51.5260     6.0390     6.8530     6.0950    13.8120    95.8130     0.0020     2.4780     0.3390
 1345.0000   -51.3060     6.1290     6.8320     6.0950    13.7980    95.3460     0.0030     2.4890     0.3410
 1345.5000   -51.0870     6.2090     6.8100     6.1740    13.7830    95.7560     0.0070     2.4970     0.3420
 1346.0000   -50.8530     6.0390     6.8980     6.2090    13.7690    95.5820     0.0070     2.4900     0.3420
 1346.5000   -50.6080     6.1360     6.9900     6.2090    13.7550    93.4800     0.0020     2.4830     0.3390
 1347.0000   -50.3630     6.3250     7.0820     6.3830    13.7400    91.9590     0.0040     2.4880     0.3260
 1347.5000   -50.1820     6.4070     7.1740     6.5020    13.7300    93.3370     0.0080     2.4990     0.3090
 1348.0000   -50.1390     6.5020     7.2740     6.5630    13.7480    96.0580     0.0120     2.5070     0.3010
 1348.5000   -50.0940     6.5260     7.3790     6.6080    13.7660    99.0660     0.0160     2.5090     0.3010
 1349.0000   -50.0490     6.5510     7.4830     6.7470    13.7820    99.9510     0.0180     2.5120     0.3010
 1349.5000   -50.0040     6.5830     7.5870     6.8250    13.7600   100.2070     0.0210     2.5260     0.2990
 1350.0000   -49.9600     6.7690     7.6800     7.0140    13.6590   100.4230     0.0230     2.5310     0.2970
 1350.5000   -49.9150     6.9370     7.6800     7.0540    13.5610   100.2910     0.0260     2.5290     0.2910
 1351.0000   -49.8700     7.0020     7.6800     7.0670    13.4920    99.0840     0.0270     2.5370     0.2970
 1351.5000   -49.8250     6.9750     7.6800     7.0670    13.4520    98.1800     0.0260     2.5410     0.3050
 1352.0000   -49.7100     6.9370     7.6800     7.0670    13.3980    98.2670     0.0250     2.5320     0.3150
 1352.5000   -49.5140     6.8100     7.6800     7.0670    13.3240    99.7340     0.0210     2.5230     0.3130
 1353.0000   -49.4070     6.8390     7.6800     7.0670    13.3110   101.2210     0.0170     2.5180     0.3020
 1353.5000   -49.4050     6.9370     7.6400     7.0670    13.2920   102.8270     0.0140     2.5130     0.2970
 1354.0000   -49.4150     6.8750     7.5790     7.0670    13.2720   106.0600     0.0100     2.5060     0.2950
 1354.5000   -49.6870     6.7340     7.5180     7.0670    13.2680   109.2200     0.0060     2.4980     0.2970
 1355.0000   -49.9600     6.6240     7.4700     7.0670    13.2650   109.0790     0.0030     2.4920     0.2960
 1355.5000   -50.2310     6.7150     7.5440     7.0670    13.2610   107.3510     0.0030     2.4990     0.2940
