~VERSION INFORMATION
 VERS.                2.0:   CWLS LOG ASCII STANDARD - VERSION 2.0
 WRAP.                 NO:   ONE LINE PER DEPTH STEP
~WELL INFORMATION
#MNEM.UNIT      DATA TYPE    INFORMATION
#----------   ------------   ------------------------------
 STRT.F          212.0000:   START DEPTH
 STOP.F         2806.0000:   STOP DEPTH
 STEP.F            0.5000:   STEP LENGTH
 NULL.          -999.2500:   NO VALUE
 COMP.    FENIX & SCISSON:   COMPANY
 WELL.    FENIX AX #12-21:   WELL
 FLD .        TEAPOT DOME:   FIELD
 LOC .      S21 T39N R78W:   LOCATION
 CNTY.            NATRONA:   COUNTY
 STAT.            WYOMING:   STATE
 CTRY. UNITED STATES OF AMERICA:   COUNTRY
 SRVC.           BIRDWELL:   SERVICE COMPANY
 DATE.        14-AUG-1973:   LOGDATE
 API .     49025106930000:   API NUMBER
~CURVE INFORMATION
#MNEM.UNIT       API CODE    CURVE DESCRIPTION
#----------   ------------   ------------------------------
 DEPT.F                  :   
 SN  .OHMM   05 040 16 00:   SHORT NORMAL 16"
 ILD .OHMM   05 120 46 00:   INDUCTION LOG DEEP RESISTIVITY
 RHOB.G/C3   45 350 01 00:   BULK DENSITY
 CORR.G/C3   45 356 01 00:   DENSITY CORRECTION
 GRD .GAPI   45 310 01 00:   GAMMA RAY FROM DENSITY LOG
 CALD.IN     45 280 60 00:   CALIPER FROM DENSITY LOG
 SPR .MV     05 010 01 00:   SPONTANEOUS POTENTIAL
~PARAMETER INFORMATION
#MNEM.UNIT          VALUE    DESCRIPTION
#----------   ------------   ------------------------------
 EKB .F         4998.0000:   Kelly bushing
 EGL .F         4988.0000:   Ground level
 EDF .F            0.0000:   Drilling floor
 EPD .F         4988.0000:   Permanent datum
 TD  .F         2809.0000:   Total depth
 DATE.        14-AUG-1973:   Date logged
 CLNT.            A2DTECH:   Client Code
 SL  . 1300' FNL & 300' FWL:   Surface Location
 PD  .                 GL:   Permanent Datum
 DD  .F              2800:   Depth driller
 DL  .F              2809:   Depth logger
 BLI .F              2803:   Bottom log interval
 TLI .F               235:   Top log interval
 CS1 .IN            8.625:   Casing size
 BS1 .IN            7.875:   Bit size
 BSD1.F              2800:   Depth drilled with bit1
 DFT .                GEL:   Type fluid in hole
 DFD .                9.7:   Density
 DFV .                 34:   Viscosity
 DFPH.                 12:   pH
 MSS .           FLOWLINE:   Source of sample
 RMS .OHMM            .15:   Rm
 MST .F                57:   Rm Meas. temp.
 RMF .OHMM            .95:   Rmf
 MFST.F                69:   Rmf Meas. temp.
 RMC .OHMM            1.5:   Rmc
 MCST.F                78:   Rmc Meas. temp.
 MFSS.               MEAS:   Source Rmf.
 RMB .OHMM            .87:   Rm. at BHT
 BHT .F               115:   BHT.
 TCS .HRS               3:   Time Circ. stopped
 MRT .F               115:   Maximum recorded temp.
 LUN .               3006:   Logging unit number
 LUL .               CASP:   Logging unit location
 ENGI.             MILLER:   Recorded By
 WITN.           MCGINLEY:   Witnessed by
 UWI .     49025106930000:   Unique Well ID
 DICO. A2D TECHNOLOGIES, INC.:   Digitizing Company
 ORIG.           5" PRINT:   Origin of data
~OTHER INFORMATION
~A   DEPT       SN        ILD       RHOB       CORR         GRD      CALD        SPR   
  212.0000  -999.2500  -999.2500  -999.2500  -999.2500    44.7950  -999.2500  -999.2500
  212.5000  -999.2500  -999.2500  -999.2500  -999.2500    44.7950  -999.2500  -999.2500
  213.0000  -999.2500  -999.2500  -999.2500  -999.2500    44.7950  -999.2500  -999.2500
  213.5000  -999.2500  -999.2500  -999.2500  -999.2500    44.7950  -999.2500  -999.2500
  214.0000  -999.2500  -999.2500  -999.2500  -999.2500    44.7950  -999.2500  -999.2500
  214.5000  -999.2500  -999.2500  -999.2500  -999.2500    44.7950  -999.2500  -999.2500
  215.0000  -999.2500  -999.2500  -999.2500  -999.2500    44.7950  -999.2500  -999.2500
  215.5000  -999.2500  -999.2500  -999.2500  -999.2500    44.7950  -999.2500  -999.2500
  216.0000  -999.2500  -999.2500  -999.2500  -999.2500    44.7940  -999.2500  -999.2500
  216.5000  -999.2500  -999.2500  -999.2500  -999.2500    44.7940  -999.2500  -999.2500
  217.0000  -999.2500  -999.2500  -999.2500  -999.2500    44.7780  -999.2500  -999.2500
  217.5000  -999.2500  -999.2500  -999.2500  -999.2500    44.7440  -999.2500  -999.2500
  218.0000  -999.2500  -999.2500  -999.2500  -999.2500    44.7100  -999.2500  -999.2500
  218.5000  -999.2500  -999.2500  -999.2500  -999.2500    44.6740  -999.2500  -999.2500
  219.0000  -999.2500  -999.2500  -999.2500  -999.2500    44.6490  -999.2500  -999.2500
  219.5000  -999.2500  -999.2500  -999.2500  -999.2500    44.6340  -999.2500  -999.2500
  220.0000  -999.2500  -999.2500  -999.2500  -999.2500    45.2260  -999.2500  -999.2500
  220.5000  -999.2500  -999.2500  -999.2500  -999.2500    46.9000  -999.2500  -999.2500
  221.0000  -999.2500  -999.2500  -999.2500  -999.2500    47.6630  -999.2500  -999.2500
  221.5000  -999.2500  -999.2500  -999.2500  -999.2500    47.6900  -999.2500  -999.2500
  222.0000  -999.2500  -999.2500  -999.2500  -999.2500    46.7720  -999.2500  -999.2500
  222.5000  -999.2500  -999.2500  -999.2500  -999.2500    47.5000  -999.2500  -999.2500
  223.0000  -999.2500  -999.2500  -999.2500  -999.2500    50.9020  -999.2500  -999.2500
  223.5000  -999.2500  -999.2500  -999.2500  -999.2500    53.0800  -999.2500  -999.2500
  224.0000  -999.2500  -999.2500  -999.2500  -999.2500    54.4490  -999.2500  -999.2500
  224.5000  -999.2500  -999.2500  -999.2500  -999.2500    54.3220     8.3420  -999.2500
  225.0000  -999.2500  -999.2500  -999.2500  -999.2500    52.4400     8.3520  -999.2500
  225.5000  -999.2500  -999.2500  -999.2500  -999.2500    49.9610     8.3790  -999.2500
  226.0000  -999.2500  -999.2500  -999.2500  -999.2500    48.3290     8.4280  -999.2500
  226.5000  -999.2500  -999.2500  -999.2500  -999.2500    48.9080     8.4060  -999.2500
  227.0000  -999.2500  -999.2500  -999.2500  -999.2500    50.8170     8.3480  -999.2500
  227.5000  -999.2500  -999.2500  -999.2500  -999.2500    50.7610     8.2900  -999.2500
  228.0000  -999.2500  -999.2500  -999.2500  -999.2500    50.7050     8.2310  -999.2500
  228.5000  -999.2500  -999.2500  -999.2500  -999.2500    50.6470     8.1970  -999.2500
  229.0000  -999.2500  -999.2500  -999.2500  -999.2500    50.5930     8.1840  -999.2500
  229.5000  -999.2500  -999.2500  -999.2500  -999.2500    50.4730     8.3280  -999.2500
  230.0000  -999.2500  -999.2500  -999.2500  -999.2500    48.9050     8.4930  -999.2500
  230.5000  -999.2500  -999.2500  -999.2500  -999.2500    42.8910     8.6640  -999.2500
  231.0000  -999.2500  -999.2500  -999.2500  -999.2500    42.3200     8.6730  -999.2500
  231.5000  -999.2500  -999.2500  -999.2500  -999.2500    42.0310     8.6720  -999.2500
  232.0000  -999.2500  -999.2500  -999.2500  -999.2500    43.2660     8.6820  -999.2500
  232.5000  -999.2500  -999.2500  -999.2500  -999.2500    44.9770     8.7240  -999.2500
  233.0000  -999.2500  -999.2500  -999.2500    -0.1530    46.7030     8.7680  -999.2500
  233.5000  -999.2500  -999.2500  -999.2500    -0.0070    48.4390     8.8690  -999.2500
  234.0000     4.0490  -999.2500  -999.2500     0.1390    50.1110     8.9790  -999.2500
  234.5000     4.1820     4.0680  -999.2500     0.2000    62.5450     9.0900  -999.2500
  235.0000     4.9590     4.5980  -999.2500     0.1930    64.5000     9.2000  -999.2500
  235.5000     5.4710     5.2070  -999.2500     0.1860    65.7240     9.2800  -999.2500
  236.0000     5.7700     5.5980  -999.2500     0.1890    67.0280     9.3030  -999.2500
  236.5000     6.4210     6.0650  -999.2500     0.2020    67.3280     9.3410   -55.8300
  237.0000     7.1500     6.5560  -999.2500     0.2150    65.5720     9.5420   -59.1530
  237.5000     7.8790     7.0460  -999.2500     0.2100    60.4810     9.6040   -62.4390
  238.0000     8.6070     7.2970  -999.2500     0.2030    55.3720     9.6080   -65.5140
  238.5000     9.0620     7.5490  -999.2500     0.1830    57.2430     9.6050   -61.6860
  239.0000     9.1360     7.8000  -999.2500     0.1580    57.9500     9.5960   -58.7470
  239.5000     9.2100     7.9480  -999.2500     0.1310    58.1130     9.4990   -58.2070
  240.0000     9.2840     7.9660  -999.2500     0.1160    59.2610     9.3700   -57.2970
  240.5000     9.3580     7.9830  -999.2500     0.1140    60.5860     9.2860   -48.6620
  241.0000     9.4320     8.0010  -999.2500     0.1140    60.5850     9.3270   -40.2990
  241.5000     9.5060     8.0630  -999.2500     0.1860    60.4810     9.3650   -24.4480
  242.0000     9.5800     8.2330  -999.2500     0.2920    60.6740     9.4240    -3.3810
  242.5000     9.7100     8.4030     2.4080     0.2390    65.1630     9.4720     0.5250
  243.0000     9.9610     8.5720     2.4870     0.1880    65.7440     9.4610     1.9490
  243.5000    10.1900     8.7420     2.4770     0.1670    66.1340     9.4520     2.4360
  244.0000    10.2830     8.9120     2.4720     0.1650    66.9090     9.4420     0.4230
  244.5000    10.3750     9.0810     2.4940     0.1640    67.6870     9.4330    -1.7500
  245.0000    10.4680     9.2510     2.5030     0.1630    67.7810     9.4240    -3.1320
  245.5000    10.5600     9.4210     2.5060     0.1610    67.8450     9.4140    -3.9420
  246.0000    10.6530     9.4640     2.5080     0.1580    68.2860     9.3980    -4.7500
  246.5000    10.7450     9.4750     2.5050     0.1510    69.4950     9.3820    -5.5550
  247.0000    10.8380     9.4860     2.5010     0.1450    70.6390     9.3660    -6.4670
  247.5000    10.8810     9.4970     2.4970     0.1380    72.8860     9.3510    -7.5280
  248.0000    10.9150     9.5080     2.4930     0.1380    72.8270     9.3360    -8.5880
  248.5000    10.9490     9.5190     2.4890     0.1370    67.4780     9.3210    -9.6400
  249.0000    11.0030     9.5300     2.4880     0.1400    66.6130     9.3070    -9.9240
  249.5000    11.0600     9.5410     2.4900     0.1450    65.9180     9.2930   -10.0880
  250.0000    11.1170     9.5170     2.4920     0.1500    65.1790     9.2790   -10.2490
  250.5000    11.1570     9.4880     2.5070     0.1540    65.5580     9.3160   -10.4110
  251.0000    11.1140     9.4590     2.5190     0.1540    67.5930     9.3580   -10.5740
  251.5000    11.0810     9.4300     2.5200     0.1540    69.6940     9.3960   -10.7360
  252.0000    11.0480     9.4010     2.5200     0.1540    70.3230     9.4010   -10.8990
  252.5000    11.0140     9.3720     2.5170     0.1540    69.1850     9.4050   -11.0610
  253.0000    10.9810     9.3430     2.5120     0.1520    67.2790     9.4100   -11.1920
  253.5000    10.9320     9.3140     2.5050     0.1510    68.3460     9.4150   -11.2600
  254.0000    10.7950     9.2850     2.5000     0.1540    70.0970     9.4200   -11.3300
  254.5000    10.6570     9.2560     2.4990     0.1560    71.4770     9.4250   -11.4000
  255.0000    10.5190     9.2280     2.4970     0.1580    71.6090     9.4290   -11.4690
  255.5000    10.3820     9.1980     2.4970     0.1610    71.7650     9.4350   -11.5390
  256.0000    10.2620     9.0180     2.4990     0.1710    71.8720     9.4490   -11.6090
  256.5000    10.2140     8.8350     2.5020     0.1810    71.9240     9.4650   -11.6780
  257.0000    10.1570     8.6530     2.5010     0.1840    73.1310     9.4800   -11.7470
