~VERSION INFORMATION
 VERS.                2.0:   CWLS LOG ASCII STANDARD - VERSION 2.0
 WRAP.                 NO:   ONE LINE PER DEPTH STEP
~WELL INFORMATION
#MNEM.UNIT      DATA TYPE    INFORMATION
#----------   ------------   ------------------------------
 STRT.F            0.0000:   START DEPTH
 STOP.F         4044.0000:   STOP DEPTH
 STEP.F            0.5000:   STEP LENGTH
 NULL.          -999.2500:   NO VALUE
 COMP. LAWRENCE-ALLISON & ASSOC.:   COMPANY
 WELL. LAWRENCE "X" #24-34:   WELL
 FLD .           N P R #3:   FIELD
 LOC .      S34 T39N R78W:   LOCATION
 CNTY.            NATRONA:   COUNTY
 STAT.            WYOMING:   STATE
 CTRY. UNITED STATES OF AMERICA:   COUNTRY
 SRVC.      DRESSER ATLAS:   SERVICE COMPANY
 DATE.        29-MAR-1984:   LOGDATE
 API .     49025109660000:   API NUMBER
~CURVE INFORMATION
#MNEM.UNIT       API CODE    CURVE DESCRIPTION
#----------   ------------   ------------------------------
 DEPT.F                  :   
 DT  .US/F   60 520 00 00:   DELTA TIME
 TENS.LBS    60 635 01 00:   TENSION FROM SONIC
 GRR .GAPI   07 310 01 00:   GAMMA RAY FROM RESISTIVITY
 SPR .MV     07 010 01 00:   SPONTANEOUS POTENTIAL
 CALR.IN     07 280 01 00:   CALIPER FROM RESISTIVITY
 TENR.LBS    07 635 01 00:   TENSION FROM RESISTIVITY
 RSFL.OHMM   07 221 01 00:   AMPPLIFIED SHALLOW FOCUSED LOG RESISTIVITY
 RILD.OHMM   07 120 46 00:   DEEP INDUCTION RESISTIVITY
 RILM.OHMM   07 120 44 00:   INDUCTION LOG MEDIUM RESISTIVITY
 RHOB.G/C3   45 350 01 00:   BULK DENSITY
 DRHO.G/C3   45 356 01 00:   DENSITY CORRECTION
 TEND.LBS    45 635 01 00:   TENSION FROM DENSITY LOG
 NPHI.DEC    42 890 03 00:   NEUTRON POROSITY SANDSTONE
~PARAMETER INFORMATION
#MNEM.UNIT          VALUE    DESCRIPTION
#----------   ------------   ------------------------------
 EKB .F         5101.0000:   Kelly bushing
 EGL .F         5089.0000:   Ground level
 EDF .F         5100.0000:   Drilling floor
 TD  .F         4050.0000:   Total depth
 DATE.        29-MAR-1984:   Date logged
 CLNT.            A2DTECH:   Client Code
 SL  . 2415' FNL & 839' FWL:   Surface Location
 PD  .                 GL:   Permanent Datum
 EPD .F              5089:   Elevation Permanent Datum
 LMF .                 KB:   Log Measured From
 DMF .                 KB:   Drilling Measured From
 DD  .F              4050:   Depth driller
 DL  .F              4043:   Depth logger
 BLI .F              4041:   Bottom log interval
 CS1 .IN            8.625:   Casing size
 CBD1.       8.625 @ 673':   Casing driller 1
 CBL1.F               671:   Casing logger 1
 BS1 .IN            7.875:   Bit size
 DFT .            GEL-KCL:   Type fluid in hole
 DFD .                8.9:   Density
 DFV .                 45:   Viscosity
 DFPH.                  8:   pH
 DFL .               12.8:   Fluid loss
 MSS .           MUD TANK:   Source of sample
 RMS .OHMM           0.46:   Rm
 MST .F                71:   Rm Meas. temp.
 RMF .OHMM           0.31:   Rmf
 MFST.F                71:   Rmf Meas. temp.
 RMC .OHMM           0.55:   Rmc
 MCST.F                71:   Rmc Meas. temp.
 MFSS.               MEAS:   Source Rmf.
 RMB .OHMM           0.25:   Rm. at BHT
 BHT .F               139:   BHT.
 TCS .HRS               4:   Time Circ. stopped
 MRT .F               139:   Maximum recorded temp.
 LUN .               6302:   Logging unit number
 LUL .               CODY:   Logging unit location
 ENGI.              GETTY:   Recorded By
 WITN.           JENNINGS:   Witnessed by
 ORIG.           5" PRINT:   Origin of data
 UWI .     49025109660000:   Unique Well ID
 DICO. A2D TECHNOLOGIES, INC.:   Digitizing Company
 DAPD.                 12:   Feet Above Permanent Datum
 BSD1.               4050:   Depth drilled with bit1
 MCSS.               MEAS:   Source Rmc.
~OTHER INFORMATION
~A  DEPTH       DT       TENS        GRR        SPR       CALR       TENR       RSFL       RILD       RILM       RHOB       DRHO       TEND       NPHI
# ...
 4030.0000    93.3860   341.6120  -999.2500   -19.3020     7.5020   350.2250    10.0260     8.2420     8.9330     2.6560     0.0530    96.2840     0.0860
 4030.5000    93.0750   344.2600  -999.2500   -18.9340     7.5050   352.4860     8.7160     8.2830     8.7980     2.6510     0.0760   101.2960     0.0930
 4031.0000    89.3930   346.9090  -999.2500   -18.5660     7.5080   354.7460     8.8680     8.3190     8.7160     2.6520     0.0860   106.3090     0.0830
 4031.5000    75.7860   349.5570  -999.2500   -18.1970     7.5110   357.0070     9.1470     8.1650     8.5620     2.6530     0.0610   111.3220     0.0830
 4032.0000    61.4350   352.2050  -999.2500   -17.8300     7.5150   359.2670     9.7970     8.0520     8.0800     2.6530     0.0150   116.3340     0.0800
 4032.5000    48.1800   354.8530  -999.2500   -17.4590     7.5180   361.5280    10.2150     7.9840     7.5970     2.6480     0.0040   121.3470     0.0270
 4033.0000    47.1280   357.5020  -999.2500   -17.3690     7.5210   365.6670     9.9930     7.9170     7.1140     2.6430     0.0090   126.3590  -999.2500
 4033.5000    47.1000   360.1500  -999.2500   -17.4840     7.5240   373.1100     9.2170     7.8490     6.7120     2.6370     0.0340   131.3720  -999.2500
 4034.0000    47.0700   362.7980  -999.2500   -17.6020     7.5270   380.5530     8.4410     7.7930     6.3400     2.6350     0.0690   139.6270  -999.2500
 4034.5000    47.0400   365.4460  -999.2500   -17.7210     7.5300   387.9960     7.6650     7.6860     5.8560     2.6340     0.0530   150.3300  -999.2500
 4035.0000    47.0270   368.0950  -999.2500   -17.8390     7.5300   395.4390     6.8890     7.5760     5.3720     2.6290     0.0240   161.0340  -999.2500
 4035.5000    47.0270   370.7430  -999.2500   -17.9570     7.5300   402.8830     6.1120     7.5080     5.0260     2.6190    -0.0040   171.7380  -999.2500
 4036.0000    47.1280   371.8400  -999.2500   -18.0780     7.5300   410.3260     5.5970     7.4380     4.9330     2.6080     0.0010   182.4410  -999.2500
 4036.5000  -999.2500   381.9510  -999.2500   -18.1000     7.5300   417.7690     5.1540     7.4540     4.9390     2.5970     0.0160   193.1450  -999.2500
 4037.0000  -999.2500   402.1740  -999.2500   -18.1000     7.5300   422.2310     4.7970     7.4660     4.9500     2.5870     0.0310   203.8490  -999.2500
 4037.5000  -999.2500   422.3960  -999.2500   -18.1000     7.5300   414.4070     4.9810     7.4780     4.9610     2.5870     0.0410   214.5520  -999.2500
 4038.0000  -999.2500   402.0730  -999.2500   -18.1460     7.5300   406.5820     5.0760     7.4890     4.9710     2.5900     0.0390   213.4040  -999.2500
 4038.5000  -999.2500   376.6940  -999.2500   -18.4000     7.5300   412.5540     5.0820     7.5010     4.9800     2.5920     0.0420   207.7550  -999.2500
 4039.0000  -999.2500   376.6070  -999.2500   -18.7540     7.5300   427.5140     5.0880     7.5130     4.9880     2.5940     0.0530   183.5610  -999.2500
 4039.5000  -999.2500   412.2850  -999.2500   -19.1740     7.5300   442.4730     5.0940     7.5240     4.9960     2.5930     0.0700   160.7620  -999.2500
 4040.0000  -999.2500   452.7300  -999.2500   -19.7730     7.5300   464.2860     5.1000     7.5360     5.0050     2.5920     0.0820   104.2700  -999.2500
 4040.5000  -999.2500   452.7300  -999.2500   -21.0800     7.5300   464.2860     5.1050     7.5480     5.0130     2.5840     0.0720   -32.9740  -999.2500
 4041.0000  -999.2500   358.8980  -999.2500   -21.4480     7.5300   464.2860     5.1110     7.5600     5.0210     2.5650     0.0580  -176.0480  -999.2500
 4041.5000  -999.2500   257.3810  -999.2500  -999.2500     7.5300   383.9070     5.1170     7.5710  -999.2500  -999.2500     0.0440  -999.2500  -999.2500
 4042.0000  -999.2500   149.1530  -999.2500  -999.2500     7.5300   270.9470  -999.2500  -999.2500  -999.2500  -999.2500  -999.2500  -999.2500  -999.2500
 4042.5000  -999.2500    19.0850  -999.2500  -999.2500  -999.2500   141.6750  -999.2500  -999.2500  -999.2500  -999.2500  -999.2500  -999.2500  -999.2500
 4043.0000  -999.2500  -110.9830  -999.2500  -999.2500  -999.2500    12.4030  -999.2500  -999.2500  -999.2500  -999.2500  -999.2500  -999.2500  -999.2500
 4043.5000  -999.2500  -234.8330  -999.2500  -999.2500  -999.2500  -116.8690  -999.2500  -999.2500  -999.2500  -999.2500  -999.2500  -999.2500  -999.2500
 4044.0000  -999.2500  -999.2500  -999.2500  -999.2500  -999.2500  -246.1420  -999.2500  -999.2500  -999.2500  -999.2500  -999.2500  -999.2500  -999.2500
