~VERSION INFORMATION
 VERS.                2.0:   CWLS LOG ASCII STANDARD - VERSION 2.0
 WRAP.                 NO:   ONE LINE PER DEPTH STEP
~WELL INFORMATION
#MNEM.UNIT      DATA TYPE    INFORMATION
#----------   ------------   ------------------------------
 STRT.F           46.0000:   START DEPTH
 STOP.F         2952.5000:   STOP DEPTH
 STEP.F            0.5000:   STEP LENGTH
 NULL.          -999.2500:   NO VALUE
 COMP.    FENIX & SCISSON:   COMPANY
 WELL. FENIX NPR 3 "SHX" #11-15:   WELL
 FLD .        TEAPOT DOME:   FIELD
 LOC .      S15 T38N R78W:   LOCATION
 CNTY.            NATRONA:   COUNTY
 STAT.            WYOMING:   STATE
 CTRY. UNITED STATES OF AMERICA:   COUNTRY
 SRVC.           BIRDWELL:   SERVICE COMPANY
 DATE.        19-JAN-1979:   LOGDATE
 API .     49025107640000:   API NUMBER
~CURVE INFORMATION
#MNEM.UNIT       API CODE    CURVE DESCRIPTION
#----------   ------------   ------------------------------
 DEPT.F                  :   
 GRD .GAPI   45 310 01 00:   GAMMA RAY FROM DENSITY LOG
 CALD.IN     45 280 60 00:   CALIPER FROM DENSITY LOG
 RHOB.G/C3   45 350 01 00:   BULK DENSITY
 CORR.G/C3   45 356 01 00:   DENSITY CORRECTION
 SPR .MV     07 010 01 00:   SPONTANEOUS POTENTIAL
 SN  .OHMM   01 040 00 00:   SHORT NORMAL
 ILD .OHMM   07 120 46 00:   INDUCTION LOG DEEP RESISTIVITY
~PARAMETER INFORMATION
#MNEM.UNIT          VALUE    DESCRIPTION
#----------   ------------   ------------------------------
 EKB .F         5258.0000:   Kelly bushing
 EGL .F         5248.0000:   Ground level
 EDF .F            0.0000:   Drilling floor
 TD  .F         1300.0000:   Total depth
 DATE.        19-JAN-1979:   Date logged
 CLNT.            A2DTECH:   Client Code
 SL  . 177' FNL & 155' FWL:   Surface Location
 PD  .                 GL:   Permanent Datum
 EPD .F              5248:   Elevation Permanent Datum
 LMF .                 KB:   Log Measured From
 DMF .                 KB:   Drilling Measured From
 DAPD.F                10:   Feet Above Permanent Datum
 DD  .F              1300:   Depth driller
 DL  .F              1283:   Depth logger
 BLI .F              1277:   Bottom log interval
 TLI .F               100:   Top log interval
 CBD1.F                40:   Casing driller 1
 CBL1.F                40:   Casing logger 1
 BS1 .IN            7.875:   Bit size
 BSD1.F              1300:   Depth drilled with bit1
 DFT .           CHEM/GEL:   Type fluid in hole
 DFD .                8.8:   Density
 DFV .                 37:   Viscosity
 DFL .               15.4:   Fluid loss
 MSS .           FLOWLINE:   Source of sample
 RMS .OHMM            .75:   Rm
 MST .F                68:   Rm Meas. temp.
 RMF .OHMM            .75:   Rmf
 MFST.F                64:   Rmf Meas. temp.
 RMC .OHMM            1.3:   Rmc
 MCST.F                68:   Rmc Meas. temp.
 MFSS.               MEAS:   Source Rmf.
 MCSS.               MEAS:   Source Rmc.
 RMB .OHMM            .73:   Rm. at BHT
 BHT .F                70:   BHT.
 TCS .HRS               2:   Time Circ. stopped
 MRT .F                70:   Maximum recorded temp.
 LUN .               3029:   Logging unit number
 LUL .               CSPR:   Logging unit location
 ENGI.            ROLLINS:   Recorded By
 WITN.           DINSMORE:   Witnessed by
 ORIG.           5" PRINT:   Origin of data
 UWI .     49025107640000:   Unique Well ID
 DICO. A2D TECHNOLOGIES, INC.:   Digitizing Company
~OTHER INFORMATION
~A   DEPT      GRD       CALD       RHOB       CORR        SPR           SN        ILD 
# ...
 1456.5000   135.0260     9.9290     2.5030     0.0520  -999.2500  -999.2500  -999.2500
 1457.0000   141.7490     9.9320     2.5010     0.0530  -999.2500  -999.2500  -999.2500
 1457.5000   143.8050     9.9360     2.4960     0.0490  -999.2500  -999.2500  -999.2500
 1458.0000   137.4100     9.9390     2.4920     0.0540  -999.2500  -999.2500  -999.2500
 1458.5000   131.0220     9.9420     2.4930     0.0600  -999.2500  -999.2500  -999.2500
 1459.0000   133.6150     9.9460     2.4950     0.0660  -999.2500  -999.2500  -999.2500
 1459.5000   137.2040     9.9490     2.4940     0.0720  -999.2500  -999.2500  -999.2500
 1460.0000   141.5800     9.9520     2.4930     0.0780  -999.2500  -999.2500  -999.2500
 1460.5000   140.7520     9.9550     2.4930     0.0840  -999.2500  -999.2500  -999.2500
 1461.0000   137.7570     9.9590     2.4990     0.0880  -999.2500  -999.2500  -999.2500
 1461.5000   137.0980     9.9620     2.5050     0.0880  -999.2500  -999.2500  -999.2500
 1462.0000   138.1670     9.9650     2.5120     0.0880  -999.2500  -999.2500  -999.2500
 1462.5000   141.3890     9.9650     2.5130     0.0820  -999.2500  -999.2500  -999.2500
 1463.0000   144.5990     9.9650     2.5100     0.0740  -999.2500  -999.2500  -999.2500
 1463.5000   148.2320     9.9650     2.5030     0.0660  -999.2500  -999.2500  -999.2500
 1464.0000   147.3120     9.9650     2.4980     0.0580  -999.2500  -999.2500  -999.2500
 1464.5000   142.7470     9.9650     2.4910     0.0500  -999.2500  -999.2500  -999.2500
 1465.0000   137.9950     9.9640     2.4850     0.0410  -999.2500  -999.2500  -999.2500
 1465.5000   135.7810     9.9650     2.4810     0.0420  -999.2500  -999.2500  -999.2500
 1466.0000   133.1440     9.9660     2.4650     0.0450  -999.2500  -999.2500  -999.2500
 1466.5000   133.5170     9.9850     2.4440     0.0480  -999.2500  -999.2500  -999.2500
 1467.0000   135.5030    10.0000     2.3520     0.0490  -999.2500  -999.2500  -999.2500
 1467.5000   137.8460    10.0170     2.2120     0.0550  -999.2500  -999.2500  -999.2500
 1468.0000   140.3360    10.0330     2.0730     0.0570  -999.2500  -999.2500  -999.2500
 1468.5000   141.4020    10.0500     1.9350     0.1520  -999.2500  -999.2500  -999.2500
 1469.0000   140.0300    10.0660     1.8720     0.1420  -999.2500  -999.2500  -999.2500
 1469.5000   138.3950    10.0830     1.9930     0.1230  -999.2500  -999.2500  -999.2500
 1470.0000   136.2390    10.0980     2.1050     0.1020  -999.2500  -999.2500  -999.2500
 1470.5000   134.2350    10.1170     2.4210     0.0920  -999.2500  -999.2500  -999.2500
 1471.0000   132.3310    10.1050     2.4520     0.0930  -999.2500  -999.2500  -999.2500
 1471.5000   133.8470    10.0690     2.4830     0.0930  -999.2500  -999.2500  -999.2500
 1472.0000   137.0320    10.0370     2.4920     0.0940  -999.2500  -999.2500  -999.2500
 1472.5000   140.2320    10.0060     2.5010     0.0940  -999.2500  -999.2500  -999.2500
 1473.0000   141.0890    10.0040     2.5010     0.0950  -999.2500  -999.2500  -999.2500
 1473.5000   141.9290    10.0030     2.4870     0.0950  -999.2500  -999.2500  -999.2500
 1474.0000   142.5840    10.0070     2.4750     0.0950  -999.2500  -999.2500  -999.2500
 1474.5000   144.1600    10.0110     2.4630     0.0960  -999.2500  -999.2500  -999.2500
 1475.0000   146.7770    10.0160     2.4630     0.0970  -999.2500  -999.2500  -999.2500
 1475.5000   149.2590    10.0200     2.4660     0.0950  -999.2500  -999.2500  -999.2500
 1476.0000   149.3080    10.0250     2.4740     0.0910  -999.2500  -999.2500  -999.2500
 1476.5000   149.6010    10.0290     2.4820     0.0800  -999.2500  -999.2500  -999.2500
 1477.0000   146.7350    10.0330     2.4830     0.0700  -999.2500  -999.2500  -999.2500
 1477.5000   142.8280    10.0380     2.4620     0.0640  -999.2500  -999.2500  -999.2500
 1478.0000   138.3410    10.0420     2.4350     0.0650  -999.2500  -999.2500  -999.2500
 1478.5000   138.0420    10.0470     2.4080     0.0970  -999.2500  -999.2500  -999.2500
 1479.0000   139.1630    10.0510     2.3880     0.1130  -999.2500  -999.2500  -999.2500
 1479.5000   141.4150    10.0560     2.3850     0.1140  -999.2500  -999.2500  -999.2500
 1480.0000   140.8160    10.0600     2.4080     0.1000  -999.2500  -999.2500  -999.2500
 1480.5000   137.1620    10.0650     2.4500     0.0950  -999.2500  -999.2500  -999.2500
 1481.0000   131.0470    10.0690     2.4670     0.1210  -999.2500  -999.2500  -999.2500
 1481.5000   130.4350    10.0740     2.4820     0.1590  -999.2500  -999.2500  -999.2500
 1482.0000   131.7090    10.0780     2.4990     0.1570  -999.2500  -999.2500  -999.2500
 1482.5000   133.6620    10.0820     2.5010     0.1230  -999.2500  -999.2500  -999.2500
 1483.0000   139.0150    10.0790     2.4960     0.0860  -999.2500  -999.2500  -999.2500
 1483.5000   143.6320    10.0750     2.4910     0.0700  -999.2500  -999.2500  -999.2500
 1484.0000   143.5050    10.0710     2.4920     0.0670  -999.2500  -999.2500  -999.2500
 1484.5000   144.2170    10.0680     2.4950     0.0640  -999.2500  -999.2500  -999.2500
 1485.0000   143.9820    10.0640     2.4970     0.0670  -999.2500  -999.2500  -999.2500
 1485.5000   140.3430    10.0600     2.4990     0.0740  -999.2500  -999.2500  -999.2500
 1486.0000   137.0800    10.0570     2.5010     0.0750  -999.2500  -999.2500  -999.2500
 1486.5000   134.5590    10.0530     2.4980     0.0640  -999.2500  -999.2500  -999.2500
 1487.0000   133.7620    10.0490     2.4960     0.0570  -999.2500  -999.2500  -999.2500
 1487.5000   130.8740    10.0460     2.4930     0.0560  -999.2500  -999.2500  -999.2500
 1488.0000   128.7990    10.0420     2.4910     0.0570  -999.2500  -999.2500  -999.2500
 1488.5000   131.7870    10.0380     2.4910     0.0610  -999.2500  -999.2500  -999.2500
 1489.0000   134.3450    10.0340     2.4910     0.0640  -999.2500  -999.2500  -999.2500
 1489.5000   134.6470    10.0310     2.4910     0.0680  -999.2500  -999.2500  -999.2500
 1490.0000   135.1130    10.0270     2.4920     0.0720  -999.2500  -999.2500  -999.2500
 1490.5000   138.5160    10.0230     2.4920     0.0720  -999.2500  -999.2500  -999.2500
 1491.0000   139.6420    10.0200     2.4920     0.0700  -999.2500  -999.2500  -999.2500
 1491.5000   138.9270    10.0160     2.4920     0.0680  -999.2500  -999.2500  -999.2500
 1492.0000   137.6250    10.0120     2.4930     0.0660  -999.2500  -999.2500  -999.2500
 1492.5000   138.0430    10.0090     2.4930     0.0600  -999.2500  -999.2500  -999.2500
 1493.0000   138.7520    10.0040     2.4870     0.0470  -999.2500  -999.2500  -999.2500
 1493.5000   138.6820    10.0080     2.4810     0.0400  -999.2500  -999.2500  -999.2500
 1494.0000   137.5790    10.0120     2.4790     0.0400  -999.2500  -999.2500  -999.2500
 1494.5000   132.3740    10.0170     2.4790     0.0410  -999.2500  -999.2500  -999.2500
 1495.0000   129.0760    10.0220     2.4850     0.0470  -999.2500  -999.2500  -999.2500
 1495.5000   128.4120    10.0260     2.4910     0.0540  -999.2500  -999.2500  -999.2500
 1496.0000   127.1960    10.0310     2.4960     0.0610  -999.2500  -999.2500  -999.2500
 1496.5000   129.6750    10.0360     2.5010     0.0680  -999.2500  -999.2500  -999.2500
 1497.0000   132.8750    10.0410     2.5060     0.0680  -999.2500  -999.2500  -999.2500
 1497.5000   132.4730    10.0450     2.5110     0.0680  -999.2500  -999.2500  -999.2500
 1498.0000   131.6230    10.0490     2.5130     0.0680  -999.2500  -999.2500  -999.2500
 1498.5000   132.7230    10.0540     2.5130     0.0680  -999.2500  -999.2500  -999.2500
 1499.0000   135.0070    10.0580     2.5120     0.0680  -999.2500  -999.2500  -999.2500
 1499.5000   135.2190    10.0620     2.5100     0.0680  -999.2500  -999.2500  -999.2500
 1500.0000   135.1240    10.0660     2.5050     0.0680  -999.2500  -999.2500  -999.2500
 1500.5000   135.0450    10.0710     2.5010     0.0690  -999.2500  -999.2500  -999.2500
 1501.0000   134.8360    10.0750     2.4960     0.0650  -999.2500  -999.2500  -999.2500
 1501.5000   135.5510    10.0790     2.4790     0.0580  -999.2500  -999.2500  -999.2500
