~VERSION INFORMATION
 VERS.                2.0:   CWLS LOG ASCII STANDARD - VERSION 2.0
 WRAP.                 NO:   ONE LINE PER DEPTH STEP
~WELL INFORMATION
#MNEM.UNIT      DATA TYPE    INFORMATION
#----------   ------------   ------------------------------
 STRT.F          712.0000:   START DEPTH
 STOP.F         3352.0000:   STOP DEPTH
 STEP.F            0.5000:   STEP LENGTH
 NULL.          -999.2500:   NO VALUE
 COMP.    FENIX & SCISSON:   COMPANY
 WELL. FENIX & SCISSON "AX" #24-14:   WELL
 FLD .              NPR 3:   FIELD
 LOC .      S14 T38N R78W:   LOCATION
 CNTY.            NATRONA:   COUNTY
 STAT.            WYOMING:   STATE
 CTRY. UNITED STATES OF AMERICA:   COUNTRY
 SRVC.       SCHLUMBERGER:   SERVICE COMPANY
 DATE.        19-JUN-1981:   LOGDATE
 API .     49025108750000:   API NUMBER
~CURVE INFORMATION
#MNEM.UNIT       API CODE    CURVE DESCRIPTION
#----------   ------------   ------------------------------
 DEPT.F                  :   
 TENR.LBS    07 635 01 00:   TENSION
 ILD .OHMM   07 120 46 00:   DEEP INDUCTION RESISTIVITY
 SFL .OHMM   07 220 01 00:   SHALLOW FOCUSED LOG RESISTIVITY
 ILM .OHMM   07 120 44 00:   INDUCTION LOG MEDIUM RESISTIVITY
 SPR .MV     07 010 01 00:   SPONTANEOUS POTENTIAL
 TEND.LBS    45 635 01 00:   TENSION FROM DENSITY LOG
 DRHO.G/C3   45 356 01 00:   DENSITY CORRECTION
 CALD.IN     45 280 60 00:   CALIPER FROM DENSITY LOG
 GRD .GAPI   45 310 01 00:   GAMMA RAY FROM DENSITY LOG
 RHOB.G/C3   45 350 01 00:   BULK DENSITY
~PARAMETER INFORMATION
#MNEM.UNIT          VALUE    DESCRIPTION
#----------   ------------   ------------------------------
 EKB .F         5216.0000:   Kelly bushing
 EGL .F         5206.0000:   Ground level
 EDF .F         5215.0000:   Drilling floor
 EPD .F            0.0000:   Permanent datum
 TD  .F         3360.0000:   Total depth
 DATE.        19-JUN-1981:   Date logged
 CLNT.            A2DTECH:   Client Code
 SL  . 2413' FNL & 827' FWL:   Surface Location
 PD  .                 GL:   Permanent Datum
 DAPD.F                10:   Feet Above Permanent Datum
 DD  .F              3360:   Depth driller
 DL  .F              3348:   Depth logger
 BLI .F              3342:   Bottom log interval
 TLI .F               728:   Top log interval
 CS1 .IN            8.625:   Casing size
 CBD1.      8.625" @ 728':   Casing driller 1
 CBL1.F               728:   Casing logger 1
 BS1 .IN            7.875:   Bit size
 BSD1.F              3360:   Depth drilled with bit1
 DFT .                FGM:   Type fluid in hole
 DFD .                  9:   Density
 DFV .                 45:   Viscosity
 DFPH.                9.5:   pH
 DFL .                 10:   Fluid loss
 MSS .               TANK:   Source of sample
 RMS .OHMM           5.71:   Rm
 MST .F                68:   Rm Meas. temp.
 RMF .OHMM           1.27:   Rmf
 MFST.F                68:   Rmf Meas. temp.
 MFSS.               MEAS:   Source Rmf.
 RMB .OHMM           3.29:   Rm. at BHT
 BHT .F               118:   BHT.
 TCS .HRS            0800:   Time Circ. stopped
 TLAB.HRS            1130:   Time logger at bottom
 MRT .F               118:   Maximum recorded temp.
 LUN .               8039:   Logging unit number
 LUL .               CSPR:   Logging unit location
 ENGI.           G. PFARR:   Recorded By
 WITN.           R. SCOTT:   Witnessed by
 ORIG.           5" PRINT:   Origin of data
 UWI .     49025108750000:   Unique Well ID
 DICO. A2D TECHNOLOGIES, INC.:   Digitizing Company
~OTHER INFORMATION
~A   DEPT     TENR        ILD        SFL        ILM        SPR       TEND       DRHO       CALD         GRD      RHOB   
# ...
 1214.5000   838.5190    10.2390    10.6160     8.8450   -59.9440   923.4130     0.0040     8.7590   100.4290     2.5290
 1215.0000   838.7470    10.2390    10.9180     8.8220   -60.2890   924.3890     0.0040     8.7590    98.9960     2.5450
 1215.5000   838.9750    10.2390    11.2020     8.7990   -60.7300   925.3660     0.0110     8.7600    97.5720     2.5620
 1216.0000   839.2030    10.2390    11.6220     8.7760   -60.7560   926.3420     0.0170     8.7600    96.3460     2.5650
 1216.5000   839.4310    10.2390    11.4840     8.7520   -60.8620   927.3190     0.0220     8.7610    96.2270     2.5470
 1217.0000   839.6600    10.2270    10.9770     8.7290   -60.9440   928.2950     0.0190     8.7610    97.4100     2.5290
 1217.5000   839.8880    10.2100    10.2860     8.7060   -61.0240   929.2720     0.0190     8.7620    98.4600     2.5190
 1218.0000   840.1160    10.1940    10.3750     8.7000   -61.1110   930.2480     0.0280     8.7630    98.5200     2.5250
 1218.5000   840.3440    10.1770    10.5520     8.7000   -61.1940   931.2250     0.0370     8.7630    98.6290     2.5340
 1219.0000   840.5730    10.1600    10.7300     8.7000   -61.2780   932.2010     0.0450     8.7640   100.0530     2.5430
 1219.5000   840.8010    10.1440    11.0080     8.7010   -61.3610   933.1780     0.0520     8.7640   101.6790     2.5480
 1220.0000   841.0290    10.1270    10.9010     8.7000   -61.4490   934.1540     0.0480     8.7620   101.0390     2.5490
 1220.5000   841.2570    10.1100    10.6550     8.7000   -61.5280   935.1310     0.0450     8.7590    99.3570     2.5490
 1221.0000   841.4850    10.0930    10.4260     8.6990   -61.6110   936.1070     0.0460     8.7570    96.9860     2.5500
 1221.5000   841.7140    10.0770    10.5310     8.6650   -61.7180   937.0840     0.0470     8.7540    96.6480     2.5510
 1222.0000   841.9420    10.0610    10.6280     8.6330   -61.7370   938.0600     0.0430     8.7510   100.2060     2.5490
 1222.5000   842.1700    10.0360    10.7260     8.6000   -62.1520   939.0370     0.0350     8.7480   103.5280     2.5460
 1223.0000   842.3980     9.9710    10.8100     8.5670   -62.2050   940.0130     0.0270     8.7450   105.2330     2.5350
 1223.5000   842.6270     9.9070    10.5930     8.5340   -62.1440   940.9900     0.0190     8.7540   102.2630     2.5250
 1224.0000   842.8550     9.8430    10.4010     8.5020   -61.7980   941.9660     0.0230     8.7670   100.8630     2.5240
 1224.5000   843.0830     9.7780    10.2100     8.4690   -61.5710   942.4600     0.0270     8.7790   101.6910     2.5240
 1225.0000   843.3110     9.7140    10.0560     8.4360   -61.1070   942.4600     0.0290     8.7920   102.9730     2.5250
 1225.5000   843.5390     9.6500     9.9640     8.4050   -60.7340   942.4600     0.0260     8.8040   101.4680     2.5240
 1226.0000   843.7680     9.5850     9.8750     8.3660   -60.6510   942.4600     0.0240     8.8170   100.6500     2.5230
 1226.5000   843.9960     9.5240     9.9390     8.3260   -60.6750   942.4600     0.0230     8.8240   100.7170     2.5220
 1227.0000   844.2240     9.5080    10.0560     8.2860   -60.4590   942.4600     0.0260     8.8220   101.7130     2.5200
 1227.5000   844.4520     9.4930    10.0270     8.2450   -60.2260   942.4600     0.0280     8.8210   100.9210     2.5190
 1228.0000   844.6810     9.4770     9.9650     8.2050   -60.1000   942.4600     0.0260     8.8200    99.6170     2.5170
 1228.5000   844.7940     9.4620     9.9040     8.1650   -59.5690   942.4600     0.0240     8.8180    99.4710     2.5160
 1229.0000   844.7940     9.4460     9.8430     8.1250   -59.4990   942.4600     0.0270     8.8170   102.0120     2.5200
 1229.5000   844.7940     9.4310     9.7810     8.0850   -59.5030   942.4600     0.0300     8.8160   104.6970     2.5250
 1230.0000   844.7940     9.4150     9.7200     8.0440   -59.8510   942.4600     0.0320     8.8140   106.0740     2.5310
 1230.5000   844.7940     9.4000     9.6590     8.0040   -60.2610   942.4600     0.0250     8.8130   104.8270     2.5350
 1231.0000   844.7940     9.3840     9.5970     7.9490   -60.4760   942.4600     0.0190     8.8120   104.0580     2.5380
 1231.5000   844.7940     9.3690     9.5240     7.9560   -60.9950   942.4600     0.0130     8.8100   104.2510     2.5410
 1232.0000   844.7940     9.3550     9.6220     7.9720   -61.1570   942.4600     0.0130     8.8090   103.9920     2.5360
 1232.5000   844.7940     9.3710     9.7430     7.9880   -61.2970   942.4600     0.0130     8.8080   102.2250     2.5220
 1233.0000   844.7940     9.3870     9.8650     8.0030   -61.4080   942.4600     0.0130     8.8060   100.8770     2.5080
 1233.5000   844.7940     9.4040     9.9860     8.0180   -61.6560   942.4600     0.0130     8.8050   101.8920     2.5030
 1234.0000   844.7940     9.4210    10.1070     8.0340   -61.9380   942.4600     0.0140     8.8040   104.2670     2.5070
 1234.5000   844.7940     9.4370    10.2390     8.0490   -62.2080   942.4600     0.0190     8.8020   106.1580     2.5170
 1235.0000   844.7940     9.4540    10.2390     8.0640   -62.0600   942.4600     0.0240     8.8010   105.7430     2.5200
 1235.5000   844.7940     9.4710    10.1950     8.0800   -61.8060   942.4600     0.0230     8.8000   105.5730     2.5160
 1236.0000   844.7940     9.4870    10.0630     8.0920   -61.7040   942.4600     0.0180     8.7980   106.3130     2.5120
 1236.5000   844.7940     9.5030     9.8750     8.0930   -61.1880   942.4600     0.0140     8.7970   107.2440     2.5130
 1237.0000   844.7940     9.5200     9.9640     8.0930   -61.0610   942.4600     0.0200     8.7950   106.5520     2.5230
 1237.5000   844.7940     9.4990    10.1180     8.0930   -60.8250   942.4600     0.0260     8.7940   104.6720     2.5340
 1238.0000   844.7940     9.4660    10.2390     8.0930   -60.6440   942.4600     0.0270     8.7930   103.4520     2.5380
 1238.5000   844.7940     9.4330    10.2390     8.0930   -60.6580   942.4600     0.0200     8.7910   103.6250     2.5320
 1239.0000   844.7940     9.4010    10.0640     8.0930   -60.6620   942.6560     0.0130     8.7900   102.8520     2.5260
 1239.5000   844.7940     9.3690     9.6980     8.0930   -60.6560   942.8970     0.0060     8.7890   101.8270     2.5260
 1240.0000   844.7940     9.3360     9.7850     8.0930   -60.6600   943.1390     0.0020     8.7870   101.8570     2.5320
 1240.5000   844.7940     9.3040     9.9150     8.0930   -60.6590   943.3800     0.0170     8.7860   103.5760     2.5380
 1241.0000   844.7940     9.2710    10.0560     8.0930   -60.6590   943.6220     0.0210     8.7840   103.2990     2.5420
 1241.5000   844.7940     9.2390    10.0860     8.0930   -60.6590   943.8630     0.0230     8.7900   101.4240     2.5370
 1242.0000   844.7940     9.2060    10.1190     8.0930   -60.6590   944.1050     0.0240     8.7980   101.3130     2.5350
 1242.5000   844.7940     9.1740    10.1530     8.0930   -60.6590   944.3470     0.0300     8.8060   105.1580     2.5430
 1243.0000   844.7940     9.1410    10.1860     8.0930   -60.6570   944.5880     0.0330     8.8130   109.1480     2.5510
 1243.5000   844.7940     9.1090    10.2390     8.0040   -60.6600   944.8300     0.0300     8.8210   111.1070     2.5380
 1244.0000   844.7940     9.0760    10.1200     7.9140   -60.6650   945.0710     0.0210     8.8280   110.6410     2.5240
 1244.5000   844.7940     9.0440     9.8220     7.8230   -60.7690   945.3130     0.0120     8.8360   108.5820     2.5090
 1245.0000   844.7940     9.0110     9.5250     7.7330   -60.8700   945.5540     0.0100     8.8430   107.8630     2.5050
 1245.5000   844.7940     8.9790     9.1860     7.6590   -60.9750   945.7960     0.0110     8.8510   108.7110     2.5030
 1246.0000   844.7940     8.9470     9.0210     7.6350   -61.0780   946.0370     0.0120     8.8590   109.5320     2.5020
 1246.5000   844.7940     8.9130     9.3020     7.6110   -61.1820   946.2790     0.0140     8.8660   106.8430     2.5080
 1247.0000   844.7940     8.8800     9.5650     7.5880   -61.2810   946.5200     0.0240     8.8730   102.0670     2.5300
 1247.5000   844.7940     8.8480     9.8280     7.5640   -61.3960   946.7620     0.0320     8.8800   100.1180     2.5490
