~VERSION INFORMATION
 VERS.                2.0:   CWLS LOG ASCII STANDARD - VERSION 2.0
 WRAP.                 NO:   ONE LINE PER DEPTH STEP
~WELL INFORMATION
#MNEM.UNIT      DATA TYPE    INFORMATION
#----------   ------------   ------------------------------
 STRT.F            2.0000:   START DEPTH
 STOP.F         3008.0000:   STOP DEPTH
 STEP.F            0.5000:   STEP LENGTH
 NULL.          -999.2500:   NO VALUE
 COMP.       FLUOR DANIEL:   COMPANY
 WELL.   FLUOR "X" #25-23:   WELL
 FLD .          N.P.R. #3:   FIELD
 LOC .      S23 T38N R78W:   LOCATION
 CNTY.            NATRONA:   COUNTY
 STAT.            WYOMING:   STATE
 CTRY. UNITED STATES OF AMERICA:   COUNTRY
 SRVC.      WESTERN ATLAS:   SERVICE COMPANY
 DATE.        21-APR-1995:   LOGDATE
 API .     49025227090000:   API NUMBER
~CURVE INFORMATION
#MNEM.UNIT       API CODE    CURVE DESCRIPTION
#----------   ------------   ------------------------------
 DEPT.F                  :   
 GRR .GAPI   07 310 01 00:   GAMMA RAY FROM RESISTIVITY
 TENR.LBS    07 635 01 00:   TENSION FROM RESISTIVITY
 RILD.OHMM   07 120 46 00:   RESISTIVITY INDUCTION LOG DEEP
 RILM.OHMM   07 120 44 00:   RESISTIVITY INDUCTION LOG MEDIUM
~PARAMETER INFORMATION
#MNEM.UNIT          VALUE    DESCRIPTION
#----------   ------------   ------------------------------
 EKB .F         5285.0000:   Kelly bushing
 EGL .F         5275.0000:   Ground level
 EDF .F         5284.0000:   Drilling floor
 TD  .F         3000.0000:   Total depth
 CLNT.            A2DTECH:   Client Code
 SL  . 2343' FSL & 1264' FWL:   Surface Location
 PD  .                 GL:   Permanent Datum
 EPD .F              5275:   Elevation Permanent Datum
 DMF .                 KB:   Drilling Measured From
 DAPD.                 10:   Feet Above Permanent Datum
 DATE.        21-APR-1995:   Date Logged [DD-MMM-YYYY]
 DD  .F              3000:   Depth driller
 DL  .F              3000:   Depth logger
 BLI .F              2999:   Bottom log interval
 TLI .F                 0:   Top log interval
 CS1 .IN            9.625:   Casing size
 CBD1.       9.625" @ 53':   Casing driller 1
 CBL1.F                53:   Casing logger 1
 BS1 .IN             6.25:   Bit size
 BSD1.F              3000:   Depth drilled with bit1
 DFT .                OIL:   Type fluid in hole
 MRT .F               114:   Maximum recorded temp.
 LUN .            HL 6530:   Logging unit number
 LUL .             CASPER:   Logging unit location
 ENGI.        VERN RAUTIO:   Recorded By
 WITN.        GARY STRONG:   Witnessed by
 ORIG.         2.5" PRINT:   Origin of data
 UWI .     49025227090000:   Unique Well ID
 DICO. A2D TECHNOLOGIES,INC.:   Digitizing Company
 LMF .                 KB:   Log Measured From
~OTHER INFORMATION
~A    DEPT      GRR      TENR       RILD       RILM   
# ...
  805.0000   126.7550   -54.7268     8.3827     7.9299
  805.5000   125.5666   -54.2379     8.2673     7.9970
  806.0000   128.2949   -53.7490     8.1539     8.1416
  806.5000   131.7512   -38.6403     8.1518     8.1377
  807.0000   133.0364   -23.5315     8.1497     8.1337
  807.5000   133.2596    -8.4064     8.1476     8.1306
  808.0000   127.1267    -7.8947     8.0300     8.1274
  808.5000   127.2817    -7.3830     7.9256     8.1242
  809.0000   125.5033    -6.8713     7.8993     8.0118
  809.5000   120.7751    -6.3596     7.7096     7.9009
  810.0000   118.4068   -21.4465     7.5629     7.7775
  810.5000   127.9791   -34.5760     7.4995     7.6835
  811.0000   136.1632   -48.6842     7.4974     7.6804
  811.5000   136.0797   -62.7924     7.4951     7.7195
  812.0000   134.8909   -62.2579     7.5956     7.7788
  812.5000   134.8820   -61.7690     7.6969     7.8817
  813.0000   134.8732   -59.8939     7.6949     7.8780
  813.5000   133.6827   -31.5058     7.7985     7.8749
  814.0000   136.0342    -1.7544     7.9021     7.8718
  814.5000   139.5656    -6.6999     7.8807     7.8688
  815.0000   138.3772   -29.9708     7.6866     7.7564
  815.5000   132.4690   -29.4591     7.4792     7.6396
  816.0000   127.6305   -28.8626     7.3766     7.4448
  816.5000   129.3602   -28.3737     7.2753     7.3417
  817.0000   132.4437   -27.8849     7.3726     7.3780
  817.5000   133.3384   -27.3960     7.4708     7.4357
  818.0000   135.9646   -26.9006     7.4690     7.4327
  818.5000   137.8161   -26.3889     7.4669     7.4292
  819.0000   139.4867    -8.1384     7.4650     7.4263
  819.5000   135.9371     3.8743     7.4630     7.4234
  820.0000   140.6484    -1.4612     7.4610     7.3207
  820.5000   142.9998   -24.3421     7.3586     7.2194
  821.0000   141.1152   -23.7294     7.2576     7.1946
  821.5000   134.0403   -23.2405     7.2173     7.0207
  822.0000   133.5339   -23.6006     7.0598     7.0179
  822.5000   136.7112   -24.0258     6.9099     6.8850
  823.0000   143.4828   -24.4509     6.8671     6.8248
  823.5000   141.6646   -24.8761     6.6819     6.7703
  824.0000   137.0368   -25.3013     6.5903     6.6365
  824.5000   135.8484   -25.7265     6.4999     6.5447
  825.0000   138.1999   -26.1516     6.3246     6.4542
  825.5000   140.5513   -26.5768     6.2305     6.2792
  826.0000   141.1485   -27.0020     6.1522     6.0524
  826.5000   142.9666   -27.4271     6.0678     5.9433
  827.0000   144.0658   -27.8523     6.0661     5.9409
  827.5000   144.2428   -28.2775     6.1472     6.1011
  828.0000   145.2289   -28.7026     6.1455     6.0987
  828.5000   143.7257   -29.1278     6.1436     6.2640
  829.0000   141.6680   -29.5530     6.3106     6.2613
  829.5000   139.2996   -29.7515     6.3950     6.4308
  830.0000   137.5213   -29.2398     6.5689     6.6168
  830.5000   135.7429   -28.7281     6.7475     6.7978
  831.0000   133.9646   -28.2164     6.8415     6.9671
  831.5000   130.8999   -27.7047     7.0237     6.9324
  832.0000   128.4168   -27.1930     6.8340     6.7750
  832.5000   127.1141   -26.6813     6.7131     6.7723
  833.0000   127.8880   -26.1696     6.6478     6.7690
  833.5000   128.6106   -25.6579     6.6460     6.7664
  834.0000   128.6018   -25.1462     6.7463     6.7638
  834.5000   128.0016   -24.6345     6.8248     6.9468
  835.0000   128.5831   -24.1228     7.0103     6.9441
  835.5000   128.5746   -23.6111     7.0082     6.7456
  836.0000   121.4866   -23.0994     6.8192     6.5468
  836.5000   115.4447   -22.5877     6.6352     6.3943
  837.0000   112.6201   -22.0760     6.6334     6.3917
  837.5000   122.3451   -21.4829     6.6316     6.3891
  838.0000   128.3502   -20.9940     6.6298     6.4307
  838.5000   130.2251   -35.1249     6.6280     6.5592
  839.0000   132.0531   -34.6361     6.7556     6.7366
  839.5000   124.9631   -19.5175     6.8540     6.9188
  840.0000   127.3145   -20.9525     6.9913     7.1059
  840.5000   130.8459   -33.1695     7.1814     7.2980
  841.0000   133.7873    -3.3626     7.1792     7.2951
  841.5000   129.5940    -8.8924     7.2753     7.2921
  842.0000   126.6196   -16.9591     7.1755     7.2892
  842.5000   126.0914   -16.3496     7.1736     7.0915
  843.0000   126.0826   -15.8607     7.1601     6.9550
  843.5000   126.0737   -15.3718     6.9781     6.8963
  844.0000   126.0649   -29.5321     6.9762     6.7088
  844.5000   127.2343   -29.0139     6.8453     6.7062
  845.0000   128.4058   -28.5087     6.7861     6.7035
  845.5000   130.7572   -27.9971     6.7842     6.7009
  846.0000   133.6987     1.7544     6.7821     6.6983
  846.5000   137.8200     7.3349     6.7803     6.6957
  847.0000   139.0422     2.7778     6.7786     6.6930
  847.5000   138.8741     3.2895     6.7768     6.8015
  848.0000   136.7081   -10.7275     6.8674     6.8716
  848.5000   133.8003   -24.9269     6.9593     6.8684
  849.0000   133.9252   -24.3696     6.9573     6.8656
  849.5000   134.2271   -23.8807     6.9554     6.7705
  850.0000   133.0369   -23.3918     6.9535     6.6762
  850.5000   131.8486   -24.2438     6.7659     6.6736
  851.0000   130.6602   -37.0340     6.7640     6.5813
  851.5000   128.2919   -36.4766     6.6709     6.4902
  852.0000   125.3336   -35.9649     6.5794     6.4877
  852.5000   128.6288   -35.4532     6.5777     6.4850
  853.0000   131.9508   -34.9415     6.5760     6.4824
  853.5000   132.9779   -19.7252     6.4859     6.4798
  854.0000   133.8171   -19.2363     6.3969     6.3900
  854.5000   135.6352    10.4923     6.3952     6.3874
  855.0000   137.6681    10.9812     6.3935     6.3848
  855.5000   138.8396    11.4701     6.3917     6.3818
  856.0000   141.1910   -17.2808     6.3900     6.3793
  856.5000   142.9525   -16.7398     6.3883     6.4638
  857.0000   143.5340   -35.3303     6.3865     6.4613
  857.5000   143.3876   -45.0539     6.3845     6.4587
  858.0000   138.5051   -66.2772     6.3828     6.3693
  858.5000   134.0692   -43.8317     6.2953     6.3667
  859.0000   139.0187   -14.1031     6.2090     6.3641
  859.5000   139.9498     1.0057     6.2074     6.2759
  860.0000   138.1694    16.1145     6.2058     6.2734
  860.5000   135.2111    16.6034     6.2041     6.2708
  861.0000   134.0227     2.4723     6.2024     6.2678
  861.5000   136.3742   -11.6587     6.2007     6.3508
  862.0000   138.7256   -11.1111     6.3190     6.3484
  862.5000   137.4387   -20.3485     6.3675     6.4324
  863.0000   134.9556   -39.3275     6.3655     6.4299
  863.5000   131.2931   -38.8158     6.5386     6.5236
  864.0000   128.8101   -38.2096     6.5369     6.6014
  864.5000   127.7492   -37.7207     6.7148     6.7137
  865.0000   129.9018    -7.9920     6.7129     6.7774
  865.5000   131.5826    -7.5031     6.8954     6.9093
  866.0000   133.3441   -36.2541     6.8935     6.9573
  866.5000   134.5156   -35.7456     6.8917     7.0488
  867.0000   135.6871   -35.2339     6.8898     7.1426
  867.5000   135.0002   -34.7222     6.8879     7.0433
  868.0000   130.6037   -34.2105     6.7520     6.9459
  868.5000   131.2124   -33.6988     6.7002     6.7576
  869.0000   135.6637   -33.1871     6.6981     6.7549
  869.5000   138.5182    -3.3477     6.6063     6.5717
  870.0000   137.1685    -2.8588     6.5157     6.5455
  870.5000   125.5943    -2.3699     6.5140     6.3909
  871.0000   125.4258   -31.1208     6.5123     6.3883
  871.5000   131.4771   -30.6319     6.5053     6.2998
  872.0000   137.3684   -59.3828     6.4086     6.2120
  872.5000   141.4897   -58.8450     6.2936     6.1261
  873.0000   139.5774   -54.0441     6.1622     6.0413
  873.5000   136.8464   -28.5819     6.0444     6.0390
  874.0000   134.9747    -6.4336     5.9943     6.0366
  874.5000   141.4642     1.6813     5.9926     5.8729
  875.0000   146.1650   -26.9653     5.9908     5.8705
  875.5000   146.7463   -41.0963     5.9892     5.8681
  876.0000   140.8365   -40.6074     5.9876     5.8658
  876.5000   134.9283   -40.1185     5.9861     5.8983
  877.0000   132.5600   -39.0371     6.0673     6.0219
  877.5000   133.7316   -20.5942     6.1473     6.0190
