~VERSION INFORMATION
 VERS.                2.0:   CWLS LOG ASCII STANDARD - VERSION 2.0
 WRAP.                 NO:   ONE LINE PER DEPTH STEP
~WELL INFORMATION
#MNEM.UNIT      DATA TYPE    INFORMATION
#----------   ------------   ------------------------------
 STRT.F            0.0000:   START DEPTH
 STOP.F         2870.0000:   STOP DEPTH
 STEP.F            0.5000:   STEP LENGTH
 NULL.          -999.2500:   NO VALUE
 COMP.  FENIX AND SCISSON:   COMPANY
 WELL.  FENIX "A" #304-28:   WELL
 FLD .             NPR #3:   FIELD
 LOC .      S28 T39N R78W:   LOCATION
 CNTY.            NATRONA:   COUNTY
 STAT.            WYOMING:   STATE
 CTRY. UNITED STATES OF AMERICA:   COUNTRY
 SRVC.         MCCULLOUGH:   SERVICE COMPANY
 DATE.        21-DEC-1977:   LOGDATE
 API .     49025105600000:   API NUMBER
~CURVE INFORMATION
#MNEM.UNIT       API CODE    CURVE DESCRIPTION
#----------   ------------   ------------------------------
 DEPT.F                  :   
 GR  .GAPI   30 310 01 00:   GAMMA RAY
 CALI.IN     70 280 01 00:   CALIPER
~PARAMETER INFORMATION
#MNEM.UNIT          VALUE    DESCRIPTION
#----------   ------------   ------------------------------
 EKB .F            0.0000:   Kelly bushing
 EGL .F            0.0000:   Ground level
 EDF .F         5074.7000:   Drilling floor
 EPD .F         5074.7000:   Permanent datum
 TD  .F         2868.0000:   Total depth
 DATE.        21-DEC-1977:   Date logged
 CLNT.            A2DTECH:   Client Code
 DL  .F              2868:   Depth logger
 BLI .F              2866:   Bottom log interval
 TLI .F              2000:   Top log interval
 CS1 .IN             6.25:   Casing size
 CBD1.     6.625" @ 2935':   Casing driller 1
 BS1 .IN             6.25:   Bit size
 BSD1.F              2868:   Depth drilled with bit1
 DFT .              WATER:   Type fluid in hole
 TCS .HRS             1.5:   Time Circ. stopped
 ENGI.             CONLEY:   Recorded By
 WITN.           HARRISON:   Witnessed by
 ORIG.           5" PRINT:   Origin of data
 UWI .     49025105600000:   Unique Well ID
 DICO. A2D TECHNOLOGIES, INC.:   Digitizing Company
~OTHER INFORMATION
~A    DEPT      GR         CALI 
# ...
 2794.5000   111.9690     6.6830
 2795.0000   109.1480     6.6850
 2795.5000   114.5200     6.6880
 2796.0000   117.0620     6.6890
 2796.5000   116.3740     6.6930
 2797.0000   115.1050     6.7030
 2797.5000   117.3710     6.7080
 2798.0000   116.3120     6.7070
 2798.5000   119.2360     6.7070
 2799.0000   109.0030     6.7050
 2799.5000   103.0640     6.7010
 2800.0000   102.3440     6.6990
 2800.5000   107.5790     6.6940
 2801.0000   109.2690     6.6940
 2801.5000   107.0380     6.6950
 2802.0000   103.0520     6.6960
 2802.5000   102.8760     6.6970
 2803.0000   102.6370     6.6980
 2803.5000    99.8820     6.7110
 2804.0000    97.9360     6.7120
 2804.5000    97.7650     6.7130
 2805.0000    98.0090     6.7120
 2805.5000    96.0040     6.6950
 2806.0000    94.0970     6.6880
 2806.5000    95.9350     6.6830
 2807.0000    99.3160     6.6830
 2807.5000    99.9410     6.6830
 2808.0000    99.1410     6.6840
 2808.5000    95.5550     6.6950
 2809.0000    94.0210     6.7020
 2809.5000    91.8470     6.7050
 2810.0000    90.2560     6.7010
 2810.5000    89.6080     6.7460
 2811.0000    91.1810     6.7460
 2811.5000    95.4470     6.7450
 2812.0000    96.8070     6.7400
 2812.5000   103.2030     6.7530
 2813.0000   104.5780     6.7430
 2813.5000   103.4540     6.9030
 2814.0000   103.7330     6.6870
 2814.5000   105.6170     6.7060
 2815.0000   106.2600     6.7080
 2815.5000   107.1150     6.7040
 2816.0000   112.1000     6.6940
 2816.5000   110.9830     6.6930
 2817.0000   114.7720     6.6930
 2817.5000   114.9470     6.6920
 2818.0000   115.7620     6.6920
 2818.5000   115.5060     6.6920
 2819.0000   113.7740     6.6900
 2819.5000   111.3300     6.6890
 2820.0000   112.7900     6.6870
 2820.5000   113.0650     6.6870
 2821.0000   114.1150     6.6910
 2821.5000   115.1350     6.6970
 2822.0000   116.1240     6.7040
 2822.5000   117.1410     6.6980
 2823.0000   114.4060     6.6920
 2823.5000   108.7200     6.6890
 2824.0000   107.9080     6.6890
 2824.5000   106.4170     6.6930
 2825.0000   106.3280     6.6960
 2825.5000   106.4680     6.6970
 2826.0000   103.5980     6.6930
 2826.5000   101.6470     6.6910
 2827.0000   103.4100     6.6920
 2827.5000   102.2820     6.6820
 2828.0000   101.8870     6.6800
 2828.5000   103.8310     6.6800
 2829.0000   101.1850     6.6810
 2829.5000    99.6830     6.6790
 2830.0000    99.1410     6.6840
 2830.5000    99.2050     6.6870
 2831.0000   101.9720     6.6880
 2831.5000   106.6410     6.6890
 2832.0000   110.3780     6.6910
 2832.5000   115.5880     6.6990
 2833.0000   113.7960     6.7070
 2833.5000   108.8450     6.7070
 2834.0000   102.8350     6.7050
 2834.5000    98.4930     6.7410
 2835.0000    94.5660     6.9450
 2835.5000    94.2940     6.7140
 2836.0000    93.8940     6.7270
 2836.5000    95.5120     6.7290
 2837.0000   102.3500     6.7270
 2837.5000   102.2930     6.7240
 2838.0000   102.5400     6.7210
 2838.5000   103.4870     6.7180
 2839.0000   103.0290     6.7180
 2839.5000   103.9440     6.7200
 2840.0000   100.2990     6.7210
 2840.5000    97.5200     6.7200
 2841.0000    98.2320     6.7190
 2841.5000    95.9740     6.7160
 2842.0000    94.2680     6.7140
 2842.5000    91.9860     6.7260
 2843.0000    91.9080     6.7220
 2843.5000    89.8100     6.7180
 2844.0000    89.9300     6.7230
 2844.5000    96.9640     6.7210
 2845.0000    98.9410     6.7190
 2845.5000    97.4130     6.7160
 2846.0000    96.6180     6.7130
 2846.5000    96.3200     6.7150
 2847.0000    94.0840     6.7190
 2847.5000    92.5840     6.7220
 2848.0000    92.0100     6.7300
 2848.5000    91.1690     6.7080
 2849.0000    89.8780     6.7070
 2849.5000    91.0440     6.7060
 2850.0000    91.0370     6.7060
 2850.5000    90.3700     6.7050
 2851.0000    91.2080     6.7040
 2851.5000    92.0680     6.7020
 2852.0000    92.2920     6.7090
 2852.5000    92.5420     6.7110
 2853.0000    93.3160     6.7080
 2853.5000    92.4480     6.7070
 2854.0000    91.3270     6.7060
 2854.5000    91.8700     6.7040
 2855.0000    92.9590     6.7050
 2855.5000    90.6000     6.7140
 2856.0000    89.3620     6.7220
 2856.5000    88.4850     6.7290
 2857.0000    88.6030     7.0550
 2857.5000    89.5910     6.7190
 2858.0000    89.8930     6.7200
 2858.5000    88.3410     6.7260
 2859.0000    88.0080     6.7260
 2859.5000    88.7980     6.7270
 2860.0000    89.7650     6.7290
 2860.5000    92.0420     6.7270
 2861.0000    91.6180     6.7260
 2861.5000    89.2340     6.7260
 2862.0000    87.2840     6.7330
 2862.5000    85.9770     6.7330
 2863.0000    83.0900     6.7310
 2863.5000    97.3990     6.7350
 2864.0000    96.3910     6.7400
 2864.5000   105.3500     6.7400
 2865.0000   108.1420     6.7400
 2865.5000   115.4140     6.7390
 2866.0000   112.4480  -999.2500
 2866.5000   145.1800  -999.2500
 2867.0000   143.1530  -999.2500
 2867.5000   143.7650  -999.2500
 2868.0000   143.9060  -999.2500
 2868.5000   143.9370  -999.2500
 2869.0000   143.9370  -999.2500
 2869.5000   143.9370  -999.2500
 2870.0000   143.9370  -999.2500
