~VERSION INFORMATION
 VERS.                2.0:   CWLS LOG ASCII STANDARD - VERSION 2.0
 WRAP.                 NO:   ONE LINE PER DEPTH STEP
~WELL INFORMATION
#MNEM.UNIT      DATA TYPE    INFORMATION
#----------   ------------   ------------------------------
 STRT.F           72.5000:   START DEPTH
 STOP.F         2820.0000:   STOP DEPTH
 STEP.F            0.5000:   STEP LENGTH
 NULL.          -999.2500:   NO VALUE
 COMP.          INTEX OIL:   COMPANY
 WELL. INTEX OIL AX N. P. R. #51-29:   WELL
 FLD .             TEAPOT:   FIELD
 LOC .      S29 T39N R78W:   LOCATION
 CNTY.            NATRONA:   COUNTY
 STAT.            WYOMING:   STATE
 CTRY. UNITED STATES OF AMERICA:   COUNTRY
 SRVC.       SCHLUMBERGER:   SERVICE COMPANY
 DATE.        01-MAY-1966:   LOGDATE
 API .     49025094920000:   API NUMBER
~CURVE INFORMATION
#MNEM.UNIT       API CODE    CURVE DESCRIPTION
#----------   ------------   ------------------------------
 DEPT.F                  :   
 GRD .GAPI   45 310 01 00:   GAMMA RAY FROM DENSITY LOG
 CALD.IN     45 280 60 00:   CALIPER FROM DENSITY LOG
 RHOB.G/C3   45 350 01 00:   BULK DENSITY
 CORR.G/C3   45 356 01 00:   DENSITY CORRECTION
 SPR .MV     07 010 01 00:   SPONTANEOUS POTENTIAL
 ASN .OHMM   05 041 16 00:   AMPLIFIED SHORT NORMAL 16"
 ILD .OHMM   05 120 46 00:   DEEP INDUCTION RESISTIVITY
 DT  .US/F   60 520 00 00:   DELTA TIME
~PARAMETER INFORMATION
#MNEM.UNIT          VALUE    DESCRIPTION
#----------   ------------   ------------------------------
 EKB .F         5007.3000:   Kelly bushing
 EGL .F         4997.0000:   Ground level
 EDF .F            0.0000:   Drilling floor
 TD  .F         2799.0000:   Total depth
 DATE.        01-MAY-1966:   Date logged
 CLNT.            A2DTECH:   Client Code
 PD  .                 GL:   Permanent Datum
 EPD .F              4997:   Elevation Permanent Datum
 LMF .                 KB:   Log Measured From
 DMF .                 KB:   Drilling Measured From
 DAPD.F              10.3:   Feet Above Permanent Datum
 DD  .F              2798:   Depth driller
 DL  .F              2799:   Depth logger
 BLI .F              2798:   Bottom log interval
 TLI .F                88:   Top log interval
 CS1 .IN            10.75:   Casing size
 CBD1.       10.75" @ 30':   Casing driller 1
 BS1 .IN            7.875:   Bit size
 BSD1.F              2798:   Depth drilled with bit1
 DFT .           CHEM/OIL:   Type fluid in hole
 DFD .                9.5:   Density
 DFV .                 46:   Viscosity
 DFPH.                7.2:   pH
 DFL .                7.0:   Fluid loss
 MSS .         CIRCULATED:   Source of sample
 RMS .OHMM           2.28:   Rm
 MST .F                68:   Rm Meas. temp.
 RMF .OHMM           1.32:   Rmf
 MFST.F                72:   Rmf Meas. temp.
 MFSS.                 FP:   Source Rmf.
 RMB .OHMM           1.52:   Rm. at BHT
 BHT .F               102:   BHT.
 TCS .HRS             1.5:   Time Circ. stopped
 MRT .F               102:   Maximum recorded temp.
 LUN .               4507:   Logging unit number
 LUL .               CSPR:   Logging unit location
 ENGI.               HAUG:   Recorded By
 WITN.      TUTTLE/HUDSON:   Witnessed by
 ORIG.           5" PRINT:   Origin of data
 UWI .     49025094920000:   Unique Well ID
 DICO. A2D TECHNOLOGIES, INC.:   Digitizing Company
~OTHER INFORMATION
~A   DEPT      GRD       CALD       RHOB       CORR        SPR        ASN        ILD         DT   
# ...
 2178.5000   112.7780     9.2680     2.5350    -0.0070   -39.9660     8.6930     6.1970    84.4210
 2179.0000   113.7220     9.2640     2.5270    -0.0030   -39.9520     8.7530     6.2460    84.7800
 2179.5000   114.5780     9.2590     2.5270    -0.0050   -39.9570     8.8110     6.3030    85.1390
 2180.0000   115.5820     9.2550     2.5320    -0.0060   -39.9660     8.8910     6.3570    85.3780
 2180.5000   114.3690     9.2510     2.5390    -0.0070   -39.9640     8.9790     6.3740    84.7180
 2181.0000   112.1600     9.2470     2.5320    -0.0080   -39.9550     9.0520     6.3150    84.0720
 2181.5000   110.9430     9.2430     2.5190    -0.0120   -39.9560     9.0860     6.1870    83.5000
 2182.0000   109.9680     9.2380     2.5070    -0.0200   -39.9690     9.0630     6.0390    83.1520
 2182.5000   110.6960     9.2340     2.5040    -0.0160   -39.9690     8.9950     5.9020    82.8040
 2183.0000   111.1740     9.2300     2.5080    -0.0120   -39.9320     8.8970     5.7700    82.5160
 2183.5000   111.7590     9.2260     2.5110    -0.0200   -39.8490     8.7490     5.6290    82.5940
 2184.0000   112.2530     9.2220     2.5230    -0.0170   -39.7140     8.5220     5.4990    83.3750
 2184.5000   110.9200     9.2180     2.5270    -0.0150   -39.5260     8.2450     5.4150    84.2370
 2185.0000   111.2300     9.2130     2.5100    -0.0220   -39.3330     8.0240     5.3820    85.0030
 2185.5000   113.4260     9.2090     2.5060    -0.0170   -39.2470     7.9800     5.3670    84.7370
 2186.0000   115.3900     9.2050     2.5050    -0.0180   -39.3590     8.1340     5.3420    83.8470
 2186.5000   117.3890     9.2010     2.5130    -0.0140   -39.6490     8.3600     5.3150    82.8720
 2187.0000   116.6050     9.1970     2.5210    -0.0030   -39.9900     8.4750     5.3030    81.8980
 2187.5000   115.1060     9.1930     2.5360     0.0010   -40.2330     8.3880     5.2900    81.9980
 2188.0000   113.4280     9.2050     2.5270    -0.0010   -40.2890     8.1480     5.2490    83.8550
 2188.5000   114.2120     9.2230     2.5390     0.0120   -40.1570     7.8540     5.2080    85.7120
 2189.0000   116.8320     9.2400     2.5330     0.0110   -39.9200     7.6100     5.2580    87.3230
 2189.5000   120.0450     9.2580     2.5120     0.0060   -39.7020     7.5770     5.4570    89.0560
 2190.0000   120.2520     9.2720     2.5170     0.0260   -39.5940     7.9310     5.7570    87.9080
 2190.5000   117.3570     9.2640     2.5260     0.0220   -39.5930     8.6410     6.0770    86.1470
 2191.0000   114.8310     9.2560     2.4960    -0.0010   -39.6380     9.3900     6.3910    84.3870
 2191.5000   112.5280     9.2480     2.5050    -0.0040   -39.6780     9.8400     6.7080    82.6260
 2192.0000   113.1670     9.2400     2.5160     0.0000   -39.7050     9.9520     6.9910    81.5170
 2192.5000   114.4430     9.2320     2.5160    -0.0160   -39.7340     9.9470     7.1620    82.6030
 2193.0000   116.5000     9.2240     2.5200    -0.0200   -39.7700     9.9940     7.2060    83.6880
 2193.5000   118.7010     9.2160     2.5270    -0.0090   -39.8050    10.0820     7.1880    84.7740
 2194.0000   121.3200     9.2080     2.5290    -0.0180   -39.8350    10.1480     7.1770    85.5830
 2194.5000   120.3240     9.2000     2.5090    -0.0140   -39.8670    10.1970     7.1770    85.6840
 2195.0000   116.9340     9.1940     2.5170    -0.0090   -39.9030    10.2540     7.1800    85.4320
 2195.5000   115.4620     9.2010     2.5270    -0.0040   -39.9370    10.3090     7.2160    85.0420
 2196.0000   114.6140     9.2070     2.5020    -0.0140   -39.9540    10.3520     7.3330    84.4340
 2196.5000   113.3140     9.2130     2.5110    -0.0170   -39.9500    10.4050     7.5150    83.8250
 2197.0000   112.6510     9.2200     2.5270    -0.0080   -39.9340    10.4740     7.6760    83.2160
 2197.5000   112.3500     9.2260     2.5390    -0.0010   -39.9190    10.5160     7.7250    82.7930
 2198.0000   112.8960     9.2320     2.5220     0.0060   -39.9080    10.4770     7.6510    83.1520
 2198.5000   113.6400     9.2290     2.5260    -0.0030   -39.8970    10.3680     7.5100    83.2900
 2199.0000   114.4390     9.2260     2.5360     0.0010   -39.8840    10.2500     7.3510    83.1420
 2199.5000   114.8860     9.2230     2.5320    -0.0030   -39.8710    10.1620     7.1930    83.0910
 2200.0000   114.0450     9.2190     2.5200    -0.0090   -39.8590    10.0710     7.0680    84.0580
 2200.5000   113.2750     9.2160     2.5220    -0.0160   -39.8470     9.9360     7.0270    84.8810
 2201.0000   112.3630     9.2120     2.5250    -0.0080   -39.8350     9.8110     7.0860    84.8810
 2201.5000   112.3490     9.2090     2.5370     0.0000   -39.8220     9.7990     7.1930    84.5830
 2202.0000   112.3530     9.2060     2.5420     0.0080   -39.8100     9.9200     7.2920    84.9800
 2202.5000   113.2710     9.2020     2.5310     0.0000   -39.7980    10.0960     7.3790    85.0520
 2203.0000   114.3310     9.1990     2.5210    -0.0080   -39.7850    10.2930     7.4710    84.7810
 2203.5000   114.3330     9.1960     2.5120    -0.0070   -39.7730    10.5610     7.5530    84.0490
 2204.0000   112.3350     9.1920     2.5050    -0.0040   -39.7610    10.8660     7.5910    83.2470
 2204.5000   110.4090     9.1890     2.5180    -0.0040   -39.7480    11.0190     7.5860    82.4450
 2205.0000   109.5610     9.1850     2.5320    -0.0070   -39.7360    10.8840     7.5730    81.7400
 2205.5000   109.2250     9.1820     2.5210    -0.0100   -39.7240    10.5580     7.5730    82.1030
 2206.0000   110.1750     9.1790     2.5270    -0.0080   -39.7110    10.2320     7.5810    82.8000
 2206.5000   111.3040     9.1750     2.5370    -0.0020   -39.6990    10.0020     7.5830    83.4970
 2207.0000   113.0580     9.1720     2.5300    -0.0050   -39.6870     9.9170     7.5760    84.1940
 2207.5000   114.0410     9.1680     2.5210    -0.0100   -39.6740    10.0730     7.5720    84.0690
 2208.0000   113.2520     9.1650     2.5190    -0.0140   -39.6620    10.4910     7.5790    82.8110
 2208.5000   112.7750     9.1620     2.5220    -0.0070   -39.6490    10.9690     7.5870    81.5520
 2209.0000   112.1670     9.1580     2.5300    -0.0110   -39.6380    11.2260     7.5720    80.2940
 2209.5000   111.6100     9.1540     2.5360    -0.0040   -39.6250    11.1510     7.5100    79.6000
 2210.0000   111.0850     9.1540     2.5430     0.0020   -39.6120    10.8540     7.4060    80.1070
 2210.5000   110.4650     9.1590     2.5410    -0.0030   -39.5990    10.5070     7.2840    81.2100
 2211.0000   110.9490     9.1640     2.5240    -0.0060   -39.5890    10.2370     7.1610    82.3130
 2211.5000   111.6500     9.1680     2.5110    -0.0100   -39.5780    10.0940     7.0260    83.7810
 2212.0000   112.6550     9.1730     2.5290    -0.0060   -39.5600    10.0530     6.8740    85.3750
 2212.5000   113.6540     9.1780     2.5300    -0.0010   -39.5320    10.0470     6.7240    85.7630
 2213.0000   114.7730     9.1820     2.5240    -0.0060   -39.5000    10.0300     6.6120    85.0160
 2213.5000   114.6890     9.1870     2.5150    -0.0090   -39.4710     9.9900     6.5530    84.2690
 2214.0000   114.4330     9.1920     2.5050    -0.0130   -39.4440     9.9060     6.5250    83.5220
 2214.5000   114.1110     9.1970     2.5150    -0.0170   -39.4120     9.7880     6.4980    83.8070
 2215.0000   112.6410     9.2010     2.5220    -0.0160   -39.3790     9.7090     6.4630    84.9140
 2215.5000   110.9610     9.2060     2.5290    -0.0090   -39.3570     9.7450     6.4290    85.0390
 2216.0000   108.1690     9.2110     2.5060    -0.0130   -39.3360     9.8630     6.3960    84.0940
 2216.5000   105.4800     9.2150     2.5120    -0.0200   -39.2950     9.9260     6.3520    82.9320
 2217.0000   103.1730     9.2200     2.5220    -0.0140   -39.2500     9.8300     6.2920    81.7700
 2217.5000   102.8960     9.2250     2.5340    -0.0080   -39.2400     9.6260     6.2250    81.5240
 2218.0000   105.0730     9.2300     2.5290    -0.0050   -39.2430     9.3550     6.1600    82.4100
 2218.5000   108.0830     9.2340     2.5160    -0.0070   -39.1540     9.0680     6.0960    83.4620
