~VERSION INFORMATION
 VERS.                2.0:   CWLS LOG ASCII STANDARD - VERSION 2.0
 WRAP.                 NO:   ONE LINE PER DEPTH STEP
~WELL INFORMATION
#MNEM.UNIT      DATA TYPE    INFORMATION
#----------   ------------   ------------------------------
 STRT.F          407.0000:   START DEPTH
 STOP.F         3228.0000:   STOP DEPTH
 STEP.F            0.5000:   STEP LENGTH
 NULL.          -999.2500:   NO VALUE
 COMP.    FENIX & SCISSON:   COMPANY
 WELL.   FENIX "A" #21-34:   WELL
 FLD .             N.P.R.:   FIELD
 LOC .      S34 T39N R78W:   LOCATION
 CNTY.            NATRONA:   COUNTY
 STAT.            WYOMING:   STATE
 CTRY. UNITED STATES OF AMERICA:   COUNTRY
 SRVC.       SCHLUMBERGER:   SERVICE COMPANY
 DATE.        05-MAY-1977:   LOGDATE
 API .     49025103710000:   API NUMBER
~CURVE INFORMATION
#MNEM.UNIT       API CODE    CURVE DESCRIPTION
#----------   ------------   ------------------------------
 DEPT.F                  :   
 SPR .MV     11 010 01 00:   SPONTANEOUS POTENTIAL FROM RES.
 LLS .OHMM   11 220 09 00:   LATEROLOG LOG SHALLOW
 LLD .OHMM   11 220 10 00:   LATEROLOG DEEP
 MSFL.OHMM   11 270 04 00:   MICRO SPHERICALLY FOCUSED
 CALD.IN     45 280 60 00:   CALIPER FROM DENSITY LOG
 NPHI.DEC    42 890 03 00:   NEUTRON POROSITY SANDSTONE
 GRD .GAPI   45 310 01 00:   GAMMA RAY FROM DENSITY LOG
 CORR.G/C3   45 356 01 00:   DENSITY CORRECTION
 RHOB.G/C3   45 350 01 00:   BULK DENSITY
~PARAMETER INFORMATION
#MNEM.UNIT          VALUE    DESCRIPTION
#----------   ------------   ------------------------------
 EKB .F         5086.0000:   Kelly bushing
 EGL .F         5074.0000:   Ground level
 TD  .F         3226.0000:   Total depth
 CLNT.            A2DTECH:   Client Code
 SL  . 990' FWL & 330' FNL:   Surface Location
 PD  .                 GL:   Permanent Datum
 EPD .F              5074:   Elevation Permanent Datum
 LMF .                 KB:   Log Measured From
 DMF .                 KB:   Drilling Measured From
 DAPD.F                12:   Feet Above Permanent Datum
 DATE.        05-MAY-1977:   Date Logged [DD-MMM-YYYY]
 DD  .F              3226:   Depth driller
 DL  .F              3229:   Depth logger
 BLI .F              3227:   Bottom log interval
 TLI .F               430:   Top log interval
 CS1 .IN            8.625:   Casing size
 CBD1.      8.625" @ 424':   Casing driller 1
 CBL1.F               430:   Casing logger 1
 BS1 .IN            7.875:   Bit size
 BSD1.F              3226:   Depth drilled with bit1
 DFT .                KCL:   Type fluid in hole
 DFD .                9.4:   Density
 DFV .                 31:   Viscosity
 DFPH.                  8:   pH
 DFL .                9.6:   Fluid loss
 MSS .           MUD TANK:   Source of sample
 RMS .OHMM          0.202:   Rm
 MST .F                78:   Rm Meas. temp.
 RMF .OHMM          0.191:   Rmf
 MFST.F                76:   Rmf Meas. temp.
 MFSS.               MEAS:   Source Rmf.
 RMC .OHMM           0.30:   Rmc
 MCST.F                78:   Rmc Meas. temp.
 MCSS.               CALC:   Source Rmc.
 RMB .OHMM          0.123:   Rm. at BHT
 BHT .F               128:   BHT.
 TCS .HRS            1400:   Time Circ. stopped
 TLAB.HRS            0300:   Time logger at bottom
 MRT .F               128:   Maximum recorded temp.
 LUN .               5642:   Logging unit number
 LUL .               CSPR:   Logging unit location
 ENGI.                FIX:   Recorded By
 WITN.         HARRINGTON:   Witnessed by
 ORIG.           5" PRINT:   Origin of data
 UWI .     49025103710000:   Unique Well ID
 DICO. A2D TECHNOLOGIES, INC.:   Digitizing Company
~OTHER INFORMATION
~A   DEPT      SPR        LLS        LLD       MSFL       CALD       NPHI         GRD      CORR       RHOB   
# ...
  589.5000   -61.4944    10.3204    10.3776     9.8169     8.4760     0.3102    81.7200     0.0076     2.4937
  590.0000   -61.6225     9.9118    10.1041    12.0947     8.5878     0.3086    86.9366     0.0061     2.4705
  590.5000   -60.9558     9.7191     9.8445    11.4568     8.5887     0.3200    89.6720     0.0108     2.4464
  591.0000   -60.9874     9.5275     9.6550     6.4580     8.6117     0.3299    92.1819     0.0139     2.4398
  591.5000   -61.7319     9.2805     9.4692     5.7477     8.6303     0.3319    95.1428     0.0155     2.4497
  592.0000   -62.7946     9.2244     9.3515    10.4792     8.6330     0.3289    94.2692     0.0126     2.4527
  592.5000   -62.1674     9.1735     9.3642    13.3188     8.6360     0.3300    96.1543     0.0036     2.4370
  593.0000   -61.5547     9.3125     9.3769    10.4648     8.6389     0.3425    91.8453     0.0218     2.4499
  593.5000   -61.6782     9.3233     9.3899     8.4559     8.6419     0.3600    88.0226     0.0453     2.4681
  594.0000   -61.9898     9.3343     9.4055     7.3181     8.6448     0.3732    89.7262     0.0364     2.4749
  594.5000   -62.0073     9.2188     9.4182    11.1014     8.6477     0.3804    90.5778     0.0304     2.4486
  595.0000   -62.0067     8.9772     9.3012    11.2733     8.6507     0.3707    87.9068     0.0328     2.4593
  595.5000   -61.5432     8.7420     9.0591     7.8739     8.6536     0.3550    91.7700     0.0232     2.4627
  596.0000   -61.3873     8.6317     8.8234     6.4529     8.6565     0.3453    89.3174     0.0042     2.4511
  596.5000   -61.5701     8.6416     8.7108     8.3524     8.6595     0.3392    86.6321     0.0066     2.4505
  597.0000   -61.6114     8.6515     8.7255     8.5102     8.6624     0.3368    89.8258     0.0142     2.4582
  597.5000   -61.6706     8.6615     8.7374    11.7020     8.6654     0.3478    89.6278     0.0097     2.4499
  598.0000   -60.5542     8.7924     8.8101     7.4972     8.6683     0.3565    89.6575     0.0279     2.4575
  598.5000   -60.2386     8.9253     8.8868     8.5029     8.6687     0.3583    90.5985     0.0371     2.4689
  599.0000   -60.4430     8.9358     9.0200    10.5486     8.6687     0.3540    92.0662     0.0372     2.4599
  599.5000   -60.9315     8.9483     9.0977     6.5062     8.6687     0.3485    96.2919     0.0426     2.4751
  600.0000   -61.6411     8.8354     9.1100    11.8990     8.6687     0.3428    99.9296     0.0526     2.4963
  600.5000   -62.0020     8.7239     8.9968     8.4525     8.6687     0.3475    97.2514     0.0640     2.5046
  601.0000   -61.9832     8.6138     8.7021     6.8352     8.6687     0.3538    90.7340     0.0226     2.4641
  601.5000   -61.5732     8.4211     8.3590     6.3123     8.6687     0.3607    87.8215     0.0227     2.4626
  602.0000   -62.0680     8.2225     8.2174    13.6336     8.6686     0.3575    92.3658     0.0289     2.4657
  602.5000   -63.7289     8.0240     7.9989     5.9867     8.6687     0.3380    98.7081     0.0199     2.4568
  603.0000   -63.9889     7.8254     7.7805     7.0280     8.6687     0.3352   103.2458     0.0185     2.4501
  603.5000   -63.9850     7.6269     7.5620     9.8780     8.6706     0.3485   105.9790     0.0277     2.4532
  604.0000   -63.7912     7.4471     7.4199     8.3745     8.6745     0.3617   107.6030     0.0399     2.4738
  604.5000   -63.5949     7.5097     7.5874     5.4951     8.6784     0.3623   107.2692     0.0332     2.4805
  605.0000   -63.6571     7.7295     7.7027     6.7713     8.6823     0.3511   102.2304     0.0182     2.4611
  605.5000   -63.8078     7.9558     7.8741     9.3863     8.6862     0.3462    98.4223     0.0138     2.4537
  606.0000   -63.9557     8.2455     8.1053     5.6287     8.6900     0.3564    97.9910     0.0124     2.4507
  606.5000   -64.1030     8.3702     8.2857     5.7531     8.6939     0.3717    98.9263     0.0134     2.4523
  607.0000   -64.1863     8.4967     8.3535    10.8187     8.6978     0.3759    98.7272     0.0208     2.4652
  607.5000   -64.1861     8.5065     8.3637     5.7258     8.7017     0.3659    96.9425     0.0363     2.4789
  608.0000   -64.1852     8.4515     8.3742     9.7050     8.7055     0.3589    98.1034     0.0454     2.4677
  608.5000   -64.0162     8.4088     8.3867     5.9010     8.7085     0.3739   100.8366     0.0365     2.4768
  609.0000   -63.6191     8.4209     8.2813     6.0733     8.7024     0.3606   104.4752     0.0419     2.4912
  609.5000   -63.2257     8.3123     8.2914     4.9724     8.6943     0.3452   104.4510     0.0458     2.5064
  610.0000   -62.8336     8.3242     8.3016     8.5455     8.6860     0.3506   101.5993     0.0315     2.5000
  610.5000   -62.4986     8.3917     8.3695    11.3636     8.6777     0.3542   100.4979     0.0332     2.4915
  611.0000   -62.2490     8.5186     8.4967     5.0246     8.6695     0.3617    99.8477     0.0401     2.5067
  611.5000   -62.0010     8.7074     8.6258     9.7790     8.6612     0.3589    98.7463     0.0338     2.4940
  612.0000   -61.7966     8.9623     8.8177     7.0211     8.6531     0.3452    96.5171     0.0245     2.4790
  612.5000   -61.8220     9.2247     9.0767     9.9958     8.6556     0.3344    93.6112     0.0276     2.4821
  613.0000   -62.1306     9.3641     9.3432     8.7213     8.6691     0.3283    92.0587     0.0225     2.4762
  613.5000   -62.2207     9.3751     9.3546     9.1644     8.6826     0.3274    93.6641     0.0195     2.4590
  614.0000   -61.5701     9.2566     9.2371     7.1996     8.6962     0.3457    92.5628     0.0363     2.4899
  614.5000   -60.4417     9.0167     8.9983     8.5721     8.7097     0.3421    90.5591     0.0508     2.5187
  615.0000   -60.4121     8.9622     8.9443    11.9619     8.7232     0.3453    93.8045     0.0381     2.5233
  615.5000   -61.4172     8.9106     8.8934     8.0138     8.7367     0.3493    95.8066     0.0306     2.4949
  616.0000   -61.8069     8.9234     8.7843    11.1889     8.7503     0.3537    96.7353     0.0229     2.4835
  616.5000   -61.7163     8.9337     8.7951     6.3922     8.7645     0.3593    97.4385     0.0135     2.4814
  617.0000   -60.4411     8.8209     8.6246     6.4436     8.7686     0.3617    98.3672     0.0212     2.4604
  617.5000   -59.5815     8.7702     8.4574     8.9513     8.7646     0.3590   100.4237     0.0349     2.4876
  618.0000   -59.6288     8.5997     8.3512     8.1882     8.6919     0.3469   102.2547     0.0464     2.5028
  618.5000   -60.3678     8.4912     8.2463     7.3736     8.6460     0.3351   103.1834     0.0495     2.5044
  619.0000   -60.4283     8.3841     8.1381     9.8761     8.6522     0.3262    99.1497     0.0330     2.4864
  619.5000   -60.2386     8.2115     8.0405     6.3454     8.6577     0.3238    94.2137     0.0149     2.4662
  620.0000   -59.6979     8.1198     8.0527     9.4673     8.6629     0.3226    98.6018     0.0007     2.4459
  620.5000   -59.6146     8.1291     8.0626     6.9601     8.6681     0.3156   102.6857    -0.0030     2.4430
  621.0000   -59.1656     8.1950     8.1851     9.9880     8.6734     0.3123   103.5412     0.0011     2.4522
  621.5000   -58.4284     8.2615     8.1951    11.7221     8.6786     0.3237   100.4164     0.0071     2.4613
  622.0000   -57.8418     8.3285     8.3196     6.9809     8.6838     0.3302    92.5481     0.0110     2.4667
  622.5000   -57.2030     8.5131     8.4460     9.0947     8.6887     0.3329    90.0933     0.0066     2.4561
  623.0000   -57.2389     8.7018     8.6940    10.8284     8.6889     0.3347    91.0220     0.0090     2.4485
  623.5000   -57.4127     8.8947     8.9493     7.1810     8.6758     0.3431    95.1086     0.0129     2.4436
  624.0000   -58.2838     9.2187     9.1485     9.5570     8.6616     0.3517    96.2563     0.0160     2.4520
  624.5000   -59.2075     9.4283     9.3573    11.0887     8.6474     0.3547    95.1609     0.0131     2.4468
  625.0000   -60.1200     9.5771     9.4946     6.9733     8.6332     0.3493    96.3158     0.0253     2.4552
  625.5000   -60.2254     9.6459     9.5086     6.3865     8.6190     0.3441    97.9429     0.0308     2.4794
