~VERSION INFORMATION
 VERS.                2.0:   CWLS LOG ASCII STANDARD - VERSION 2.0
 WRAP.                 NO:   ONE LINE PER DEPTH STEP
~WELL INFORMATION
#MNEM.UNIT      DATA TYPE    INFORMATION
#----------   ------------   ------------------------------
 STRT.F           89.5000:   START DEPTH
 STOP.F         1300.5000:   STOP DEPTH
 STEP.F            0.5000:   STEP LENGTH
 NULL.          -999.2500:   NO VALUE
 COMP.            US NAVY:   COMPANY
 WELL. US NPR 3 "S" #62-11:   WELL
 FLD .             TEAPOT:   FIELD
 LOC .      S11 T38N R78W:   LOCATION
 CNTY.            NATRONA:   COUNTY
 STAT.            WYOMING:   STATE
 CTRY. UNITED STATES OF AMERICA:   COUNTRY
 SRVC.       SCHLUMBERGER:   SERVICE COMPANY
 DATE.        20-JUL-1964:   LOGDATE
 API .     49025063660000:   API NUMBER
~CURVE INFORMATION
#MNEM.UNIT       API CODE    CURVE DESCRIPTION
#----------   ------------   ------------------------------
 DEPT.F                  :   
 CALS.IN     60 280 50 00:   CALIPER FROM SONIC LOG
 DT  .US/F   60 520 33 00:   DELTA TIME
 SPR .MV     05 010 01 00:   SPONTANEOUS POTENTIAL FROM RES.
 ASN .OHMM   05 041 16 00:   AMPLIFIED SHORT NORMAL 16"
 ILD .OHMM   05 120 46 00:   INDUCTION LOG DEEP
~PARAMETER INFORMATION
#MNEM.UNIT          VALUE    DESCRIPTION
#----------   ------------   ------------------------------
 EKB .F         5223.0000:   Kelly bushing
 EGL .F         5215.0000:   Ground level
 EDF .F            0.0000:   Drilling floor
 TD  .F         1303.0000:   Total depth
 DATE.        20-JUL-1964:   Date logged
 CLNT.            A2DTECH:   Client Code
 PD  .                 GL:   Permanent Datum
 EPD .F              5215:   Elevation Permanent Datum
 LMF .                 KB:   Log Measured From
 DMF .                 KB:   Drilling Measured From
 DAPD.F                 8:   Feet Above Permanent Datum
 DD  .F              1303:   Depth driller
 DL  .F              1300:   Depth logger
 BLI .F              1299:   Bottom log interval
 TLI .F                94:   Top log interval
 CS1 .IN            12.25:   Casing size
 CBD1.       12.25" @ 10':   Casing driller 1
 BS1 .IN               11:   Bit size
 BSD1.F              1303:   Depth drilled with bit1
 DFT .            GEL/OIL:   Type fluid in hole
 DFD .                9.8:   Density
 DFV .                 60:   Viscosity
 DFL .                 10:   Fluid loss
 MSS .           FLOWLINE:   Source of sample
 RMS .OHMM           3.13:   Rm
 MST .F                86:   Rm Meas. temp.
 RMF .OHMM           1.81:   Rmf
 MFST.F                86:   Rmf Meas. temp.
 RMC .OHMM           3.39:   Rmc
 MCST.F                86:   Rmc Meas. temp.
 MFSS.                 FP:   Source Rmf.
 MCSS.                 FP:   Source Rmc.
 TCS .HRS             2.5:   Time Circ. stopped
 LUN .               4507:   Logging unit number
 LUL .               CSPR:   Logging unit location
 ENGI.             DANNER:   Recorded By
 WITN.         JORGENESEN:   Witnessed by
 ORIG.       2", 5" PRINT:   Origin of data
 UWI .     49025063660000:   Unique Well ID
 DICO. A2D TECHNOLOGIES, INC.:   Digitizing Company
~OTHER INFORMATION
~A   DEPT     CALS         DT        SPR        ASN          ILD 
# ...
  150.5000  -999.2500  -999.2500   -51.3580     6.3350     5.5690
  151.0000  -999.2500  -999.2500   -50.5620     6.2950     5.4040
  151.5000  -999.2500  -999.2500   -50.0430     6.2820     5.3090
  152.0000  -999.2500  -999.2500   -49.3220     6.2710     5.3040
  152.5000  -999.2500  -999.2500   -48.6750     6.2600     5.3090
  153.0000  -999.2500  -999.2500   -48.6450     6.2490     5.3050
  153.5000  -999.2500  -999.2500   -48.7200     6.2390     5.3070
  154.0000  -999.2500  -999.2500   -48.7120     6.2350     5.3060
  154.5000  -999.2500  -999.2500   -48.7650     6.2290     5.3060
  155.0000  -999.2500  -999.2500   -48.7790     6.2270     5.3070
  155.5000  -999.2500  -999.2500   -48.8170     6.2190     5.3070
  156.0000  -999.2500  -999.2500   -48.8330     6.1850     5.3070
  156.5000  -999.2500  -999.2500   -48.6420     6.1380     5.3070
  157.0000  -999.2500  -999.2500   -48.4160     6.0930     5.3070
  157.5000  -999.2500  -999.2500   -48.2510     6.0480     5.2930
  158.0000  -999.2500  -999.2500   -48.0120     6.0140     5.2600
  158.5000  -999.2500  -999.2500   -47.8900     5.9970     5.2250
  159.0000  -999.2500  -999.2500   -48.0450     5.9810     5.1920
  159.5000  -999.2500  -999.2500   -48.2430     5.9610     5.1570
  160.0000  -999.2500  -999.2500   -48.3910     5.9480     5.1240
  160.5000  -999.2500  -999.2500   -48.5600     5.9270     5.0890
  161.0000  -999.2500  -999.2500   -48.7360     5.8930     5.0560
  161.5000  -999.2500  -999.2500   -48.8270     5.8430     5.0210
  162.0000  -999.2500  -999.2500   -48.7260     5.7510     4.9870
  162.5000  -999.2500  -999.2500   -48.5880     5.6510     4.9540
  163.0000  -999.2500  -999.2500   -48.5380     5.5370     4.9090
  163.5000  -999.2500  -999.2500   -48.4170     5.4060     4.9120
  164.0000  -999.2500  -999.2500   -48.2990     5.4080     5.0280
  164.5000  -999.2500  -999.2500   -48.3410     5.5390     5.1890
  165.0000  -999.2500  -999.2500   -48.4930     5.6570     5.3460
  165.5000  -999.2500  -999.2500   -48.6120     5.7590     5.5060
  166.0000  -999.2500  -999.2500   -48.5230     5.8700     5.6050
  166.5000  -999.2500  -999.2500   -48.3390     5.9830     5.6060
  167.0000  -999.2500  -999.2500   -48.2170     6.0540     5.5610
  167.5000  -999.2500  -999.2500   -48.0620     6.0380     5.5110
  168.0000  -999.2500  -999.2500   -47.9220     5.9890     5.4640
  168.5000  -999.2500  -999.2500   -47.8700     5.9660     5.4130
  169.0000  -999.2500  -999.2500   -47.8730     5.9710     5.3670
  169.5000  -999.2500  -999.2500   -47.9970     5.9840     5.3190
  170.0000  -999.2500  -999.2500   -48.1830     6.0060     5.2660
  170.5000  -999.2500  -999.2500   -48.3550     5.9990     5.2280
  171.0000  -999.2500  -999.2500   -48.5500     5.9170     5.1640
  171.5000  -999.2500  -999.2500   -48.7100     5.8400     5.1190
  172.0000  -999.2500  -999.2500   -48.8550     5.7640     5.2310
  172.5000  -999.2500  -999.2500   -49.0210     5.7000     5.4410
  173.0000  -999.2500  -999.2500   -49.0440     5.7450     5.6210
  173.5000  -999.2500  -999.2500   -48.9220     5.7680     5.8130
  174.0000  -999.2500  -999.2500   -48.8060     5.8040     6.0170
  174.5000  -999.2500  -999.2500   -48.6960     6.0020     6.1820
  175.0000  -999.2500  -999.2500   -48.5580     6.2170     6.4110
  175.5000  -999.2500  -999.2500   -48.4650     6.3910     6.5780
  176.0000  -999.2500  -999.2500   -48.4430     6.5010     6.4620
  176.5000  -999.2500  -999.2500   -48.3840     6.4740     6.2600
  177.0000  -999.2500  -999.2500   -48.2470     6.4060     6.1080
  177.5000  -999.2500  -999.2500   -48.1070     6.3250     5.9270
  178.0000  -999.2500  -999.2500   -47.9920     6.2020     5.7580
  178.5000  -999.2500  -999.2500   -47.8360     6.0850     5.5870
  179.0000  -999.2500  -999.2500   -47.6880     5.9700     5.4130
  179.5000  -999.2500  -999.2500   -47.6720     5.8470     5.2470
  180.0000  -999.2500  -999.2500   -47.6780     5.7340     5.0630
  180.5000  -999.2500  -999.2500   -47.6820     5.6140     4.9120
  181.0000  -999.2500  -999.2500   -47.7850     5.4940     4.7120
  181.5000  -999.2500  -999.2500   -47.8900     5.4100     4.5270
  182.0000  -999.2500  -999.2500   -47.9690     5.3590     4.5980
  182.5000  -999.2500  -999.2500   -48.0660     5.3730     4.7830
  183.0000  -999.2500  -999.2500   -48.1550     5.4780     4.9020
  183.5000  -999.2500  -999.2500   -48.2420     5.5830     5.0350
  184.0000  -999.2500  -999.2500   -48.3350     5.6680     5.1700
  184.5000  -999.2500  -999.2500   -48.4240     5.7650     5.2940
  185.0000  -999.2500  -999.2500   -48.5120     5.8580     5.4330
  185.5000  -999.2500  -999.2500   -48.6100     5.9500     5.5560
  186.0000  -999.2500  -999.2500   -48.6420     6.0450     5.6930
  186.5000  -999.2500  -999.2500   -48.5310     6.1370     5.8230
  187.0000  -999.2500  -999.2500   -48.3160     6.2320     5.9450
  187.5000  -999.2500  -999.2500   -48.0920     6.3220     6.0980
  188.0000  -999.2500  -999.2500   -47.8990     6.4200     6.1790
  188.5000  -999.2500  -999.2500   -47.6590     6.4960     6.2300
  189.0000  -999.2500  -999.2500   -47.4620     6.4880     6.2740
  189.5000  -999.2500  -999.2500   -47.3030     6.4170     6.1430
  190.0000  -999.2500  -999.2500   -47.0610     6.3300     5.9470
  190.5000  -999.2500  -999.2500   -47.1540     6.2360     5.8090
  191.0000  -999.2500  -999.2500   -47.7430     6.1450     5.6440
  191.5000  -999.2500  -999.2500   -48.4590     6.0540     5.4800
  192.0000  -999.2500  -999.2500   -48.9670     5.9620     5.3310
  192.5000  -999.2500  -999.2500   -48.8900     5.8700     5.1640
  193.0000  -999.2500  -999.2500   -48.5100     5.7800     5.0080
  193.5000  -999.2500  -999.2500   -48.2170     5.6860     4.9130
  194.0000  -999.2500  -999.2500   -47.8510     5.5970     4.9040
  194.5000  -999.2500  -999.2500   -47.6850     5.5490     4.9690
  195.0000  -999.2500  -999.2500   -47.8640     5.5570     5.0850
  195.5000  -999.2500  -999.2500   -48.0760     5.6280     5.2170
  196.0000  -999.2500  -999.2500   -48.2680     5.7490     5.3410
  196.5000  -999.2500  -999.2500   -48.4620     5.8770     5.4620
  197.0000  -999.2500  -999.2500   -48.6800     6.0020     5.5980
  197.5000  -999.2500  -999.2500   -48.8250     6.1250     5.6970
  198.0000  -999.2500  -999.2500   -48.7370     6.2560     5.7100
  198.5000  -999.2500  -999.2500   -48.6050     6.3750     5.6990
  199.0000  -999.2500  -999.2500   -48.5150     6.4200     5.6850
  199.5000  -999.2500  -999.2500   -48.3960     6.3910     5.6620
  200.0000  -999.2500  -999.2500   -48.3030     6.3440     5.6460
  200.5000  -999.2500  -999.2500   -48.1770     6.3150     5.6240
  201.0000  -999.2500  -999.2500   -48.0820     6.2710     5.6090
  201.5000  -999.2500  -999.2500   -48.1250     6.2090     5.6000
  202.0000  -999.2500  -999.2500   -48.2360     6.2130     5.6100
  202.5000  -999.2500  -999.2500   -48.3270     6.2640     5.6900
  203.0000  -999.2500  -999.2500   -48.3830     6.3020     5.7960
  203.5000  -999.2500  -999.2500   -48.4930     6.3470     5.8910
  204.0000  -999.2500  -999.2500   -48.4070     6.3980     5.9910
  204.5000  -999.2500  -999.2500   -48.1070     6.4330     6.0890
  205.0000  -999.2500  -999.2500   -48.1320     6.4840     6.1890
  205.5000  -999.2500  -999.2500   -48.3360     6.5690     6.2870
  206.0000  -999.2500  -999.2500   -48.4530     6.6620     6.3850
  206.5000  -999.2500  -999.2500   -48.6380     6.7480     6.4890
  207.0000  -999.2500  -999.2500   -48.6560     6.8250     6.5780
  207.5000  -999.2500  -999.2500   -48.4570     6.9290     6.6930
  208.0000  -999.2500  -999.2500   -48.3120     7.0020     6.7870
  208.5000  -999.2500  -999.2500   -48.1810     6.9570     6.7560
  209.0000  -999.2500  -999.2500   -48.0060     6.8510     6.6810
  209.5000  -999.2500  -999.2500   -47.8910     6.7840     6.6330
  210.0000  -999.2500  -999.2500   -47.8540     6.8260     6.5970
  210.5000  -999.2500  -999.2500   -47.8840     6.9350     6.5980
  211.0000  -999.2500  -999.2500   -48.0050     7.0010     6.6450
