~VERSION INFORMATION
 VERS.                2.0:   CWLS LOG ASCII STANDARD - VERSION 2.0
 WRAP.                 NO:   ONE LINE PER DEPTH STEP
~WELL INFORMATION
#MNEM.UNIT      DATA TYPE    INFORMATION
#----------   ------------   ------------------------------
 STRT.F          174.0000:   START DEPTH
 STOP.F         3492.0000:   STOP DEPTH
 STEP.F            0.5000:   STEP LENGTH
 NULL.          -999.2500:   NO VALUE
 COMP.    FENIX & SCISSON:   COMPANY
 WELL.   FENIX "AX" #18-3:   WELL
 FLD .        TEAPOT DOME:   FIELD
 LOC .       S3 T38N R78W:   LOCATION
 CNTY.            NATRONA:   COUNTY
 STAT.            WYOMING:   STATE
 CTRY. UNITED STATES OF AMERICA:   COUNTRY
 SRVC.       SCHLUMBERGER:   SERVICE COMPANY
 DATE.        09-FEB-1981:   LOGDATE
 API .     49025108630000:   API NUMBER
~CURVE INFORMATION
#MNEM.UNIT       API CODE    CURVE DESCRIPTION
#----------   ------------   ------------------------------
 DEPT.F                  :   
 CALD.IN     45 280 60 00:   CALIPER FROM DENSITY LOG
 GRD .GAPI   45 310 01 00:   GAMMA RAY FROM DENSITY LOG
 RHOB.G/C3   45 350 01 00:   BULK DENSITY
 DRHO.G/C3   45 356 01 00:   DENSITY CORRECTION
 TENR.LBS    07 635 01 00:   TENSION FROM RESISTIVITY
 SPR .MV     07 010 01 00:   SPONTANEOUS POTENTIAL
 ILM .OHMM   07 120 44 00:   INDUCTION LOG MEDIUM RESISTIVITY
 ILD .OHMM   07 120 46 00:   INDUCTION LOG DEEP RESISTIVITY
 SFLU.OHMM   07 220 01 00:   SPHERICALLY FOCUSED LOG UNAVERAGED RESISTIVITY
~PARAMETER INFORMATION
#MNEM.UNIT          VALUE    DESCRIPTION
#----------   ------------   ------------------------------
 EKB .F         5267.0000:   Kelly bushing
 EGL .F         5257.0000:   Ground level
 EDF .F            0.0000:   Drilling floor
 TD  .F         3472.0000:   Total depth
 DATE.        09-FEB-1981:   Date logged
 CLNT.            A2DTECH:   Client Code
 SL  . 669' FSL & 42' FWL:   Surface Location
 PD  .                 GL:   Permanent Datum
 DD  .F              3401:   Depth driller
 DL  .F              3472:   Depth logger
 BLI .F              3466:   Bottom log interval
 CS1 .IN            8.625:   Casing size
 CBD1.      8.625" @ 200':   Casing driller 1
 CBL1.F               196:   Casing logger 1
 BS1 .IN            7.875:   Bit size
 DFT .            KCL/GEL:   Type fluid in hole
 DFD .                  9:   Density
 DFV .                 60:   Viscosity
 DFPH.                8.5:   pH
 DFL .                 10:   Fluid loss
 MSS .            MUD/PIT:   Source of sample
 RMS .OHMM           1.88:   Rm
 MST .F                75:   Rm Meas. temp.
 RMF .OHMM           1.12:   Rmf
 MFST.F                75:   Rmf Meas. temp.
 MFSS.               MEAS:   Source Rmf.
 RMB .OHMM           1.21:   Rm. at BHT
 BHT .F               120:   BHT.
 TCS .HRS            1800:   Time Circ. stopped
 MRT .F               120:   Maximum recorded temp.
 LUN .               8043:   Logging unit number
 LUL .               CSPR:   Logging unit location
 ENGI.            CONNETT:   Recorded By
 WITN.              SCOTT:   Witnessed by
 ORIG.           5" PRINT:   Origin of data
 UWI .     49025108630000:   Unique Well ID
 DICO. A2D TECHNOLOGIES, INC.:   Digitizing Company
 DAPD.F                10:   Feet Above Permanent Datum
 BSD1.F              3401:   Depth drilled with bit1
 EPD .F              5257:   Elevation Permanent Datum
 LMF .                 KB:   Log Measured From
 DMF .                 KB:   Drilling Measured From
 TLI .F               196:   Top log interval
 TLAB.               0000:   Time logger at bottom
~OTHER INFORMATION
~A   DEPT     CALD         GRD      RHOB       DRHO       TENR        SPR        ILM        ILD       SFLU   
# ...
 1050.0000     9.6020    94.9850     2.5750     0.0820   947.0840   -57.3260    10.3110    10.7880    11.6300
 1050.5000     9.6060    96.2940     2.5760     0.0820   946.3040   -57.3270    10.2650    10.7160    11.4580
 1051.0000     9.6090    97.4860     2.5750     0.0800   945.5240   -57.3270    10.2180    10.6440    11.2860
 1051.5000     9.6120    98.6660     2.5730     0.0730   944.7430   -57.3270    10.1720    10.5720    11.1140
 1052.0000     9.6150    99.8500     2.5660     0.0650   943.9630   -57.3250    10.1260    10.4990    10.9420
 1052.5000     9.6190   101.0680     2.5590     0.0580   943.1830   -57.4260    10.0560    10.4270    10.7780
 1053.0000     9.6220   101.2520     2.5540     0.0580   942.4030   -57.5770     9.9750    10.3550    10.6170
 1053.5000     9.6250   101.1180     2.5670     0.0670   941.6230   -57.7270     9.8940    10.2830    10.4560
 1054.0000     9.6280   100.9660     2.5760     0.0770   940.8430   -57.8780     9.8120    10.2100    10.2980
 1054.5000     9.6320   100.8180     2.5830     0.0810   940.0630   -58.0270     9.7310    10.1380    10.3360
 1055.0000     9.6350    99.9250     2.5680     0.0710   939.2830   -58.1180     9.6500    10.0820    10.3980
 1055.5000     9.6380    98.4080     2.5550     0.0650   938.5030   -58.1180     9.5680    10.0360    10.4590
 1056.0000     9.6410    96.9110     2.5420     0.0560   937.7230   -58.1180     9.4870     9.9900    10.5210
 1056.5000     9.6450    95.4900     2.5300     0.0500   936.9430   -58.0320     9.4060     9.9250    10.5830
 1057.0000     9.6480    96.2970     2.5390     0.0580   936.1630   -57.8870     9.3050     9.9650    10.6450
 1057.5000     9.6510    98.0550     2.5510     0.0670   935.3830   -57.7400     9.4030    10.0360    10.6850
 1058.0000     9.6540    99.7920     2.5630     0.0740   934.6030   -57.5930     9.5340    10.1070    10.6100
 1058.5000     9.6580    99.8410     2.5740     0.0740   933.8230   -57.4830     9.6640    10.1780    10.5460
 1059.0000     9.6610    97.7590     2.5830     0.0710   933.0430   -57.4040     9.7940    10.2490    10.4890
 1059.5000     9.6640    95.6880     2.5840     0.0660   932.2630   -57.3260     9.9250    10.3200    10.6380
 1060.0000     9.6670    93.6620     2.5680     0.0580   931.4820   -57.2480    10.0550    10.3910    10.8000
 1060.5000     9.6710    92.2920     2.5490     0.0520   910.9110   -57.1700    10.1850    10.4620    10.9620
 1061.0000     9.6740    94.4730     2.5280     0.0520   916.7860   -57.1890    10.3160    10.5330    11.1230
 1061.5000     9.6770    96.2080     2.5500     0.0650   922.1720   -57.3110    10.4890    10.6040    11.2850
 1062.0000     9.6800    95.7900     2.5840     0.0790   927.5580   -57.4320    10.4540    10.6750    11.5020
 1062.5000     9.6840    95.4230     2.6310     0.1000   932.9440   -57.5290    10.4010    10.6850    11.4280
 1063.0000     9.6870    95.0150     2.6230     0.1090   938.3300   -57.5850    10.3480    10.7840    11.3140
 1063.5000     9.6900    96.5600     2.6020     0.0960   943.7150   -57.6430    10.2940    10.6850    11.2010
 1064.0000     9.6930    98.4730     2.5860     0.0900   949.1010   -57.7010    10.2410    10.6850    11.0870
 1064.5000     9.6970   100.4190     2.5930     0.0930   954.4870   -57.7220    10.1880    10.5870    10.9740
 1065.0000     9.7000   100.7810     2.6010     0.0970   959.8730   -57.7230    10.1350    10.5540    10.8830
 1065.5000     9.7030   100.0270     2.5900     0.0970   965.2590   -57.7230    10.0820    10.5130    10.9170
 1066.0000     9.7070    98.9460     2.5770     0.0850   970.6450   -57.7230    10.0290    10.4720    10.9720
 1066.5000     9.7070    97.5100     2.5610     0.0730   976.0300   -57.7230     9.9880    10.4320    11.0280
 1067.0000     9.7070    96.0910     2.5360     0.0620   981.4160   -57.7220     9.9120    10.3910    11.0860
 1067.5000     9.7070    94.9450     2.5460     0.0600   986.8020   -57.7250     9.8360    10.3500    11.0110
 1068.0000     9.7070    94.8640     2.5620     0.0710   992.1880   -57.7870     9.7600    10.3090    10.9130
 1068.5000     9.7070    94.7540     2.5780     0.0820   997.5740   -58.0050     9.6830    10.2690    10.8150
 1069.0000     9.7070    94.2400     2.5940     0.0880  1002.9590   -58.2130     9.6070    10.2280    10.7160
 1069.5000     9.7070    93.2290     2.6090     0.0930  1008.3450   -58.2680     9.5310    10.1870    10.6180
 1070.0000     9.7070    92.2260     2.6120     0.0960   999.8890   -58.0920     9.4780    10.1470    10.4890
 1070.5000     9.7070    92.2190     2.5900     0.0910   977.8670   -57.9230     9.5500    10.1100    10.5400
 1071.0000     9.7070    93.4020     2.5880     0.0910   970.6650   -57.7520     9.6050    10.1880    10.6130
 1071.5000     9.7070    94.5770     2.6050     0.0980   970.0340   -57.5750     9.6610    10.2750    10.6860
 1072.0000     9.7070    95.7650     2.6230     0.1080   969.4030   -57.5260     9.7160    10.3630    10.8830
 1072.5000     9.7070    97.5700     2.6400     0.1190   968.7710   -57.5240     9.7710    10.3930    10.8730
 1073.0000     9.7090    99.3460     2.6390     0.1200   968.1400   -57.5250     9.8270    10.3770    10.8510
 1073.5000     9.7110    99.8010     2.6260     0.1100   967.5090   -57.5250     9.8820    10.3400    10.8280
 1074.0000     9.7120    99.1340     2.6000     0.0950   966.8780   -57.5250     9.9250    10.3030    10.8060
 1074.5000     9.7140    99.1100     2.5780     0.0840   966.2470   -57.5230     9.7370    10.2660    10.7840
 1075.0000     9.7150   101.0010     2.5790     0.0850   965.6150   -57.5650     9.5840    10.2290    10.7550
 1075.5000     9.7170   102.8300     2.5850     0.0820   964.9840   -57.6130     9.4300    10.1920    10.7260
 1076.0000     9.7180   104.4920     2.5850     0.0780   964.3530   -57.6620     9.3050    10.1550    10.6980
 1076.5000     9.7200   105.8600     2.5740     0.0700   963.7220   -57.7080     9.3050    10.1180    10.6690
 1077.0000     9.7210   105.6030     2.5660     0.0650   963.0900   -57.8630     9.3910    10.0810    10.6410
 1077.5000     9.7230   103.0090     2.5770     0.0780   962.4590   -58.0430     9.3910    10.0440    10.6120
 1078.0000     9.7240   100.1390     2.5930     0.0930   961.8280   -58.2250     9.3910    10.0070    10.5830
 1078.5000     9.7260    97.2360     2.6090     0.1110   961.1970   -58.4070     9.5660     9.9700    10.5550
 1079.0000     9.7270    97.2940     2.6120     0.1110   960.5660   -58.5870     9.6540     9.9330    10.5260
 1079.5000     9.7290    98.8260     2.6070     0.1020   959.9340   -58.7150     9.5950     9.8960    10.4890
 1080.0000     9.7300    99.0080     2.5930     0.0880   959.3030   -58.7540     9.5510     9.8590    10.4930
 1080.5000     9.7320    98.0590     2.5780     0.0800   958.6720   -58.8110     9.5070     9.8220    10.5080
 1081.0000     9.7330    97.5910     2.5760     0.0830   958.0410   -58.8690     9.4620     9.7860    10.5230
 1081.5000     9.7350    98.2370     2.5830     0.0860   957.4100   -58.9120     9.4180     9.7490    10.5380
 1082.0000     9.7360    97.2460     2.5910     0.0910   956.7780   -58.7750     9.3740     9.7120    10.5520
 1082.5000     9.7380    95.8280     2.5980     0.0910   956.1470   -58.6180     9.3290     9.6750    10.5670
 1083.0000     9.7390    94.4050     2.6050     0.0900   955.5160   -58.4610     9.2850     9.6540    10.5810
 1083.5000     9.7410    93.7980     2.6000     0.0870   954.8850   -58.3040     9.2410     9.6540    10.5860
 1084.0000     9.7420    94.7280     2.5850     0.0820   954.2540   -58.1580     9.1960     9.5660    10.5320
 1084.5000     9.7440    95.1840     2.5560     0.0620   953.6220   -57.7580     9.1520     9.5660    10.4790
 1085.0000     9.7450    94.8170     2.5210     0.0440   952.9910   -57.3400     8.9680     9.5660    10.4260
 1085.5000     9.7470    94.4340     2.5260     0.0430   952.3600   -57.3250     8.9680     9.6150    10.3730
 1086.0000     9.7480    95.3430     2.5370     0.0440   951.7290   -57.3260     8.9680     9.6980    10.2980
