~VERSION INFORMATION
 VERS.                2.0:   CWLS LOG ASCII STANDARD - VERSION 2.0
 WRAP.                 NO:   ONE LINE PER DEPTH STEP
~WELL INFORMATION
#MNEM.UNIT      DATA TYPE    INFORMATION
#----------   ------------   ------------------------------
 STRT.F          450.5000:   START DEPTH
 STOP.F         3173.5000:   STOP DEPTH
 STEP.F            0.5000:   STEP LENGTH
 NULL.          -999.2500:   NO VALUE
 COMP.    FENIX & SCISSON:   COMPANY
 WELL. FENIX & SCISSONNPR #72-TX-33:   WELL
 FLD .              N.P.R:   FIELD
 LOC .      S33 T39N R78W:   LOCATION
 CNTY.            NATRONA:   COUNTY
 STAT.            WYOMING:   STATE
 CTRY. UNITED STATES OF AMERICA:   COUNTRY
 SRVC.       SCHLUMBERGER:   SERVICE COMPANY
 DATE.        03-SEP-1981:   LOGDATE
 API .     49025108810000:   API NUMBER
~CURVE INFORMATION
#MNEM.UNIT       API CODE    CURVE DESCRIPTION
#----------   ------------   ------------------------------
 DEPT.F                  :   
 CALD.IN     45 280 60 00:   CALIPER FROM DENSITY LOG
 GRD .GAPI   45 310 01 00:   GAMMA RAY FROM DENSITY LOG
 DPHI.DEC    45 890 03 00:   
 RHOB.G/C3   45 350 01 00:   BULK DENSITY
 CORR.G/C3   45 356 01 00:   DENSITY CORRECTION
 SPR .MV     07 010 01 00:   SPONTANEOUS POTENTIAL
 SFL .OHMM   07 220 01 00:   SHALLOW FOCUSED LOG RESISTIVITY
 ILD .OHMM   07 120 46 00:   DEEP INDUCTION RESISTIVITY
 ILM .OHMM   07 120 44 00:   INDUCTION LOG MEDIUM RESISTIVITY
 TENR.LBS    07 635 01 00:   TENSION FROM RESISTIVITY
~PARAMETER INFORMATION
#MNEM.UNIT          VALUE    DESCRIPTION
#----------   ------------   ------------------------------
 EKB .F         5115.0000:   Kelly bushing
 EGL .F         5105.0000:   Ground level
 EDF .F            0.0000:   Drilling floor
 TD  .F         3162.0000:   Total depth
 DATE.        03-SEP-1981:   Date logged
 CLNT.            A2DTECH:   Client Code
 CTRY.                USA:   Country
 SL  . 808' FNL & 954' FEL:   Surface Location
 PD  .                 GL:   Permanent Datum
 EPD .F              5105:   Elevation Permanent Datum
 LMF .                 KB:   Log Measured From
 DMF .                 KB:   Drilling Measured From
 DAPD.F                10:   Feet Above Permanent Datum
 DD  .F              3162:   Depth driller
 DL  .F              3162:   Depth logger
 BLI .F              3158:   Bottom log interval
 TLI .F              1612:   Top log interval
 CS1 .IN            9.625:   Casing size
 CBD1.      9.625" @ 480':   Casing driller 1
 BS1 .IN            7.875:   Bit size
 BSD1.F              3162:   Depth drilled with bit1
 DFT .              WATER:   Type fluid in hole
 MSS .               TANK:   Source of sample
 RMS .OHMM            6.3:   Rm
 MST .F                73:   Rm Meas. temp.
 RMF .OHMM            6.3:   Rmf
 MFST.F                73:   Rmf Meas. temp.
 TCS .HRS            2200:   Time Circ. stopped
 TLAB.HRS            0300:   Time logger at bottom
 MRT .F               100:   Maximum recorded temp.
 LUN .               8039:   Logging unit number
 LUL .               CSPR:   Logging unit location
 ENGI.           C. PEARR:   Recorded By
 WITN.           R. SCOTT:   Witnessed by
 ORIG.         2.5" PRINT:   Origin of data
 UWI .     49025108810000:   Unique Well ID
 DICO. A2D TECHNOLOGIES, INC.:   Digitizing Company
~OTHER INFORMATION
~A   DEPT     CALD         GRD      DPHI       RHOB       CORR        SPR        SFL        ILD        ILM       TENR   
# ...
 2259.5000    10.0079   117.4959     0.0661     2.5691     0.0730   -28.0884     5.4356     4.8598     4.3300   503.1817
 2260.0000    10.0086   116.9295     0.0755     2.5418     0.0730   -28.0906     5.3378     4.8597     4.5722   503.1879
 2260.5000    10.0090   115.7737     0.0911     2.5223     0.0477   -28.8776     5.1475     5.0387     4.8277   503.1940
 2261.0000     9.9763   114.0401     0.0918     2.5263     0.0302   -28.4880     5.8433     5.0385     4.9159   503.1983
 2261.5000     9.9728   111.7172     0.0852     2.5361     0.0185   -28.4902     6.8781     5.4171     5.0381   503.2024
 2262.0000     9.9736   106.4819     0.0785     2.5537     0.0166   -28.1017     6.8779     5.4170     5.3193   503.2095
 2262.5000     9.9747   104.7425     0.0719     2.5635     0.0147   -28.1040     9.0258     5.8240     5.3191   503.2149
 2263.0000    10.0144   104.1761     0.0652     2.5714     0.0245   -28.1084     9.0252     5.9303     5.3189   503.2190
 2263.5000    10.0155   104.7713     0.0586     2.5831     0.0265   -28.1084     8.7036     5.9299     5.4160   503.2253
 2264.0000    10.0552   107.7065     0.0542     2.5832     0.0285   -28.5068     7.8062     6.3754     5.5147   503.2294
 2264.5000    10.0175   110.0582     0.0573     2.5754     0.0232   -28.5089     7.5280     6.3752     5.8227   503.2357
 2265.0000    10.0575   111.2369     0.0670     2.5774     0.0207   -28.5101     7.3923     6.3750     5.8224   503.2412
 2265.5000    10.0583   111.2542     0.0807     2.5559     0.0149   -28.5135     7.3920     6.3747     5.9285   503.2460
 2266.0000    10.0594   110.6821     0.0815     2.5482     0.0149   -28.5157     7.6644     6.2597     6.0366   503.2502
 2266.5000    10.0604   108.9484     0.0815     2.5580     0.0206   -28.9118     7.8042     6.1468     6.0363   503.2523
 2267.0000    10.1002   108.9599     0.0752     2.5658     0.0209   -28.5212     7.9464     6.1464     6.0359   503.2606
 2267.5000    10.1010   108.9772     0.0689     2.5659     0.0268   -28.5245     8.0914     6.0357     6.0357   503.2668
 2268.0000    10.1022   108.9887     0.0690     2.5522     0.0171   -28.5276     8.0909     6.0354     6.0354   503.2689
 2268.5000    10.1029   110.1731     0.0809     2.5308     0.0034   -28.5307     8.2386     6.0351     6.0350   503.2772
 2269.0000    10.1037   110.7682     0.0955     2.5113    -0.0024   -28.5323     8.2380     6.0347     5.9261   503.2814
 2269.5000    10.1052   111.3691     0.0978     2.5094    -0.0004   -28.5441     8.3880     6.0343     5.9258   503.2855
 2270.0000    10.1060   111.3863     0.1001     2.5133    -0.0004   -28.5559     8.3877     6.0339     5.8189   503.2938
 2270.5000    10.1068   111.3978     0.0986     2.5388     0.0094   -28.5677     8.3875     5.9252     5.6114   503.2980
 2271.0000    10.1468   110.2478     0.0856     2.5661     0.0153   -28.5795     8.2364     5.9249     5.6111   503.3001
 2271.5000    10.1091   107.9248     0.0727     2.5720     0.0271   -28.5913     8.0881     5.9245     5.5100   520.5081
 2272.0000    10.1487   105.0240     0.0618     2.5760     0.0389   -28.6031     7.7995     5.9242     5.5098   503.3146
 2272.5000    10.1498   104.4519     0.0610     2.5760     0.0291   -28.6149     7.6591     6.0322     5.5094   503.3167
 2273.0000    10.1506   105.6363     0.0610     2.5722     0.0272   -28.6267     7.5210     6.0318     5.5090   503.3246
 2273.5000    10.1518   105.6478     0.0700     2.5644     0.0175   -28.6385     7.7981     6.1418     5.7123   503.3291
 2274.0000    10.1526   107.4159     0.0820     2.5390     0.0116   -28.6503     8.0857     6.2540     5.8164   503.3333
 2274.5000    10.1537   109.1782     0.0836     2.5332     0.0097   -28.6621     8.6932     6.3680     6.0310   503.3404
 2275.0000    10.1545   112.6971     0.0867     2.5411     0.0098   -28.6739     9.0138     6.3677     6.1409   503.3458
 2275.5000    10.1549   113.2980     0.0808     2.5489     0.0196   -28.6857     9.1781     6.3673     6.1406   503.3499
 2276.0000    10.1564   110.3914     0.0749     2.5607     0.0235   -28.6976     9.0129     6.3670     6.2525   503.3563
 2276.5000    10.1575   104.5725     0.0671     2.5607     0.0314   -28.7094     8.6914     6.3666     5.7101   503.3603
 2277.0000    10.1583   102.8332     0.0695     2.5568     0.0334   -28.7212     8.2310     6.3662     5.6072   503.3665
 2277.5000    10.1984   102.2668     0.0757     2.5530     0.0374   -28.7330     7.7948     6.3659     5.6068   503.3725
 2278.0000    10.1995   102.2783     0.0811     2.5452     0.0413   -28.7448     7.6544     6.3656     5.6067   503.3769
 2278.5000    10.1805   100.5447     0.0835     2.5413     0.0316   -28.7566     7.5164     6.3651     5.7089   503.3832
 2279.0000    10.1625    98.8053     0.0835     2.5492     0.0296   -28.7684     7.7936     6.3649     5.7086   503.3885
 2279.5000    10.2022    97.6553     0.0650     2.5707     0.0258   -28.7802     8.6886     6.3644     5.9190   503.3936
 2280.0000    10.1644    97.6668     0.0553     2.5825     0.0200   -28.7920     9.3416     6.3641     5.9186   503.3977
 2280.5000    10.1652    99.4349     0.0629     2.5747     0.0180   -28.8038     9.6861     6.3637     5.9183   503.3998
 2281.0000    10.1663   100.6136     0.0706     2.5591     0.0063   -28.8156     9.3406     6.3634     5.9181   503.4091
 2281.5000    10.1674   102.9653     0.0802     2.5435    -0.0054   -28.8274     9.0076     6.4795     5.9176   503.4144
 2282.0000    10.1684   105.3112     0.0794     2.5475     0.0084   -28.8392     8.3769     6.3626     5.9172   503.4185
 2282.5000    10.1690   108.2465     0.0787     2.5514     0.0182   -28.8510     7.7906     6.3623     5.9170   503.4247
 2283.0000    10.2091   109.4310     0.0740     2.5534     0.0221   -28.8628     7.3777     6.1352     5.8102   503.4289
 2283.5000    10.2102   109.4425     0.0716     2.5554     0.0260   -28.8746     7.3773     6.0246     5.7055   503.4331
 2284.0000    10.2110   110.0433     0.0692     2.5574     0.0280   -28.8864     7.6493     6.0242     5.6025   503.4393
 2284.5000    10.2114   112.3892     0.0692     2.5594     0.0300   -28.8982     7.6489     6.0239     5.5017   503.4455
 2285.0000    10.2518   115.3245     0.0676     2.5633     0.0320   -28.9101     7.5110     5.8355     5.4024   503.4497
 2285.5000    10.2530   115.3360     0.0668     2.5614     0.0301   -28.9219     7.1130     5.7042     5.4022   503.4566
 2286.0000    10.2537   109.5171     0.0723     2.5556     0.0204   -28.9337     7.1126     5.7038     5.3046   503.4622
 2286.5000    10.2938   104.2761     0.0738     2.5654     0.0263   -28.6306     7.1123     5.7035     5.3043   503.4663
 2287.0000    10.2946    99.0408     0.0590     2.5811     0.0479   -29.0227     7.5094     5.7032     5.3039   503.4724
 2287.5000    10.2949    96.7179     0.0504     2.5948     0.0616   -29.0260     7.7864     5.7029     5.3037   503.4767
 2288.0000    10.2968    95.5679     0.0504     2.5909     0.0577   -29.0282     8.0017     5.7028     5.3035   503.4829
 2288.5000    10.2976    97.3302     0.0566     2.5812     0.0538   -29.0315     8.0013     5.4990     5.3031   503.4884
 2289.0000    10.2984   102.5999     0.0644     2.5714     0.0519   -29.0348     7.2403     5.3998     5.2074   503.4933
 2289.5000    10.2995   105.5352     0.0753     2.5676     0.0423   -29.0370     6.8565     5.4982     5.1161   503.4954
 2290.0000    10.3007   106.1303     0.0745     2.5715     0.0383   -29.0413     6.4932     5.3993     5.0213   503.5017
 2290.5000    10.3183   104.9803     0.0690     2.5598     0.0423   -29.0443     6.1490     5.3989     4.9307   503.5079
 2291.0000    10.3359   104.4082     0.0675     2.5658     0.0443   -29.0446     6.1487     5.3016     5.0206   503.5121
 2291.5000    10.3034   104.4254     0.0768     2.5384     0.0462   -29.0479     6.0908     5.0203     4.8414   503.5192
 2292.0000    10.3045   105.0206     0.0853     2.5170     0.0092   -29.0512     6.0906     4.9299     4.8412   503.5245
 2292.5000    10.3053   104.4542     0.0940     2.5151     0.0078   -29.0534     6.0903     4.9296     4.5912   503.5287
