~VERSION INFORMATION
 VERS.                2.0:   CWLS LOG ASCII STANDARD - VERSION 2.0
 WRAP.                 NO:   ONE LINE PER DEPTH STEP
~WELL INFORMATION
#MNEM.UNIT      DATA TYPE    INFORMATION
#----------   ------------   ------------------------------
 STRT.F          466.5000:   START DEPTH
 STOP.F         3184.0000:   STOP DEPTH
 STEP.F            0.5000:   STEP LENGTH
 NULL.          -999.2500:   NO VALUE
 COMP. LAWRENCE ALLISON AND ASSOCIATES:   COMPANY
 WELL. LAWRENCE 66 "X" #3-28:   WELL
 FLD .              N P R:   FIELD
 LOC .      S28 T39N R78W:   LOCATION
 CNTY.            NATRONA:   COUNTY
 STAT.            WYOMING:   STATE
 CTRY. UNITED STATES OF AMERICA:   COUNTRY
 SRVC.      DRESSER ATLAS:   SERVICE COMPANY
 DATE.        16-APR-1986:   LOGDATE
 API .     49025111340000:   API NUMBER
~CURVE INFORMATION
#MNEM.UNIT       API CODE    CURVE DESCRIPTION
#----------   ------------   ------------------------------
 DEPT.F                  :   
 RHOB.G/C3   45 350 01 00:   BULK DENSITY
 CORR.G/C3   45 356 01 00:   DENSITY CORRECTION
 TEND.LBS    45 635 01 00:   TENSION FROM DENSITY LOG
 NPHI.DEC    42 890 03 00:   NEUTRON POROSITY SANDSTONE
 DT  .US/F   60 520 00 00:   DELTA TIME
 TENS.LBS    51 635 01 00:   TENSION
 CALR.IN     07 280 01 00:   CALIPER FROM RESISTIVITY
 SPR .MV     07 010 01 00:   SPONTANEOUS POTENTIAL
 TENR.LBS    07 635 01 00:   TENSION FROM RESISTIVITY
 RFOC.OHMM   07 220 04 00:   RESISTIVITY FOCUSED LOG RES.
 GRR .GAPI   07 310 01 00:   GAMMA RAY FROM RESISTIVITY
 RILD.OHMM   07 120 46 00:   DEEP INDUCTION RESISTIVITY
 RILM.OHMM   07 120 44 00:   INDUCTION LOG MEDIUM RESISTIVITY
~PARAMETER INFORMATION
#MNEM.UNIT          VALUE    DESCRIPTION
#----------   ------------   ------------------------------
 EKB .F         5071.0000:   Kelly bushing
 EGL .F         5059.0000:   Ground level
 TD  .F         3176.0000:   Total depth
 DATE.        16-APR-1986:   Date logged
 CLNT.            A2DTECH:   Client Code
 SL  . 1685' FEL & 1915'FSL:   Surface Location
 PD  .                 GL:   Permanent Datum
 EPD .F              5059:   Elevation Permanent Datum
 LMF .                 KB:   Log Measured From
 DD  .F              3176:   Depth driller
 DL  .F              3176:   Depth logger
 BLI .F              3174:   Bottom log interval
 TLI .F               480:   Top log interval
 CS1 .IN            8.625:   Casing size
 BS1 .IN            7.875:   Bit size
 DFT .        POLYMER KCL:   Type fluid in hole
 DFD .                  9:   Density
 DFV .                 40:   Viscosity
 DFPH.                8.5:   pH
 DFL .               10.2:   Fluid loss
 MSS .           FLOWLINE:   Source of sample
 RMS .OHMM           .226:   Rm
 MST .F                65:   Rm Meas. temp.
 RMF .OHMM           .169:   Rmf
 MFST.F                65:   Rmf Meas. temp.
 RMC .OHMM           .283:   Rmc
 MCST.F                65:   Rmc Meas. temp.
 MFSS.               CALC:   Source Rmf.
 MCSS.               CALC:   Source Rmc.
 RMB .OHMM           .118:   Rm. at BHT
 BHT .F               125:   BHT.
 TCS .HRS               5:   Time Circ. stopped
 MRT .F               125:   Maximum recorded temp.
 LUN .               6264:   Logging unit number
 LUL .           GILLETTE:   Logging unit location
 ENGI.             MILLER:   Recorded By
 WITN.             STRONG:   Witnessed by
 ORIG.           5" PRINT:   Origin of data
 UWI .     49025111340000:   Unique Well ID
 DICO. A2D TECHNOLOGIES, INC.:   Digitizing Company
 DMF .                 KB:   Drilling Measured From
 DAPD.F                12:   Feet Above Permanent Datum
 CBD1.      8.625" @ 475':   Casing driller 1
 CBL1.F               480:   Casing logger 1
 BSD1.F              3176:   Depth drilled with bit1
~OTHER INFORMATION
~A   DEPT     RHOB       CORR       TEND       NPHI         DT       TENS       CALR        SPR       TENR       RFOC         GRR      RILD       RILM   
# ...
 1194.5000  -999.2500  -999.2500  -999.2500  -999.2500  -999.2500  -999.2500    11.0370   -72.7060   -72.1860     8.6370    85.5590     9.6510     9.8880
 1195.0000  -999.2500  -999.2500  -999.2500  -999.2500  -999.2500  -999.2500    11.0400   -73.3580   -65.0000     8.6900    84.5550     9.6360     9.7950
 1195.5000  -999.2500  -999.2500  -999.2500  -999.2500  -999.2500  -999.2500    11.0430   -74.1970   -76.4320     8.5840    83.5110     9.6210     9.7170
 1196.0000  -999.2500  -999.2500  -999.2500  -999.2500  -999.2500  -999.2500    11.0470   -75.0260   -87.4420     8.5090    82.4160     9.4280     9.6400
 1196.5000  -999.2500  -999.2500  -999.2500  -999.2500  -999.2500  -999.2500    11.0500   -75.8520   -98.4530     8.4350    82.9070     9.1000     9.5630
 1197.0000  -999.2500  -999.2500  -999.2500  -999.2500  -999.2500  -999.2500    11.0630   -76.5780  -119.1330     8.3450    83.8620     9.1250     9.4860
 1197.5000  -999.2500  -999.2500  -999.2500  -999.2500  -999.2500  -999.2500    11.0760   -76.8920  -154.0000     8.2010    84.0550     9.1560     9.4090
 1198.0000  -999.2500  -999.2500  -999.2500  -999.2500  -999.2500  -999.2500    11.0890   -77.2250  -175.0000     8.0590    83.7970     9.1840     9.2550
 1198.5000  -999.2500  -999.2500  -999.2500  -999.2500  -999.2500  -999.2500    11.1020   -77.3010  -126.9000     7.9260    86.6710     9.0470     9.1310
 1199.0000  -999.2500  -999.2500  -999.2500  -999.2500  -999.2500  -999.2500    11.1150   -77.3070   -75.0000     7.9260    90.0970     8.9240     9.0070
 1199.5000  -999.2500  -999.2500  -999.2500  -999.2500  -999.2500  -999.2500    11.1290   -77.0880   -68.8890     7.9260    90.9230     8.8010     8.8830
 1200.0000  -999.2500  -999.2500  -999.2500  -999.2500  -999.2500  -999.2500    11.1110   -76.8280   -84.9040     7.9260    90.3950     8.6900     8.7590
 1200.5000  -999.2500  -999.2500  -999.2500  -999.2500  -999.2500  -999.2500    11.0880   -76.5680  -100.9190     7.9090    89.8980     8.3950     8.6350
 1201.0000  -999.2500  -999.2500  -999.2500  -999.2500  -999.2500  -999.2500    11.0650   -76.3080   -72.8330     7.7810    89.4250     8.2030     8.5320
 1201.5000  -999.2500  -999.2500  -999.2500  -999.2500  -999.2500  -999.2500    11.0420   -76.0660   -47.0000     7.6520    89.6590     8.1480     8.7100
 1202.0000  -999.2500  -999.2500  -999.2500  -999.2500  -999.2500  -999.2500    11.0200   -75.9080   -33.3680     7.5240    89.7320     8.3870     8.8640
 1202.5000  -999.2500  -999.2500  -999.2500  -999.2500  -999.2500  -999.2500    10.9970   -75.7470   -19.7370     7.4310    87.9850     8.6250     9.0170
 1203.0000  -999.2500  -999.2500  -999.2500  -999.2500  -999.2500  -999.2500    10.9630   -75.5480    -5.0000     7.6350    86.2100     8.8620     9.1700
 1203.5000  -999.2500  -999.2500  -999.2500  -999.2500  -999.2500  -999.2500    10.9240   -75.2400    -5.0000     7.8280    85.4420     9.1000     9.3230
 1204.0000  -999.2500  -999.2500  -999.2500  -999.2500  -999.2500  -999.2500    10.8850   -74.9340   -19.5500     8.0490    87.1590     9.3370     9.4770
 1204.5000  -999.2500  -999.2500  -999.2500  -999.2500  -999.2500  -999.2500    10.8470   -74.6280   -58.4000     8.2230    91.7070     9.5750     9.6300
 1205.0000  -999.2500  -999.2500  -999.2500  -999.2500  -999.2500  -999.2500    10.8090   -74.3190   -97.2500     8.1790    92.1300     9.8120     9.7830
 1205.5000  -999.2500  -999.2500  -999.2500  -999.2500  -999.2500  -999.2500    10.7780   -73.9010  -136.1000     8.1480    89.5320    10.0500     9.9360
 1206.0000  -999.2500  -999.2500  -999.2500  -999.2500  -999.2500  -999.2500    10.7480   -73.0730  -136.7120     8.5510    86.7140    10.2570    10.0700
 1206.5000  -999.2500  -999.2500  -999.2500  -999.2500  -999.2500  -999.2500    10.7180   -72.2490  -101.1000     8.7710    88.1420    10.2390    10.0520
 1207.0000  -999.2500  -999.2500  -999.2500  -999.2500  -999.2500  -999.2500    10.6870   -72.4040   -65.4870     8.7530    89.9340    10.2200    10.0330
 1207.5000  -999.2500  -999.2500  -999.2500  -999.2500  -999.2500  -999.2500    10.6650   -72.8040   -60.4000     8.7240    86.8370    10.2000    10.0140
 1208.0000  -999.2500  -999.2500  -999.2500  -999.2500  -999.2500  -999.2500    10.6550   -73.4430   -96.6600     8.6940    82.7390    10.1810     9.9950
 1208.5000  -999.2500  -999.2500  -999.2500  -999.2500  -999.2500  -999.2500    10.6440   -74.9690  -132.9200     8.4150    79.5690    10.1530     9.9680
 1209.0000  -999.2500  -999.2500  -999.2500  -999.2500  -999.2500  -999.2500    10.6330   -76.4340  -169.1800     8.1480    83.0310    10.0640     9.8800
 1209.5000  -999.2500  -999.2500  -999.2500  -999.2500  -999.2500  -999.2500    10.6230   -76.9000  -166.3750     8.3370    87.1000     9.9740     9.7920
 1210.0000  -999.2500  -999.2500  -999.2500  -999.2500  -999.2500  -999.2500    10.6120   -77.1160  -117.8120     8.5320    90.8330     9.8860     9.7060
 1210.5000  -999.2500  -999.2500  -999.2500  -999.2500  -999.2500  -999.2500    10.6100   -77.3290   -69.2500     8.3740    88.7710     9.7590     9.5810
 1211.0000  -999.2500  -999.2500  -999.2500  -999.2500  -999.2500  -999.2500    10.6100   -77.5450   -25.0000     8.1480    86.5040     9.6340     9.4580
 1211.5000  -999.2500  -999.2500  -999.2500  -999.2500  -999.2500  -999.2500    10.6100   -77.7570   -56.7250     8.1210    84.7830     9.5080     9.3350
 1212.0000  -999.2500  -999.2500  -999.2500  -999.2500  -999.2500  -999.2500    10.6250   -77.8200   -85.8630     8.0970    83.8170     9.3830     9.2120
 1212.5000  -999.2500  -999.2500  -999.2500  -999.2500  -999.2500  -999.2500    10.6460   -77.5730  -115.0000     8.0730    83.1310     9.2140     9.0460
 1213.0000  -999.2500  -999.2500  -999.2500  -999.2500  -999.2500  -999.2500    10.6670   -77.3320   -86.2220     8.1480    83.3900     9.0330     8.8680
 1213.5000  -999.2500  -999.2500  -999.2500  -999.2500  -999.2500  -999.2500    10.6870   -77.0900   -71.8000     8.0290    87.4170     8.9340     8.7710
 1214.0000  -999.2500  -999.2500  -999.2500  -999.2500  -999.2500  -999.2500    10.7080   -76.8480   -97.7000     7.8880    89.6670     8.9520     8.7890
 1214.5000  -999.2500  -999.2500  -999.2500  -999.2500  -999.2500  -999.2500    10.7290   -76.6080  -106.4000     7.7270    87.1480     8.9640     8.8010
 1215.0000  -999.2500  -999.2500  -999.2500  -999.2500  -999.2500  -999.2500    10.7430   -76.1720   -80.7140     7.4990    84.2240     8.9770     8.8130
 1215.5000  -999.2500  -999.2500  -999.2500  -999.2500  -999.2500  -999.2500    10.7570   -75.5870   -56.0480     7.6090    81.5430     8.9900     8.8260
 1216.0000  -999.2500  -999.2500  -999.2500  -999.2500  -999.2500  -999.2500    10.7710   -75.0000   -31.3810     7.7930    84.9110     9.0020     8.8380
 1216.5000  -999.2500  -999.2500  -999.2500  -999.2500  -999.2500  -999.2500    10.7850   -74.4140    -6.7140     7.9520    89.4570     9.0150     8.8520
 1217.0000  -999.2500  -999.2500  -999.2500  -999.2500  -999.2500  -999.2500    10.7980   -73.8400    17.9520     8.0470    93.9750     8.9970     8.8030
 1217.5000  -999.2500  -999.2500  -999.2500  -999.2500  -999.2500  -999.2500    10.8130   -73.4840   -13.0000     8.0730    92.3230     8.9750     8.7490
 1218.0000  -999.2500  -999.2500  -999.2500  -999.2500  -999.2500  -999.2500    10.8330   -73.1160   -68.1110     7.9640    90.6160     8.9530     8.6950
 1218.5000  -999.2500  -999.2500  -999.2500  -999.2500  -999.2500  -999.2500    10.8520   -72.9690  -125.6670     7.8700    89.2230     8.9310     8.6400
 1219.0000  -999.2500  -999.2500  -999.2500  -999.2500  -999.2500  -999.2500    10.8720   -73.2820  -108.9600     7.7760    88.5010     8.9090     8.5860
 1219.5000  -999.2500  -999.2500  -999.2500  -999.2500  -999.2500  -999.2500    10.8910   -74.1120   -77.8800     7.7100    90.0180     8.8880     8.5320
 1220.0000  -999.2500  -999.2500  -999.2500  -999.2500  -999.2500  -999.2500    10.9110   -75.2170   -45.0000     7.7100    91.9960     8.8660     8.4530
