~VERSION INFORMATION
 VERS.                2.0:   CWLS LOG ASCII STANDARD - VERSION 2.0
 WRAP.                 NO:   ONE LINE PER DEPTH STEP
~WELL INFORMATION
#MNEM.UNIT      DATA TYPE    INFORMATION
#----------   ------------   ------------------------------
 STRT.F           58.0000:   START DEPTH
 STOP.F         5662.0000:   STOP DEPTH
 STEP.F            0.5000:   STEP LENGTH
 NULL.          -999.2500:   NO VALUE
 COMP. DEPARTMENT OF ENERGY:   COMPANY
 WELL. DEPARTMENT NPR 3 67 "X" #1-10:   WELL
 FLD .              NPR 3:   FIELD
 LOC .      S10 T38N R78W:   LOCATION
 CNTY.            NATRONA:   COUNTY
 STAT.            WYOMING:   STATE
 CTRY. UNITED STATES OF AMERICA:   COUNTRY
 SRVC.       SCHLUMBERGER:   SERVICE COMPANY
 DATE.        05-FEB-2002:   LOGDATE
 API .     49025230400000:   API NUMBER
~CURVE INFORMATION
#MNEM.UNIT       API CODE    CURVE DESCRIPTION
#----------   ------------   ------------------------------
 DEPT.F                  :   
 TEND.LBS    45 635 01 00:   TENSION FROM DENSITY LOG
 PEFZ.B/E    45 358 01 00:   HILT PHOTOELECTRIC FACTOR
 HDRA.G/C3   45 356 01 00:   DELTA RHO HIP TOOL
 NPHI.DEC    42 890 03 00:   NEUTRON POROSITY SANDSTONE
 TENS.LBS    60 635 01 00:   TENSION
 DT  .US/F   60 520 00 00:   DELTA TIME
 TENR.LBS    07 635 01 00:   TENSION FROM RESISTIVITY
 CALR.IN     07 280 01 00:   CALIPER FROM RESISTIVITY
 GRR .GAPI   07 310 01 00:   GAMMA RAY FROM RESISTIVITY
 RXOZ.OHMM   11 270 04 00:   STD. RES. INVADED ZONE RESISTIVITY
 HLLD.OHMM   11 220 10 00:   LATEROLOG DEEP RES.
 HLLS.OHMM   11 220 09 00:   LATEROLOG SHALLOW RES.
 HRLD.OHMM   11 120 46 00:   HIGH RESOULATION DEEP RESISTIVITY
 RHOZ.G/C3   45 350 01 00:   HILT BULK DENSITY
~PARAMETER INFORMATION
#MNEM.UNIT          VALUE    DESCRIPTION
#----------   ------------   ------------------------------
 EKB .F         5205.7000:   Kelly bushing
 EGL .F         5195.7000:   Ground level
 EDF .F            0.0000:   Drilling floor
 EPD .F         5195.7000:   Permanent datum
 TD  .F         5654.0000:   Total depth
 DATE.        05-FEB-2002:   Date logged
 CLNT.            A2DTECH:   Client Code
 SL  . 1503' FEL & 721' FSL:   Surface Location
 PD  .                 GL:   Permanent Datum
 DAPD.F                10:   Feet Above Permanent Datum
 DD  .F              5650:   Depth driller
 DL  .F              5654:   Depth logger
 BLI .F              5646:   Bottom log interval
 TLI .F               499:   Top log interval
 CS1 .IN            9.625:   Casing size
 CBD1.      9.625" @ 505':   Casing driller 1
 CBL1.F               499:   Casing logger 1
 BS1 .IN            8.875:   Bit size
 BSD1.F              5650:   Depth drilled with bit1
 DFT .           GEL/CHEM:   Type fluid in hole
 DFD .                9.2:   Density
 DFV .                 52:   Viscosity
 DFPH.                8.5:   pH
 DFL .                6.8:   Fluid loss
 MSS .           FLOWLINE:   Source of sample
 RMS .OHMM           .954:   Rm
 MST .F                57:   Rm Meas. temp.
 RMF .OHMM           .734:   Rmf
 MFST.F                57:   Rmf Meas. temp.
 MFSS.              PRESS:   Source Rmf.
 RMB .OHMM           .403:   Rm. at BHT
 BHT .F               143:   BHT.
 TLAB.HRS            1208:   Time logger at bottom
 MRT .F               143:   Maximum recorded temp.
 LUN .               2211:   Logging unit number
 LUL .             CASPER:   Logging unit location
 ENGI.           R. SROUR:   Recorded By
 WITN.        M. MILLIKEN:   Witnessed by
 ORIG.           5" PRINT:   Origin of data
 UWI .     49025230400000:   Unique Well ID
 DICO. A2D TECHNOLOGIES, INC.:   Digitizing Company
 RMC .               1.24:   Rmc
 MCST.                 57:   Rmc Meas. temp.
 MCSS.              PRESS:   Source Rmc.
 TCS .                200:   Time Circ. stopped
~OTHER INFORMATION
~A   DEPT     TEND       PEFZ       HDRA       NPHI       TENS         DT       TENR       CALR         GRR      RXOZ       HLLD       HLLS       HRLD       RHOZ   
# ...
 5619.5000  2636.8159     4.1920     0.0190     0.0280  2097.4150    70.1110  2597.1140     8.5430  -999.2500  1319.1530  2977.2849  1975.0380  2542.8589     2.7900
 5620.0000  2612.8450     4.3750     0.0270     0.0240  2097.9709    68.6460  2601.3230     8.5380  -999.2500  1263.2440  6285.9409  5912.0088  5622.0298     2.7950
 5620.5000  2590.3660     4.4380     0.0260     0.0230  2098.5259    66.7160  2605.5310     8.5340  -999.2500  1109.2850  7363.2192  5604.9082  6719.6372     2.7940
 5621.0000  2567.8879     4.4280     0.0170     0.0220  2099.0820    66.5430  2609.7400     8.5300  -999.2500   879.8000  6632.9702  5189.3218  7296.1802     2.7790
 5621.5000  2545.4089     4.3820     0.0120     0.0240  2098.4561    65.3860  2611.7180     8.5260  -999.2500   949.0650  6021.1499  4773.7349  6720.3672     2.7730
 5622.0000  2542.2710     4.2990     0.0160     0.0360  2094.1550    62.3740  2611.7180     8.5210  -999.2500   933.6540  6021.1499  4094.3721  5760.7808     2.7720
 5622.5000  2553.5750     4.0780     0.0270     0.0740  2089.8550    59.4530  2615.2319     8.5170  -999.2500  1011.8160  4847.3008  1712.1250  4790.4312     2.7700
 5623.0000  2564.8779     3.8600     0.0360  -999.2500  2085.5549    57.8030  2619.0359     8.5130  -999.2500   119.4760  1787.2990   990.0470  1787.7040     2.7610
 5623.5000  2576.1819     3.6430     0.0320  -999.2500  2081.2549    56.2020  2622.8401     8.5080  -999.2500    55.8550   553.2690   323.2870  1261.0740     2.7110
 5624.0000  2587.4851     3.5170     0.0280  -999.2500  2082.2500    54.6000  2626.6440     8.5010  -999.2500    20.9080   322.8230   171.7650   734.4440     2.6630
 5624.5000  2598.7891     3.5260     0.0260  -999.2500  2086.5500    52.9990  2630.4480     8.4750  -999.2500    14.5860    87.2350    60.6190   207.8140     2.6210
 5625.0000  2610.0920     3.5290     0.0280  -999.2500  2090.8501    52.0560  2626.6140     8.4240  -999.2500    11.6980    53.2990    47.2520    45.7640     2.5800
 5625.5000  2593.3960     3.4270     0.0310  -999.2500  2095.1499    51.2730  2619.5491     8.4250  -999.2500     9.8200    43.9180    39.3860    38.6390     2.5570
 5626.0000  2574.8511     3.3210     0.0260  -999.2500  2099.4509    50.7020  2612.4839     8.4460  -999.2500     8.0290  1750.5649  -999.2500  -999.2500     2.5350
 5626.5000  2556.3059     3.2280     0.0200  -999.2500  2103.7510    50.1990  2615.2451     8.4770  -999.2500     7.0370  -999.2500  -999.2500  -999.2500     2.5120
 5627.0000  2537.3130     3.2140     0.0170  -999.2500  2108.0510    49.9380  2619.2019     8.4960  -999.2500     6.9220  -999.2500  -999.2500  -999.2500     2.5110
 5627.5000  2565.7009     3.1980     0.0160  -999.2500  2112.3511    49.6600  2623.1580     8.5080  -999.2500     8.4040  -999.2500  -999.2500  -999.2500     2.5150
 5628.0000  2594.7910     3.1700     0.0140  -999.2500  2116.6521    49.3820  2627.1140     8.5180  -999.2500     9.1080  -999.2500  -999.2500  -999.2500     2.5130
 5628.5000  2623.8811     3.1400     0.0040  -999.2500  2118.7781    49.2040  2631.0710     8.5270  -999.2500    10.1650  -999.2500  -999.2500  -999.2500     2.5090
 5629.0000  2624.0801     3.1260     0.0030  -999.2500  2117.0430    49.2040  -999.2500     8.5360  -999.2500     9.5490  -999.2500  -999.2500  -999.2500     2.5070
 5629.5000  2588.1140     3.2070     0.0060  -999.2500  2115.3081    49.3280  -999.2500     8.5440  -999.2500     8.7810  -999.2500  -999.2500  -999.2500     2.5050
 5630.0000  2552.1479     3.2880     0.0160  -999.2500  2113.5720    49.5020  -999.2500     8.5060  -999.2500     9.8360  -999.2500  -999.2500  -999.2500     2.5150
 5630.5000  2516.1831     3.3710     0.0310  -999.2500  2111.8369    49.4210  -999.2500     8.4640  -999.2500    11.4290  -999.2500  -999.2500  -999.2500     2.5470
 5631.0000  2477.6121     3.5110     0.0390  -999.2500  2110.1021    49.3030  -999.2500     8.4480  -999.2500    14.4840  -999.2500  -999.2500  -999.2500     2.5820
 5631.5000  2515.3879     3.6700     0.0420  -999.2500  2108.3669    49.9150  -999.2500     8.4520  -999.2500    18.4200  -999.2500  -999.2500  -999.2500     2.6050
 5632.0000  2556.1140     3.8110     0.0380  -999.2500  2106.6321    50.5740  -999.2500     8.4680  -999.2500    17.8120  -999.2500  -999.2500  -999.2500     2.6290
 5632.5000  2596.8391     3.8210     0.0480  -999.2500  2104.8970    51.0650  -999.2500     8.5880  -999.2500    16.5050  -999.2500  -999.2500  -999.2500     2.6500
 5633.0000  2605.5181     3.8290     0.0610  -999.2500  2103.1609    51.3940  -999.2500     9.3190  -999.2500    16.5050  -999.2500  -999.2500  -999.2500     2.6750
 5633.5000  2583.0391     3.8000     0.0660  -999.2500  2101.4260    52.2780  -999.2500     8.3410  -999.2500    20.8650  -999.2500  -999.2500  -999.2500     2.6780
 5634.0000  2560.5610     3.7220     0.0590  -999.2500  2099.6909    53.3980  -999.2500     9.5890  -999.2500    21.5900  -999.2500  -999.2500  -999.2500  -999.2500
 5634.5000  2538.0820     3.5320     0.0860  -999.2500  2102.8501    54.5170  -999.2500     8.4530  -999.2500  -999.2500  -999.2500  -999.2500  -999.2500  -999.2500
 5635.0000  2517.4131     3.3470     0.0920  -999.2500  2114.4861    55.6360  -999.2500     8.9280  -999.2500  -999.2500  -999.2500  -999.2500  -999.2500  -999.2500
 5635.5000  2550.0249     3.1620  -999.2500  -999.2500  2126.1221    56.5790  -999.2500     8.7630  -999.2500  -999.2500  -999.2500  -999.2500  -999.2500  -999.2500
 5636.0000  2587.1140     2.9700  -999.2500  -999.2500  2137.7581    57.4970  -999.2500     8.5420  -999.2500  -999.2500  -999.2500  -999.2500  -999.2500  -999.2500
 5636.5000  2624.2041  -999.2500  -999.2500  -999.2500  2123.9800    58.3580  -999.2500     8.5460  -999.2500  -999.2500  -999.2500  -999.2500  -999.2500  -999.2500
 5637.0000  2636.8159  -999.2500  -999.2500  -999.2500  2101.2009    59.0590  -999.2500  -999.2500  -999.2500  -999.2500  -999.2500  -999.2500  -999.2500  -999.2500
 5637.5000  2581.6750  -999.2500  -999.2500  -999.2500  2107.7939    59.2540  -999.2500  -999.2500  -999.2500  -999.2500  -999.2500  -999.2500  -999.2500  -999.2500
 5638.0000  2540.4641  -999.2500  -999.2500  -999.2500  2114.3879    59.2020  -999.2500  -999.2500  -999.2500  -999.2500  -999.2500  -999.2500  -999.2500  -999.2500
 5638.5000  2528.1770  -999.2500  -999.2500  -999.2500  2120.8831    59.1540  -999.2500  -999.2500  -999.2500  -999.2500  -999.2500  -999.2500  -999.2500  -999.2500
 5639.0000  2573.1340  -999.2500  -999.2500  -999.2500  2127.0649    58.1410  -999.2500  -999.2500  -999.2500  -999.2500  -999.2500  -999.2500  -999.2500  -999.2500
 5639.5000  2616.9150  -999.2500  -999.2500  -999.2500  2133.2461    55.9320  -999.2500  -999.2500  -999.2500  -999.2500  -999.2500  -999.2500  -999.2500  -999.2500
 5640.0000  2608.6899  -999.2500  -999.2500  -999.2500  2139.4280    53.7230  -999.2500  -999.2500  -999.2500  -999.2500  -999.2500  -999.2500  -999.2500  -999.2500
 5640.5000  2595.5020  -999.2500  -999.2500  -999.2500  2145.6089    51.9190  -999.2500  -999.2500  -999.2500  -999.2500  -999.2500  -999.2500  -999.2500  -999.2500
 5641.0000  2582.3149  -999.2500  -999.2500  -999.2500  2151.7910    51.5920  -999.2500  -999.2500  -999.2500  -999.2500  -999.2500  -999.2500  -999.2500  -999.2500
 5641.5000  2569.1279  -999.2500  -999.2500  -999.2500  2157.9729    52.4650  -999.2500  -999.2500  -999.2500  -999.2500  -999.2500  -999.2500  -999.2500  -999.2500
 5642.0000  2555.9399  -999.2500  -999.2500  -999.2500  2138.6069    53.5780  -999.2500  -999.2500  -999.2500  -999.2500  -999.2500  -999.2500  -999.2500  -999.2500
 5642.5000  2542.7529  -999.2500  -999.2500  -999.2500  2135.0750    54.6670  -999.2500  -999.2500  -999.2500  -999.2500  -999.2500  -999.2500  -999.2500  -999.2500
 5643.0000  2537.3130  -999.2500  -999.2500  -999.2500  2131.5420    55.6720  -999.2500  -999.2500  -999.2500  -999.2500  -999.2500  -999.2500  -999.2500  -999.2500
 5643.5000  2536.0139  -999.2500  -999.2500  -999.2500  2128.0100    55.7530  -999.2500  -999.2500  -999.2500  -999.2500  -999.2500  -999.2500  -999.2500  -999.2500
