~VERSION INFORMATION
 VERS.                2.0:   CWLS LOG ASCII STANDARD - VERSION 2.0
 WRAP.                 NO:   ONE LINE PER DEPTH STEP
~WELL INFORMATION
#MNEM.UNIT      DATA TYPE    INFORMATION
#----------   ------------   ------------------------------
 STRT.F            6.0000:   START DEPTH
 STOP.F         3190.0000:   STOP DEPTH
 STEP.F            0.5000:   STEP LENGTH
 NULL.          -999.2500:   NO VALUE
 COMP. LAWRENCE ALLISON & ASSOCIATES:   COMPANY
 WELL. LAWRENCE N. P. R. 73AX #3-3:   WELL
 FLD .              N P R:   FIELD
 LOC .       S3 T38N R78W:   LOCATION
 CNTY.            NATRONA:   COUNTY
 STAT.            WYOMING:   STATE
 CTRY. UNITED STATES OF AMERICA:   COUNTRY
 SRVC.      DRESSER ATLAS:   SERVICE COMPANY
 DATE.        04-JUN-1986:   LOGDATE
 API .     49025110910000:   API NUMBER
~CURVE INFORMATION
#MNEM.UNIT       API CODE    CURVE DESCRIPTION
#----------   ------------   ------------------------------
 DEPT.F                  :   
 CALD.IN     45 280 60 00:   CALIPER FROM DENSITY LOG
 DEN .LBS    45 635 01 00:   BUCK DENSITY
 CORR.G/C3   45 356 01 00:   DENSITY CORRECTION
 TEND.LBS    45 635 01 00:   TENSION FROM DENSITY LOG
 SPR .MV     07 010 01 00:   SPONTANEOUS POTENTIAL
 GRR .GAPI   07 310 01 00:   GAMMA RAY FROM RESISTIVITY
 SFLU.OHMM   07 220 01 00:   SPHERICALLY FOCUSED LOG UNAVERAGED RESISTIVITY
 ILD .OHMM   07 120 46 00:   DEEP INDUCTION RESISTIVITY
 ILM .OHMM   07 120 44 00:   INDUCTION LOG MEDIUM RESISTIVITY
 TENR.LBS    07 635 01 00:   TENSION FROM RESISTIVITY
 CNC .DEC    42 890 01 00:   NEUTRON PORISITY LIMESTONE
~PARAMETER INFORMATION
#MNEM.UNIT          VALUE    DESCRIPTION
#----------   ------------   ------------------------------
 EKB .F         5173.0000:   Kelly bushing
 EGL .F         5161.0000:   Ground level
 TD  .F         3170.0000:   Total depth
 DATE.        04-JUN-1986:   Date logged
 CLNT.            A2DTECH:   Client Code
 PD  .                 GL:   Permanent Datum
 EPD .F              5161:   Elevation Permanent Datum
 LMF .                 KB:   Log Measured From
 DMF .                 KB:   Drilling Measured From
 DAPD.F                12:   Feet Above Permanent Datum
 DD  .F              3170:   Depth driller
 DL  .F              3168:   Depth logger
 BLI .F               8.9:   Bottom log interval
 TLI .F                38:   Top log interval
 CS1 .IN            8.625:   Casing size
 CBD1.      8.625" @ 603':   Casing driller 1
 CBL1.F               602:   Casing logger 1
 BS1 .IN            7.875:   Bit size
 BSD1.F              3170:   Depth drilled with bit1
 DFT .        KCL/POLYMER:   Type fluid in hole
 DFD .                8.9:   Density
 DFV .                 38:   Viscosity
 DFPH.                9.0:   pH
 DFL .               13.2:   Fluid loss
 MSS .           FLOWLINE:   Source of sample
 RMS .OHMM           .446:   Rm
 MST .F                64:   Rm Meas. temp.
 RMF .OHMM           .361:   Rmf
 MFST.F                64:   Rmf Meas. temp.
 RMC .OHMM            .56:   Rmc
 MCST.F                64:   Rmc Meas. temp.
 MFSS.               MEAS:   Source Rmf.
 MCSS.               CALC:   Source Rmc.
 RMB .OHMM           .242:   Rm. at BHT
 BHT .F               118:   BHT.
 TCS .HRS               3:   Time Circ. stopped
 MRT .F               118:   Maximum recorded temp.
 LUN .               6274:   Logging unit number
 LUL .           GILLETTE:   Logging unit location
 WITN.             STRONG:   Witnessed by
 ORIG.           5" PRINT:   Origin of data
 UWI .     49025110910000:   Unique Well ID
 DICO. A2D TECHNOLOGIES, INC.:   Digitizing Company
~OTHER INFORMATION
~A    DEPT    CALD        DEN       CORR       TEND        SPR         GRR      SFLU        ILD        ILM       TENR        CNC   
# ...
 2964.5000     8.9261     2.5066    -0.0109   -74.2135   -45.6768   112.7743     6.5099     5.5609     5.8231   -58.4580     0.2371
 2965.0000     8.9263     2.5057    -0.0128   -74.4094   -45.7204   115.1988     6.3309     5.5605     5.8227   -68.5294     0.2459
 2965.5000     8.9266     2.4996    -0.0209   -64.5254   -45.7640   118.8346     6.0439     5.7170     5.8766   -58.4538     0.2447
 2966.0000     8.9268     2.4956    -0.0229   -64.7603   -45.8076   120.0476     5.8236     5.7699     5.8763   -68.5254     0.2358
 2966.5000     8.9271     2.4956    -0.0143   -64.9560   -45.8512   118.8379     5.8775     5.9322     5.9306   -58.4495     0.2242
 2967.0000     8.9273     2.4976    -0.0027   -65.1518   -45.8948   114.8019     6.1559     5.9871     5.9855   -58.4474     0.2197
 2967.5000     8.9275     2.5117     0.0034   -65.3476   -45.9385   109.9586     6.5682     6.0425     6.1539   -58.4445     0.2250
 2968.0000     8.9278     2.5309     0.0256   -75.6240   -45.9821   107.1342     7.1392     6.0984     6.1536   -58.4432     0.2242
 2968.5000     8.9684     2.5340     0.0257   -75.8200   -46.0257   106.7323     7.2052     6.0418     6.2105   -62.3095     0.2185
 2969.0000     8.9686     2.5310     0.0176   -76.0159   -46.0693   108.3491     7.0725     6.0414     6.2102   -66.1758     0.2242
 2969.5000     8.9689     2.5269     0.0076   -76.2119   -46.1129   109.9662     6.7518     5.9854     6.1525   -70.0420     0.2334
 2970.0000     8.9691     2.5209     0.0016   -46.1640   -46.1565   114.4088     6.3862     5.9298     6.0954   -73.9083     0.2310
 2970.5000     8.9693     2.5159     0.0016   -76.6038   -46.2001   116.8328     5.8747     5.7668     5.9831   -78.5812     0.2294
 2971.0000     8.9695     2.5139     0.0016   -76.7997   -46.2253   116.4308     5.7665     5.6606     5.7650   -68.5053     0.2290
 2971.5000     8.9697     2.5099     0.0057   -66.9140   -46.2251   114.8177     5.8199     5.2072     5.3526   -48.3532     0.2294
 2972.0000     8.9700     2.5048     0.0118   -67.1098   -46.0944   114.4157     5.8737     4.3307     4.1915   -58.4259     0.2318
 2972.5000     8.9702     2.5018     0.0118   -57.2236   -46.0206   116.8395     5.9281     3.6018     3.4826   -58.4238     0.2398
 2973.0000     8.9704     2.4927     0.0118   -67.5406   -45.4142   122.8964     5.6593     2.9955     2.8935   -48.3466     0.2499
 2973.5000     8.9706     2.4635     0.0078   -67.7365   -45.0097   138.6405     5.0164     2.5263     2.4336   -48.3443     0.2753
 2974.0000     8.9510     2.4282    -0.0163   -37.7239   -44.2015   164.8788     3.6215     2.4798     2.0787   -88.6439     0.3322
 2974.5000     8.9511     2.1701    -0.0526   -58.2108   -43.3933   181.0253     2.5260     2.3238     2.0785   -48.3399     0.3374
 2975.0000     9.2944     2.0058    -0.0405   -58.4068   -43.1913   170.1276     2.1818     2.4339     2.5251   -58.4133     0.2950
 2975.5000     9.6580     1.9997    -0.0545   -58.6028   -42.4493   153.7407     1.8982     2.5257     3.1834   -48.3355     0.2829
 2976.0000     9.0934     2.0028    -0.0827   -58.6326   -42.1795   137.3539     2.3279     2.7966     3.6922   -48.3333     0.2636
 2976.5000     8.8512     2.3456    -0.1170   -58.8283   -42.5826   120.9670     4.6068     3.0398     4.2823   -58.4069     0.2229
 2977.0000     8.8514     2.4253    -0.0262   -59.0240   -43.1871   102.7290     7.5398     3.5584     4.8305   -48.3288     0.2185
 2977.5000     8.8920     2.4898     0.0000   -59.2198   -43.3880    98.2911     7.9706     4.4037     5.2505   -48.3266     0.2116
 2978.0000     8.8922     2.5040     0.0000   -49.3318   -43.5890    98.2931     7.8237     5.4500     5.8680   -38.2483     0.2072
 2978.5000     8.9328     2.5211     0.0001   -59.6113   -43.7899    99.5059     7.5385     6.8077     6.7431   -38.2460     0.2056
 2979.0000     8.9130     2.5242     0.0082   -59.7679   -43.9908   100.3150     7.2638     7.1967     7.3295   -38.2437     0.2092
 2979.5000     8.9133     2.5201     0.0183   -60.0028   -44.3136   101.1242     7.1298     6.8703     7.3973   -48.3178     0.2205
 2980.0000     8.9134     2.5171     0.0304   -70.3221   -44.3926   102.1763     6.7437     6.4382     6.8047   -18.0859     0.2257
 2980.5000     8.9136     2.5192     0.0244   -70.5180   -44.5934   103.2285     6.5584     6.2035     6.4362   -58.3900     0.2245
 2981.0000     8.9138     2.5212    -0.0038   -60.6293   -44.7943   104.2806     6.4375     6.1461     6.2593   -58.3879     0.2213
 2981.5000     8.9113     2.5192    -0.0118   -60.8251   -44.7934   105.1674     6.3189     6.0326     6.0872   -58.3854     0.2217
 2982.0000     8.9087     2.5152    -0.0118   -61.0209   -44.9943   105.5713     6.2602     5.8127     5.9750   -68.4603     0.2257
 2982.5000     8.9062     2.5132     0.0003   -71.3018   -45.3969   107.9083     6.1448     5.6007     5.8108   -68.4582     0.2241
 2983.0000     8.9036     2.5122     0.0024   -71.4977   -45.3961   110.2454     6.0316     5.3965     5.6510   -68.4563     0.2208
 2983.5000     8.9010     2.5122     0.0004   -71.6937   -45.3952   112.0344     5.8117     5.0571     5.2467   -68.4543     0.2224
 2984.0000     8.8985     2.5092     0.0065   -61.8041   -45.3942   114.4574     5.4969     4.6090     4.4623   -68.4522     0.2285
 2984.5000     8.8955     2.5031     0.0126   -72.0856   -45.3932   120.1078     5.3955     4.0477     3.9162   -58.3727     0.2325
 2985.0000     8.8957     2.4991     0.0146   -72.2816   -45.3922   126.9687     5.2472     3.3314     3.2198   -48.2930     0.2397
 2985.5000     8.8960     2.4880     0.0147   -62.3915   -45.3912   134.2321     4.9630     2.7931     2.6970   -48.2908     0.2603
 2986.0000     8.8962     2.4699     0.0107   -62.5874   -45.1887   143.9163     4.5233     2.4988     2.3848   -48.2886     0.3004
 2986.5000     8.8964     2.4487     0.0047   -62.7832   -44.6947   164.4933     3.5925     2.3855     2.1735   -48.2864     0.3668
 2987.0000     8.8967     2.3549     0.0007   -62.9790   -44.2006   176.5972     2.8532     2.3853     2.1533   -48.2842     0.3869
 2987.5000     8.9373     2.1994     0.0148   -63.2141   -43.7065   178.6148     2.1340     2.4298     2.3844   -48.2819     0.3479
 2988.0000     9.2605     2.0261     0.1137   -63.4099   -43.2125   168.5297     2.0753     2.5214     2.7656   -48.2798     0.2985
 2988.5000     8.7767     2.0271     0.1177   -63.6058   -42.7636   145.9392     3.0917     2.6655     3.1197   -48.2775     0.2683
 2989.0000     8.6555     2.1404     0.0169   -63.8017   -43.2356   128.9971     3.7562     2.8706     4.3155   -48.2753     0.2582
 2989.5000     8.5752     2.2537    -0.0597   -63.9976   -43.7076   118.1069     5.8616     3.1493     4.5200   -48.2731     0.2413
 2990.0000     8.5754     2.5053    -0.0395   -64.1935   -44.1796   112.8645     7.0558     3.7907     4.8228   -48.2709     0.2445
 2990.5000     8.5757     2.5224     0.0009   -64.3893   -44.6516   115.2865     6.8616     4.4376     5.1460   -48.2687     0.2466
 2991.0000     8.5558     2.5285     0.0090   -34.3222   -45.1795   115.6916     6.7352     5.3913     5.5419   -28.1089     0.2461
 2991.5000     8.5762     2.5295     0.0130   -24.4298   -44.9769   116.5000     6.5500     5.9699     6.0240    -7.9486     0.2449
 2992.0000     8.5764     2.5275     0.0171   -14.5371   -44.7750   116.9051     6.4293     6.0813     6.3095   -38.1826     0.2453
 2992.5000     8.5767     2.5235     0.0191   -44.9967   -44.7734   119.3268     6.3696     6.0810     6.3092   -28.1011     0.2465
 2993.0000     8.5770     2.5144     0.0131   -45.1923   -44.7725   121.3451     6.2522     6.0806     6.3675   -28.0978     0.2562
 2993.5000     8.5772     2.5094     0.0091   -45.3879   -44.7716   121.7500     6.3101     6.1369     6.3672   -28.0963     0.2594
 2994.0000     8.5774     2.5134     0.0152   -45.5836   -44.7707   121.3483     6.3097     6.1366     6.4261   -28.0949     0.2594
 2994.5000     8.5776     2.5145     0.0213   -45.8183   -45.1731   120.5436     6.4873     6.1934     6.4258   -28.0910     0.2473
