~VERSION INFORMATION
 VERS.                2.0:   CWLS LOG ASCII STANDARD - VERSION 2.0
 WRAP.                 NO:   ONE LINE PER DEPTH STEP
~WELL INFORMATION
#MNEM.UNIT      DATA TYPE    INFORMATION
#----------   ------------   ------------------------------
 STRT.F            0.0000:   START DEPTH
 STOP.F         2775.5000:   STOP DEPTH
 STEP.F            0.5000:   STEP LENGTH
 NULL.          -999.2500:   NO VALUE
 COMP.          U.S. NAVY:   COMPANY
 WELL.   U.S. "A" #107-29:   WELL
 FLD .        TEAPOT DOME:   FIELD
 LOC .      S29 T39N R78W:   LOCATION
 CNTY.            NATRONA:   COUNTY
 STAT.            WYOMING:   STATE
 CTRY. UNITED STATES OF AMERICA:   COUNTRY
 SRVC.         MCCULLOUGH:   SERVICE COMPANY
 DATE.        07-SEP-1966:   LOGDATE
 API .     49025095920000:   API NUMBER
~CURVE INFORMATION
#MNEM.UNIT       API CODE    CURVE DESCRIPTION
#----------   ------------   ------------------------------
 DEPT.F                  :   
 GR  .GAPI   30 310 01 00:   GAMMA RAY
 CALI.IN     70 280 01 00:   CALIPER
~PARAMETER INFORMATION
#MNEM.UNIT          VALUE    DESCRIPTION
#----------   ------------   ------------------------------
 EKB .F            0.0000:   Kelly bushing
 EGL .F            0.0000:   Ground level
 EDF .F            0.0000:   Drilling floor
 EPD .F            0.0000:   Permanent datum
 TD  .F         2777.5000:   Total depth
 DATE.        07-SEP-1966:   Date logged
 CLNT.            A2DTECH:   Client Code
 PD  .                 GL:   Permanent Datum
 LMF .                 GL:   Log Measured From
 DMF .                 GL:   Drilling Measured From
 DL  .F            2777.5:   Depth logger
 BLI .F              2776:   Bottom log interval
 TLI .F              2200:   Top log interval
 CS1 .IN                5:   Casing size
 CBD1.         5" @ 2722':   Casing driller 1
 DFT .              WATER:   Type fluid in hole
 RMB .OHMM           .053:   Rm. at BHT
 TCS .HRS             1.5:   Time Circ. stopped
 LUN .               1460:   Logging unit number
 ENGI.        FITZSIMMONS:   Recorded By
 WITN.             TUTTLE:   Witnessed by
 ORIG.           5" PRINT:   Origin of data
 UWI .     49025095920000:   Unique Well ID
 DICO. A2D TECHNOLOGIES, INC.:   Digitizing Company
~OTHER INFORMATION
~A    DEPT      GR         CALI 
# ...
 1944.0000  -999.2500     6.6420
 1944.5000  -999.2500     6.6410
 1945.0000  -999.2500     6.6400
 1945.5000  -999.2500     6.6390
 1946.0000  -999.2500     6.6370
 1946.5000  -999.2500     6.6410
 1947.0000  -999.2500     6.6440
 1947.5000  -999.2500     6.6470
 1948.0000  -999.2500     6.6510
 1948.5000  -999.2500     6.6540
 1949.0000  -999.2500     6.6580
 1949.5000  -999.2500     6.6610
 1950.0000  -999.2500     6.6640
 1950.5000  -999.2500     6.6680
 1951.0000  -999.2500     6.6710
 1951.5000  -999.2500     6.6750
 1952.0000  -999.2500     6.6780
 1952.5000  -999.2500     6.6810
 1953.0000  -999.2500     6.6850
 1953.5000  -999.2500     6.6860
 1954.0000  -999.2500     6.6850
 1954.5000  -999.2500     6.6840
 1955.0000  -999.2500     6.6820
 1955.5000  -999.2500     6.6810
 1956.0000  -999.2500     6.6800
 1956.5000  -999.2500     6.6790
 1957.0000  -999.2500     6.6770
 1957.5000  -999.2500     6.6760
 1958.0000  -999.2500     6.6750
 1958.5000  -999.2500     6.6740
 1959.0000  -999.2500     6.6720
 1959.5000  -999.2500     6.6710
 1960.0000  -999.2500     6.6700
 1960.5000  -999.2500     6.6690
 1961.0000  -999.2500     6.6670
 1961.5000  -999.2500     6.6660
 1962.0000  -999.2500     6.6650
 1962.5000  -999.2500     6.6640
 1963.0000  -999.2500     6.6620
 1963.5000  -999.2500     6.6610
 1964.0000  -999.2500     6.6600
 1964.5000  -999.2500     6.6590
 1965.0000  -999.2500     6.6570
 1965.5000  -999.2500     6.6560
 1966.0000  -999.2500     6.6550
 1966.5000  -999.2500     6.6540
 1967.0000  -999.2500     6.6520
 1967.5000  -999.2500     6.6510
 1968.0000  -999.2500     6.6500
 1968.5000  -999.2500     6.6490
 1969.0000  -999.2500     6.6470
 1969.5000  -999.2500     6.6480
 1970.0000  -999.2500     6.6490
 1970.5000  -999.2500     6.6490
 1971.0000  -999.2500     6.6500
 1971.5000  -999.2500     6.6510
 1972.0000  -999.2500     6.6520
 1972.5000  -999.2500     6.6530
 1973.0000  -999.2500     6.6530
 1973.5000  -999.2500     6.6540
 1974.0000  -999.2500     6.6550
 1974.5000  -999.2500     6.6560
 1975.0000  -999.2500     6.6570
 1975.5000  -999.2500     6.6560
 1976.0000  -999.2500     6.6510
 1976.5000  -999.2500     6.6460
 1977.0000  -999.2500     6.6410
 1977.5000  -999.2500     6.6370
 1978.0000  -999.2500     6.6370
 1978.5000  -999.2500     6.6370
 1979.0000  -999.2500     6.6370
 1979.5000  -999.2500     6.6370
 1980.0000  -999.2500     6.6370
 1980.5000  -999.2500     6.6370
 1981.0000  -999.2500     6.6370
 1981.5000  -999.2500     6.6370
 1982.0000  -999.2500     6.6370
 1982.5000  -999.2500     6.6370
 1983.0000  -999.2500     6.6370
 1983.5000  -999.2500     6.6370
 1984.0000  -999.2500     6.6370
 1984.5000  -999.2500     6.6370
 1985.0000  -999.2500     6.6370
 1985.5000  -999.2500     6.6370
 1986.0000  -999.2500     6.6370
 1986.5000  -999.2500     6.6380
 1987.0000  -999.2500     6.6630
 1987.5000  -999.2500     6.6710
 1988.0000  -999.2500     6.6590
 1988.5000  -999.2500     6.6480
 1989.0000  -999.2500     6.6380
 1989.5000  -999.2500     6.6430
 1990.0000  -999.2500     6.6490
 1990.5000  -999.2500     6.6540
 1991.0000  -999.2500     6.6600
 1991.5000  -999.2500     6.6660
 1992.0000  -999.2500     6.6710
 1992.5000  -999.2500     6.6770
 1993.0000  -999.2500     6.6820
 1993.5000  -999.2500     6.6870
 1994.0000  -999.2500     6.6850
 1994.5000  -999.2500     6.6830
 1995.0000  -999.2500     6.6810
 1995.5000  -999.2500     6.6800
 1996.0000  -999.2500     6.6780
 1996.5000  -999.2500     6.6760
 1997.0000  -999.2500     6.6720
 1997.5000  -999.2500     6.6690
 1998.0000  -999.2500     6.6660
 1998.5000  -999.2500     6.6630
 1999.0000  -999.2500     6.6590
 1999.5000  -999.2500     6.6580
 2000.0000  -999.2500     6.6620
 2000.5000  -999.2500     6.6730
 2001.0000  -999.2500     6.6940
 2001.5000  -999.2500     6.6930
 2002.0000  -999.2500     6.6910
 2002.5000  -999.2500     6.6890
 2003.0000  -999.2500     6.6870
 2003.5000  -999.2500     6.6960
 2004.0000  -999.2500     6.7010
 2004.5000  -999.2500     6.6850
 2005.0000  -999.2500     6.6820
 2005.5000  -999.2500     6.6780
 2006.0000  -999.2500     6.6980
 2006.5000  -999.2500     6.7010
 2007.0000  -999.2500     6.6970
 2007.5000  -999.2500     6.6970
 2008.0000  -999.2500     6.6970
 2008.5000  -999.2500     6.6920
 2009.0000  -999.2500     6.6830
 2009.5000  -999.2500     6.6730
 2010.0000  -999.2500     6.6580
 2010.5000  -999.2500     6.6350
 2011.0000  -999.2500     6.6120
 2011.5000  -999.2500     6.6070
 2012.0000  -999.2500     6.6070
 2012.5000  -999.2500     6.6060
 2013.0000  -999.2500     6.6060
 2013.5000  -999.2500     6.6060
 2014.0000  -999.2500     6.6050
 2014.5000  -999.2500     6.6050
 2015.0000  -999.2500     6.6040
 2015.5000  -999.2500     6.6040
 2016.0000  -999.2500     6.6030
 2016.5000  -999.2500     6.6030
 2017.0000  -999.2500     6.6020
 2017.5000  -999.2500     6.6020
 2018.0000  -999.2500     6.6010
 2018.5000  -999.2500     6.6010
 2019.0000  -999.2500     6.6010
 2019.5000  -999.2500     6.6000
 2020.0000  -999.2500     6.6000
 2020.5000  -999.2500     6.5990
 2021.0000  -999.2500     6.5990
 2021.5000  -999.2500     6.5980
 2022.0000  -999.2500     6.5980
 2022.5000  -999.2500     6.5960
 2023.0000  -999.2500     6.5940
 2023.5000  -999.2500     6.5920
 2024.0000  -999.2500     6.5900
 2024.5000  -999.2500     6.5880
 2025.0000  -999.2500     6.5920
 2025.5000  -999.2500     6.5950
 2026.0000  -999.2500     6.5980
 2026.5000  -999.2500     6.5970
 2027.0000  -999.2500     6.5970
 2027.5000  -999.2500     6.5960
 2028.0000  -999.2500     6.5950
 2028.5000  -999.2500     6.5950
 2029.0000  -999.2500     6.5940
 2029.5000  -999.2500     6.5940
 2030.0000  -999.2500     6.5930
 2030.5000  -999.2500     6.5930
 2031.0000  -999.2500     6.5920
 2031.5000  -999.2500     6.5920
 2032.0000  -999.2500     6.5910
 2032.5000  -999.2500     6.5910
 2033.0000  -999.2500     6.5900
 2033.5000  -999.2500     6.5900
 2034.0000  -999.2500     6.5890
 2034.5000  -999.2500     6.5880
 2035.0000  -999.2500     6.5880
 2035.5000  -999.2500     6.5870
 2036.0000  -999.2500     6.5870
 2036.5000  -999.2500     6.5860
 2037.0000  -999.2500     6.5860
 2037.5000  -999.2500     6.5850
 2038.0000  -999.2500     6.5850
 2038.5000  -999.2500     6.5840
 2039.0000  -999.2500     6.5840
 2039.5000  -999.2500     6.5830
 2040.0000  -999.2500     6.5820
 2040.5000  -999.2500     6.5820
 2041.0000  -999.2500     6.5810
 2041.5000  -999.2500     6.5810
 2042.0000  -999.2500     6.5800
 2042.5000  -999.2500     6.5800
 2043.0000  -999.2500     6.5790
 2043.5000  -999.2500     6.5790
 2044.0000  -999.2500     6.5780
 2044.5000  -999.2500     6.5860
 2045.0000  -999.2500     6.5950
 2045.5000  -999.2500     6.6040
 2046.0000  -999.2500     6.6070
 2046.5000  -999.2500     6.6060
 2047.0000  -999.2500     6.6050
 2047.5000  -999.2500     6.6040
 2048.0000  -999.2500     6.6030
 2048.5000  -999.2500     6.6020
 2049.0000  -999.2500     6.6010
 2049.5000  -999.2500     6.6000
 2050.0000  -999.2500     6.5990
 2050.5000  -999.2500     6.5980
 2051.0000  -999.2500     6.5970
 2051.5000  -999.2500     6.5950
 2052.0000  -999.2500     6.5940
 2052.5000  -999.2500     6.5930
 2053.0000  -999.2500     6.5920
 2053.5000  -999.2500     6.5910
 2054.0000  -999.2500     6.5900
 2054.5000  -999.2500     6.5890
 2055.0000  -999.2500     6.5880
 2055.5000  -999.2500     6.5870
 2056.0000  -999.2500     6.5860
 2056.5000  -999.2500     6.5850
 2057.0000  -999.2500     6.5840
 2057.5000  -999.2500     6.5830
 2058.0000  -999.2500     6.5820
 2058.5000  -999.2500     6.5810
 2059.0000  -999.2500     6.5800
 2059.5000  -999.2500     6.5790
 2060.0000  -999.2500     6.5810
 2060.5000  -999.2500     6.5850
 2061.0000  -999.2500     6.5900
 2061.5000  -999.2500     6.5940
 2062.0000  -999.2500     6.6010
 2062.5000  -999.2500     6.6230
 2063.0000  -999.2500     6.6440
 2063.5000  -999.2500     6.6660
 2064.0000  -999.2500     6.6720
 2064.5000  -999.2500     6.6760
 2065.0000  -999.2500     6.6650
