~VERSION INFORMATION
 VERS.                2.0:   CWLS LOG ASCII STANDARD - VERSION 2.0
 WRAP.                 NO:   ONE LINE PER DEPTH STEP
~WELL INFORMATION
#MNEM.UNIT      DATA TYPE    INFORMATION
#----------   ------------   ------------------------------
 STRT.F            9.5000:   START DEPTH
 STOP.F         3154.0000:   STOP DEPTH
 STEP.F            0.5000:   STEP LENGTH
 NULL.          -999.2500:   NO VALUE
 COMP. LAWRENCE ALISON AND ASSOCIATES:   COMPANY
 WELL. LAWRENCE "X" #86-3:   WELL
 FLD .          N.P.R. #3:   FIELD
 LOC .       S3 T38N R78W:   LOCATION
 CNTY.            NATRONA:   COUNTY
 STAT.            WYOMING:   STATE
 CTRY. UNITED STATES OF AMERICA:   COUNTRY
 SRVC.       DRESSER ALAS:   SERVICE COMPANY
 DATE.        13-JUN-1986:   LOGDATE
 API .     49025110920000:   API NUMBER
~CURVE INFORMATION
#MNEM.UNIT       API CODE    CURVE DESCRIPTION
#----------   ------------   ------------------------------
 DEPT.F                  :   
 CALD.IN     45 280 60 00:   CALIPER FROM DENSITY LOG
 RHOB.G/C3   45 350 01 00:   BULK DENSITY
 CORR.G/C3   45 356 01 00:   DENSITY CORRECTION
 CNC .DEC    42 890 03 00:   NEUTRON PORISITY LIMESTONE
 SPR .MV     07 010 01 00:   SPONTANEOUS POTENTIAL
 GRR .GAPI   07 310 01 00:   GAMMA RAY FROM RESISTIVITY
 RFOC.OHMM   07 220 04 00:   RESISTIVITY FOCUSED LOG RES.
 ILD .OHMM   07 120 46 00:   DEEP INDUCTION RESISTIVITY
 ILM .OHMM   07 120 44 00:   INDUCTION LOG MEDIUM RESISTIVITY
 TENR.LBS    07 635 01 00:   TENSION FROM RESISTIVITY
~PARAMETER INFORMATION
#MNEM.UNIT          VALUE    DESCRIPTION
#----------   ------------   ------------------------------
 EKB .F         5153.0000:   Kelly bushing
 EGL .F         5142.0000:   Ground level
 EDF .F         5151.0000:   Drilling floor
 TD  .F         3151.0000:   Total depth
 DATE.        13-JUN-1986:   Date logged
 CLNT.            A2DTECH:   Client Code
 SL  . 1450' FSL & 144' FEL:   Surface Location
 PD  .                 GL:   Permanent Datum
 EPD .F              5142:   Elevation Permanent Datum
 LMF .                 KB:   Log Measured From
 DMF .                 KB:   Drilling Measured From
 DAPD.F                11:   Feet Above Permanent Datum
 DD  .F              3151:   Depth driller
 DL  .F              3151:   Depth logger
 BLI .F              3146:   Bottom log interval
 TLI .F                11:   Top log interval
 CS1 .IN            8.625:   Casing size
 CBD1.      8.625" @ 584':   Casing driller 1
 CBL1.F               592:   Casing logger 1
 BS1 .IN            7.875:   Bit size
 BSD1.F              3151:   Depth drilled with bit1
 DFT .            KCL-GEL:   Type fluid in hole
 DFD .                8.8:   Density
 DFV .                 35:   Viscosity
 DFPH.                8.5:   pH
 DFL .               15.5:   Fluid loss
 MSS .           FLOWLINE:   Source of sample
 RMS .OHMM           0.49:   Rm
 MST .F                80:   Rm Meas. temp.
 RMF .OHMM           0.38:   Rmf
 MFST.F                80:   Rmf Meas. temp.
 RMC .OHMM           0.61:   Rmc
 MCST.F                80:   Rmc Meas. temp.
 MFSS.               MEAS:   Source Rmf.
 MCSS.               CALC:   Source Rmc.
 RMB .OHMM           0.37:   Rm. at BHT
 BHT .F               112:   BHT.
 TCS .HRS            0.37:   Time Circ. stopped
 MRT .F               112:   Maximum recorded temp.
 LUN .            HL-6274:   Logging unit number
 LUL .           GILLETTE:   Logging unit location
 WITN.             STRONG:   Witnessed by
 ORIG.           5" PRINT:   Origin of data
 UWI .     49025110920000:   Unique Well ID
 DICO. A2D TECHNOLOGIES, INC.:   Digitizing Company
~OTHER INFORMATION
~A    DEPT    CALD       RHOB       CORR        CNC        SPR        GRR       RFOC        ILD        ILM       TENR   
# ...
 1282.5000  -999.2500  -999.2500  -999.2500  -999.2500  -112.8436    92.4673     8.1170     8.5297     7.3556   -53.2976
 1283.0000  -999.2500  -999.2500  -999.2500  -999.2500  -112.4425    92.0527     8.0414     8.6882     7.5907   -53.1733
 1283.5000  -999.2500  -999.2500  -999.2500  -999.2500  -112.0421    88.8088     8.1906     8.8494     7.7330   -53.0488
 1284.0000  -999.2500  -999.2500  -999.2500  -999.2500  -111.8431    85.5646     8.6568     9.0975     7.7727   -52.9244
 1284.5000  -999.2500  -999.2500  -999.2500  -999.2500  -111.8462    80.2990     8.8993     9.2666     7.4201   -52.8000
 1285.0000  -999.2500  -999.2500  -999.2500  -999.2500  -112.0514    80.2880     8.8983     9.1802     7.3512   -52.6756
 1285.5000  -999.2500  -999.2500  -999.2500  -999.2500  -112.2566    83.9153     8.4955     9.0948     7.3504   -72.6766
 1286.0000  -999.2500  -999.2500  -999.2500  -999.2500  -112.0598    86.7344     8.0359     9.0095     7.4869   -73.0259
 1286.5000  -999.2500  -999.2500  -999.2500  -999.2500  -112.0616    89.5538     7.8879     9.0085     7.5562   -73.3752
 1287.0000  -999.2500  -999.2500  -999.2500  -999.2500  -113.0746    91.9692     7.9601     8.9245     7.5548   -73.7244
 1287.5000  -999.2500  -999.2500  -999.2500  -999.2500  -113.0778    94.7891     8.0329     8.8416     7.5539   -74.0737
 1288.0000  -999.2500  -999.2500  -999.2500  -999.2500  -113.0809    96.2026     8.2575     8.8402     7.6942   -74.4229
 1288.5000  -999.2500  -999.2500  -999.2500  -999.2500  -112.8819    93.9597     8.2572     8.8392     7.8372   -74.7722
 1289.0000  -999.2500  -999.2500  -999.2500  -999.2500  -112.6828    93.9494     8.1049     8.8386     7.8363   -75.1215
 1289.5000  -999.2500  -999.2500  -999.2500  -999.2500  -112.6860    91.9169     8.1040     9.0860     7.6915   -75.4707
 1290.0000  -999.2500  -999.2500  -999.2500  -999.2500  -112.4869    86.8576     8.4865     9.0205     7.6201   -75.8200
 1290.5000  -999.2500  -999.2500  -999.2500  -999.2500  -112.2877    85.2227     8.7242     8.9389     7.5490   -76.1693
 1291.0000  -999.2500  -999.2500  -999.2500  -999.2500  -112.0886    88.6476     8.6429     8.8579     7.4784   -76.5185
 1291.5000  -999.2500  -999.2500  -999.2500  -999.2500  -111.8895    92.6821     8.3281     8.8567     7.4774   -76.8678
 1292.0000  -999.2500  -999.2500  -999.2500  -999.2500  -111.8932    96.3124     7.9509     8.8557     7.4766   -77.2171
 1292.5000  -999.2500  -999.2500  -999.2500  -999.2500  -112.0985    97.9204     7.5908     8.6973     7.3387   -77.5663
 1293.0000  -999.2500  -999.2500  -999.2500  -999.2500  -112.1017    92.6508     7.5900     8.6187     7.2703   -77.9156
 1293.5000  -999.2500  -999.2500  -999.2500  -999.2500  -112.3071    86.5715     7.9482     8.6179     7.2696   -78.2648
 1294.0000  -999.2500  -999.2500  -999.2500  -999.2500  -112.5125    84.5378     8.3232     8.6167     7.2686   -78.6141
 1294.5000  -999.2500  -999.2500  -999.2500  -999.2500  -112.7179    85.3363     8.3224     8.6158     7.2678   -78.9634
 1295.0000  -999.2500  -999.2500  -999.2500  -999.2500  -112.5185    87.3487     8.0936     8.4612     7.1333   -79.3126
 1295.5000  -999.2500  -999.2500  -999.2500  -999.2500  -112.5217    89.3614     8.0187     8.3846     7.0668   -79.6619
 1296.0000  -999.2500  -999.2500  -999.2500  -999.2500  -112.1221    90.1602     7.9476     8.2347     6.9365   -80.0399
 1296.5000  -999.2500  -999.2500  -999.2500  -999.2500  -112.1228    90.9590     7.8771     8.1600     6.8717   -89.9160
 1297.0000  -999.2500  -999.2500  -999.2500  -999.2500  -112.1252    88.9249     7.7959     8.0141     6.7450   -69.7657
 1297.5000  -999.2500  -999.2500  -999.2500  -999.2500  -112.1320    88.5095     7.5820     7.9415     6.6819   -59.5911
 1298.0000  -999.2500  -999.2500  -999.2500  -999.2500  -112.1351    87.6893     7.1719     7.9407     6.6813   -59.4666
 1298.5000  -999.2500  -999.2500  -999.2500  -999.2500  -112.1382    87.6786     6.6600     7.7986     6.5580   -59.3423
 1299.0000  -999.2500  -999.2500  -999.2500  -999.2500  -112.3425    89.2872     7.2601     7.9390     6.6798   -59.2179
 1299.5000  -999.2500  -999.2500  -999.2500  -999.2500  -112.3469    89.6814     7.7199     8.0097     6.7411   -59.0935
 1300.0000  -999.2500  -999.2500  -999.2500  -999.2500  -112.3506    89.6687     7.7909     8.0808     6.8029   -58.9691
 1300.5000  -999.2500  -999.2500  -999.2500  -999.2500  -112.3538    85.2297     7.8450     8.1352     6.8501   -58.8281
 1301.0000  -999.2500  -999.2500  -999.2500  -999.2500  -112.7518    84.8072     7.8585     8.1502     6.8631   -58.7440
 1301.5000  -999.2500  -999.2500  -999.2500  -999.2500  -112.7511    87.2345     7.8569     8.1488     6.8619   -58.6439
 1302.0000  -999.2500  -999.2500  -999.2500  -999.2500  -112.9529    87.2328     7.8561     8.0013     6.7339   -58.5437
 1302.5000  -999.2500  -999.2500  -999.2500  -999.2500  -112.9523    87.6359     7.8547     7.9285     6.6707   -58.4436
 1303.0000  -999.2500  -999.2500  -999.2500  -999.2500  -112.5631    87.6331     7.6378     7.9264     6.6689   -58.3434
 1303.5000  -999.2500  -999.2500  -999.2500  -999.2500  -111.9580    88.4420     7.6361     7.8539     6.6059   -58.2433
 1304.0000  -999.2500  -999.2500  -999.2500  -999.2500  -111.5550    90.4642     7.5648     7.7820     6.3641   -58.1431
 1304.5000  -999.2500  -999.2500  -999.2500  -999.2500  -111.1519    93.2959     7.4928     7.7108     6.3629   -58.0429
 1305.0000  -999.2500  -999.2500  -999.2500  -999.2500  -110.9506    93.6989     7.2181     7.7091     6.3615   -57.9427
 1305.5000  -999.2500  -999.2500  -999.2500  -999.2500  -111.1558    91.1535     7.1504     7.6533     6.4789   -57.8425
 1306.0000  -999.2500  -999.2500  -999.2500  -999.2500  -111.1565    89.9450     7.1498     7.5810     6.5374   -57.7423
 1306.5000  -999.2500  -999.2500  -999.2500  -999.2500  -112.1719    88.0264     7.3486     7.5800     6.5363   -57.6422
 1307.0000  -999.2500  -999.2500  -999.2500  -999.2500  -112.3750    87.6199     7.6227     7.8419     6.5956   -57.5420
 1307.5000  -999.2500  -999.2500  -999.2500  -999.2500  -113.1866    88.0229     7.6925     8.0542     6.7798   -57.4219
 1308.0000  -999.2500  -999.2500  -999.2500  -999.2500  -113.1879    89.6401     7.7622     8.0072     6.8410   -57.3217
 1308.5000  -999.2500  -999.2500  -999.2500  -999.2500  -112.7853    91.6619     7.9338     8.1236     6.8400   -57.2215
 1309.0000  -999.2500  -999.2500  -999.2500  -999.2500  -112.3816    94.8978     7.8305     8.1208     6.8376   -57.1214
 1309.5000  -999.2500  -999.2500  -999.2500  -999.2500  -111.9790    97.7288     7.7567     8.0465     6.7731   -57.0212
 1310.0000  -999.2500  -999.2500  -999.2500  -999.2500  -111.9804    96.5128     7.8270     8.0447     6.7715   -56.9211
 1310.5000  -999.2500  -999.2500  -999.2500  -999.2500  -111.9818    87.6078     7.7532     8.1158     6.8333   -56.8208
 1311.0000  -999.2500  -999.2500  -999.2500  -999.2500  -111.9846    83.3639     7.6804     8.0700     6.9591   -76.8234
 1311.5000  -999.2500  -999.2500  -999.2500  -999.2500  -112.3340    86.3903     7.6794     8.0689     7.0222   -76.7234
 1312.0000  -999.2500  -999.2500  -999.2500  -999.2500  -112.5354    88.8166     7.6057     8.0727     7.0204   -76.6233
 1312.5000  -999.2500  -999.2500  -999.2500  -999.2500  -112.7370    90.0288     7.6040     8.0765     7.0191   -66.4717
 1313.0000  -999.2500  -999.2500  -999.2500  -999.2500  -112.7364    88.8127     7.8161     8.0803     7.0172   -66.3716
 1313.5000  -999.2500  -999.2500  -999.2500  -999.2500  -112.9379    87.5970     7.6712     8.3639     7.0156   -66.2715
 1314.0000  -999.2500  -999.2500  -999.2500  -999.2500  -112.5330    85.5721     7.8852     8.3632     7.0790   -66.1713
 1314.5000  -999.2500  -999.2500  -999.2500  -999.2500  -112.1281    82.7381     8.0305     8.3617     7.0777   -71.7899
 1315.0000  -999.2500  -999.2500  -999.2500  -999.2500  -111.9252    81.1180     8.0284     8.3590     7.0520   -61.4945
 1315.5000  -999.2500  -999.2500  -999.2500  -999.2500  -111.7225    83.9486     8.0266     8.3572     7.0265   -61.2495
