~VERSION INFORMATION
 VERS.                2.0:   CWLS LOG ASCII STANDARD - VERSION 2.0
 WRAP.                 NO:   ONE LINE PER DEPTH STEP
~WELL INFORMATION
#MNEM.UNIT      DATA TYPE    INFORMATION
#----------   ------------   ------------------------------
 STRT.F          620.0000:   START DEPTH
 STOP.F         3209.0000:   STOP DEPTH
 STEP.F            0.5000:   STEP LENGTH
 NULL.          -999.2500:   NO VALUE
 COMP. FENIX & SCISSON - US NAVY:   COMPANY
 WELL.   FENIX "A" #23-33:   WELL
 FLD .             NPR #3:   FIELD
 LOC .      S33 T39N R78W:   LOCATION
 CNTY.            NATRONA:   COUNTY
 STAT.            WYOMING:   STATE
 CTRY. UNITED STATES OF AMERICA:   COUNTRY
 SRVC.              WELEX:   SERVICE COMPANY
 DATE.        26-MAR-1977:   LOGDATE
 API .     49025103250000:   API NUMBER
~CURVE INFORMATION
#MNEM.UNIT       API CODE    CURVE DESCRIPTION
#----------   ------------   ------------------------------
 DEPT.F                  :   
 GRD .GAPI   45 310 01 00:   GAMMA RAY FROM DENSITY LOG
 CALD.IN     45 280 60 00:   CALIPER FROM DENSITY LOG
 CORR.G/C3   45 356 01 00:   DENSITY CORRECTION
 RHOB.G/C3   45 350 01 00:   BULK DENSITY
 SPR .MV     07 010 01 00:   SPONTANEOUS POTENTIAL
 ILD .OHMM   07 120 46 00:   DEEP INDUCTION RESISTIVITY
 ILM .OHMM   07 120 44 00:   INDUCTION LOG MEDIUM RESISTIVITY
 SGRD.OHMM   07 220 05 00:   SHALLOW SHORT GUARD RESISTIVITY
~PARAMETER INFORMATION
#MNEM.UNIT          VALUE    DESCRIPTION
#----------   ------------   ------------------------------
 EKB .F         5183.0000:   Kelly bushing
 EGL .F         5172.0000:   Ground level
 TD  .F         3213.0000:   Total depth
 CLNT.            A2DTECH:   Client Code
 SL  . 900' FWL & 1650' FNL:   Surface Location
 PD  .                 GL:   Permanent Datum
 EPD .F              5172:   Elevation Permanent Datum
 LMF .                 KB:   Log Measured From
 DMF .                 KB:   Drilling Measured From
 DAPD.F                11:   Feet Above Permanent Datum
 DATE.        26-MAR-1977:   Date Logged [DD-MMM-YYYY]
 DD  .F              3210:   Depth driller
 DL  .F              3213:   Depth logger
 BLI .F              3211:   Bottom log interval
 TLI .F               625:   Top log interval
 CS1 .IN            8.625:   Casing size
 CBD1.      8.625" @ 633':   Casing driller 1
 CBL1.F               635:   Casing logger 1
 BS1 .IN            7.875:   Bit size
 BSD1.F              3210:   Depth drilled with bit1
 DFT .            KCL MUD:   Type fluid in hole
 DFD .                9.5:   Density
 DFV .                 34:   Viscosity
 DFPH.                8.5:   pH
 DFL .                 14:   Fluid loss
 MSS .           FLOWLINE:   Source of sample
 RMS .OHMM           0.34:   Rm
 MST .F                86:   Rm Meas. temp.
 RMF .OHMM           0.25:   Rmf
 MFST.F                86:   Rmf Meas. temp.
 MFSS.            FANN KL:   Source Rmf.
 RMC .OHMM           0.55:   Rmc
 MCST.F                86:   Rmc Meas. temp.
 MCSS.            FANN KL:   Source Rmc.
 RMB .OHMM           0.31:   Rm. at BHT
 BHT .F                92:   BHT.
 TCS .HRS             2.5:   Time Circ. stopped
 MRT .F                92:   Maximum recorded temp.
 LUN .               8611:   Logging unit number
 LUL .             CASPER:   Logging unit location
 ENGI.            C. DOAK:   Recorded By
 WITN.            K. JAPP:   Witnessed by
 ORIG.           5" PRINT:   Origin of data
 UWI .     49025103250000:   Unique Well ID
 DICO. A2D TECHNOLOGIES, INC.:   Digitizing Company
~OTHER INFORMATION
~A   DEPT       GRD        CALD      CORR        RHOB      SPR        ILD        ILM       SGRD   
# ...
 2321.0000    89.6129     8.3021     0.0147     2.4623   -44.4714     3.1407     3.9527     4.2297
 2321.5000    90.0710     8.2881     0.0149     2.4730   -44.7585     3.1417     4.1502     4.0897
 2322.0000    89.6357     8.2820     0.0165     2.4639   -44.7993     3.1424     4.2103     5.6161
 2322.5000    89.2069     8.2754     0.0151     2.4563   -44.8817     3.2986     4.2419     8.2046
 2323.0000    88.7749     8.2768     0.0107     2.4535   -44.8686     3.4625     4.4538     6.4539
 2323.5000    88.1944     8.2779     0.0094     2.4671   -44.8569     3.6132     4.8734     5.1118
 2324.0000    87.9108     8.2641     0.0080     2.4762   -44.8453     3.7712     5.2596     7.2653
 2324.5000    89.1587     8.2652     0.0067     2.4838   -44.5378     3.9774     5.5225     8.5757
 2325.0000    89.7173     8.2663     0.0053     2.4883   -44.3782     4.2623     5.6411     9.0675
 2325.5000    87.9532     8.2525     0.0055     2.4869   -44.5145     4.5050     5.5673     8.6431
 2326.0000    86.9277     8.2539     0.0056     2.4839   -44.5028     4.7945     5.8463     8.5175
 2326.5000    86.0505     8.2550     0.0073     2.4825   -44.6391     4.9638     6.0546     6.7621
 2327.0000    86.2119     8.2561     0.0089     2.4803   -44.6272     5.1038     6.2702     7.5027
 2327.5000    87.2636     8.2572     0.0091     2.4764   -44.6154     5.2478     6.4491     8.7952
 2328.0000    88.6119     8.2731     0.0092     2.4721   -44.4533     5.3587     6.5875     9.1726
 2328.5000    89.8119     8.2742     0.0077     2.4706   -44.2938     5.3970     6.6828    10.1771
 2329.0000    90.8636     8.2753     0.0062     2.4692   -44.2821     5.4367     6.7330    10.7608
 2329.5000    91.3217     8.2763     0.0051     2.4647   -44.2704     5.4745     6.5543    10.9912
 2330.0000    90.6926     8.2774     0.0007     2.4595   -44.2588     5.4008     6.3365     9.0741
 2330.5000    90.1609     8.2786    -0.0006     2.4513   -44.1006     5.4024     6.1260     7.8056
 2331.0000    89.8805     8.2799    -0.0035     2.4558   -44.0876     5.4037     6.0877     7.9196
 2331.5000    89.0033     8.2661    -0.0063     2.4740   -44.0769     5.5179     6.3929     8.5508
 2332.0000    87.3843     8.2671    -0.0062     2.4627   -43.9163     5.7128     6.6206     8.8543
 2332.5000    86.6523     8.2682    -0.0061     2.4537   -43.9047     5.8739     6.9037     8.9235
 2333.0000    87.1137     8.2694    -0.0059     2.4484   -43.8309     6.0396     7.1496     9.8328
 2333.5000    87.5718     8.2705    -0.0057     2.4489   -43.7335     6.2099     7.5068    11.1371
 2334.0000    87.4362     8.2864    -0.0056     2.4622   -43.7218     6.3851     7.8819    12.0214
 2334.5000    87.0045     8.2875    -0.0024     2.4637   -43.5621     6.5651     8.2190    12.3659
 2335.0000    86.4119     8.2886     0.0008     2.4615   -43.5503     6.8032     8.4534    13.0752
 2335.5000    85.7921     8.2748     0.0009     2.4593   -43.5385     7.1424     8.6349    13.6362
 2336.0000    84.6730     8.2761     0.0026     2.4639   -43.5244     7.3871     8.6997    12.8271
 2336.5000    84.3893     8.2772     0.0042     2.4685   -43.5127     7.5433     8.4688    13.1043
 2337.0000    83.5122     8.2783     0.0029     2.4715   -43.5030     7.7560     8.4741    13.3874
 2337.5000    82.9285     8.2794     0.0045     2.4746   -43.4894     7.8115     8.7169    12.4211
 2338.0000    86.2089     8.2953     0.0077     2.4724   -43.4778     7.9218     8.8430    11.4455
 2338.5000    88.5959     8.2964     0.0079     2.4694   -43.4661     7.9785     8.9710    12.7558
 2339.0000    90.0926     8.2975     0.0112     2.4765   -43.4545     8.0356     8.9764    14.2874
 2339.5000    90.9958     8.2986     0.0142     2.4823   -43.4428     8.0375     8.9189    14.6941
 2340.0000    91.4540     8.2997     0.0144     2.4786   -43.5820     8.0950     8.8631    13.2659
 2340.5000    91.9122     8.2859     0.0145     2.4772   -43.5675     8.0969     8.8699    12.8269
 2341.0000    90.5932     8.2873     0.0132     2.4750   -43.7041     8.0989     8.8752    12.8364
 2341.5000    88.6774     8.2884     0.0103     2.4690   -43.6921     8.1008     9.0037    13.2043
 2342.0000    87.0584     8.2894     0.0089     2.4600   -43.6804     8.0470     9.0091    13.4871
 2342.5000    86.6231     8.2905     0.0045     2.4510   -43.5207     8.0494     9.0822    11.5243
 2343.0000    87.2329     8.2916     0.0017     2.4428   -43.3609     8.0510     9.2719    13.9824
 2343.5000    87.2460     8.3075     0.0018     2.4331   -43.3491     7.9974     9.3427    14.3831
 2344.0000    86.9590     8.3086     0.0050     2.4271   -43.3351     7.9996     9.4129    14.2951
 2344.5000    85.7884     8.3246     0.0067     2.4403   -43.3234     8.0016     9.3527    14.4047
 2345.0000    83.7243     8.3257     0.0085     2.4520   -43.3118     7.9814     9.2942    14.6175
 2345.5000    81.6567     8.3268     0.0100     2.4649   -43.0043     7.8958     9.3012    14.3296
 2346.0000    80.3234     8.3281     0.0102     2.4838   -42.8447     7.8434     9.2417    13.1136
 2346.5000    80.2026     8.3292     0.0103     2.4514   -43.1289     7.7913     9.1613    12.5927
 2347.0000    80.8124     8.3301     0.0105     2.4455   -43.1172     7.7854     9.0651    12.1760
 2347.5000    81.4190     8.3312     0.0106     2.4395   -42.9577     7.6883     9.0708    12.9632
 2348.0000    81.2836     8.3173     0.0108     2.4471   -42.7981     7.6290     8.9523    13.3347
 2348.5000    81.2967     8.3038     0.0109     2.4533   -42.6385     7.5866     8.9578    12.9825
 2349.0000    80.8646     8.3049     0.0111     2.4487   -42.6269     7.5888     9.0616    13.5395
 2349.5000    80.7261     8.2763     0.0082     2.4464   -42.6035     7.7492     9.0932    14.5144
 2350.0000    81.1875     8.2774     0.0068     2.4410   -42.6035     7.8587     9.0988    14.9303
 2350.5000    82.3875     8.2788     0.0024     2.4323   -42.3007     8.0248     9.1681    14.4129
 2351.0000    83.8914     8.2647     0.0025     2.4248   -42.0118     8.0267     9.1736    13.0643
 2351.5000    85.7100     8.2510     0.0026     2.4203   -41.7805     8.1401     9.2426    12.3445
 2352.0000    88.3646     8.2353     0.0057     2.4189   -41.6188     8.1420     9.3120    13.7853
 2352.5000    90.4548     8.2235     0.0089     2.4310   -41.7553     8.2003     9.3820    15.3467
 2353.0000    91.3581     8.2248     0.0120     2.4401   -41.7372     8.2027     9.3233    16.2864
 2353.5000    90.7777     8.2259     0.0181     2.4469   -41.7228     8.2610     9.2015    15.3741
 2354.0000    90.1973     8.2270     0.0212     2.4628   -41.8557     8.2630     9.1440    15.8709
 2354.5000    89.7652     8.2281     0.0244     2.4832   -42.0003     8.2653     9.1496    15.2356
 2355.0000    89.6291     8.2295     0.0275     2.4840   -42.2686     8.2672     9.0300    14.6057
 2355.5000    89.6430     8.2303     0.0276     2.4831   -42.2506     8.2692     8.9735    13.8288
 2356.0000    89.8044     8.2316     0.0262     2.4781   -42.3871     8.2138     8.9174    12.7755
 2356.5000    90.2703     8.2327     0.0248     2.4653   -42.3697     8.2162     8.9242    14.8738
 2357.0000    91.0353     8.2359     0.0219     2.4571   -42.3411     8.1617     8.9296    16.0548
 2357.5000    91.1821     8.2497     0.0205     2.4662   -42.3125     8.1636     8.9350    14.3923
 2358.0000    90.0082     8.2656     0.0176     2.4752   -42.2839     8.1095     8.8778    13.5358
 2358.5000    88.5376     8.2667     0.0132     2.4602   -42.2553     8.0557     8.8842    13.4555
 2359.0000    87.6572     8.2678     0.0103     2.4415   -42.2267     8.0580     8.8899    12.8325
 2359.5000    89.1572     8.2689     0.0074     2.4302   -42.1981     7.9491     8.8952    14.7360
 2360.0000    89.9121     8.2554     0.0015     2.4242   -42.3283     7.8421     8.8397    16.1264
 2360.5000    88.8865     8.2565    -0.0029     2.4319   -42.4640     7.7901     8.8452    14.3573
 2361.0000    87.7127     8.2574     0.0047     2.4379   -42.5997     7.6852     8.8506    14.5692
