~VERSION INFORMATION
 VERS.                2.0:   CWLS LOG ASCII STANDARD - VERSION 2.0
 WRAP.                 NO:   ONE LINE PER DEPTH STEP
~WELL INFORMATION
#MNEM.UNIT      DATA TYPE    INFORMATION
#----------   ------------   ------------------------------
 STRT.F          196.0000:   START DEPTH
 STOP.F         3430.0000:   STOP DEPTH
 STEP.F            0.5000:   STEP LENGTH
 NULL.          -999.2500:   NO VALUE
 COMP.    FENIX $ SCISSON:   COMPANY
 WELL.   FENIX "A" #23-10:   WELL
 FLD .              N P R:   FIELD
 LOC .      S10 T38N R78W:   LOCATION
 CNTY.            NATRONA:   COUNTY
 STAT.            WYOMING:   STATE
 CTRY. UNITED STATES OF AMERICA:   COUNTRY
 SRVC.              WELEX:   SERVICE COMPANY
 DATE.        23-JUL-1977:   LOGDATE
 API .     49025103990000:   API NUMBER
~CURVE INFORMATION
#MNEM.UNIT       API CODE    CURVE DESCRIPTION
#----------   ------------   ------------------------------
 DEPT.F                  :   
 SPR .MV     07 010 01 00:   SPONTANEOUS POTENTIAL
 GURD.OHMM   07 220 05 00:   GUARD LOG RESISTIVITY
 FORX.OHMM   07 220 00 00:   FORMATION FACTOR
 NPHI.DEC    42 890 03 00:   NEUTRON POROSITY SANDSTONE
 CALD.IN     45 280 60 00:   CALIPER FROM DENSITY LOG
 CORR.G/C3   45 356 01 00:   DENSITY CORRECTION
 GRD .GAPI   45 310 01 00:   GAMMA RAY FROM DENSITY LOG
 RHOB.G/C3   45 350 01 00:   BULK DENSITY
~PARAMETER INFORMATION
#MNEM.UNIT          VALUE    DESCRIPTION
#----------   ------------   ------------------------------
 EKB .F         5251.0000:   Kelly bushing
 EGL .F         5241.0000:   Ground level
 EDF .F            0.0000:   Drilling floor
 EPD .F         5241.0000:   Permanent datum
 TD  .F         3430.0000:   Total depth
 DATE.        23-JUL-1977:   Date logged
 CLNT.            A2DTECH:   Client Code
 SL  . 1650' FNL & 990' FWL:   Surface Location
 PD  .                 GL:   Permanent Datum
 DD  .F              3430:   Depth driller
 DL  .F              3430:   Depth logger
 BLI .F              3428:   Bottom log interval
 CS1 .IN            8.625:   Casing size
 CBD1.      8.625" @ 220':   Casing driller 1
 BS1 .IN            7.875:   Bit size
 DFT .            KCL MUD:   Type fluid in hole
 DFD .                8.9:   Density
 DFV .                 33:   Viscosity
 DFPH.                  8:   pH
 DFL .                  8:   Fluid loss
 MSS .           FLOWLINE:   Source of sample
 RMS .OHMM            .49:   Rm
 MST .F                94:   Rm Meas. temp.
 RMF .OHMM            .46:   Rmf
 MFST.F                90:   Rmf Meas. temp.
 RMC .OHMM            .40:   Rmc
 MCST.F                90:   Rmc Meas. temp.
 MFSS.               FANN:   Source Rmf.
 RMB .OHMM            .15:   Rm. at BHT
 BHT .F               122:   BHT.
 TCS .HRS               6:   Time Circ. stopped
 MRT .F               122:   Maximum recorded temp.
 LUN .               8611:   Logging unit number
 LUL .             CASPER:   Logging unit location
 ENGI.            C. DOAK:   Recorded By
 WITN.      B. HARRINGTON:   Witnessed by
 ORIG.           5" PRINT:   Origin of data
 UWI .     49025103990000:   Unique Well ID
 DICO. A2D TECHNOLOGIES, INC.:   Digitizing Company
 DAPD.                 10:   Feet Above Permanent Datum
 BSD1.               3430:   Depth drilled with bit1
 MCSS.                KIT:   Source Rmc.
 TLI .                200:   Top log interval
~OTHER INFORMATION
~A   DEPT      SPR         GURD     FORX       NPHI       CALD       CORR        GRD       RHOB   
# ...
 1492.0000   -82.0590    10.8350    14.5650     0.3620     9.7690     0.0600   105.9540     2.4540
 1492.5000   -82.0550    10.7670    15.3910     0.3620     9.7760     0.0600   105.5740     2.4570
 1493.0000   -82.0590    10.7000    14.9260     0.3590     9.7780     0.0580   104.6320     2.4590
 1493.5000   -81.8400    10.6320    14.5530     0.3550     9.7810     0.0560   103.0470     2.4570
 1494.0000   -81.8470    10.5640    14.4320     0.3510     9.7840     0.0560   101.4670     2.4590
 1494.5000   -81.8390    10.4610    16.5410     0.3480     9.7870     0.0660    99.8870     2.4730
 1495.0000   -81.8280    10.5580    25.0520     0.3450     9.7890     0.0760    98.3030     2.4870
 1495.5000   -81.8170    11.4270    22.0260     0.3420     9.7920     0.0810    96.6490     2.4940
 1496.0000   -81.8060    12.2310    16.2630     0.3380     9.7950     0.0790    96.9760     2.4900
 1496.5000   -81.7950    11.7690    16.7180     0.3330     9.7980     0.0760    98.0430     2.4870
 1497.0000   -81.7840    11.3740    14.5650     0.3280     9.8010     0.0720    99.1340     2.4840
 1497.5000   -81.7740    10.9780    15.9670     0.3250     9.8040     0.0690   100.2250     2.4800
 1498.0000   -81.7630    10.5830    14.8350     0.3230     9.8060     0.0660   101.3150     2.4680
 1498.5000   -81.7520    10.3660    15.6120     0.3190     9.8090     0.0620   102.4040     2.4540
 1499.0000   -81.7410    10.5940    16.2630     0.3190     9.8130     0.0590   103.3710     2.4620
 1499.5000   -81.7310    11.0540    15.3910     0.3190     9.8350     0.0580   103.6600     2.4680
 1500.0000   -81.7200    11.4690    15.9670     0.3250     9.8570     0.0580   104.0390     2.4660
 1500.5000   -81.7090    11.1720    14.9720     0.3320     9.8790     0.0570   104.4230     2.4670
 1501.0000   -81.6980    10.9030    16.6100     0.3380     9.9010     0.0560   104.8010     2.4710
 1501.5000   -81.6870    10.6560    17.8290     0.3420     9.9230     0.0550   105.1820     2.4670
 1502.0000   -81.6760    10.8940    15.9220     0.3440     9.9450     0.0540   104.4740     2.4560
 1502.5000   -81.6670    11.0550    14.5650     0.3410     9.9530     0.0540   102.7510     2.4480
 1503.0000   -81.7650    10.8140    15.1100     0.3380     9.9580     0.0530   101.0320     2.4570
 1503.5000   -81.8790    10.5900    14.1690     0.3350     9.9620     0.0520   100.4440     2.4620
 1504.0000   -81.9930    10.5580    16.1150     0.3380     9.9670     0.0510   101.2780     2.4560
 1504.5000   -82.1070    10.5580    14.9280     0.3430     9.9720     0.0500   102.0830     2.4520
 1505.0000   -82.2200    10.5080    14.1760     0.3490     9.9770     0.0500   102.8920     2.4510
 1505.5000   -82.3340    10.3010    13.7830     0.3510     9.9810     0.0510   103.7020     2.4510
 1506.0000   -82.4480    10.0950    14.4320     0.3540     9.9860     0.0540   104.5120     2.4600
 1506.5000   -82.5610     9.8880    13.1640     0.3510     9.9910     0.0560   105.3220     2.4690
 1507.0000   -82.6750     9.8100    14.2950     0.3470     9.9960     0.0590   106.1190     2.4640
 1507.5000   -82.7890     9.8620    15.3910     0.3450    10.0000     0.0620   106.9240     2.4670
 1508.0000   -82.9030     9.9270    14.1690     0.3470    10.0050     0.0650   104.7080     2.4730
 1508.5000   -83.0180     9.9920    14.4320     0.3510    10.0100     0.0650   102.3300     2.4790
 1509.0000   -83.0300    10.0840    13.1640     0.3580    10.0040     0.0640   103.5400     2.4750
 1509.5000   -83.0200     9.8100    14.3640     0.3650     9.9960     0.0640   104.6900     2.4740
 1510.0000   -83.0080     9.8970    15.3910     0.3700     9.9880     0.0630   105.8380     2.4740
 1510.5000   -82.9970    10.1270    14.1890     0.3730     9.9800     0.0630   106.9900     2.4750
 1511.0000   -82.9860    10.2710    13.5660     0.3720     9.9720     0.0630   108.1400     2.4780
 1511.5000   -82.9750     9.9820    12.9240     0.3690     9.9750     0.0630   109.2990     2.4810
 1512.0000   -82.9640     9.6830    13.2860     0.3670     9.9820     0.0630   109.7550     2.4790
 1512.5000   -82.9530     9.3690    13.7830     0.3680     9.9890     0.0630   109.7600     2.4720
 1513.0000   -82.9420     9.1980    13.4080     0.3710     9.9960     0.0610   109.7620     2.4700
 1513.5000   -82.9310     9.2670    14.0390     0.3730    10.0030     0.0610   109.7620     2.4700
 1514.0000   -82.9200     9.3180    13.0440     0.3660    10.0090     0.0590   109.7650     2.4630
 1514.5000   -82.9090     9.3690    14.3270     0.3590     9.9970     0.0570   109.7550     2.4560
 1515.0000   -82.8980     9.4200    14.4320     0.3530     9.9840     0.0550   109.3820     2.4520
 1515.5000   -82.8860     9.5060    14.1540     0.3520     9.9710     0.0530   107.4830     2.4590
 1516.0000   -82.8750     9.9920    13.7830     0.3520     9.9580     0.0540   105.6320     2.4650
 1516.5000   -82.8640     9.9920    14.9720     0.3540     9.9450     0.0550   103.7880     2.4720
 1517.0000   -82.8530     9.9920    14.3000     0.3560     9.9320     0.0560   101.9350     2.4750
 1517.5000   -82.8440    10.0680    15.5330     0.3560     9.9180     0.0560   100.0780     2.4730
 1518.0000   -82.8950    10.2230    14.1690     0.3520     9.9050     0.0570    99.8550     2.4700
 1518.5000   -82.9540    10.3660    14.7220     0.3480     9.8920     0.0570   101.2950     2.4770
 1519.0000   -83.0120    10.3200    14.3000     0.3430     9.8790     0.0600   102.7450     2.4820
 1519.5000   -83.0710    10.2770    15.3910     0.3420     9.8660     0.0620   104.1820     2.4800
 1520.0000   -83.1290    10.1770    13.9110     0.3420     9.8530     0.0650   104.6930     2.4780
 1520.5000   -83.1870    10.3870    16.7180     0.3430     9.8490     0.0670   104.0830     2.4870
 1521.0000   -83.2460    10.5850    15.5330     0.3430     9.8460     0.0690   103.4790     2.4890
 1521.5000   -83.3040    10.6560    15.9670     0.3430     9.8440     0.0720   102.8670     2.4900
 1522.0000   -83.3630    10.2960    14.4320     0.3470     9.8410     0.0710   102.2530     2.4900
 1522.5000   -83.4220    10.0080    15.6210     0.3510     9.8380     0.0680   101.6380     2.4870
 1523.0000   -83.4310     9.9000    17.8290     0.3550     9.8360     0.0640   101.0530     2.4800
 1523.5000   -83.4310    10.5370    16.3070     0.3550     9.8330     0.0600   101.2440     2.4670
 1524.0000   -83.4310    11.2540    16.4950     0.3520     9.8310     0.0560   103.8620     2.4640
 1524.5000   -83.4310    11.2290    17.1850     0.3480     9.8280     0.0520   106.3820     2.4640
 1525.0000   -83.4310    11.1770    15.2500     0.3440     9.8260     0.0510   108.2070     2.4630
 1525.5000   -83.4310    10.8900    13.6570     0.3410     9.8230     0.0530   108.1670     2.4580
 1526.0000   -83.4310    10.4440    15.1100     0.3430     9.8210     0.0540   108.1660     2.4520
 1526.5000   -83.4310     9.9980    14.3280     0.3440     9.8180     0.0550   108.1680     2.4530
 1527.0000   -83.4310     9.9000    13.9110     0.3450     9.8160     0.0570   108.1670     2.4610
 1527.5000   -83.4310     9.9650    14.5740     0.3450     9.8130     0.0580   108.1670     2.4670
 1528.0000   -83.4310    10.0200    14.0390     0.3440     9.8110     0.0600   108.1670     2.4640
 1528.5000   -83.4320    10.0750    15.3910     0.3440     9.8080     0.0610   108.1670     2.4600
 1529.0000   -83.4320    10.1300    15.2500     0.3450     9.8050     0.0620   108.1680     2.4560
 1529.5000   -83.4230    10.1770    13.9110     0.3450     9.8030     0.0590   108.1660     2.4520
 1530.0000   -83.2720    10.0520    14.5350     0.3430     9.8000     0.0560   108.1650     2.4470
 1530.5000   -83.1830     9.9000    15.3910     0.3400     9.7980     0.0520   107.9030     2.4390
 1531.0000   -83.1340    10.0720    14.9790     0.3370     9.7950     0.0490   107.4250     2.4330
 1531.5000   -83.0850    10.2710    14.1690     0.3330     9.7930     0.0520   106.9470     2.4460
 1532.0000   -83.0330    10.0870    14.1020     0.3300     9.7980     0.0590   106.4730     2.4630
