~VERSION INFORMATION
 VERS.                2.0:   CWLS LOG ASCII STANDARD - VERSION 2.0
 WRAP.                 NO:   ONE LINE PER DEPTH STEP
~WELL INFORMATION
#MNEM.UNIT      DATA TYPE    INFORMATION
#----------   ------------   ------------------------------
 STRT.F           16.0000:   START DEPTH
 STOP.F         2860.0000:   STOP DEPTH
 STEP.F            0.5000:   STEP LENGTH
 NULL.          -999.2500:   NO VALUE
 COMP.    FENIX & SCISSON:   COMPANY
 WELL. FENIX NPR 3 "AX" #22-21:   WELL
 FLD .  TEAPOT DOME - NPR:   FIELD
 LOC .      S21 T39N R78W:   LOCATION
 CNTY.            NATRONA:   COUNTY
 STAT.            WYOMING:   STATE
 CTRY. UNITED STATES OF AMERICA:   COUNTRY
 SRVC.      DRESSER ATLAS:   SERVICE COMPANY
 DATE.        07-AUG-1978:   LOGDATE
 API .     49025106790000:   API NUMBER
~CURVE INFORMATION
#MNEM.UNIT       API CODE    CURVE DESCRIPTION
#----------   ------------   ------------------------------
 DEPT.F                  :   
 CALD.IN     45 280 60 00:   CALIPER FROM DENSITY LOG
 GRD .GAPI   45 310 01 00:   GAMMA RAY FROM DENSITY LOG
 CORR.G/C3   45 356 01 00:   DENSITY CORRECTION
 RHOB.G/C3   45 350 01 00:   BULK DENSITY
 SPR .MV     05 010 01 00:   SPONTANEOUS POTENTIAL
 ILD .OHMM   05 120 46 00:   DEEP INDUCTION RESISTIVITY
 SN  .OHMM   05 040 00 00:   SHORT NORMAL
~PARAMETER INFORMATION
#MNEM.UNIT          VALUE    DESCRIPTION
#----------   ------------   ------------------------------
 EKB .F         4989.0000:   Kelly bushing
 EGL .F         4979.0000:   Ground level
 EDF .F            0.0000:   Drilling floor
 TD  .F         2847.0000:   Total depth
 DATE.        07-AUG-1978:   Date logged
 CLNT.            A2DTECH:   Client Code
 SL  . 880' FNL & 660' FWL:   Surface Location
 PD  .                 GL:   Permanent Datum
 DD  .F              2845:   Depth driller
 DL  .F              2847:   Depth logger
 BLI .F              2841:   Bottom log interval
 CS1 .IN            8.625:   Casing size
 CBD1.      8.625" @ 240':   Casing driller 1
 CBL1.F               240:   Casing logger 1
 BS1 .IN            7.875:   Bit size
 DFT .                KCL:   Type fluid in hole
 DFD .                9.2:   Density
 DFV .                 31:   Viscosity
 DFPH.               10.5:   pH
 MSS .           FLOWLINE:   Source of sample
 RMS .OHMM           1.25:   Rm
 MST .F                74:   Rm Meas. temp.
 RMF .OHMM            1.8:   Rmf
 MFST.F                76:   Rmf Meas. temp.
 RMC .OHMM              3:   Rmc
 MCST.F                78:   Rmc Meas. temp.
 MFSS.               MEAS:   Source Rmf.
 TCS .HRS               4:   Time Circ. stopped
 LUN .               3006:   Logging unit number
 LUL .               CASP:   Logging unit location
 ENGI.             MILLER:   Recorded By
 WITN.           MCGINLEY:   Witnessed by
 ORIG.           5" PRINT:   Origin of data
 UWI .     49025106790000:   Unique Well ID
 DICO. A2D TECHNOLOGIES, INC.:   Digitizing Company
 DAPD.                 10:   Feet Above Permanent Datum
 BSD1.F              2845:   Depth drilled with bit1
 EPD .F              4970:   Elevation Permanent Datum
 LMF .                 KB:   Log Measured From
 DMF .                 KB:   Drilling Measured From
 TLI .                240:   Top log interval
~OTHER INFORMATION
~A   DEPT     CALD         GRD      CORR       RHOB        SPR        ILD         SN   
# ...
  425.5000     8.7080    94.6710     0.0310     2.4790   -14.4810     8.8820    12.3230
  426.0000     8.7430    94.9140     0.0400     2.4790   -14.7010     8.8960    12.3230
  426.5000     8.7800    94.3430     0.0500     2.4780   -14.8130     8.9100    12.3230
  427.0000     8.7640    93.6590     0.0550     2.4770   -14.8580     8.9240    12.3220
  427.5000     8.7280    93.5430     0.0570     2.4760   -15.3430     8.9380    12.3230
  428.0000     8.6840    93.9930     0.0600     2.4750   -15.9570     8.9510    12.3220
  428.5000     8.7110    94.4840     0.0630     2.4740   -16.0320     8.9650    12.3200
  429.0000     8.7710    94.0840     0.0660     2.4740   -16.3490     8.9790    12.2780
  429.5000     8.7980    93.2300     0.0680     2.4730   -16.6870     8.9930    12.2370
  430.0000     8.8270    92.6690     0.0680     2.4720   -16.6170     9.0070    12.1950
  430.5000     8.8580    93.8140     0.0680     2.4710   -16.2220     9.0200    12.1540
  431.0000     8.8700    94.7000     0.0680     2.4690   -15.8750     9.0300    12.1120
  431.5000     8.8690    97.0110     0.0680     2.4640   -15.5260     8.9980    12.0700
  432.0000     8.8690    98.9450     0.0700     2.4510   -15.2320     8.9700    12.0290
  432.5000     8.8690   101.1410     0.0760     2.4440   -15.1540     8.9420    11.9870
  433.0000     8.8690   102.3460     0.0840     2.4530   -14.9190     8.9130    11.9450
  433.5000     8.8700   102.3210     0.0950     2.4600   -14.7070     8.8830    11.9030
  434.0000     8.9020   101.8040     0.0940     2.4680   -14.4760     8.8660    11.8800
  434.5000     8.9410   101.2870     0.0930     2.4760   -14.2550     8.8410    11.8810
  435.0000     8.9800   100.7000     0.0910     2.4820   -14.0510     8.8160    11.8810
  435.5000     9.0180   100.6660     0.0900     2.4820   -13.9660     8.7890    11.8810
  436.0000     9.0290   101.0260     0.0880     2.4780   -13.8430     8.7620    11.8810
  436.5000     9.0320   101.3570     0.0930     2.4740   -13.7030     8.7370    11.8810
  437.0000     9.0370   100.5500     0.1000     2.4710   -13.6120     8.7100    11.8810
  437.5000     9.0420    98.1990     0.0990     2.4740   -13.1210     8.7090    11.8810
  438.0000     9.0460    95.8950     0.0980     2.4780   -12.5850     8.7080    11.8810
  438.5000     9.0510    93.4950     0.0980     2.4830   -12.1060     8.7080    11.8810
  439.0000     9.0550    91.9770     0.0970     2.4870   -12.5990     8.7080    11.8810
  439.5000     9.0600    92.6330     0.0970     2.4910   -13.0150     8.7080    11.8810
  440.0000     9.0650    93.2060     0.0960     2.4960   -13.5900     8.7080    11.8810
  440.5000     9.0620    93.9650     0.0960     2.4980   -12.9640     8.7080    11.8810
  441.0000     9.0480    93.3700     0.0940     2.4980   -12.1710     8.7080    11.8810
  441.5000     9.0340    91.4300     0.0930     2.4980   -11.3430     8.7080    11.8810
  442.0000     9.0260    89.6640     0.0850     2.5000   -11.6700     8.7080    11.8810
  442.5000     9.0080    89.0570     0.0730     2.5020   -11.8240     8.7080    11.8810
  443.0000     8.9980    93.0260     0.0680     2.5040   -12.0140     8.7080    11.8810
  443.5000     8.9490    94.5510     0.0610     2.5050   -12.1650     8.7080    11.8810
  444.0000     8.9170    96.4850     0.0600     2.5010   -12.3040     8.7080    11.8810
  444.5000     8.8930    96.8520     0.0600     2.4980   -12.6070     8.7080    11.8810
  445.0000     8.8710    96.3750     0.0600     2.4940   -12.9770     8.7080    11.8810
  445.5000     8.8610    94.6520     0.0600     2.4910   -13.5210     8.7080    11.8810
  446.0000     8.8540    93.4820     0.0600     2.4910   -12.4980     8.7080    11.8810
  446.5000     8.8470    92.9680     0.0600     2.4930    -9.9390     8.7080    11.8810
  447.0000     8.8390    92.5570     0.0600     2.4940   -12.1780     8.7080    11.8810
  447.5000     8.8320    92.4840     0.0600     2.4960   -14.0680     8.7080    11.8810
  448.0000     8.8290    93.8610     0.0600     2.4970   -11.7080     8.7080    11.8810
  448.5000     8.8290    97.9110     0.0600     2.4990   -11.0850     8.7080    11.8810
  449.0000     8.8290   102.6700     0.0600     2.5010   -10.6080     8.7090    11.8810
  449.5000     8.8290   103.7320     0.0600     2.5020   -10.8440     8.7290    11.8810
  450.0000     8.8300   103.5440     0.0600     2.5040   -11.2370     8.7540    11.8810
  450.5000     8.8180   101.6570     0.0600     2.5030   -10.9250     8.7790    11.8810
  451.0000     8.7840   100.1910     0.0600     2.5010   -10.4900     8.8030    11.8810
  451.5000     8.7520    98.4070     0.0600     2.4990   -10.0590     8.8280    11.8810
  452.0000     8.7220    97.8950     0.0600     2.4980    -9.7150     8.8530    11.8790
  452.5000     8.7960    98.5320     0.0570     2.4960   -10.7320     8.8780    11.9270
  453.0000     9.4170    99.0300     0.0550     2.4960   -12.1670     8.9020    12.0990
  453.5000     9.2800   101.0910     0.0520     2.4960   -13.8020     8.9270    12.2640
  454.0000     8.7350   102.9240     0.0500     2.4960   -13.8270     8.9520    12.4230
  454.5000     8.7700   104.7230     0.0470     2.4940   -12.2350     8.9770    12.7820
  455.0000     8.8020   102.9940     0.0450     2.4900   -10.9430     9.0020    12.7820
  455.5000     8.8600   100.6940     0.0460     2.4860   -10.8010     9.0270    12.7820
  456.0000     8.7920    99.8270     0.0470     2.4840   -10.6850     9.0330    12.7820
  456.5000     8.7460    99.5160     0.0490     2.4860   -10.6340     9.0320    12.7820
  457.0000     8.7720    99.4830     0.0510     2.4880   -10.5410     9.0320    12.5500
  457.5000     8.8530   100.0540     0.0520     2.4910   -10.4820     9.0310    12.4940
  458.0000     8.8250   100.5770     0.0540     2.4930   -10.6210     8.9970    12.4340
  458.5000     8.7450   101.1210     0.0550     2.4940   -10.8170     8.9680    12.3730
  459.0000     8.7160   101.3820     0.0570     2.5010   -11.0100     8.9360    12.3120
  459.5000     8.7460   101.4330     0.0590     2.5130   -11.1970     8.9070    12.2510
  460.0000     8.8130   101.5680     0.0600     2.5090   -11.3550     8.8720    12.1910
  460.5000     8.8150   101.6100     0.0620     2.5040   -11.6380     8.8690    12.1300
  461.0000     8.5330   101.5650     0.0630     2.5020   -11.9260     8.8680    12.0690
  461.5000     8.6140    99.9020     0.0650     2.5020   -12.2430     8.8690    12.0080
  462.0000     8.9650    98.3150     0.0660     2.5020   -12.2150     8.8690    11.9480
  462.5000     8.9400    97.1500     0.0680     2.5000   -11.2410     8.8680    11.8810
  463.0000     8.9860    96.9850     0.0690     2.4990   -10.5030     8.8680    12.1000
  463.5000     9.0030    96.7800     0.0710     2.4990   -10.4810     8.8510    12.1800
  464.0000     9.0290    95.4430     0.0720     2.5040   -10.4690     8.8360    12.2990
  464.5000     9.0540    92.7690     0.0720     2.5090   -10.4790     8.8200    12.4190
  465.0000     9.0610    90.2810     0.0700     2.5140   -10.4740     8.8050    12.5380
  465.5000     8.9370    88.6330     0.0630     2.5180   -10.4750     8.7890    12.6570
  466.0000     8.8070    88.4770     0.0550     2.5250   -10.4750     8.7720    12.7820
  466.5000     8.7510    88.9130     0.0470     2.5120   -10.4740     8.7570    12.7820
  467.0000     8.8520    89.3540     0.0460     2.4800   -10.4740     8.7410    12.6200
  467.5000     8.9290    89.5360     0.0540     2.4800   -10.4740     8.7270    12.4160
  468.0000     9.0210    91.3390     0.0670     2.4820   -10.4740     8.7100    12.1520
  468.5000     9.0270    94.0200     0.0720     2.4840   -10.4750     8.6430    11.8880
  469.0000     9.0290    96.4900     0.0760     2.4870   -10.4750     8.4990    11.6240
  469.5000     9.0270    98.9050     0.0800     2.4890   -10.4740     8.3540    11.3610
  470.0000     9.0280   101.2710     0.0800     2.4900   -10.4760     8.2110    11.0430
  470.5000     9.0280   101.2640     0.0800     2.4840   -10.4760     8.0680    10.9940
