~VERSION INFORMATION
 VERS.                2.0:   CWLS LOG ASCII STANDARD - VERSION 2.0
 WRAP.                 NO:   ONE LINE PER DEPTH STEP
~WELL INFORMATION
#MNEM.UNIT      DATA TYPE    INFORMATION
#----------   ------------   ------------------------------
 STRT.F            5.5000:   START DEPTH
 STOP.F         3006.0000:   STOP DEPTH
 STEP.F            0.5000:   STEP LENGTH
 NULL.          -999.2500:   NO VALUE
 COMP.    FENIX & SCISSON:   COMPANY
 WELL.  FENIX "AX" #28-28:   WELL
 FLD .  TEAPOT DOME NPR-3:   FIELD
 LOC .      S28 T39N R78W:   LOCATION
 CNTY.            NATRONA:   COUNTY
 STAT.            WYOMING:   STATE
 CTRY. UNITED STATES OF AMERICA:   COUNTRY
 SRVC.           BIRDWELL:   SERVICE COMPANY
 DATE.        23-JAN-1980:   LOGDATE
 API .     49025107960000:   API NUMBER
~CURVE INFORMATION
#MNEM.UNIT       API CODE    CURVE DESCRIPTION
#----------   ------------   ------------------------------
 DEPT.F                  :   
 GRD .GAPI   45 310 01 00:   GAMMA RAY FROM DENSITY LOG
 CALD.IN     45 280 60 00:   CALIPER FROM DENSITY LOG
 DPHI.DEC    45 890 12 00:   DENSITY POROSITY SANDSTONE
 NPHI.DEC    42 890 03 00:   NEUTRON POROSITY SANDSTONE
 CORR.G/C3   45 356 01 00:   DENSITY CORRECTION
 SPR .MV     05 010 01 00:   SPONTANEOUS POTENTIAL FROM RES.
 ILD .OHMM   05 120 40 00:   INDUCTION LOG DEEP RESISTIVITY
 SN  .OHMM   05 040 16 00:   SHORT NORMAL 16"
~PARAMETER INFORMATION
#MNEM.UNIT          VALUE    DESCRIPTION
#----------   ------------   ------------------------------
 EKB .F         5120.0000:   Kelly bushing
 EGL .F         5110.0000:   Ground level
 EDF .F         5119.0000:   Drilling floor
 EPD .F         5110.0000:   Permanent datum
 TD  .F         3006.0000:   Total depth
 CLNT.            A2DTECH:   Client Code
 SL  . 600' FSL & 1300' FWL:   Surface Location
 PD  .                 GL:   Permanent Datum
 DAPD.F                 9:   Feet Above Permanent Datum
 DATE.        23-JAN-1980:   Date Logged [DD-MMM-YYYY]
 DD  .F              3006:   Depth driller
 DL  .F              3006:   Depth logger
 BLI .F              3006:   Bottom log interval
 TLI .F                10:   Top log interval
 CS1 .IN            8.625:   Casing size
 CBD1.      8.625" @ 440':   Casing driller 1
 CBL1.F               460:   Casing logger 1
 BS1 .IN            7.875:   Bit size
 BSD1.F              3006:   Depth drilled with bit1
 DFT .       GEL MUD FULL:   Type fluid in hole
 DFD .                  9:   Density
 DFV .                 46:   Viscosity
 DFPH.                 11:   pH
 DFL .               17.2:   Fluid loss
 MSS .           MUD TANK:   Source of sample
 RMS .OHMM            1.9:   Rm
 MST .F                60:   Rm Meas. temp.
 RMF .OHMM            .73:   Rmf
 MFST.F                62:   Rmf Meas. temp.
 MFSS.               MEAS:   Source Rmf.
 RMC .OHMM            .95:   Rmc
 MCST.F                62:   Rmc Meas. temp.
 TCS .HRS               5:   Time Circ. stopped
 MRT .F               110:   Maximum recorded temp.
 LUN .               3029:   Logging unit number
 LUL .             CASPER:   Logging unit location
 ENGI.           T. WOLFF:   Recorded By
 WITN.           DINSMORE:   Witnessed by
 ORIG.           5" PRINT:   Origin of data
 UWI .     49025107960000:   Unique Well ID
 DICO. A2D TECHNOLOGIES, INC.:   Digitizing Company
~OTHER INFORMATION
~A    DEPT      GRD      CALD       DPHI         NPHI     CORR        SPR        ILD         SN   
# ...
 2638.0000   104.9425     9.1243     0.2161     0.0666     0.0083   -30.7790     5.7740     7.0131
 2638.5000   108.7016     9.1110     0.2160     0.0652     0.0069   -30.8401     5.8208     7.1698
 2639.0000   106.6494     9.0832     0.2163     0.0681     0.0056   -30.8968     5.8670     7.3825
 2639.5000   103.1114     9.0555     0.2159     0.0684     0.0059   -30.9426     5.9559     7.4406
 2640.0000   102.6800     9.0281     0.2030     0.0662     0.0076   -30.9494     6.0461     7.6069
 2640.5000   103.8871     9.0004     0.1981     0.0644     0.0078   -30.6478     6.1377     7.7780
 2641.0000   107.4601     8.9949     0.2026     0.0631     0.0126   -30.3522     6.3230     7.9508
 2641.5000   108.0658     8.9437     0.2085     0.0643     0.0110   -30.0579     6.6290     8.1297
 2642.0000   100.3840     8.8853     0.2169     0.0676    -0.0006   -29.6021     6.9351     8.2523
 2642.5000    81.7348     8.8303     0.2007     0.0726     0.0011   -30.2770     7.3068     8.4971
 2643.0000    82.7893     8.8025     0.1847     0.0828     0.0089   -29.7622     7.7419     8.8119
 2643.5000    90.6587     8.8049     0.1798     0.0971     0.0106   -29.1563     8.3804     9.0733
 2644.0000    92.0286     8.8068     0.1813     0.1096     0.0018   -29.1778     9.0936     9.8912
 2644.5000    91.5825     8.8235     0.1782     0.1189     0.0004   -29.2899     9.8014    11.1744
 2645.0000    90.4148     8.8402     0.1791     0.1197     0.0022   -29.6963    10.5091    12.2689
 2645.5000    90.5492     8.8419     0.1838     0.1177     0.0069   -30.5396    11.0253    12.5431
 2646.0000    94.0651     8.8440     0.1898     0.1099     0.0102   -30.5391    11.3531    12.5519
 2646.5000    94.7636     8.8459     0.1852     0.1034     0.0106   -30.1585    11.6076    12.6507
 2647.0000    93.7484     8.8478     0.1825     0.1040     0.0121   -29.5000    11.7835    12.6597
 2647.5000    92.8770     8.8496     0.1833     0.1039     0.0047   -29.7719    11.7925    12.5782
 2648.0000    90.2278     8.8516     0.1845     0.1075     0.0034   -30.1249    11.5517    12.4108
 2648.5000    93.5046     8.8535     0.1780     0.1117     0.0052   -29.9409    11.4741    12.2414
 2649.0000    95.2954     8.8405     0.1747     0.1071     0.0069   -29.7678    11.1640    12.1629
 2649.5000    93.5352     8.8429     0.1762     0.1023     0.0056   -29.5997    11.0931    12.0010
 2650.0000    92.8167     8.8448     0.1881     0.0903     0.0058   -29.4379    11.0130    11.8403
 2650.5000    94.1732     8.8451     0.1929     0.0863     0.0153   -29.2642    10.8761    11.2692
 2651.0000    96.8630     8.8433     0.1953     0.0881     0.0002   -29.1848    10.7296    11.1938
 2651.5000    99.8490     8.8415     0.1775     0.0988     0.0005   -29.0564    10.6589    11.0414
 2652.0000    96.7909     8.8396     0.1736     0.0994     0.0023   -29.3849    10.5906    10.9691
 2652.5000    94.7101     8.8390     0.1759     0.0975     0.0101   -29.7785    10.5227    10.8972
 2653.0000    96.9612     8.8260     0.1902     0.0942     0.0239   -30.1462    10.3828    10.9048
 2653.5000   102.6139     8.8283     0.2038     0.0811     0.0347   -29.8704    10.3901    10.6799
 2654.0000    98.4888     8.8154     0.2086     0.0764     0.0289   -29.0375    10.3231    10.6098
 2654.5000    99.1045     8.8173     0.1996     0.0836     0.0201   -28.5834    10.1841    10.5388
 2655.0000   101.4923     8.8193     0.1911     0.0877     0.0082   -28.5757    10.0471    10.3230
 2655.5000    99.5894     8.8215     0.1899     0.0901    -0.0006   -29.7965     9.9827    10.3160
 2656.0000   100.0628     8.8234     0.1920     0.0919     0.0014   -30.2042     9.7782    10.1881
 2656.5000   107.8030     8.8253     0.1928     0.0918     0.0075   -30.1426     9.5702    10.1214
 2657.0000   115.5837     8.8119     0.1925     0.0906     0.0122   -29.6586     9.3704    10.0550
 2657.5000   119.1008     8.7989     0.1985     0.0857     0.0231   -28.3461     9.1257     9.8490
 2658.0000   124.9017     8.8012     0.1978     0.0797     0.0369   -28.3607     9.0028     9.7149
 2658.5000   125.2153     8.8031     0.1918     0.0773     0.0386   -29.6466     8.8815     9.5132
 2659.0000   116.6516     8.8050     0.1840     0.0838     0.0026   -30.6888     8.7618     9.2520
 2659.5000   107.6377     8.8073     0.1731     0.0826    -0.0017   -30.9528     8.6437     8.8693
 2660.0000   106.1735     8.7939     0.1719     0.0759     0.0046   -30.9728     8.5258     8.8743
 2660.5000   110.2024     8.7960     0.1755     0.0651     0.0048   -30.5110     8.3511     8.9428
 2661.0000   112.4652     8.7981     0.1907     0.0639     0.0051   -29.9834     8.2400     9.4088
 2661.5000   108.9031     8.8000     0.2081     0.0701     0.0023   -29.7645     8.1858     9.5466
 2662.0000   108.7903     8.8018     0.2113     0.0752    -0.0020   -30.1911     8.1930     9.0645
 2662.5000   116.6710     8.7889     0.2086     0.0787    -0.0033   -29.9806     8.1987     8.7119
 2663.0000   112.3978     8.7908     0.2017     0.0746    -0.0030   -29.3532     8.2045     8.4704
 2663.5000   106.9394     8.7927     0.1939     0.0666     0.0003   -28.9914     8.1518     8.7217
 2664.0000   107.7033     8.7950     0.1821     0.0594     0.0080   -28.9790     8.0988     9.0435
 2664.5000   112.0227     8.7821     0.1683     0.0534     0.0128   -28.9774     7.9905     9.1786
 2665.0000   113.0770     8.7837     0.1668     0.0563     0.0070   -28.9884     8.1112     9.3157
 2665.5000   109.2541     8.7811     0.1654     0.0599    -0.0003   -29.2467     8.5339     9.7982
 2666.0000    97.5735     8.7727     0.1553     0.0554    -0.0079   -29.8410     9.0414    10.3796
 2666.5000    87.8929     8.7599     0.1397     0.0514    -0.0164   -30.1446     9.5792    10.9953
 2667.0000    77.7678     8.7618     0.1358     0.0463    -0.0131   -30.5406    10.0768    11.4826
 2667.5000    79.8708     8.7637     0.1396     0.0453     0.0067   -30.1481    10.5249    11.9943
 2668.0000    91.4495     8.7660     0.1438     0.0478     0.0085   -29.7720    10.8372    12.5232
 2668.5000   101.5466     8.7679     0.1522     0.0539     0.0056   -29.0236    11.2387    12.5303
 2669.0000    99.3475     8.7695     0.1623     0.0584     0.0014   -29.7048    11.4899    12.4479
 2669.5000    99.5188     8.7714     0.1659     0.0557     0.0031   -30.1549    11.3331    12.0201
 2670.0000    99.8324     8.7735     0.1700     0.0499     0.0034   -30.1394    11.1804    11.4410
 2670.5000    97.9354     8.7754     0.1733     0.0481     0.0036   -29.9082    11.0297    11.1238
 2671.0000    94.5431     8.7772     0.1690     0.0487     0.0069   -29.4951    10.9607    11.1316
 2671.5000    93.5371     8.7643     0.1660     0.0504     0.0039   -29.4388    10.9687    11.1378
 2672.0000    96.0845     8.7662     0.1657     0.0522    -0.0017   -29.8227    10.8983    11.3042
 2672.5000    96.4039     8.7537     0.1687     0.0546    -0.0014   -30.1486    10.9061    11.4731
 2673.0000    98.0567     8.7407     0.1707     0.0587    -0.0028   -30.1369    10.8361    11.6445
 2673.5000   100.3020     8.7426     0.1692     0.0604    -0.0010   -29.6449    10.8559    11.8184
 2674.0000    94.6955     8.7144     0.1689     0.0538     0.0023   -29.5221    10.9309    11.9097
 2674.5000    95.9038     8.7014     0.1715     0.0409     0.0177   -29.3315    10.9386    11.8317
 2675.0000   106.0010     8.6798     0.1739     0.0432     0.0300   -29.1778    10.9463    11.7404
 2675.5000   114.7648     8.6612     0.1793     0.0510     0.0287   -29.1766    10.9540    11.5117
 2676.0000   108.8441     8.6325     0.1909     0.0593     0.0166   -29.1679    10.8819    11.2742
 2676.5000    99.5518     8.5913     0.1780     0.0602    -0.0027   -29.1539    10.7372    11.2004
 2677.0000   103.2843     8.5636     0.1636     0.0541    -0.0007   -29.1865    10.6683    11.2082
 2677.5000   109.9741     8.5502     0.1671     0.0535     0.0010   -29.2793    10.6758    11.5391
 2678.0000   107.9231     8.5229     0.1734     0.0531    -0.0003   -28.6865    10.6833    11.7954
