~VERSION INFORMATION
 VERS.                2.0:   CWLS LOG ASCII STANDARD - VERSION 2.0
 WRAP.                 NO:   ONE LINE PER DEPTH STEP
~WELL INFORMATION
#MNEM.UNIT      DATA TYPE    INFORMATION
#----------   ------------   ------------------------------
 STRT.F          176.0000:   START DEPTH
 STOP.F         3380.0000:   STOP DEPTH
 STEP.F            0.5000:   STEP LENGTH
 NULL.          -999.2500:   NO VALUE
 COMP.    PENIX & SCISSON:   COMPANY
 WELL.  FENIX "AX" #85-15:   WELL
 FLD .             NPR #3:   FIELD
 LOC .      S15 T38N R78W:   LOCATION
 CNTY.            NATRONA:   COUNTY
 STAT.            WYOMING:   STATE
 CTRY. UNITED STATES OF AMERICA:   COUNTRY
 SRVC.       SCHLUMBERGER:   SERVICE COMPANY
 DATE.        28-APR-1981:   LOGDATE
 API .     49025108700000:   API NUMBER
~CURVE INFORMATION
#MNEM.UNIT       API CODE    CURVE DESCRIPTION
#----------   ------------   ------------------------------
 DEPT.F                  :   
 TEND.LBS    45 635 01 00:   TENSION FROM DENSITY LOG
 CALD.IN     45 280 60 00:   CALIPER FROM DENSITY LOG
 CORR.G/C3   45 356 01 00:   DENSITY CORRECTION
 GRD .GAPI   45 310 01 00:   GAMMA RAY FROM DENSITY LOG
 RHOB.G/C3   45 350 01 00:   BULK DENSITY
 SFL .OHMM   07 220 01 00:   SHALLOW FOCUSED LOG RESISTIVITY
 ILD .OHMM   07 120 46 00:   INDUCTIONLOG DEEP RESISTIVITY
 ILM .OHMM   07 120 44 00:   INDUCTION LOG MEDIUM RESISTIVITY
 TENR.LBS    07 635 01 00:   TENSION FROM RESISTIVITY
 SPR .MV     07 010 01 00:   SPONTANEOUS POTENTIAL
~PARAMETER INFORMATION
#MNEM.UNIT          VALUE    DESCRIPTION
#----------   ------------   ------------------------------
 EKB .F         5259.0000:   Kelly bushing
 EGL .F         5249.0000:   Ground level
 EDF .F            0.0000:   Drilling floor
 TD  .F         3333.0000:   Total depth
 DATE.        28-APR-1981:   Date logged
 CLNT.            A2DTECH:   Client Code
 SL  . 1927' FSL & 140' FEL:   Surface Location
 PD  .                 GL:   Permanent Datum
 DD  .F              3333:   Depth driller
 DL  .F              3382:   Depth logger
 BLI .F              3376:   Bottom log interval
 TLI .F               182:   Top log interval
 CS1 .IN            8.625:   Casing size
 CBD1.      8.625" @ 181':   Casing driller 1
 CBL1.F               182:   Casing logger 1
 BS1 .IN            7.875:   Bit size
 BSD1.F              3333:   Depth drilled with bit1
 DFT .                GEL:   Type fluid in hole
 DFD .                8.7:   Density
 DFV .                 35:   Viscosity
 DFPH.                9.5:   pH
 DFL .                  7:   Fluid loss
 MSS .               TANK:   Source of sample
 RMS .OHMM           1.79:   Rm
 MST .F                58:   Rm Meas. temp.
 RMF .OHMM           1.43:   Rmf
 MFST.F                58:   Rmf Meas. temp.
 MFSS.               MEAS:   Source Rmf.
 RMB .OHMM            .93:   Rm. at BHT
 BHT .F               112:   BHT.
 TCS .HRS             800:   Time Circ. stopped
 TLAB.HRS             200:   Time logger at bottom
 MRT .F               112:   Maximum recorded temp.
 LUN .               8039:   Logging unit number
 LUL .               CAPR:   Logging unit location
 ENGI.           HARRINER:   Recorded By
 WITN.              SCOTT:   Witnessed by
 ORIG.           5" PRINT:   Origin of data
 UWI .     49025108700000:   Unique Well ID
 DICO. A2D TECHNOLOGIES, INC.:   Digitizing Company
 EPD .               5249:   Elevation Permanent Datum
 LMF .                 KB:   Log Measured From
 DMF .                 KB:   Drilling Measured From
 DAPD.                 10:   Feet Above Permanent Datum
~OTHER INFORMATION
~A   DEPT     TEND       CALD       CORR         GRD      RHOB        SFL        ILD        ILM       TENR        SPR   
# ...
 3124.0000  1801.9800     9.0730     0.0040   142.7310     2.5170     6.8770     5.3370     5.0960  1854.8409   -15.3930
 3124.5000  1801.9800     9.0730     0.0060   141.4370     2.5250     7.0230     5.3940     5.1560  1854.2260   -15.5100
 3125.0000  1801.9800     9.0740     0.0090   140.0240     2.5460     7.1630     5.4500     5.2160  1853.6121   -15.5540
 3125.5000  1801.9800     9.0740     0.0110   138.5350     2.5570     7.3040     5.5070     5.2750  1852.9969   -15.5500
 3126.0000  1801.9800     9.0740     0.0140   137.3630     2.5570     7.5280     5.5640     5.3380  1852.3831   -15.5510
 3126.5000  1801.9800     9.0750     0.0170   136.4370     2.5510     7.4220     5.6200     5.3380  1851.7679   -15.5520
 3127.0000  1801.9800     9.0750     0.0170   136.8230     2.5400     7.3930     5.6770     5.2420  1851.1541   -15.5490
 3127.5000  1801.9800     9.0760     0.0080   138.3870     2.5280     7.4490     5.7330     5.2420  1850.5389   -15.5550
 3128.0000  1801.9800     9.0760     0.0020   139.7990     2.5130     7.5280     5.7900     5.3380  1849.9240   -15.5470
 3128.5000  1801.9800     9.0770     0.0020   140.8510     2.5190     7.4970     5.8430     5.4350  1849.3101   -15.5180
 3129.0000  1801.9800     9.0770     0.0040   140.1900     2.5240     7.4310     5.8430     5.5340  1848.6949   -15.3550
 3129.5000  1801.9800     9.0770     0.0070   139.4070     2.5300     7.3930     5.8430     5.5340  1848.0811   -15.1190
 3130.0000  1801.9800     9.0780     0.0110   138.5730     2.5370     7.7050     5.8430     5.5850  1847.4659   -14.7210
 3130.5000  1801.9800     9.0780     0.0160   138.5330     2.5460     8.0110     5.8430     5.6350  1846.8521   -14.7840
 3131.0000  1801.9800     9.0790     0.0290   138.5290     2.5540     8.3160     5.8430     5.5340  1846.2371   -14.7590
 3131.5000  1801.9800     9.0830     0.0370   138.9240     2.5560     8.1160     5.6920     5.4190  1845.6230   -14.7580
 3132.0000  1801.9800     9.0880     0.0200   142.2500     2.5360     7.7510     5.6300     5.3190  1845.0081   -14.7840
 3132.5000  1801.9800     9.0930     0.0060   146.4870     2.5190     7.3860     5.5680     5.2190  1844.3929   -14.7230
 3133.0000  1801.9800     9.0980     0.0010   144.4160     2.5200     7.0210     5.5060     5.1200  1843.7791   -15.0800
 3133.5000  1801.9800     9.1030     0.0050   140.0560     2.5280     6.7530     5.4350     4.9650  1843.1639   -15.1600
 3134.0000  1801.9800     9.1070     0.0080   136.9470     2.5370     6.6320     5.4350     5.0060  1842.5500   -15.1640
 3134.5000  1801.9800     9.1120     0.0110   137.7880     2.5410     6.6320     5.5170     5.0970  1841.9351   -15.1510
 3135.0000  1801.9800     9.1170     0.0100   138.4400     2.5440     6.6320     5.5950     5.1890  1841.3210   -15.1690
 3135.5000  1801.9800     9.1220     0.0090   137.5330     2.5480     6.7530     5.6730     5.2800  1840.7061   -15.2670
 3136.0000  1801.9800     9.1270     0.0140   136.1130     2.5570     7.1450     5.7510     5.3710  1840.0920   -15.3600
 3136.5000  1801.9800     9.1320     0.0220   134.4270     2.5650     7.4770     5.8290     5.4620  1839.4771   -15.4590
 3137.0000  1801.9800     9.1370     0.0180   133.7370     2.5670     7.8080     5.9070     5.5540  1838.8621   -15.5530
 3137.5000  1801.9800     9.1420     0.0160   134.4160     2.5550     8.2410     5.9860     5.6350  1838.2480   -15.6490
 3138.0000  1801.9800     9.1470     0.0130   135.5460     2.5400     8.1740     6.0640     5.8430  1837.6331   -15.7470
 3138.5000  1801.9800     9.1520     0.0100   136.7840     2.5250     7.9390     6.1420     5.8430  1837.0190   -15.8380
 3139.0000  1801.9800     9.1560     0.0070   136.5250     2.5230     7.6650     6.2820     5.8430  1836.4041   -15.9400
 3139.5000  1801.9800     9.1570     0.0040   133.6650     2.5300     7.6650     6.2820     5.8430  1835.7900   -15.9400
 3140.0000  1801.9800     9.1570     0.0040   131.0820     2.5370     7.9050     6.2820     5.8430  1835.1750   -15.9340
 3140.5000  1801.9800     9.1570     0.0080   128.2390     2.5470     8.1400     6.2820     5.8430  1834.5601   -15.6390
 3141.0000  1801.9800     9.1570     0.0110   127.7270     2.5490     8.2410     6.2820     5.8430  1833.9460   -15.2900
 3141.5000  1801.9800     9.1570     0.0150   128.7260     2.5480     8.2410     6.3040     5.8430  1833.3311   -14.9390
 3142.0000  1801.9800     9.1570     0.0140   129.4490     2.5420     8.1600     6.3670     5.8430  1832.7170   -14.5880
 3142.5000  1801.9800     9.1570     0.0130   130.1950     2.5360     8.0070     6.4300     5.8430  1832.1021   -14.1660
 3143.0000  1801.9800     9.1570     0.0150   129.6260     2.5440     7.8050     6.4930     5.9500  1831.4880   -13.9600
 3143.5000  1801.9800     9.1570     0.0170   128.8730     2.5520     7.8780     6.5130     6.0590  1830.8730   -13.9870
 3144.0000  1801.9800     9.1600     0.0120   129.2270     2.5480     8.1520     6.5130     6.0590  1830.2590   -13.9640
 3144.5000  1801.9800     9.1660     0.0050   131.4750     2.5420     8.4260     6.5130     6.0590  1829.6440   -14.1000
 3145.0000  1801.9800     9.1720     0.0010   133.3430     2.5340     8.7000     6.3960     6.0590  1829.0291   -14.3270
 3145.5000  1801.9800     9.1780     0.0020   134.3110     2.5350     8.7000     6.2820     6.0590  1828.4150   -14.5270
 3146.0000  1801.9800     9.1830     0.0020   139.9290     2.5420     8.0930     6.0590     5.7380  1827.8000   -14.7360
 3146.5000  1801.9800     9.1910     0.0170   143.6680     2.5500     7.9480     5.6980     5.3110  1827.1860   -14.9380
 3147.0000  1801.9800     9.1950     0.0320   150.7710     2.5450     7.1440     5.2400     4.9050  1826.5710   -15.1420
 3147.5000  1801.9800     9.1890     0.0590   149.5410     2.5510     6.5130     4.7820     4.4990  1825.9570   -15.1570
 3148.0000  1801.9800     9.1550     0.1090   150.9680     2.5170     5.5240     4.3250     4.0940  1825.3420   -15.1640
 3148.5000  1801.9800     9.2150     0.1490   158.7410     2.4580     4.6270     3.8670     3.6880  1824.7280   -15.2640
 3149.0000  1801.9800     9.2790     0.1240   173.3540     2.4050     3.7290     3.3350     3.2160  1824.1130   -15.3860
 3149.5000  1801.9800     9.3190     0.0510   171.4410     2.3540     3.1580     3.4680     3.2160  1823.4980   -15.5090
 3150.0000  1801.9800     9.2890     0.0110   161.0180     2.3950     3.8490     3.7780     3.5380  1822.8840   -15.6290
 3150.5000  1801.9800     9.2470     0.0220   149.7440     2.4770     4.9770     4.0880     3.8530  1822.2690   -15.7470
 3151.0000  1801.9800     9.2060     0.0330   130.5000     2.5600     6.1050     4.3990     4.1680  1821.6550   -15.8790
 3151.5000  1801.9800     9.1960     0.0370   130.7750     2.6060     7.2600     4.7090     4.4840  1821.0400   -15.9510
 3152.0000  1801.9800     9.1960     0.0290   129.9420     2.5930     7.4760     5.0200     4.7990  1820.4260   -15.9380
 3152.5000  1801.9800     9.1960     0.0210   128.3440     2.5840     7.6230     5.3300     5.1140  1819.8110   -15.9590
 3153.0000  1801.9800     9.1960     0.0140   126.6340     2.5760     7.7690     5.6400     5.4300  1819.1960   -15.7890
 3153.5000  1801.9800     9.1960     0.0060   127.0920     2.5720     7.9480     5.8890     5.7380  1818.5820   -15.4630
 3154.0000  1801.9800     9.1960     0.0050   130.1770     2.5720     7.9480     5.9500     5.8430  1817.9670   -15.1680
 3154.5000  1801.9800     9.1960     0.0050   133.0460     2.5710     7.9480     6.0590     5.8010  1817.3530   -14.8710
 3155.0000  1801.9800     9.1960     0.0080   135.4800     2.5630     7.9480     5.9760     5.6750  1816.7380   -14.5420
 3155.5000  1801.9800     9.1960     0.0100   136.2200     2.5530     7.6170     5.8870     5.5480  1816.1240   -14.3540
 3156.0000  1801.9800     9.1960     0.0120   137.4030     2.5470     7.3220     5.7380     5.4350  1815.5090   -14.3760
 3156.5000  1801.9800     9.1960     0.0130   137.4630     2.5520     7.0270     5.7540     5.3380  1814.8950   -14.3710
 3157.0000  1801.9800     9.1960     0.0100   135.5720     2.5570     6.8770     5.8060     5.3550  1814.2800   -14.3680
