~VERSION INFORMATION
 VERS.                2.0:   CWLS LOG ASCII STANDARD - VERSION 2.0
 WRAP.                 NO:   ONE LINE PER DEPTH STEP
~WELL INFORMATION
#MNEM.UNIT      DATA TYPE    INFORMATION
#----------   ------------   ------------------------------
 STRT.F            3.5000:   START DEPTH
 STOP.F         5648.0000:   STOP DEPTH
 STEP.F            0.5000:   STEP LENGTH
 NULL.          -999.2500:   NO VALUE
 COMP.       FLUOR DANIEL:   COMPANY
 WELL.   FLUOR "X" #46-10:   WELL
 FLD .          N.P.R. #3:   FIELD
 LOC .      S10 T38N R78W:   LOCATION
 CNTY.            NATRONA:   COUNTY
 STAT.            WYOMING:   STATE
 CTRY. UNITED STATES OF AMERICA:   COUNTRY
 SRVC.      WESTERN ATLAS:   SERVICE COMPANY
 DATE.        25-MAR-1996:   LOGDATE
 API .     49025227700000:   API NUMBER
~CURVE INFORMATION
#MNEM.UNIT       API CODE    CURVE DESCRIPTION
#----------   ------------   ------------------------------
 DEPT.F                  :   
 CALD.IN     45 280 60 00:   CALIPER FROM DENSITY LOG
 ZDEN.G/C3   45 350 01 00:   BULK DENSITY
 ZCOR.G/C3   45 356 01 00:   DENSITY CORRECTION
 TEND.LBS    45 635 01 00:   TENSION FORM DENSITY LOG
 GRD .GAPI   45 310 01 00:   GAMMA RAY FROM DENSITY LOG
 CNC .DEC    42 890 01 00:   NEUTRON POROSITY LIMESTONE
 SPR .MV     07 010 01 00:   SPONTANEOUS POTENTIAL
 RD  .OHMM   07 220 10 00:   RESISTIVITY DEEP
 RS  .OHMM   07 220 09 00:   RESISTIVITY SHALLOW
~PARAMETER INFORMATION
#MNEM.UNIT          VALUE    DESCRIPTION
#----------   ------------   ------------------------------
 EKB .F         5216.0000:   Kelly bushing
 EGL .F         5206.0000:   Ground level
 EDF .F         5215.0000:   Drilling floor
 TD  .F         5650.0000:   Total depth
 CLNT.            A2DTECH:   Client Code
 SL  . 1493' FSL & 2330' FWL:   Surface Location
 PD  .                 GL:   Permanent Datum
 EPD .F              5206:   Elevation Permanent Datum
 LMF .                 KB:   Log Measured From
 DMF .                 KB:   Drilling Measured From
 DAPD.F                10:   Feet Above Permanent Datum
 DATE.        25-MAR-1996:   Date Logged [DD-MMM-YYYY]
 DD  .F              5650:   Depth driller
 DL  .F              5648:   Depth logger
 BLI .F              5636:   Bottom log interval
 TLI .F                 0:   Top log interval
 CS1 .IN            9.625:   Casing size
 CBD1.      9.625" @ 498':   Casing driller 1
 CBL1.F               496:   Casing logger 1
 BS1 .IN             8.75:   Bit size
 BSD1.F              5650:   Depth drilled with bit1
 DFT .           CHEM GEL:   Type fluid in hole
 DFD .                9.6:   Density
 DFV .                 54:   Viscosity
 DFPH.                9.5:   pH
 DFL .                8.4:   Fluid loss
 MSS .           FLOWLINE:   Source of sample
 RMS .OHMM          0.635:   Rm
 MST .F                68:   Rm Meas. temp.
 RMF .OHMM          0.483:   Rmf
 MFST.F                68:   Rmf Meas. temp.
 MFSS.               MEAS:   Source Rmf.
 RMC .OHMM          0.789:   Rmc
 MCST.F                68:   Rmc Meas. temp.
 MCSS.               MEAS:   Source Rmc.
 RMB .OHMM           0.26:   Rm. at BHT
 BHT .F               166:   BHT.
 TCS .HRS               6:   Time Circ. stopped
 MRT .F               166:   Maximum recorded temp.
 LUN .            HL-6530:   Logging unit number
 LUL .             CASPER:   Logging unit location
 ENGI.        VERN RAUTIO:   Recorded By
 WITN. LORRAINE LAFRENIERE:   Witnessed by
 ORIG.           5" PRINT:   Origin of data
 UWI .     49025227700000:   Unique Well ID
 DICO. A2D TECHNOLOGIES, INC.:   Digitizing Company
~OTHER INFORMATION
~A  DEPTH     CALD       ZDEN       ZCOR       TEND        GRD        CNC        SPR         RD         RS
# ...
 5588.0000     8.5792     2.7221     0.0724   275.2947    12.0482     0.1123  -999.2500   163.5881   100.6697
 5588.5000     8.5792     2.7229     0.0604   276.3158    12.6506     0.1114  -999.2500   146.4066    97.9405
 5589.0000     8.5792     2.7229     0.0604   291.3534    13.2530     0.1099  -999.2500   161.2907   103.5489
 5589.5000     8.5792     2.7199     0.0665   298.8722    13.2530     0.1093  -999.2500   204.0837   119.2864
 5590.0000     8.5792     2.7041     0.0665   306.3910    12.6506     0.1136  -999.2500   249.4421   152.6488
 5590.5000     8.5792     2.6973     0.0620   313.9098    11.3705     0.1183  -999.2500   298.6033   197.2426
 5591.0000     8.5792     2.6910     0.0589   328.9474    10.2410     0.1138  -999.2500   311.2312   198.6638
 5591.5000     8.5943     2.6649     0.0576   343.9850  -999.2500     0.1051  -999.2500   331.2029   207.5262
 5592.0000     8.5943     2.6446     0.0576   366.5414  -999.2500     0.0849  -999.2500   369.9626   223.5948
 5592.5000     8.5943     2.6340     0.0562   381.5789  -999.2500     0.0702  -999.2500   413.2447   244.7049
 5593.0000     8.5943     2.6295     0.0562   389.0977  -999.2500     0.0642  -999.2500   401.9024   264.1272
 5593.5000     8.5943     2.6205     0.0502   396.6165  -999.2500     0.0588  -999.2500   354.7552   233.2703
 5594.0000     8.5943     2.5964     0.0397   411.6541  -999.2500     0.0549  -999.2500   268.8879   175.6938
 5594.5000     8.5943     2.5753     0.0398   434.2105  -999.2500     0.0519  -999.2500   205.2142   138.8962
 5595.0000     8.5943     2.5663     0.0398   471.8045  -999.2500     0.0498  -999.2500   212.4165   129.6434
 5595.5000     8.5868     2.5640     0.0399   501.8797  -999.2500     0.0483  -999.2500   232.3964   140.9141
 5596.0000     8.5792     2.5625     0.0369   509.3985  -999.2500     0.0480  -999.2500   282.0872   168.7345
 5596.5000     8.5943     2.5625     0.0339   501.8797  -999.2500     0.0489  -999.2500   315.0888   187.2387
 5597.0000     8.5792     2.5715     0.0340   494.1134  -999.2500     0.0504  -999.2500   310.7143   200.7062
 5597.5000     8.5792     2.5866     0.0400   464.2857  -999.2500  -999.2500  -999.2500   298.0297   182.2334
 5598.0000     8.5792     2.5927     0.0416   434.2105  -999.2500  -999.2500  -999.2500   272.3361   171.2748
 5598.5000     8.5792     2.5964     0.0431   411.6541  -999.2500  -999.2500  -999.2500   233.8132   160.9751
 5599.0000     8.5792     2.6032     0.0356   419.1729  -999.2500  -999.2500  -999.2500   200.7460   144.6147
 5599.5000     8.5792     2.6160     0.0248   426.6917  -999.2500  -999.2500  -999.2500   160.2370   118.7903
 5600.0000     8.5792     2.6250     0.0101   434.2105  -999.2500  -999.2500  -999.2500   120.2185    94.5627
 5600.5000     8.5490     2.6099     0.0042   441.7293  -999.2500  -999.2500  -999.2500   101.0909    79.1053
 5601.0000     8.5189     2.5994     0.0463   456.7669  -999.2500  -999.2500  -999.2500    82.8370    61.4068
 5601.5000     8.5189     2.6017     0.0810   471.8045  -999.2500  -999.2500  -999.2500    69.5258    50.7687
 5602.0000     8.5189     2.6084     0.0824   486.8421  -999.2500  -999.2500  -999.2500    67.1486    49.7348
 5602.5000     8.5189     2.6161     0.0659   494.3609  -999.2500  -999.2500  -999.2500    67.6069    50.7938
 5603.0000     8.5189     2.6348     0.0419   494.3609  -999.2500  -999.2500  -999.2500    69.0120    51.1592
 5603.5000     8.5038     2.6687     0.0389   494.3609  -999.2500  -999.2500  -999.2500    70.9358    52.2483
 5604.0000     8.4887     2.6890     0.0570   494.3609  -999.2500  -999.2500  -999.2500    74.9643    55.2362
 5604.5000     8.4887     2.7003     0.0601   501.8797  -999.2500  -999.2500  -999.2500    80.3264    64.3349
 5605.0000     8.5038     2.7018     0.0526   501.8797  -999.2500  -999.2500  -999.2500    86.0721    68.9573
 5605.5000     8.5038     2.6973     0.0571   501.8797  -999.2500  -999.2500  -999.2500    89.7090    61.7491
 5606.0000     8.4887     2.6935     0.0587   501.8797  -999.2500  -999.2500  -999.2500    92.2098    60.9153
 5606.5000     8.5038     2.6920     0.0587   509.3985  -999.2500  -999.2500  -999.2500    94.1301    61.7803
 5607.0000     8.5038     2.6989     0.0572   499.7451  -999.2500  -999.2500  -999.2500    97.4305    63.5332
 5607.5000     8.5038     2.7093     0.0528   507.1571  -999.2500  -999.2500  -999.2500   100.1506    66.2430
 5608.0000     8.4887     2.7176     0.0468   522.0168  -999.2500  -999.2500  -999.2500   115.0045    70.5172
 5608.5000     8.4585     2.7267     0.0408   536.9120  -999.2500  -999.2500  -999.2500   139.5900    79.3399
 5609.0000     8.4582     2.7312     0.0379   566.8449  -999.2500  -999.2500  -999.2500   180.3272    94.3097
 5609.5000     8.4284     2.7162     0.0364   574.2215  -999.2500  -999.2500  -999.2500   231.3453   121.9158
 5610.0000     8.4133     2.6807     0.0441   574.0436  -999.2500  -999.2500  -999.2500   247.8932   146.9973
 5610.5000     8.4133     2.6611     0.0575   573.9012  -999.2500  -999.2500  -999.2500   199.9597   153.2670
 5611.0000     8.4284     2.6386     0.0530   573.7589  -999.2500  -999.2500  -999.2500   126.5829   128.0617
 5611.5000     8.4284     2.6054     0.0441   603.6563  -999.2500  -999.2500  -999.2500    93.9681    81.0266
 5612.0000     8.4284     2.5873     0.0456   641.1078  -999.2500  -999.2500  -999.2500    84.6830    63.6986
 5612.5000     8.4284     2.5934     0.0472   663.5219  -999.2500  -999.2500  -999.2500    88.2576    60.7017
 5613.0000     8.4284     2.6077     0.0487   664.1912  -999.2500  -999.2500  -999.2500    92.6262    62.8542
 5613.5000     8.4133     2.6295     0.0472   663.2331  -999.2500  -999.2500  -999.2500    93.2584    63.7460
 5614.0000     8.3831     2.6341     0.0352   678.0970  -999.2500  -999.2500  -999.2500    84.0400    61.9657
 5614.5000     8.3529     2.6145     0.0108   677.9547  -999.2500  -999.2500  -999.2500    74.5154    55.9235
 5615.0000     8.3379     2.5986     0.0038   685.3668  -999.2500  -999.2500  -999.2500    66.3850    50.7725
 5615.5000     8.3379     2.5926     0.0083   677.6691  -999.2500  -999.2500  -999.2500    64.5608    48.0501
 5616.0000     8.3357     2.5904     0.0098   692.5298  -999.2500  -999.2500  -999.2500    64.1047    47.0716
 5616.5000  -999.2500  -999.2500  -999.2500   699.9418  -999.2500  -999.2500  -999.2500    64.5397    47.0862
 5617.0000  -999.2500  -999.2500  -999.2500   714.8015  -999.2500  -999.2500  -999.2500    67.7314    47.4278
 5617.5000  -999.2500  -999.2500  -999.2500   722.1805  -999.2500  -999.2500  -999.2500    79.4130    49.4507
 5618.0000  -999.2500  -999.2500  -999.2500   744.5566  -999.2500  -999.2500  -999.2500   101.1774    56.4131
 5618.5000  -999.2500  -999.2500  -999.2500   751.9686  -999.2500  -999.2500  -999.2500   139.1099    68.0188
 5619.0000  -999.2500  -999.2500  -999.2500   751.7907  -999.2500  -999.2500  -999.2500   174.1603    88.6870
 5619.5000  -999.2500  -999.2500  -999.2500   759.2029  -999.2500  -999.2500  -999.2500   283.7737   123.0411
 5620.0000  -999.2500  -999.2500  -999.2500   766.5438  -999.2500  -999.2500  -999.2500   382.1414   154.0279
 5620.5000  -999.2500  -999.2500  -999.2500   781.4390  -999.2500  -999.2500  -999.2500   403.8600   183.1633
 5621.0000  -999.2500  -999.2500  -999.2500   796.3342  -999.2500  -999.2500  -999.2500   395.4751   196.3354
 5621.5000  -999.2500  -999.2500  -999.2500   803.6752  -999.2500  -999.2500  -999.2500   341.8789   192.3492
 5622.0000  -999.2500  -999.2500  -999.2500   811.0526  -999.2500  -999.2500  -999.2500   285.4996   170.3354
 5622.5000  -999.2500  -999.2500  -999.2500   818.4282  -999.2500  -999.2500  -999.2500   228.7144   134.2947
 5623.0000  -999.2500  -999.2500  -999.2500   818.2502  -999.2500  -999.2500  -999.2500   184.4970   103.2682
 5623.5000  -999.2500  -999.2500  -999.2500   818.1080  -999.2500  -999.2500  -999.2500   159.2538    86.8846
 5624.0000  -999.2500  -999.2500  -999.2500   817.9657  -999.2500  -999.2500  -999.2500   143.7336    82.2258
