~VERSION INFORMATION
 VERS.                2.0:   CWLS LOG ASCII STANDARD - VERSION 2.0
 WRAP.                 NO:   ONE LINE PER DEPTH STEP
~WELL INFORMATION
#MNEM.UNIT      DATA TYPE    INFORMATION
#----------   ------------   ------------------------------
 STRT.F          200.0000:   START DEPTH
 STOP.F         3124.0000:   STOP DEPTH
 STEP.F            0.5000:   STEP LENGTH
 NULL.          -999.2500:   NO VALUE
 COMP.    FENIX & SCISSON:   COMPANY
 WELL. FENIX SCISSON #18-27:   WELL
 FLD .                NPR:   FIELD
 LOC .      S27 T39N R78W:   LOCATION
 CNTY.            NATRONA:   COUNTY
 STAT.            WYOMING:   STATE
 CTRY. UNITED STATES OF AMERICA:   COUNTRY
 SRVC.              WELEX:   SERVICE COMPANY
 DATE.        26-SEP-1977:   LOGDATE
 API .     49025104210000:   API NUMBER
~CURVE INFORMATION
#MNEM.UNIT       API CODE    CURVE DESCRIPTION
#----------   ------------   ------------------------------
 DEPT.F                  :   
 CALD.IN     45 280 60 00:   CALIPER FROM DENSITY LOG
 GRD .GAPI   45 310 01 00:   GAMMA RAY FROM DENSITY LOG
 RHOB.G/C3   45 350 01 00:   BULK DENSITY
 CORR.G/C3   45 356 01 00:   DENSITY CORRECTION
 NPHI.DEC    42 890 03 00:   NEUTRON POROSITY SANDSTONE
 SPR .MV     07 010 01 00:   SPONTANEOUS POTENTIAL
 GURD.OHMM   07 220 05 00:   GUARD LOG RESISTIVITY
 ILD .OHMM   07 120 46 00:   DEEP INDUCTION RESISTIVITY
 ILM .OHMM   07 120 44 00:   INDUCTION LOG MEDIUM RESISTIVITY
 TENR.LBS    07 635 01 00:   TENSION FROM RESISTIVITY
~PARAMETER INFORMATION
#MNEM.UNIT          VALUE    DESCRIPTION
#----------   ------------   ------------------------------
 EKB .F         5080.0000:   Kelly bushing
 EGL .F         5070.0000:   Ground level
 EDF .F            0.0000:   Drilling floor
 EPD .F            0.0000:   Permanent datum
 TD  .F         3117.0000:   Total depth
 DATE.        26-SEP-1977:   Date logged
 CLNT.            A2DTECH:   Client Code
 SL  . 330' FSL & 1650' FWL:   Surface Location
 PD  .                 GL:   Permanent Datum
 DAPD.F                10:   Feet Above Permanent Datum
 DD  .F              3115:   Depth driller
 DL  .F              3117:   Depth logger
 BLI .F              3115:   Bottom log interval
 TLI .F               200:   Top log interval
 CS1 .IN            8.625:   Casing size
 CBD1.      8.625" @ 219':   Casing driller 1
 CBL1.F               220:   Casing logger 1
 BS1 .IN            7.875:   Bit size
 BSD1.F              3115:   Depth drilled with bit1
 DFT .            KCL MUD:   Type fluid in hole
 DFD .                9.1:   Density
 DFV .                 35:   Viscosity
 DFPH.                 11:   pH
 DFL .               17.2:   Fluid loss
 MSS .           FLOWLINE:   Source of sample
 RMS .OHMM            .59:   Rm
 MST .F                98:   Rm Meas. temp.
 RMF .OHMM            .56:   Rmf
 MFST.F                98:   Rmf Meas. temp.
 RMC .OHMM            .24:   Rmc
 MCST.F                98:   Rmc Meas. temp.
 MFSS.               MEAS:   Source Rmf.
 MCSS.               MEAS:   Source Rmc.
 RMB .OHMM            .48:   Rm. at BHT
 BHT .F               116:   BHT.
 TCS .HRS               4:   Time Circ. stopped
 MRT .F               116:   Maximum recorded temp.
 LUN .               8611:   Logging unit number
 LUL .             CASPER:   Logging unit location
 ENGI.            C. DOAK:   Recorded By
 WITN.         PETTINGILL:   Witnessed by
 ORIG.           5" PRINT:   Origin of data
 UWI .     49025104210000:   Unique Well ID
 DICO. A2D TECHNOLOGIES, INC.:   Digitizing Company
~OTHER INFORMATION
~A   DEPT     CALD        GRD       RHOB       CORR         NPHI      SPR       GURD        ILD        ILM        TENR  
# ...
 3081.0000     7.7326   116.1364     2.5232     0.0087     0.2274   -67.0091     5.1427     3.9412     4.3999   945.8800
 3081.5000     7.7325   116.5316     2.5063     0.0086     0.2226   -67.0115     5.0946     3.9403     4.2401   946.3471
 3082.0000     7.7323   117.7195     2.5102     0.0126     0.2202   -67.0151     5.0935     3.9395     4.1702   946.5223
 3082.5000     7.7321   118.9075     2.4823     0.0066     0.2170   -67.0181     4.9998     3.9028     4.0859   946.8726
 3083.0000     7.7319   119.3021     2.4773     0.0006     0.2154   -67.2187     5.0913     3.7612     4.0850   947.0476
 3083.5000     7.7332   121.2836     2.4773    -0.0014     0.2154   -67.2205     5.1373     3.5590     4.0841   937.4258
 3084.0000     7.7345   123.2648     2.4783     0.0026     0.2170   -67.2247     5.6814     3.4300     4.1589   937.8930
 3084.5000     7.7357   124.0564     2.4833     0.0065     0.2198   -67.2276     5.2784     3.4609     4.5159   938.1739
 3085.0000     7.7370   126.8310     2.4823     0.0065     0.2182   -67.2300     5.3252     3.3973     4.8144   938.4547
 3085.5000     7.7382   134.3650     2.5062     0.0065     0.2170   -67.6288     5.2279     3.4274     4.8577   938.7356
 3086.0000     7.7395   150.0274     2.5092     0.0045     0.2162   -67.8294     5.2268     3.3958     4.1553   938.9442
 3086.5000     7.7408   157.5625     2.4982     0.0025     0.2162   -67.6348     5.2738     3.3642     4.1168   939.1194
 3087.0000     7.7420   199.8034     2.4793     0.0025     0.2170   -67.8353     5.1768     3.3327     3.8952   939.5281
 3087.5000     7.7433   231.4332     2.4753     0.0024     0.2186   -67.8383     4.9436     3.2715     4.0770   939.8785
 3088.0000     7.7446   348.8342     2.4753     0.0024     0.2221   -67.8412     4.8976     3.2112     4.5506   940.0535
 3088.5000     7.7458   397.2235     2.4822     0.0024  -999.2500   -67.8442     5.0794     3.1522     4.7199   940.3455
 3089.0000     7.7471   379.7708     2.4882     0.0084  -999.2500   -67.8471     5.1725     3.0942     4.5908   940.6958
 3089.5000     7.7483   248.8720     2.4992     0.0163  -999.2500   -68.0476     4.9848     3.0374     3.7854   940.9294
 3090.0000     7.7496   199.8033     2.4982     0.0163  -999.2500   -68.0506     4.9383     3.0089     3.7500   941.1629
 3090.5000     7.7509   121.0615     2.4902     0.0103  -999.2500   -68.0535     4.8604     2.9809     3.6474   941.5132
 3091.0000     7.7521   121.4573     2.4792     0.0043  -999.2500   -68.0565     4.8147     2.9530     3.5803   941.6884
 3091.5000     7.7534   124.0355     2.4742     0.0063  -999.2500   -68.0594     4.6830     2.9254     3.5469   942.1555
 3092.0000     7.7547   128.5942     2.4782     0.0083  -999.2500   -68.0623     4.4719     2.8982     3.5461   942.3306
 3092.5000     7.7559   124.0324     2.4802     0.0063  -999.2500   -68.0653     4.1542     2.8974     3.6440   942.6809
 3093.0000     7.7572   124.8243     2.4842     0.0102  -999.2500   -68.0682     4.0405     2.8970     3.7452   943.0310
 3093.5000     7.7585   126.8064     2.4891     0.0122  -999.2500   -68.0712     4.9896     2.8700     4.2969   943.2062
 3094.0000     7.7597   130.1754     2.4941     0.0122  -999.2500   -68.0741     4.3863     2.8431     4.0288   943.5564
 3094.5000     7.7610   126.8035     2.4971     0.0122  -999.2500   -68.0770     3.7517     2.8165     3.1731   943.7899
 3095.0000     7.7622   123.2314     2.5001     0.0121  -999.2500   -68.0800     3.7166     2.7901     3.2312   944.0818
 3095.5000     7.7635   122.8331     2.5021     0.0121  -999.2500   -68.0829     3.8906     2.7896     3.1718   944.4321
 3096.0000     7.7648   120.8478     2.5050     0.0161  -999.2500   -68.0859     4.1863     2.7635     3.1135   944.7823
 3096.5000     7.7660   116.0847     2.5090     0.0141  -999.2500   -68.0888     4.1368     2.7629     3.1128   944.9574
 3097.0000     7.7673   109.9308     2.5090     0.0141  -999.2500   -68.0918     4.1361     2.7121     3.1121   935.3967
 3097.5000     7.7686  -999.2500     2.4990     0.0141  -999.2500   -68.0947     3.9496     2.6138     3.1691   935.5718
 3098.0000     7.7698  -999.2500     2.4881     0.0140  -999.2500   -68.0977     3.8065     2.5894     3.3785   935.9222
 3098.5000     7.7711  -999.2500     2.4821     0.0160  -999.2500   -68.1006     3.8059     2.5654     3.6351   936.0973
 3099.0000     7.7723  -999.2500     2.4821     0.0180  -999.2500   -68.1036     4.0572     2.5647     3.8753   936.5060
 3099.5000     7.7736  -999.2500     2.4881     0.0200  -999.2500   -68.1065     4.0939     2.5642     3.1088   926.8875
 3100.0000     7.7749  -999.2500     2.5040     0.0359  -999.2500   -68.1094     4.0395     2.5636     3.0517   927.1795
 3100.5000     7.7761  -999.2500     2.5308     0.0359  -999.2500   -68.1124     3.9859     2.5263     3.0270   927.4759
 3101.0000     7.7782  -999.2500     2.5338     0.0378  -999.2500   -68.3267     3.6646     2.5160     2.9947   927.6839
 3101.5000     7.7804  -999.2500     2.5308     0.0377  -999.2500   -68.5321     3.6637     2.4696     2.9129   927.9355
 3102.0000     7.7825  -999.2500     2.5129  -999.2500  -999.2500   -68.5422     3.4987     2.4241     2.8856   928.0864
 3102.5000     7.7846  -999.2500     2.5098  -999.2500  -999.2500   -68.5523     3.8082     2.4014     2.9115   918.4195
 3103.0000     7.7867  -999.2500     2.5168  -999.2500  -999.2500   -68.5603     3.5613     2.3790     2.9648   918.6711
 3103.5000     7.7888  -999.2500     2.5207  -999.2500  -999.2500   -68.5724     3.2564     2.3352     2.9102   918.9227
 3104.0000     7.7909  -999.2500     2.4918  -999.2500  -999.2500   -68.5825     4.0482     2.3347     2.7791   919.1743
 3104.5000     7.7930  -999.2500     2.4789  -999.2500  -999.2500   -68.5926     3.5594     2.3128     3.3076   919.3756
 3105.0000     7.7951  -999.2500     2.4729  -999.2500  -999.2500   -68.6027     3.3680     2.3123     3.1586   919.6273
 3105.5000     7.7972  -999.2500     2.4699  -999.2500  -999.2500   -68.6107     3.3365     2.3330     2.7018   909.9099
 3106.0000     7.7993  -999.2500     2.4648  -999.2500  -999.2500   -68.4235     3.3357     2.3976     2.7012   910.1616
 3106.5000     7.8015  -999.2500     2.4648  -999.2500  -999.2500   -68.4336     3.3967     2.3534     2.7759   910.3629
 3107.0000     7.8036  -999.2500     2.4668  -999.2500  -999.2500   -68.2463     6.7150     2.3746     2.6999   910.6648
 3107.5000     7.8057  -999.2500     2.4678  -999.2500  -999.2500   -68.2544     3.2129     2.3959     2.6747   940.8735
 3108.0000     7.8078  -999.2500     2.4717  -999.2500  -999.2500   -68.0692     2.9914     2.3954     2.6741   931.2376
 3108.5000     7.8099  -999.2500     2.4727  -999.2500  -999.2500   -68.0833     2.9637     2.2875     2.5771   931.4389
 3109.0000     7.8120  -999.2500     2.4766  -999.2500  -999.2500   -68.0914     3.0954     2.2869     2.6003   941.6595
 3109.5000     7.8141  -999.2500     2.4806  -999.2500  -999.2500   -68.0994     3.2104     2.2864     2.4380   951.8800
 3110.0000     7.8162  -999.2500     2.4806  -999.2500  -999.2500   -67.5460     3.3912     2.2859     2.6232   982.0383
 3110.5000     7.8183  -999.2500     2.4806  -999.2500  -999.2500   -67.5527     3.5495     2.3064     2.5049   982.2900
 3111.0000     7.8204  -999.2500     2.4726  -999.2500  -999.2500   -67.5618     3.5814     2.4363     2.6461   972.5727
 3111.5000     7.8222  -999.2500     2.4546  -999.2500  -999.2500   -67.5731     3.6136     2.4358     2.7696   913.0108
 3112.0000     7.8225  -999.2500     2.4496  -999.2500  -999.2500   -67.3873     3.5471     2.3689     2.5033   873.3365
 3112.5000     7.8233  -999.2500     2.4705  -999.2500  -999.2500   -67.0045     3.6454     2.2832     2.5725  1043.1099
 3113.0000     7.8244  -999.2500     2.4804  -999.2500  -999.2500   -66.1948     3.6440     2.1805     2.5956  1103.1749
 3113.5000     7.8251  -999.2500     2.4973  -999.2500  -999.2500   -65.6110     3.6435     2.0822     2.6189   614.8689
 3114.0000     7.8257  -999.2500     2.5053  -999.2500  -999.2500   -64.4372     4.6239     2.0627     2.6183   645.0272
