~VERSION INFORMATION
 VERS.                2.0:   CWLS LOG ASCII STANDARD - VERSION 2.0
 WRAP.                 NO:   ONE LINE PER DEPTH STEP
~WELL INFORMATION
#MNEM.UNIT      DATA TYPE    INFORMATION
#----------   ------------   ------------------------------
 STRT.F          216.0000:   START DEPTH
 STOP.F         3184.0000:   STOP DEPTH
 STEP.F            0.5000:   STEP LENGTH
 NULL.          -999.2500:   NO VALUE
 COMP.    FENIX & SCISSON:   COMPANY
 WELL. FENIX & SCISSON INCNRP "A" #311-14:   WELL
 FLD .                NPR:   FIELD
 LOC .      S14 T38N R78W:   LOCATION
 CNTY.            NATRONA:   COUNTY
 STAT.            WYOMING:   STATE
 CTRY. UNITED STATES OF AMERICA:   COUNTRY
 SRVC.              WELEX:   SERVICE COMPANY
 DATE.        22-JUN-1977:   LOGDATE
 API .     49025103810000:   API NUMBER
~CURVE INFORMATION
#MNEM.UNIT       API CODE    CURVE DESCRIPTION
#----------   ------------   ------------------------------
 DEPT.F                  :   
 CALD.IN     45 280 60 00:   CALIPER FROM DENSITY LOG
 GRD .GAPI   45 310 01 00:   GAMMA RAY FROM DENSITY LOG
 DPHI.DEC    45 890 12 00:   DENSITY POROSITY SANDSTONE
 RHOB.G/C3   45 350 01 00:   BULK DENSITY
 CORR.G/C3   45 356 01 00:   DENSITY CORRECTION
 SPR .MV     07 010 01 00:   SPONTANEOUS POTENTIAL
 SFLU.OHMM   07 220 01 00:   SPHERICALLY FOCUSED LOG UNAVERAGED RESISTIVITY
 ILD .OHMM   07 120 46 00:   DEEP INDUCTION RESISTIVITY
 ILM .OHMM   07 120 44 00:   INDUCTION LOG MEDIUM RESISTIVITY
~PARAMETER INFORMATION
#MNEM.UNIT          VALUE    DESCRIPTION
#----------   ------------   ------------------------------
 EKB .F         5225.0000:   Kelly bushing
 EGL .F         5215.0000:   Ground level
 TD  .F         3183.0000:   Total depth
 DATE.        22-JUN-1977:   Date logged
 CLNT.            A2DTECH:   Client Code
 CTRY.                USA:   Country
 SL  . 330' FNL & 330' FWL:   Surface Location
 PD  .                 GL:   Permanent Datum
 EPD .F              5215:   Elevation Permanent Datum
 LMF .                 KB:   Log Measured From
 DMF .                 KB:   Drilling Measured From
 DAPD.F                10:   Feet Above Permanent Datum
 DD  .F              3178:   Depth driller
 DL  .F              3183:   Depth logger
 BLI .F              3181:   Bottom log interval
 TLI .F                20:   Top log interval
 CS1 .IN            8.625:   Casing size
 CBD1.      8.625" @ 217':   Casing driller 1
 BS1 .IN            7.875:   Bit size
 BSD1.F              3178:   Depth drilled with bit1
 DFT .            KCL MUD:   Type fluid in hole
 DFD .                9.5:   Density
 DFV .                 40:   Viscosity
 DFPH.                7.5:   pH
 DFL .               13.6:   Fluid loss
 MSS .           FLOWLINE:   Source of sample
 RMS .OHMM            .36:   Rm
 MST .F                80:   Rm Meas. temp.
 RMF .OHMM            .30:   Rmf
 MFST.F                80:   Rmf Meas. temp.
 RMC .OHMM            .86:   Rmc
 MCST.F                80:   Rmc Meas. temp.
 MFSS.               FANN:   Source Rmf.
 MCSS.                KIT:   Source Rmc.
 RMB .OHMM            .25:   Rm. at BHT
 BHT .F               114:   BHT.
 TCS .HRS             2.5:   Time Circ. stopped
 MRT .F               114:   Maximum recorded temp.
 LUN .               8766:   Logging unit number
 LUL .             CASPER:   Logging unit location
 ENGI.          T. TOYNER:   Recorded By
 WITN.      B. HARRINGTON:   Witnessed by
 PWI .                  -:   Primary Well Identifier
 ORIG.           5" PRINT:   Origin of data
 UWI .     49025103810000:   Unique Well ID
 DICO. A2D TECHNOLOGIES, INC.:   Digitizing Company
~OTHER INFORMATION
~A   DEPT       CALD       GRD        DPHI       RHOB       CORR      SPR         SFLU      ILD        ILM   
# ...
  982.5000    10.2511    83.0338     0.0956     2.4961     0.0212   -63.4803     7.6006     7.1809     6.9277
  983.0000    10.2512    82.6382     0.0972     2.4941     0.0212   -63.4748     7.5323     7.1135     6.8650
  983.5000    10.2512    82.6402     0.0984     2.4911     0.0212   -63.4694     7.1952     7.0638     6.8029
  984.0000    10.2514    83.4374     0.1003     2.4892     0.0213   -63.4657     7.2628     6.9996     6.7413
  984.5000    10.2515    83.0418     0.1035     2.4842     0.0213   -63.4603     7.1976     7.0500     6.8054
  985.0000    10.2516    81.0558     0.1059     2.4792     0.0213   -63.4567     7.2655     7.1008     6.8701
  985.5000    10.2517    80.2624     0.1087     2.4732     0.0193   -63.4513     7.2668     7.1519     6.8713
  986.0000    10.2517    79.8668     0.1103     2.4702     0.0153   -63.4476     7.3353     7.2034     6.9366
  986.5000    10.2718    79.4720     0.1119     2.4672     0.0153   -63.4422     7.4044     7.2552     7.0025
  987.0000    10.2719    80.2684     0.1127     2.4633     0.0153   -63.4386     7.5433     7.3075     7.0691
  987.5000    10.2719    79.8728     0.1131     2.4623     0.0154   -63.4331     7.6145     7.3601     7.0704
  988.0000    10.2920    80.2724     0.1135     2.4643     0.0154   -63.4295     7.6158     7.4131     7.1375
  988.5000    10.2920    81.0696     0.1135     2.4673     0.0134   -63.4240     7.6868     7.4664     7.2053
  989.0000    10.2922    81.0716     0.1127     2.4683     0.0134   -63.4204     7.6885     7.5202     7.2738
  989.5000    10.2923    81.0736     0.1123     2.4693     0.0114   -63.4150     7.6904     7.5743     7.2751
  990.0000    10.2923    81.4728     0.1119     2.4703     0.0114   -63.4113     7.7627     7.6214     7.3443
  990.5000    10.2924    82.2696     0.1111     2.4703     0.0114   -63.4059     7.7641     7.4150     7.1441
  991.0000    10.2925    82.6700     0.1103     2.4723     0.0115   -63.4023     7.7658     7.4047     7.1454
  991.5000    10.2926    83.0692     0.1091     2.4743     0.0115   -63.3968     7.8390     7.3944     7.1467
  992.0000    10.2927    83.4692     0.1079     2.4783     0.0155   -63.3932     7.6270     7.3841     7.1480
  992.5000    10.2928    83.4704     0.1071     2.4803     0.0175   -63.3878     7.6284     7.3739     7.0834
  993.0000    10.2929    83.0756     0.1059     2.4813     0.0195   -63.3841     7.6298     7.3636     7.0847
  993.5000    10.2930    81.4874     0.1047     2.4843     0.0195   -63.3787     7.6723     7.3554     7.2100
  994.0000    10.2931    80.6942     0.1039     2.4863     0.0235   -63.3750     7.7151     7.3557     7.3454
  994.5000    10.2933    80.6962     0.0999     2.4903     0.0255   -63.3696     7.7581     7.4060     7.4834
  995.0000    10.2933    81.0958     0.0971     2.4973     0.0275   -63.3660     7.8014     7.4567     7.7657
  995.5000    10.2934    81.0974     0.0967     2.4973     0.0275   -63.3605     7.8449     7.5078     7.9848
  996.0000    10.2737    81.8950     0.0967     2.4983     0.0275   -63.3569     7.8886     7.5592     8.3627
  996.5000    10.2737    82.2946     0.0979     2.4953     0.0276   -63.3515     7.9326     7.6110     8.3642
  997.0000    10.2738    83.0914     0.0995     2.4904     0.0276   -63.3460     7.9769     7.6631     8.3658
  997.5000    10.2739    83.8886     0.0999     2.4894     0.0256   -63.3424     8.0024     7.7155     8.4447
  998.0000    10.2740    84.2886     0.0999     2.4914     0.0256   -63.3369     8.0778     7.7865     8.3688
  998.5000    10.2742    84.2906     0.0991     2.4924     0.0276   -63.7315     8.0793     7.7874     8.3704
  999.0000    10.2743    83.4970     0.0987     2.4914     0.0276   -63.3278     8.0065     7.8152     8.2951
  999.5000    10.2942    81.5112     0.0987     2.4914     0.0276   -63.7225     8.0082     7.8432     8.2206
 1000.0000    10.3142    80.7180     0.0963     2.4974     0.0276   -63.3188     7.9363     7.8637     8.1467
 1000.5000    10.3342    80.0312     0.0947     2.4974     0.0277   -63.6627     7.8070     7.7589     8.2158
 1001.0000    10.3540    79.1276     0.0947     2.4974     0.0277   -63.7163     7.7209     7.6688     8.1474
 1001.5000    10.3341    79.0276     0.0963     2.4954     0.0257   -63.7161     7.6505     7.5797     7.9989
 1002.0000    10.3540    77.8348     0.0986     2.4914     0.0257   -63.7158     7.6508     7.4917     7.9259
 1002.5000    10.3540    77.0396     0.0990     2.4884     0.0237   -63.7157     7.5810     7.4048     7.7101
 1003.0000    10.3540    77.0396     0.0998     2.4874     0.0237   -63.7153     7.5118     7.3188     7.5696
 1003.5000    10.3540    77.0396     0.1002     2.4874     0.0237   -63.7151     7.3751     7.2338     7.3635
 1004.0000    10.3540    77.0396     0.1002     2.4884     0.0257   -63.7148     7.3754     7.1745     7.2293
 1004.5000    10.3540    78.6300     0.1002     2.4884     0.0257   -63.7147     7.3080     7.1451     6.9680
 1005.0000    10.3540    78.7300     0.1034     2.4924     0.0257   -63.7144     7.2414     7.1159     6.8471
 1005.5000    10.3739    79.1276     0.1030     2.4775     0.0237   -63.7142     7.3086     7.1097     6.8474
 1006.0000    10.3540    80.3204     0.1074     2.4665     0.0158   -63.7139     7.3089     7.1097     6.8476
 1006.5000    10.3540    80.3204     0.1119     2.4615     0.0138   -63.7137     7.3092     7.1757     6.9117
 1007.0000    10.3540    79.9228     0.1158     2.4555     0.0118   -63.7134     7.3769     7.1760     6.9119
 1007.5000    10.3540    79.9228     0.1174     2.4585     0.0118   -63.7132     7.3097     7.1762     6.9122
 1008.0000    10.3540    79.5252     0.1150     2.4615     0.0058   -63.7129     7.3099     7.1765     6.9124
 1008.5000    10.3540    79.5252     0.1146     2.4615     0.0039   -63.7127     7.3102     7.1768     6.9127
 1009.0000    10.3142    79.1276     0.1146     2.4605     0.0039   -63.7124     7.3781     7.1771     6.9129
 1009.5000    10.2944    79.5252     0.1146     2.4625     0.0059   -63.7122     7.4465     7.1774     6.9132
 1010.0000    10.2944    78.7300     0.1130     2.4655     0.0059   -63.7119     7.3786     7.1776     6.8434
 1010.5000    10.2944    79.9228     0.1126     2.4666     0.0019   -63.7117     7.3788     7.1779     6.7187
 1011.0000    10.2745    80.3204     0.1126     2.4656     0.0059   -64.1091     7.3115     7.1782     6.7189
 1011.5000    10.2745    81.1158     0.1134     2.4636     0.0059   -64.1088     7.3794     7.1125     6.5964
 1012.0000    10.2745    82.7062     0.1138     2.4606     0.0039   -64.1085     7.3796     7.0967     6.5361
 1012.5000    10.2745    83.1038     0.1146     2.4606     0.0059   -64.1083     7.2453     7.0809     6.5969
 1013.0000    10.2745    83.1038     0.1142     2.4616     0.0080   -64.1080     7.2456     7.0651     6.5971
 1013.5000    10.2745    83.1038     0.1130     2.4636     0.0100   -64.1077     7.1795     7.0494     6.6584
 1014.0000    10.2745    83.5014     0.1130     2.4646     0.0100   -64.1074     7.1797     7.0337     6.6586
 1014.5000    10.2745    83.5014     0.1122     2.4656     0.0120   -64.1072     7.1800     7.0180     6.6589
 1015.0000    10.2745    83.8990     0.1118     2.4706     0.0120   -64.1069     7.2466     7.0024     6.6591
 1015.5000    10.2745    84.6942     0.1090     2.4736     0.0140   -64.1067     7.2469     6.9850     6.6593
 1016.0000    10.2944    85.8870     0.1054     2.4806     0.0111   -64.1063     7.2471     7.0497     6.7212
 1016.5000    10.3142    85.8870     0.1046     2.4816     0.0111   -64.1061     7.3144     7.0397     6.7215
 1017.0000    10.3142    86.6824     0.1046     2.4806     0.0112   -64.5031     7.2477     7.0298     6.7217
 1017.5000    10.3142    86.2846     0.1046     2.4806     0.0112   -64.5029     7.2479     7.0198     6.6602
 1018.0000    10.3341    86.2846     0.1042     2.4826     0.0152   -64.1052     7.2482     7.0098     6.5994
 1018.5000    10.3341    86.2846     0.1006     2.4856     0.0200   -64.1050     7.2484     6.9999     6.5996
