~VERSION INFORMATION
 VERS.                2.0:   CWLS LOG ASCII STANDARD - VERSION 2.0
 WRAP.                 NO:   ONE LINE PER DEPTH STEP
~WELL INFORMATION
#MNEM.UNIT      DATA TYPE    INFORMATION
#----------   ------------   ------------------------------
 STRT.F           85.5000:   START DEPTH
 STOP.F         2750.0000:   STOP DEPTH
 STEP.F            0.5000:   STEP LENGTH
 NULL.          -999.2500:   NO VALUE
 COMP.          INTEX OIL:   COMPANY
 WELL. INTEX NPR 3 "AX" #74-20:   WELL
 FLD .             TEAPOT:   FIELD
 LOC .      S20 T39N R78W:   LOCATION
 CNTY.            NATRONA:   COUNTY
 STAT.            WYOMING:   STATE
 CTRY. UNITED STATES OF AMERICA:   COUNTRY
 SRVC.       SCHLUMBERGER:   SERVICE COMPANY
 DATE.        08-MAY-1966:   LOGDATE
 API .     49025095210000:   API NUMBER
~CURVE INFORMATION
#MNEM.UNIT       API CODE    CURVE DESCRIPTION
#----------   ------------   ------------------------------
 DEPT.F                  :   
 CALD.IN     45 280 60 00:   CALIPER FROM DENSITY LOG
 GRD .GAPI   45 310 01 00:   GAMMA RAY FROM DENSITY LOG
 RHOB.G/C3   45 350 01 00:   BULK DENSITY
 CORR.G/C3   45 356 01 00:   DENSITY CORRECTION
 SPR .MV     05 010 01 00:   SPONTANEOUS POTENTIAL FROM RES.
 ILD .OHMM   05 120 46 00:   INDUCTION LOG DEEP
 SN  .OHMM   05 040 00 00:   SHORT NORMAL
~PARAMETER INFORMATION
#MNEM.UNIT          VALUE    DESCRIPTION
#----------   ------------   ------------------------------
 EKB .F         5018.3000:   Kelly bushing
 EGL .F         5008.0000:   Ground level
 EDF .F            0.0000:   Drilling floor
 EPD .F         5008.0000:   Permanent datum
 TD  .F         2750.0000:   Total depth
 DATE.        08-MAY-1966:   Date logged
 CLNT.            A2DTECH:   Client Code
 DAPD.F              10.3:   Feet Above Permanent Datum
 DD  .F              2750:   Depth driller
 DL  .F              2749:   Depth logger
 BLI .F              2748:   Bottom log interval
 TLI .F                87:   Top log interval
 CS1 .IN            10.75:   Casing size
 CBD1.       10.75" @ 30':   Casing driller 1
 BS1 .IN            7.875:   Bit size
 BSD1.F              2750:   Depth drilled with bit1
 DFT .           OIL EMUL:   Type fluid in hole
 DFD .               10.1:   Density
 DFV .                 54:   Viscosity
 MSS .         CIRCULATED:   Source of sample
 RMS .OHMM           1.90:   Rm
 MST .F                72:   Rm Meas. temp.
 RMF .OHMM           1.15:   Rmf
 MFST.F                72:   Rmf Meas. temp.
 MFSS.                 FP:   Source Rmf.
 RMB .OHMM           1.23:   Rm. at BHT
 BHT .F               111:   BHT.
 TCS .HRS             1.5:   Time Circ. stopped
 MRT .F               111:   Maximum recorded temp.
 LUN .               4507:   Logging unit number
 LUL .               CSPR:   Logging unit location
 ENGI.               HAUG:   Recorded By
 WITN.             TUTTLE:   Witnessed by
 ORIG.        2" 5" PRINT:   Origin of data
 UWI .     49025095210000:   Unique Well ID
 DICO. A2D TECHNOLOGIES, INC.:   Digitizing Company
~OTHER INFORMATION
~A   DEPT     CALD        GRD       RHOB       CORR        SPR        ILD         SN   
# ...
 2497.0000     8.3530   136.6420     2.4000     0.0520   -39.5670     1.7920     2.9670
 2497.5000     8.3360   145.2250     2.3770     0.0420   -39.5670     1.7160     2.8630
 2498.0000     8.3200   160.3360     2.3700     0.0280   -39.5670     1.6300     2.7720
 2498.5000     8.3040   175.1040     2.3830     0.0190   -39.5670     1.5480     2.6680
 2499.0000     8.2870   187.0830     2.4040     0.0290   -39.5670     1.4890     2.5730
 2499.5000     8.2710   185.1920     2.4230     0.0450   -39.5670     1.4770     2.4840
 2500.0000     8.2540   179.5620     2.4260     0.0610   -39.5670     1.5860     2.4640
 2500.5000     8.2380   173.1370     2.3990     0.0700   -39.5670     1.7790     2.6090
 2501.0000     8.2270   168.2420     2.4190     0.0580   -39.5670     1.9880     2.9690
 2501.5000     8.2520   169.5550     2.4640     0.0480   -39.5670     2.0660     3.3260
 2502.0000     8.2720   172.2820     2.5150     0.0400   -39.5670     2.2750     3.5480
 2502.5000     8.2950   164.3560     2.5450     0.0520   -39.5670     2.6930     4.0970
 2503.0000     8.3160   152.1320     2.5540     0.0480   -39.5670     3.2970     4.9450
 2503.5000     8.3380   138.2010     2.5460     0.0430   -39.5670     3.9240     5.7740
 2504.0000     8.3600   103.9500     2.5460     0.0360   -39.5670     4.5520     6.4300
 2504.5000     8.3800    94.1030     2.5420     0.0310   -39.5670     5.1860     6.7170
 2505.0000     8.3820    89.1120     2.5330     0.0330   -39.5670     5.5560     6.9670
 2505.5000     8.3820    91.1310     2.5710     0.0610   -39.5670     5.7550     7.2130
 2506.0000     8.3820    90.7470     2.6080     0.0770   -39.5670     5.8320     7.4610
 2506.5000     8.3820    89.8860     2.5840     0.0600   -39.5670     5.8290     7.7110
 2507.0000     8.3820    88.9030     2.5820     0.0450   -39.5670     5.8760     7.9890
 2507.5000     8.3820    87.9660     2.5800     0.0290   -39.5670     6.3620     8.4920
 2508.0000     8.3820    88.6210     2.5660     0.0210   -39.5670     6.7760     9.0860
 2508.5000     8.3810    90.3230     2.5540     0.0120   -39.5670     7.2200     9.7080
 2509.0000     8.3750    92.3110     2.5650     0.0080   -39.5670     7.6490    10.2830
 2509.5000     8.3680    91.1720     2.5830     0.0040   -39.5670     8.0780    11.5260
 2510.0000     8.3610    89.8120     2.6020     0.0190   -39.5670     8.5700    12.5840
 2510.5000     8.3550    88.4370     2.6200     0.0320   -39.5670     9.2520    13.7160
 2511.0000     8.3480    85.5480     2.5810     0.0240   -39.5670    10.1000    14.8000
 2511.5000     8.3410    81.6500     2.5860     0.0200   -39.5670    10.9360    15.8580
 2512.0000     8.3350    77.4560     2.5880     0.0140   -39.5670    11.7520    16.4480
 2512.5000     8.3280    78.8810     2.5910     0.0130   -39.5670    12.6170    16.8800
 2513.0000     8.3210    81.4890     2.5910     0.0250   -39.5670    12.9740    17.3880
 2513.5000     8.3150    81.9510     2.6090     0.0360   -39.5660    12.7060    17.8420
 2514.0000     8.3060    80.2610     2.6240     0.0480   -39.5690    11.7000    18.2560
 2514.5000     8.3110    77.3720     2.6380     0.0600   -39.5400    10.7040    17.8580
 2515.0000     8.3350    78.1260     2.6330     0.0650   -39.4920     9.6460    16.3330
 2515.5000     8.3550    76.0940     2.6280     0.0790   -39.4490     8.6600    14.5970
 2516.0000     8.3810    73.6050     2.6240     0.0690   -39.4050     7.5060    12.9410
 2516.5000     8.4120    75.7360     2.5990     0.0520   -39.3610     6.8010    11.2980
 2517.0000     8.4540    81.2470     2.5820     0.0530   -39.3170     6.0120     9.5150
 2517.5000     8.4910    93.0890     2.5660     0.0350   -39.2730     5.2780     8.3290
 2518.0000     8.5350   104.6790     2.5530     0.0190   -39.2300     4.9470     7.9490
 2518.5000     8.5410   111.7940     2.5380     0.0160   -39.1860     4.6680     7.4010
 2519.0000     8.5440   113.0610     2.5430     0.0200   -39.1420     4.6950     7.2200
 2519.5000     8.5450   111.5870     2.5500     0.0250   -39.0980     4.7260     7.2670
 2520.0000     8.5480   114.1200     2.5610     0.0270   -39.0540     4.7730     7.2800
 2520.5000     8.5500   111.0840     2.5550     0.0270   -39.0100     4.8090     7.3060
 2521.0000     8.5520   108.9920     2.5530     0.0270   -38.9660     4.8510     7.3280
 2521.5000     8.5540   110.3220     2.5650     0.0350   -38.9220     4.8910     7.3530
 2522.0000     8.5560   112.0800     2.5750     0.0420   -38.8780     4.9320     7.3730
 2522.5000     8.5590   114.0420     2.5850     0.0460   -38.8340     4.9700     7.4080
 2523.0000     8.5610   115.4810     2.5770     0.0340   -38.7910     5.0220     7.3310
 2523.5000     8.5630   116.4700     2.5600     0.0210   -38.7470     4.9850     7.1700
 2524.0000     8.5650   113.9560     2.5500     0.0160   -38.7030     4.8280     7.0260
 2524.5000     8.5670   111.6460     2.5370     0.0170   -38.6590     4.6870     6.8780
 2525.0000     8.5700   108.6010     2.5470     0.0260   -38.6150     4.5260     6.7290
 2525.5000     8.5720   109.5640     2.5520     0.0350   -38.5710     4.4390     6.5830
 2526.0000     8.5740   111.2370     2.5600     0.0450   -38.5280     4.4510     6.4340
 2526.5000     8.5760   116.3970     2.5590     0.0430   -38.4830     4.4460     6.2840
 2527.0000     8.5780   121.1640     2.5560     0.0420   -38.4410     4.4470     6.2390
 2527.5000     8.5680   126.1330     2.5650     0.0530   -38.3980     4.4500     6.4300
 2528.0000     8.5530   131.2900     2.5930     0.0580   -38.4480     4.4410     6.5860
 2528.5000     8.5390   130.6950     2.5860     0.0400   -38.5310     4.5110     6.7520
 2529.0000     8.5250   125.9810     2.5740     0.0220   -38.6140     4.6790     6.9260
 2529.5000     8.5110   118.5970     2.5820     0.0260   -38.6930     4.8310     7.0330
 2530.0000     8.5000   115.1010     2.5780     0.0360   -38.7710     4.8410     7.0440
 2530.5000     8.5000   116.3770     2.5700     0.0320   -38.7400     4.8440     7.0710
 2531.0000     8.5000   117.4030     2.5510     0.0190   -38.7020     4.8410     7.0920
 2531.5000     8.5000   119.5910     2.5470     0.0110   -38.6600     4.8430     7.1150
 2532.0000     8.5000   121.5900     2.5580     0.0090   -38.6210     4.8470     7.1390
 2532.5000     8.5000   118.6830     2.5300     0.0050   -38.5810     4.9520     7.1590
 2533.0000     8.5000   115.6850     2.5470     0.0070   -38.5410     5.0950     7.1910
 2533.5000     8.5000   115.2690     2.5400     0.0120   -38.5010     5.2630     7.1880
 2534.0000     8.5000   116.4930     2.5460     0.0220   -38.4610     5.5340     7.4040
 2534.5000     8.5000   114.5020     2.5630     0.0300   -38.4210     5.6720     7.7860
 2535.0000     8.5000   118.2290     2.5800     0.0400   -38.3810     5.8330     8.1270
 2535.5000     8.5000   121.8480     2.5920     0.0480   -38.3410     5.9770     8.4850
 2536.0000     8.5000   122.4290     2.5860     0.0520   -38.3010     6.1420     8.8350
 2536.5000     8.5000   113.9710     2.5700     0.0290   -38.2610     6.2330     9.1640
 2537.0000     8.5000   105.9730     2.5820     0.0290   -38.2210     6.2120     9.1830
 2537.5000     8.5000   102.5930     2.5670     0.0190   -38.1810     6.1980     9.0810
 2538.0000     8.5000   106.1940     2.5540     0.0130   -38.1410     6.1800     8.9310
 2538.5000     8.5000   108.6230     2.5520     0.0080   -38.1010     6.1630     8.7970
 2539.0000     8.5000   107.4010     2.5760     0.0280   -38.0610     6.1470     8.6500
 2539.5000     8.5000   107.0730     2.6000     0.0490   -38.0200     6.1290     8.5130
 2540.0000     8.5050   108.8960     2.6160     0.0600   -37.9920     6.1120     8.4100
 2540.5000     8.5100   112.4540     2.6220     0.0610   -37.9920     6.0960     8.6550
 2541.0000     8.5160   114.1710     2.6000     0.0630   -37.9910     6.0780     9.0050
 2541.5000     8.5210   111.4790     2.5790     0.0530   -37.9930     6.0620     9.2220
 2542.0000     8.5260   108.0080     2.5730     0.0480   -37.9710     6.0440     9.0250
