~VERSION INFORMATION
 VERS.                2.0:   CWLS LOG ASCII STANDARD - VERSION 2.0
 WRAP.                 NO:   ONE LINE PER DEPTH STEP
~WELL INFORMATION
#MNEM.UNIT      DATA TYPE    INFORMATION
#----------   ------------   ------------------------------
 STRT.F          176.5000:   START DEPTH
 STOP.F         3010.0000:   STOP DEPTH
 STEP.F            0.5000:   STEP LENGTH
 NULL.          -999.2500:   NO VALUE
 COMP.    FENIX & SCISSON:   COMPANY
 WELL.   FENIX "A" #36-28:   WELL
 FLD .              NPR 3:   FIELD
 LOC .      S28 T39N R78W:   LOCATION
 CNTY.            NATRONA:   COUNTY
 STAT.            WYOMING:   STATE
 CTRY. UNITED STATES OF AMERICA:   COUNTRY
 SRVC.       SCHLUMBERGER:   SERVICE COMPANY
 DATE.        19-AUG-1977:   LOGDATE
 API .     49025104150000:   API NUMBER
~CURVE INFORMATION
#MNEM.UNIT       API CODE    CURVE DESCRIPTION
#----------   ------------   ------------------------------
 DEPT.F                  :   
 SPR .MV     07 010 01 00:   SPONTANEOUS POTENTIAL
 ILM .OHMM   07 120 44 00:   INDUCTION LOG MEDIUM RESISTIVITY
 ILD .OHMM   07 120 46 00:   INDUCTION LOG DEEP RESISTIVITY
 LL8 .OHMM   07 220 08 00:   LATEROLOG-8 RESISTIVITY
 GRD .GAPI   45 310 01 00:   GAMMA RAY FROM DENSITY LOG
 CALD.IN     45 280 60 00:   CALIPER FROM DENSITY LOG
 RHOB.G/C3   45 350 01 00:   BULK DENSITY
 DCOR.G/C3   45 356 01 00:   DENSITY CORRECTION
~PARAMETER INFORMATION
#MNEM.UNIT          VALUE    DESCRIPTION
#----------   ------------   ------------------------------
 EKB .F         5107.0000:   Kelly bushing
 EGL .F         5097.0000:   Ground level
 EDF .F            0.0000:   Drilling floor
 TD  .F         3012.0000:   Total depth
 DATE.        19-AUG-1977:   Date logged
 CLNT.            A2DTECH:   Client Code
 SL  . 1650' FSL & 1650' FWL:   Surface Location
 PD  .                 GL:   Permanent Datum
 EPD .F              5097:   Elevation Permanent Datum
 LMF .                 KB:   Log Measured From
 DMF .                 KB:   Drilling Measured From
 DAPD.F                10:   Feet Above Permanent Datum
 DD  .F              3010:   Depth driller
 DL  .F              3011:   Depth logger
 BLI .F              3005:   Bottom log interval
 TLI .F               215:   Top log interval
 CS1 .IN            8.625:   Casing size
 CBD1.      8.625" @ 205':   Casing driller 1
 CBL1.F               215:   Casing logger 1
 BS1 .IN            7.875:   Bit size
 BSD1.F              3010:   Depth drilled with bit1
 DFT .                FGM:   Type fluid in hole
 DFD .                8.8:   Density
 DFV .                 33:   Viscosity
 DFPH.               10.5:   pH
 DFL .               10.6:   Fluid loss
 MSS .            MUD PIT:   Source of sample
 RMS .OHMM            .19:   Rm
 MST .F                76:   Rm Meas. temp.
 RMF .OHMM            .17:   Rmf
 MFST.F                78:   Rmf Meas. temp.
 MFSS.               MEAS:   Source Rmf.
 RMB .OHMM            .13:   Rm. at BHT
 BHT .F               112:   BHT.
 TCS .HRS            0700:   Time Circ. stopped
 TLAB.HRS            1400:   Time logger at bottom
 MRT .F               112:   Maximum recorded temp.
 LUN .               5642:   Logging unit number
 ENGI.          CHALUPSKY:   Recorded By
 WITN.     WES PETTINGILL:   Witnessed by
 ORIG.           5" PRINT:   Origin of data
 UWI .     49025104150000:   Unique Well ID
 DICO. A2D TECHNOLOGIES, INC.:   Digitizing Company
 LUL .               CSPR:   Logging unit location
~OTHER INFORMATION
~A   DEPT      SPR        ILM        ILD        LL8        GRD       CALD       RHOB       DCOR   
# ...
 2971.0000   -51.3800     4.6730     4.1640     5.0010   129.8880     7.6960     2.3960     0.0460
 2971.5000   -51.0300     4.7340     4.0140     5.4410   132.3460     7.6960     2.3790     0.0530
 2972.0000   -50.5240     4.6370     4.2030     5.7380   129.3040     7.6960     2.3850     0.0340
 2972.5000   -50.0560     4.5220     4.0140     5.0360   127.2590     7.6960     2.3970     0.0610
 2973.0000   -49.8000     4.5220     3.9780     4.6060   129.8730     7.6960     2.4060     0.0540
 2973.5000   -49.6880     4.5220     4.0510     4.7960   132.5830     7.6960     2.4000     0.0490
 2974.0000   -49.7530     4.4490     3.7310     5.3810   135.6960     7.6960     2.4220     0.0730
 2974.5000   -49.8140     4.3480     3.8000     5.1930   138.0930     7.6960     2.4380     0.1020
 2975.0000   -49.6600     4.2470     3.8880     4.7980   135.4270     7.6960     2.4180     0.0730
 2975.5000   -49.1700     4.1460     3.5970     4.4400   132.6570     7.6960     2.4020     0.0800
 2976.0000   -48.6800     4.0450     3.6970     4.5210   131.0360     7.6960     2.4370     0.0840
 2976.5000   -48.3350     3.9440     3.7650     4.6060   132.2540     7.6960     2.4280     0.0700
 2977.0000   -48.8410     3.8700     3.6970     4.4680   133.5030     7.6960     2.4210     0.0680
 2977.5000   -48.6660     3.9390     3.6850     4.3200   133.0840     7.6960     2.4130     0.0810
 2978.0000   -48.0440     3.9930     3.6710     4.5010   132.4330     7.6960     2.4440     0.0950
 2978.5000   -47.8680     4.0470     3.6360     4.7260   131.7610     7.6960     2.4380     0.1070
 2979.0000   -47.6910     4.1010     3.5740     4.7000   129.2590     7.6960     2.4230     0.0830
 2979.5000   -47.5120     4.1640     3.5130     4.6480   126.4860     7.6960     2.4410     0.0890
 2980.0000   -47.3340     4.0450     3.4520     4.9110   125.4200     7.6960     2.4440     0.0990
 2980.5000   -47.1550     3.9000     3.3900     4.8490   126.4030     7.6960     2.4400     0.1090
 2981.0000   -46.9770     3.7560     3.3290     4.5050   127.7680     7.6960     2.4590     0.0930
 2981.5000   -46.7990     3.6110     3.2670     4.1160   129.6270     7.6960     2.4800     0.0990
 2982.0000   -46.6200     3.4670     3.2060     3.7520   131.4720     7.6960     2.4870     0.1130
 2982.5000   -46.4170     3.4360     3.1450     3.6080   133.3380     7.6960     2.4790     0.0620
 2983.0000   -46.1270     3.4360     3.0960     3.7120   136.4910     7.6960     2.5620     0.0170
 2983.5000   -45.8400     3.4360     3.0670     3.7960   138.5800     7.6960     2.6450    -0.0750
 2984.0000   -45.5530     3.4360     3.0390     3.8790   140.1090     7.6960     2.6980    -0.1600
 2984.5000   -45.2650     3.4360     3.0110     3.9630   141.5930     7.6960     2.6840    -0.1690
 2985.0000   -44.9780     3.4360     2.9820     4.0510   143.0460     7.6960     2.4900    -0.1490
 2985.5000   -44.6910     3.3770     2.9540     3.9620   139.4270     7.6960     2.4240    -0.0310
 2986.0000   -44.4000     3.3150     2.9260     3.8420   136.5390     7.6960     2.3860     0.0560
 2986.5000   -44.1240     3.2530     2.8970     3.7210   137.4820     7.6960     2.3970     0.0720
 2987.0000   -44.3770     3.1910     2.8690     3.6000   138.5530     7.6960     2.4060     0.0590
 2987.5000   -44.6590     3.1350     2.8420     3.4670   139.2700     7.6960     2.3980     0.1010
 2988.0000   -44.9410     3.1200     2.8160     3.5130   139.4410     7.6950     2.4060     0.0870
 2988.5000   -45.2280     3.1060     2.7910     3.5640   139.5730     7.6930     2.4110     0.0750
 2989.0000   -45.2960     3.0920     2.7650     3.6150   138.5660     7.6910     2.3990     0.0850
 2989.5000   -45.2990     3.0780     2.7390     3.6630   137.4950     7.6890     2.3800     0.0680
 2990.0000   -45.2970     3.0640     2.7130     3.6230   136.5000     7.6870     2.4060     0.0810
 2990.5000   -45.2430     3.0500     2.6870     3.5850   137.7520     7.6840     2.4000     0.0610
 2991.0000   -44.9520     3.0360     2.6550     3.5640   139.1160     7.6820     2.4050     0.0850
 2991.5000   -44.3810     3.0220     2.6220     3.6300   140.3741     7.6800     2.3940     0.0670
 2992.0000   -43.8240     2.9670     2.5890     3.5160   141.6098     7.6780     2.3730     0.0390
 2992.5000   -43.5830     2.9140     2.5560     3.3800   115.2683     7.6760     2.3820     0.0430
 2993.0000   -43.7300     2.8610     2.5230     3.2440    80.1612     7.6760     2.3990     0.0610
 2993.5000   -43.8740     2.8070     2.4710     3.1490    43.2329     7.6760     2.3950     0.0720
 2994.0000   -44.0190     2.7330     2.4750     3.1350     0.3902     7.6760     2.3970     0.0600
 2994.5000   -44.0690     2.7510     2.4860     3.1920     0.3902     7.6760     2.3860     0.0540
 2995.0000   -43.9750     2.7830     2.4960     3.2870     0.3902     7.6760     2.3900     0.0700
 2995.5000   -43.8830     2.7830     2.5070     3.4040     0.3902     7.6760     2.3810     0.0900
 2996.0000   -43.7880     2.8070     2.5180     3.3560     0.3902     7.6770     2.3900     0.0740
 2996.5000   -43.6000     2.8720     2.5280     3.2930     0.3902     7.6780     2.3960     0.0580
 2997.0000   -42.9460     2.9140     2.5400     3.2520     0.3902     7.6840     2.3890     0.0710
 2997.5000   -42.2940     2.8870     2.4980     3.4610     0.3902     7.6890     2.3790     0.0550
 2998.0000   -41.6400     2.9670     2.4540     3.7650     0.3902     7.6950     2.3950     0.0450
 2998.5000   -41.6010     2.8200     2.4110     3.4890     0.3902     7.7000     2.4220     0.0950
 2999.0000   -41.9700     2.7240     2.3670     3.0780     0.3902     7.7050     2.4130     0.0700
 2999.5000   -42.0800     2.6280     2.3230     3.0320     0.3902     7.7110     2.4000     0.0450
 3000.0000   -42.1980     2.5320     2.2750     2.9820     0.3902     7.7150     2.3870     0.0730
 3000.5000   -42.3170     2.4360     2.2800     2.8550     0.3902     7.7030     2.3730     0.0570
 3001.0000   -42.1610     2.5080     2.2850     2.6100     0.3902     7.6910     2.3810     0.0820
 3001.5000   -41.9800     2.6000     2.2900     2.9160     0.3902     7.6790     2.3940     0.0780
 3002.0000   -41.7000     2.6930     2.2960     3.8700     0.3902     7.6670     2.3910     0.0810
 3002.5000   -41.3830     2.7850     2.2960     3.8240     0.3902     7.6550     2.3930     0.0470
 3003.0000   -41.0650     2.8770     2.2960     3.7260     0.3902     7.6440     2.4120     0.0560
 3003.5000   -40.7560     2.9690     2.3390     3.5970     0.3902     7.6320     2.4370     0.0800
 3004.0000   -40.6950     3.0610     2.3390     3.6360     0.3902     7.6200     2.4240     0.0670
 3004.5000   -41.2590     3.1530     2.3390     3.6960     0.3902     7.6080     2.4050     0.0620
 3005.0000   -41.8280     3.2260     2.3390     3.7560     3.2949     7.5960     2.4170     0.0870
 3005.5000   -41.1700     3.2390     2.3390     3.7990  -999.2500     7.5840     2.4120     0.0770
 3006.0000   -40.1670     3.2520  -999.2500     3.8390  -999.2500     7.5660     2.4540     0.0970
 3006.5000  -999.2500  -999.2500  -999.2500  -999.2500  -999.2500     7.5400     2.4440     0.0850
 3007.0000  -999.2500  -999.2500  -999.2500  -999.2500  -999.2500     7.5140     2.4260     0.0560
 3007.5000  -999.2500  -999.2500  -999.2500  -999.2500  -999.2500     7.4890     2.4170     0.0600
 3008.0000  -999.2500  -999.2500  -999.2500  -999.2500  -999.2500     7.4610     2.4410     0.0930
 3008.5000  -999.2500  -999.2500  -999.2500  -999.2500  -999.2500     7.3950     2.4310     0.1120
 3009.0000  -999.2500  -999.2500  -999.2500  -999.2500  -999.2500     7.3210     2.4140     0.1080
 3009.5000  -999.2500  -999.2500  -999.2500  -999.2500  -999.2500     7.2470  -999.2500  -999.2500
 3010.0000  -999.2500  -999.2500  -999.2500  -999.2500  -999.2500     7.1700  -999.2500  -999.2500
