~VERSION INFORMATION
 VERS.                2.0:   CWLS LOG ASCII STANDARD - VERSION 2.0
 WRAP.                 NO:   ONE LINE PER DEPTH STEP
~WELL INFORMATION
#MNEM.UNIT      DATA TYPE    INFORMATION
#----------   ------------   ------------------------------
 STRT.F          196.5000:   START DEPTH
 STOP.F         3202.0000:   STOP DEPTH
 STEP.F            0.5000:   STEP LENGTH
 NULL.          -999.2500:   NO VALUE
 COMP.    FENIX & SCISSON:   COMPANY
 WELL.   FENIX "AX" #26-3:   WELL
 FLD .              NPR-3:   FIELD
 LOC .       S3 T38N R78W:   LOCATION
 CNTY.            NATRONA:   COUNTY
 STAT.            WYOMING:   STATE
 CTRY. UNITED STATES OF AMERICA:   COUNTRY
 SRVC.              WELEX:   SERVICE COMPANY
 DATE.        19-JUN-1977:   LOGDATE
 API .     49025103800000:   API NUMBER
~CURVE INFORMATION
#MNEM.UNIT       API CODE    CURVE DESCRIPTION
#----------   ------------   ------------------------------
 DEPT.F                  :   
 CALD.IN     45 280 60 00:   CALIPER FROM DENSITY LOG
 GRD .GAPI   45 310 01 00:   GAMMA RAY FROM DENSITY LOG
 RHOB.G/C3   45 350 01 00:   BULK DENSITY
 CORR.G/C3   45 356 01 00:   DENSITY CORRECTION
 SPR .MV     07 010 01 00:   SPONTANEOUS POTENTIAL
 ILD .OHMM   07 120 46 00:   DEEP INDUCTION RESISTIVITY
 ILM .OHMM   07 120 44 00:   INDUCTION LOG MEDIUM RESISTIVITY
 SGRD.OHMM   07 220 05 00:   SHALLOW SHORT GUARD RESISTIVITY
~PARAMETER INFORMATION
#MNEM.UNIT          VALUE    DESCRIPTION
#----------   ------------   ------------------------------
 EKB .F         5231.0000:   Kelly bushing
 EGL .F         5221.0000:   Ground level
 EDF .F            0.0000:   Drilling floor
 TD  .F         3204.0000:   Total depth
 CLNT.            A2DTECH:   Client Code
 SL  . 1320' FSL & 740' FWL:   Surface Location
 PD  .                 GL:   Permanent Datum
 EPD .F              5221:   Elevation Permanent Datum
 LMF .                 KB:   Log Measured From
 DMF .                 KB:   Drilling Measured From
 DAPD.F                10:   Feet Above Permanent Datum
 DATE.        19-JUN-1977:   Date Logged [DD-MMM-YYYY]
 DD  .F              3200:   Depth driller
 DL  .F              3204:   Depth logger
 BLI .F              3202:   Bottom log interval
 TLI .F               220:   Top log interval
 CS1 .IN            8.625:   Casing size
 CBD1.      8.625" @ 220':   Casing driller 1
 CBL1.F               220:   Casing logger 1
 BS1 .IN            7.875:   Bit size
 BSD1.F              3200:   Depth drilled with bit1
 DFT .                KCL:   Type fluid in hole
 DFD .                9.1:   Density
 RMS .OHMM           1.19:   Rm
 MST .F                65:   Rm Meas. temp.
 TCS .HRS               4:   Time Circ. stopped
 MRT .F               115:   Maximum recorded temp.
 LUN .               8766:   Logging unit number
 ENGI.          T. JOYNER:   Recorded By
 WITN.         PETTINGILL:   Witnessed by
 ORIG.           5" PRINT:   Origin of data
 UWI .     49025103800000:   Unique Well ID
 DICO. A2D TECHNOLOGIES, INC.:   Digitizing Company
 DFPH.                7.5:   pH
 DFL .                4.2:   Fluid loss
 MSS .            MUD PIT:   Source of sample
 RMF .OHMM           1.19:   Rmf
 MFST.F                65:   Rmf Meas. temp.
 MFSS.               MEAS:   Source Rmf.
 RMC .OHMM           2.01:   Rmc
 MCST.F                65:   Rmc Meas. temp.
 MCSS.               MEAS:   Source Rmc.
 RMB .OHMM            .67:   Rm. at BHT
 BHT .F               115:   BHT.
~OTHER INFORMATION
~A   DEPT     CALD         GRD      RHOB       CORR        SPR        ILD        ILM       SGRD   
# ...
  642.0000     9.5239    77.5434     2.4315     0.0174   -45.2305     7.8645     9.0401     8.3963
  642.5000     9.5248    77.5810     2.4331     0.0191   -45.3625     7.8145     8.9820     8.3437
  643.0000     9.5256    78.2129     2.4354     0.0207   -45.3462     7.8211     8.8655     8.2931
  643.5000     9.5265    78.5477     2.4371     0.0216   -45.1789     7.7726     8.7491     8.1861
  644.0000     9.5274    79.4770     2.4379     0.0232   -45.0151     7.7245     8.6928     8.0266
  644.5000     9.5285    80.1465     2.4373     0.0241   -44.9992     7.6240     8.5210     7.8671
  645.0000     9.5294    78.3727     2.4351     0.0243   -44.8354     7.5781     8.4662     7.6608
  645.5000     9.5303    75.1414     2.4301     0.0230   -44.6715     7.3266     8.4726     7.5620
  646.0000     9.5310    73.6837     2.4273     0.0216   -44.3585     7.0349     8.3919     7.2592
  646.5000     9.5320    72.5326     2.4244     0.0218   -44.1367     6.8015     8.3656     6.9593
  647.0000     9.5177    70.7965     2.4223     0.0219   -43.8173     6.6670     8.4882     6.5149
  647.5000     9.5188    71.4285     2.4216     0.0221   -43.7192     6.5791     8.6127     6.4296
  648.0000     9.5046    73.8435     2.4210     0.0222   -43.4083     6.4935     8.7379     6.5255
  648.5000     9.4905    75.9624     2.4234     0.0224   -43.0930     6.4543     8.8649     7.2923
  649.0000     9.4764    77.5533     2.4265     0.0232   -42.7813     6.5935     9.2457     8.0377
  649.5000     9.4925    79.0177     2.4304     0.0234   -42.4695     6.6895     9.7098     8.0982
  650.0000     9.4934    78.4610     2.4342     0.0250   -42.3057     6.8812    10.4107     7.8859
  650.5000     9.5093    77.5976     2.4327     0.0244   -42.1419     7.0303    11.3961     7.7306
  651.0000     9.5251    77.6446     2.4296     0.0238   -42.1260     7.1818    12.3888     7.6310
  651.5000     9.5410    79.7625     2.4271     0.0240   -42.1101     7.3366    13.1008     7.5326
  652.0000     9.5472    80.9794     2.4245     0.0242   -42.2426     7.4947    13.6688     7.5402
  652.5000     9.5499    78.0546     2.4238     0.0243   -42.3743     7.7092    13.9586     7.8110
  653.0000     9.5520    77.7949     2.4238     0.0245   -42.8151     7.9297    13.7772     8.2038
  653.5000     9.5387    79.3185     2.4238     0.0254   -43.2261     8.1566    13.6886     8.6164
  654.0000     9.5414    76.6815     2.4238     0.0270   -43.5100     8.2752    13.5090     9.0497
  654.5000     9.5436    79.9880     2.4235     0.0271   -43.7900     8.4533    13.3317     9.3102
  655.0000     9.5458    76.7661     2.4237     0.0271   -43.9181     8.6359    13.1567     9.6445
  655.5000     9.5326    74.1291     2.4239     0.0242   -44.0541     8.7616    13.0760     9.8540
  656.0000     9.5052    75.9153     2.4247     0.0221   -44.3301     8.8293    12.9919     9.9998
  656.5000     9.5079    76.8415     2.4264     0.0214   -44.3142     8.7732    12.9123    10.1461
  657.0000     9.5101    77.4704     2.4287     0.0208   -44.4468     8.7805    12.8310    10.1561
  657.5000     9.5123    78.3965     2.4349     0.0202   -44.5784     8.7262    12.8390    10.1643
  658.0000     9.5144    80.5114     2.4365     0.0203   -44.5621     8.6707    12.7583    10.0332
  658.5000     9.5166    81.7355     2.4352     0.0205   -44.6036     8.5579    12.6782     9.9038
  659.0000     9.5188    79.4005     2.4361     0.0206   -44.8225     8.4480    12.5118     9.7090
  659.5000     9.5210    77.9492     2.4384     0.0215   -44.8067     8.3381    12.4332     9.5160
  660.0000     9.5232    77.6780     2.4431     0.0224   -44.7908     8.2865    12.3551     9.2028
  660.5000     9.5104    78.3069     2.4469     0.0232   -44.7766     8.3494    12.1948     8.8982
  661.0000     9.4831    77.1528     2.4486     0.0241   -44.7604     8.4129    12.1182     8.6044
  661.5000     9.4697    76.3045     2.4495     0.0242   -44.7431     8.4779    12.0403     8.4344
  662.0000     9.4725    74.2585     2.4496     0.0228   -44.8336     8.4836    11.8837     8.3261
  662.5000     9.4746    74.8878     2.4475     0.0200   -44.9067     8.4297    11.8913     8.2745
  663.0000     9.4768    74.0309     2.4432     0.0194   -44.9913     8.4202    11.8985     8.2259
  663.5000     9.4790    74.6685     2.4388     0.0180   -44.9749     8.3831    11.8238     8.2892
  664.0000     9.4813    77.6749     2.4352     0.0174   -44.9556     8.2751    11.8328     8.3535
  664.5000     9.4839    79.7897     2.4324     0.0153   -44.9397     8.2242    11.8387     8.3609
  665.0000     9.4861    78.3384     2.4303     0.0146   -44.9239     8.1733    11.8472     8.3673
  665.5000     9.4883    77.1756     2.4273     0.0148   -44.9080     8.1227    11.8534     8.3743
  666.0000     9.4905    79.8935     2.4253     0.0149   -44.8935     8.1283    11.8616     8.3818
  666.5000     9.4925    78.1040     2.4240     0.0151   -44.8772     8.0781    11.8688     8.4015
  667.0000     9.4948    79.6741     2.4249     0.0152   -44.8603     8.0846    11.8760     8.4540
  667.5000     9.4970    78.2228     2.4280     0.0153   -44.8444     8.2022    11.8833     8.5187
  668.0000     9.4993    77.3573     2.4319     0.0169   -44.8284     8.2644    11.8905     8.5268
  668.5000     9.5019    80.0751     2.4357     0.0185   -44.8121     8.3271    11.8158     8.5328
  669.0000     9.5041    78.3266     2.4382     0.0187   -44.7959     8.3327    11.9051     8.5398
  669.5000     9.5063    78.0554     2.4413     0.0188   -44.7769     8.4539    11.9125     8.5469
  670.0000     9.5082    80.1789     2.4422     0.0189   -44.7611     8.4596    11.9213     8.5549
  670.5000     9.5106    81.1050     2.4423     0.0191   -44.7470     8.4653    11.9273     8.5611
  671.0000     9.5058    77.8793     2.4432     0.0192   -44.7308     8.4129    12.0185     8.6275
  671.5000     9.5000    77.3109     2.4441     0.0183   -44.7145     8.3883    12.0258     8.6630
  672.0000     9.4873    76.7598     2.4450     0.0179   -44.6982     8.3664    12.0332     8.6718
  672.5000     9.4895    76.7944     2.4466     0.0173   -44.6817     8.3735    12.0405     8.6484
  673.0000     9.4921    76.8290     2.4475     0.0170   -44.6657     8.5539    12.0478     8.6560
  673.5000     9.4788    77.7551     2.4484     0.0168   -44.6494     8.7022    12.0551     8.6641
  674.0000     9.4815    79.5728     2.4485     0.0177   -44.6300     8.8154    12.0625     8.6703
  674.5000     9.4837    80.2017     2.4494     0.0186   -44.6169     8.9949    12.0763     8.6775
  675.0000     9.4858    78.6528     2.4503     0.0187   -44.6006     9.0728    12.1612     8.6847
  675.5000     9.4880    77.0020     2.4512     0.0196   -44.7343     9.1311    12.1701     8.6319
  676.0000     9.4903    77.0452     2.4521     0.0197   -44.8663     9.2641    12.2620     8.6393
  676.5000     9.4929    77.0798     2.4522     0.0198   -44.8476     9.2704    12.2694     8.7074
  677.0000     9.4951    77.4116     2.4524     0.0192   -44.8306     9.2768    12.2769     8.7469
  677.5000     9.4973    78.0405     2.4510     0.0193   -44.6672     9.2844    12.3695     8.7812
  678.0000     9.4839    78.3723     2.4459     0.0180   -44.6483     9.2907    12.3771     8.7895
  678.5000     9.4867    79.0015     2.4393     0.0166   -44.6346     9.2316    12.3846     8.8564
  679.0000     9.4889    78.9462     2.4343     0.0152   -44.6183     9.1744    12.3921     8.9253
  679.5000     9.4910    76.0986     2.4314     0.0138   -44.5993     9.1815    12.4856     8.9324
  680.0000     9.4933    75.5389     2.4308     0.0132   -44.7353     9.1883    12.4934     8.9805
  680.5000     9.4959    76.1765     2.4309     0.0126   -44.7155     9.1945    12.5011     9.0100
  681.0000     9.4981    77.3998     2.4311     0.0128   -44.7012     9.2007    12.5089     9.0790
  681.5000     9.5003    76.2457     2.4305     0.0121   -44.6837     9.2069    12.5167     9.0865
  682.0000     9.5025    72.4170     2.4284     0.0100   -44.6678     9.2132    12.5256     9.0940
