~VERSION INFORMATION
 VERS.                2.0:   CWLS LOG ASCII STANDARD - VERSION 2.0
 WRAP.                 NO:   ONE LINE PER DEPTH STEP
~WELL INFORMATION
#MNEM.UNIT      DATA TYPE    INFORMATION
#----------   ------------   ------------------------------
 STRT.F          484.0000:   START DEPTH
 STOP.F         4096.0000:   STOP DEPTH
 STEP.F            0.5000:   STEP LENGTH
 NULL.          -999.2500:   NO VALUE
 COMP.    FENIX & SCISSON:   COMPANY
 WELL. FENIX NPR "JX" #58-28:   WELL
 FLD .                NPR:   FIELD
 LOC .      S28 T39N R78W:   LOCATION
 CNTY.            NATRONA:   COUNTY
 STAT.            WYOMING:   STATE
 CTRY. UNITED STATES OF AMERICA:   COUNTRY
 SRVC.              WELEX:   SERVICE COMPANY
 DATE.        02-MAY-1978:   LOGDATE
 API .     49025107810000:   API NUMBER
~CURVE INFORMATION
#MNEM.UNIT       API CODE    CURVE DESCRIPTION
#----------   ------------   ------------------------------
 DEPT.F                  :   
 NPHI.DEC    42 890 03 00:   NEUTRON POROSITY SANDSTONE
 RHOB.G/C3   45 350 01 00:   BULK DENSITY
 CORR.G/C3   45 356 01 00:   DENSITY CORRECTION
 CALD.IN     45 280 60 00:   CALIPER FROM DENSITY LOG
 GRD .GAPI   45 310 01 00:   GAMMA RAY FROM DENSITY LOG
 SPR .MV     07 010 01 00:   SPONTANEOUS POTENTIAL
 ILD .OHMM   07 120 46 00:   DEEP INDUCTION RESISTIVITY
 SGRD.OHMM   07 220 05 00:   SHALLOW SHORT GUARD RESISTIVITY
 ILM .OHMM   07 120 44 00:   INDUCTION LOG MEDIUM RESISTIVITY
~PARAMETER INFORMATION
#MNEM.UNIT          VALUE    DESCRIPTION
#----------   ------------   ------------------------------
 EKB .F         5115.0000:   Kelly bushing
 EGL .F         5101.0000:   Ground level
 EDF .F            0.0000:   Drilling floor
 EPD .F         5101.0000:   Permanent datum
 TD  .F         4100.0000:   Total depth
 DATE.        02-MAY-1978:   Date logged
 CLNT.            A2DTECH:   Client Code
 SL  . 525' FSL & 2406' FEL:   Surface Location
 PD  .                 GL:   Permanent Datum
 DAPD.F                14:   Feet Above Permanent Datum
 DD  .F              4100:   Depth driller
 DL  .F              4098:   Depth logger
 BLI .F              4096:   Bottom log interval
 CS1 .IN            8.625:   Casing size
 CBD1.      8.625" @ 501':   Casing driller 1
 CBL1.F               500:   Casing logger 1
 BS1 .IN            7.875:   Bit size
 BSD1.F              4100:   Depth drilled with bit1
 DFT .            CHM GEL:   Type fluid in hole
 DFD .                9.4:   Density
 DFV .                 48:   Viscosity
 DFPH.                9.3:   pH
 DFL .                8.5:   Fluid loss
 MSS .           FLOWLINE:   Source of sample
 RMS .OHMM           1.24:   Rm
 MST .F                70:   Rm Meas. temp.
 RMF .OHMM            .57:   Rmf
 MFST.F                70:   Rmf Meas. temp.
 RMC .OHMM           1.48:   Rmc
 MCST.F                70:   Rmc Meas. temp.
 MFSS.               MEAS:   Source Rmf.
 MCSS.               MEAS:   Source Rmc.
 RMB .OHMM            .87:   Rm. at BHT
 BHT .F               123:   BHT.
 TCS .HRS               4:   Time Circ. stopped
 MRT .F               123:   Maximum recorded temp.
 LUN .               1892:   Logging unit number
 LUL .             CASPER:   Logging unit location
 ENGI.               REIN:   Recorded By
 WITN.           DINSMORE:   Witnessed by
 ORIG.         2.5" PRINT:   Origin of data
 UWI .     49025107810000:   Unique Well ID
 DICO. A2D TECHNOLOGIES, INC.:   Digitizing Company
 TLI .                500:   Top log interval
~OTHER INFORMATION
~A   DEPT       NPHI     RHOB       CORR       CALD         GRD       SPR        ILD       SGRD        ILM   
# ...
 1688.5000     0.2950     2.6040     0.0500     9.2110    96.6260    -8.1460     6.4150     7.1950     6.7810
 1689.0000     0.2940     2.6030     0.0520     9.2450    96.9670    -7.8890     6.3590     7.1680     6.7220
 1689.5000     0.2930     2.6020     0.0540     9.2800    99.1740    -7.5470     6.3030     7.1420     6.6630
 1690.0000     0.2910     2.5920     0.0560     9.3150    98.4700    -7.9980     6.2470     7.1150     6.6040
 1690.5000     0.2900     2.5780     0.0570     9.3480    98.0790    -8.5730     6.1910     7.0890     6.5450
 1691.0000     0.2880     2.5650     0.0590     9.3860    97.7330    -9.2090     6.1350     7.0630     6.4850
 1691.5000     0.2860     2.5570     0.0600     9.4180   101.9080    -9.4360     6.0790     7.0340     6.4260
 1692.0000     0.2840     2.5540     0.0600     9.4400   104.1350    -9.0880     6.0230     6.8200     6.3670
 1692.5000     0.2830     2.5500     0.0580     9.3700   105.1850    -8.7950     5.9680     6.5890     6.3080
 1693.0000     0.2810     2.5450     0.0540     9.2930   105.4390    -8.4970     5.9120     6.3580     6.2490
 1693.5000     0.2790     2.5450     0.0490     9.4060   102.4730    -8.1870     5.8560     6.0120     6.1900
 1694.0000     0.2800     2.5380     0.0450     9.3790   102.8240    -7.8870     5.8000     6.6550     6.1310
 1694.5000     0.2830     2.5210     0.0410     9.2420   103.3850    -7.5860     5.7440     6.5340     6.0710
 1695.0000     0.2850     2.5060     0.0360     9.2290   105.1360    -7.2710     5.6880     6.2820     6.0120
 1695.5000     0.2870     2.5140     0.0370     9.2780   102.5980    -6.9850     5.6320     5.9560     5.9530
 1696.0000     0.2900     2.5330     0.0420     9.3160   100.3360    -6.7130     5.5480     6.3360     5.8640
 1696.5000     0.2920     2.5660     0.0460     9.3630   100.5680    -7.0920     5.5570     7.5740     5.8740
 1697.0000     0.2920     2.5820     0.0500     9.3610   100.0380    -7.4790     5.6880     7.5400     6.0120
 1697.5000     0.2880     2.5940     0.0540     9.3550    97.5300    -7.8940     5.8190     7.4580     6.1510
 1698.0000     0.2840     2.6010     0.0580     9.3470    95.1560    -8.2930     5.9500     7.3760     6.2890
 1698.5000     0.2820     2.6020     0.0620     9.3410    96.1510    -8.7010     6.0810     7.2950     6.4280
 1699.0000     0.2790     2.6060     0.0660     9.3340    93.9230    -9.0990     6.2120     7.2130     6.5660
 1699.5000     0.2800     2.6100     0.0700     9.3270    91.5970    -9.5010     6.2940     7.1310     6.6530
 1700.0000     0.2810     2.6050     0.0720     9.3200    93.3370    -9.6860     6.2910     7.0490     6.6500
 1700.5000     0.2810     2.5950     0.0720     9.3130    94.5570    -9.8620     6.2870     6.9670     6.6460
 1701.0000     0.2830     2.5860     0.0720     9.3060    96.6910   -10.0340     6.2840     6.8860     6.6430
 1701.5000     0.2870     2.5780     0.0710     9.2990   101.5380   -10.2270     6.2810     6.7790     6.6390
 1702.0000     0.2870     2.5660     0.0700     9.2920   103.7550   -10.2420     6.2770     7.8600     6.6350
 1702.5000     0.2870     2.5500     0.0680     9.2850   101.1650    -9.9140     6.2740     7.6510     6.6320
 1703.0000     0.2870     2.5340     0.0660     9.2780    98.9990    -9.5830     6.2710     7.2540     6.6280
 1703.5000     0.2870     2.5180     0.0650     9.2720    97.9400    -9.3120     6.2670     6.8580     6.6250
 1704.0000     0.2870     2.5020     0.0600     9.2650    97.6740    -8.6910     6.2640     6.6550     6.6210
 1704.5000     0.2870     2.4950     0.0490     9.2580    97.8500    -7.4720     6.2600     7.2330     6.6180
 1705.0000     0.2870     2.5430     0.0470     9.2510    94.5800    -7.7470     6.2570     8.1440     6.6140
 1705.5000     0.2870     2.5870     0.0560     9.2440    86.8810    -7.6000     6.2540     8.7820     6.6110
 1706.0000     0.2870     2.5870     0.0570     9.2370    85.9400    -6.7470     6.2500     8.2560     6.6070
 1706.5000     0.2870     2.5890     0.0580     9.2300    91.1190    -7.3000     6.2470     7.6780     6.6030
 1707.0000     0.2870     2.5880     0.0590     9.2230    95.4150    -7.8110     6.2440     7.0990     6.6000
 1707.5000     0.2870     2.5890     0.0600     9.2160    98.4880    -8.3370     6.2400     6.5330     6.5960
 1708.0000     0.2870     2.5910     0.0610     9.2090    95.9520    -8.8700     6.2370     6.9270     6.5930
 1708.5000     0.2870     2.6120     0.0620     9.2020    95.7090    -9.3750     6.2340     7.4360     6.5890
 1709.0000     0.2870     2.6210     0.0630     9.1960    99.2710    -9.8860     6.2300     7.3760     6.5860
 1709.5000     0.2870     2.6210     0.0620     9.1880   103.4550    -9.7810     6.2270     7.2890     6.5820
 1710.0000     0.2870     2.6040     0.0580     9.1820   108.0850    -9.6750     6.2230     7.2030     6.5780
 1710.5000     0.2870     2.5870     0.0540     9.1750   108.0950    -9.5260     6.2200     7.1660     6.5750
 1711.0000     0.2860     2.5770     0.0520     9.1660   104.7110    -9.6570     6.2170     7.2210     6.5710
 1711.5000     0.2840     2.5800     0.0550     9.1860   101.5580    -9.8140     6.2130     7.2900     6.5680
 1712.0000     0.2820     2.5830     0.0580     9.2270   100.8600    -9.9780     6.2100     7.3590     6.5640
 1712.5000     0.2810     2.5810     0.0600     9.2640    97.7500   -10.1370     6.2070     7.4360     6.5610
 1713.0000     0.2790     2.5760     0.0630     9.3020    98.0800   -10.2990     6.2030     7.4360     6.5570
 1713.5000     0.2770     2.5710     0.0660     9.3400   101.3020   -10.4590     6.2000     7.3830     6.5540
 1714.0000     0.2760     2.5740     0.0680     9.3770   101.7400   -10.6200     6.1970     7.3360     6.5500
 1714.5000     0.2770     2.5760     0.0710     9.4150   100.4130   -10.7880     6.1940     7.2910     6.5470
 1715.0000     0.2790     2.5780     0.0710     9.4530    98.6810   -10.9310     6.1910     7.2450     6.5440
 1715.5000     0.2820     2.5700     0.0680     9.4910    96.2430   -11.0930     6.1870     7.1980     6.5390
 1716.0000     0.2840     2.5630     0.0650     9.5280    96.5150   -10.5920     6.1820     7.1650     6.5340
 1716.5000     0.2860     2.5730     0.0680     9.5660    98.3590    -9.8570     6.1850     7.1660     6.5380
 1717.0000     0.2880     2.5910     0.0740     9.6030   101.5080    -9.4520     6.0880     7.1660     6.4350
 1717.5000     0.2910     2.5950     0.0800     9.6410   104.5160    -9.4190     6.0080     7.1660     6.3510
 1718.0000     0.2930     2.5840     0.0790     9.6500   102.6500    -9.3490     5.9280     6.9800     6.2660
 1718.5000     0.2950     2.5690     0.0780     9.6490   100.7590    -9.2720     5.8470     6.7440     6.1800
 1719.0000     0.2950     2.5560     0.0770     9.6470   100.1580    -9.2000     5.7660     6.5080     6.0950
 1719.5000     0.2950     2.5370     0.0750     9.6120    97.4470    -9.1610     5.5920     6.2730     5.9110
 1720.0000     0.2960     2.5120     0.0660     9.5790    96.0200    -8.8020     5.3740     6.0370     5.6800
 1720.5000     0.2960     2.4890     0.0570     9.5430    95.4350    -8.2310     5.1550     5.8010     5.4490
 1721.0000     0.2960     2.4640     0.0530     9.5090    94.6850    -7.3260     4.9370     5.5650     5.2180
 1721.5000     0.2960     2.4420     0.0580     9.4740    92.1030    -5.6140     4.7180     5.3300     4.9870
 1722.0000     0.2890     2.4220     0.0570     9.4470    91.6820    -3.8790     4.5000     4.8590     4.7560
 1722.5000     0.2900     2.4630     0.0470     9.4260    92.1860    -3.1310     4.2810     5.2060     4.5250
 1723.0000     0.2910     2.5060     0.0480     9.4000    94.6950    -4.9830     4.0390     6.0670     4.2690
 1723.5000     0.2930     2.5360     0.0600     9.3740    97.9860    -6.9350     4.1130     6.0670     4.3480
 1724.0000     0.2940     2.5190     0.0630     9.3670    97.8380    -7.2060     4.1970     5.7650     4.4370
 1724.5000     0.2920     2.4900     0.0580     9.3600    97.6630    -7.3840     4.2810     5.3490     4.5250
