~VERSION INFORMATION
 VERS.                2.0:   CWLS LOG ASCII STANDARD - VERSION 2.0
 WRAP.                 NO:   ONE LINE PER DEPTH STEP
~WELL INFORMATION
#MNEM.UNIT      DATA TYPE    INFORMATION
#----------   ------------   ------------------------------
 STRT.F         3500.0000:   START DEPTH
 STOP.F         6855.0000:   STOP DEPTH
 STEP.F            0.5000:   STEP LENGTH
 NULL.          -999.2500:   NO VALUE
 COMP.          U.S. NAVY:   COMPANY
 WELL.  US NAVY "G" #1-10:   WELL
 FLD . TEAPOT NAVAL RESERVE:   FIELD
 LOC .      S10 T38N R78W:   LOCATION
 CNTY.            NATRONA:   COUNTY
 STAT.            WYOMING:   STATE
 CTRY. UNITED STATES OF AMERICA:   COUNTRY
 SRVC.         LANE WELLS:   SERVICE COMPANY
 DATE.        23-MAR-1952:   LOGDATE
 API .     49025063380000:   API NUMBER
~CURVE INFORMATION
#MNEM.UNIT       API CODE    CURVE DESCRIPTION
#----------   ------------   ------------------------------
 DEPT.F                  :   
 GRN .GAPI   35 310 01 00:   GAMMA RAY
 NEUT.NAPI   35 330 01 00:   NEUTRON
~PARAMETER INFORMATION
#MNEM.UNIT          VALUE    DESCRIPTION
#----------   ------------   ------------------------------
 EKB .F         5195.0000:   Kelly bushing
 EGL .F         5184.0000:   Ground level
 EDF .F         5195.0000:   Drilling floor
 EPD .F            0.0000:   Permanent datum
 TD  .F         6861.0000:   Total depth
 CLNT.            A2DTECH:   Client Code
 PD  .                 GL:   Permanent Datum
 DATE.        23-MAR-1952:   Date Logged [DD-MMM-YYYY]
 DD  .F              6861:   Depth driller
 DL  .F              6861:   Depth logger
 BLI .F              6855:   Bottom log interval
 TLI .F              3500:   Top log interval
 BSD1.F              6861:   Depth drilled with bit1
 DFT .                MUD:   Type fluid in hole
 ENGI.            GAMBERG:   Recorded By
 WITN.           GRIBBENS:   Witnessed by
 ORIG.         2.5" PRINT:   Origin of data
 UWI .     49025063380000:   Unique Well ID
 DICO. A2D TECHNOLOGIES, INC.:   Digitizing Company
~OTHER INFORMATION
~A  DEPT       GRN        NEUT  
# ...
 6537.5000   118.9073   387.4156
 6538.0000   113.5405   446.0528
 6538.5000   109.3932   505.4881
 6539.0000   104.0263   544.8734
 6539.5000   100.6107   562.0911
 6540.0000    98.8218   574.3826
 6540.5000    95.0770   557.1176
 6541.0000    90.5134   524.5482
 6541.5000    89.1141   491.6529
 6542.0000    87.6787   470.9177
 6542.5000    87.3627   452.2170
 6543.0000    88.8962   448.6249
 6543.5000    90.3587   458.1423
 6544.0000    90.3577   478.3283
 6544.5000    90.3567   502.7293
 6545.0000    90.6410   519.9470
 6545.5000    91.6512   537.1647
 6546.0000    92.6623   549.4563
 6546.5000    93.2796   556.8218
 6547.0000    91.0101   556.7980
 6547.5000    87.8606   562.1501
 6548.0000    84.4306   575.2667
 6548.5000    79.8606   590.6212
 6549.0000    78.6401   600.2302
 6549.5000    77.4196   609.4282
 6550.0000    73.7601   614.5345
 6550.5000    70.8323   606.1024
 6551.0000    69.6118   534.4295
 6551.5000    69.6108   480.2187
 6552.0000    70.0169   411.2295
 6552.5000    71.8543   332.3881
 6553.0000    72.5671   305.2708
 6553.5000    75.3404   285.1821
 6554.0000    78.6380   296.3237
 6554.5000    81.5693   350.1115
 6555.0000    84.3610   435.5341
 6555.5000    86.9195   538.0766
 6556.0000    88.1381   619.8935
 6556.5000    86.6737   659.5981
 6557.0000    85.6971   699.1583
 6557.5000    86.1839   736.0805
 6558.0000    86.6791   780.3918
 6558.5000    86.2658   837.0184
 6559.0000    83.6520   915.8125
 6559.5000    83.2532  1007.4619
 6560.0000    85.2023  1082.1099
 6560.5000    88.5812  1102.0599
 6561.0000    92.9556  1112.7621
 6561.5000    97.8614   999.4301
 6562.0000   106.8585   900.8842
 6562.5000   113.9183   745.6882
 6563.0000   119.7928   607.7335
 6563.5000   125.6153   492.2212
 6564.0000   130.0730   394.0898
 6564.5000   132.7549   372.1831
 6565.0000   133.9735   358.8704
 6565.5000   134.9481   400.2846
 6566.0000   136.1666   412.7401
 6566.5000   136.4160   415.4433
 6567.0000   134.6537   398.1727
 6567.5000   131.5320   361.2032
 6568.0000   127.7228   321.7707
 6568.5000   123.6732   292.1904
 6569.0000   120.2812   287.2406
 6569.5000   117.3474   289.8297
 6570.0000   114.9390   307.6459
 6570.5000   112.8107   329.2742
 6571.0000   111.7661   365.5901
 6571.5000   112.4968   393.9707
 6572.0000   112.7397   410.9372
 6572.5000   111.5192   417.5708
 6573.0000   108.1036   373.2464
 6573.5000   103.1890   306.7202
 6574.0000    99.6313   264.8246
 6574.5000    96.1296   235.2444
 6575.0000    91.0679   249.9990
 6575.5000    86.1472   267.2167
 6576.0000    83.4633   274.5822
 6576.5000    83.7062   262.2414
 6577.0000    84.6808   265.8737
 6577.5000    86.6311   273.6396
 6578.0000    91.0995   281.8767
 6578.5000    96.3772   254.9339
 6579.0000   100.8522   233.2825
 6579.5000   114.1878   231.6791
 6580.0000   120.0405   239.8983
 6580.5000   124.6737   234.9486
 6581.0000   129.5507   225.0727
 6581.5000   136.6229   217.6598
 6582.0000   141.5000   220.5349
 6582.5000   145.9618   239.0674
 6583.0000   149.4460   261.6608
 6583.5000   151.6380   286.8575
 6584.0000   152.9595   322.7309
 6584.5000   151.4895   355.1323
 6585.0000   149.9701   369.0884
 6585.5000   147.8423   375.0941
 6586.0000   146.6138   330.7355
 6586.5000   148.0760   286.3769
 6587.0000   149.0507   254.3335
 6587.5000   148.3180   239.5315
 6588.0000   147.0975   257.2484
 6588.5000   145.8770   280.0907
 6589.0000   144.3968   296.6090
 6589.5000   141.8167   301.0132
 6590.0000   137.6634   306.8143
 6590.5000   131.6220   321.2570
 6591.0000   125.9966   359.4936
 6591.5000   122.1285   424.0594
 6592.0000   118.6018   465.9077
 6592.5000   114.5885   497.9037
 6593.0000   110.0140   517.5845
 6593.5000   106.8423   559.4328
 6594.0000   103.6706   641.6408
 6594.5000   101.1905   743.4825
 6595.0000    99.5441   882.7406
 6595.5000    94.8870   958.1599
 6596.0000    88.5446  1022.8763
 6596.5000    85.8607  1098.5391
 6597.0000    84.6402  1125.7656
 6597.5000    84.3854  1104.0470
 6598.0000    85.6473  1060.7036
 6598.5000    87.4512   977.2356
 6599.0000    90.4686   857.0822
 6599.5000    93.3677   800.4772
 6600.0000    97.2371   764.3544
 6600.5000    99.7553   758.6010
 6601.0000    98.9044   785.6349
 6601.5000    98.3970   807.1558
 6602.0000    97.3128   820.0945
 6602.5000    94.3850   805.2925
 6603.0000    90.2377   778.1752
 6603.5000    86.5782   753.5211
 6604.0000    83.6504   775.6649
 6604.5000    79.7351   873.6530
 6605.0000    76.9595  1024.2659
 6605.5000    74.7898  1097.4658
 6606.0000    73.5896  1111.8567
 6606.5000    74.0396  1086.2069
 6607.0000    75.3882  1004.9261
 6607.5000    76.4380   953.2020
 6608.0000    76.1921   911.3301
 6608.5000    75.3451   884.2365
 6609.0000    75.1000   881.7734
 6609.5000    75.0988   913.4590
 6610.0000    74.5687   947.7913
 6610.5000    72.1693   964.4159
 6611.0000    68.2657   967.9803
 6611.5000    63.3865   930.6506
 6612.0000    59.4829   906.3441
 6612.5000    56.5549   884.4459
 6613.0000    56.5968   864.5320
 6613.5000    57.8056   911.3301
 6614.0000    57.4743   945.8128
 6614.5000    56.7941   965.5172
 6615.0000    59.1100  1000.0000
 6615.5000    60.3169  1039.9884
 6616.0000    60.5789  1208.7501
 6616.5000    62.1547  1293.5082
 6617.0000    66.0559  1347.3057
 6617.5000    65.5669  1396.0631
 6618.0000    66.7853  1438.0331
 6618.5000    67.5158  1474.1904
 6619.0000    66.7790  1505.0760
 6619.5000    65.2314  1564.0394
 6620.0000    62.8380  1630.5419
 6620.5000    59.4666  1699.5074
 6621.0000    57.8389  1748.7684
 6621.5000    58.4375  1800.4926
 6622.0000    59.6945  1810.3448
 6622.5000    60.1890  1802.6659
 6623.0000    59.6998  1798.0295
 6623.5000    57.5035  1816.6000
 6624.0000    55.3072  1814.4166
 6624.5000    53.8426  1805.7935
 6625.0000    51.8902  1789.4089
 6625.5000    52.4144  1760.9890
 6626.0000    54.2525  1721.6749
 6626.5000    57.0026  1701.9705
 6627.0000    59.1593  1711.8226
 6627.5000    60.0192  1758.6207
 6628.0000    59.4761  1800.4926
 6628.5000    58.0916  1840.5310
 6629.0000    56.7583  1873.2979
 6629.5000    56.0254  1893.0316
 6630.0000    56.5120  1896.5518
 6630.5000    57.7304  1849.5438
 6631.0000    58.7048  1813.9919
 6631.5000    58.7037  1786.9833
 6632.0000    59.2696  1758.9512
 6632.5000    62.0857  1729.0641
 6633.0000    64.1208  1709.3596
 6633.5000    64.0646  1699.5074
 6634.0000    64.6821  1714.2858
 6634.5000    66.3525  1733.9901
 6635.0000    67.3636  1759.2141
 6635.5000    66.9864  1795.2661
 6636.0000    66.4974  1822.6602
 6636.5000    67.2279  1798.2743
 6637.0000    70.1536  1722.2406
 6637.5000    73.3231  1659.6797
 6638.0000    74.3055  1623.2723
 6638.5000    74.5403  1583.7688
 6639.0000    73.4781  1566.5024
 6639.5000    72.7066  1571.4286
 6640.0000    71.5285  1561.5763
 6640.5000    67.5747  1507.3892
 6641.0000    64.4181  1458.1281
 6641.5000    63.3134  1438.3536
 6642.0000    65.0193  1452.9521
 6642.5000    67.2132  1554.0575
 6643.0000    67.9438  1634.5686
 6643.5000    68.1866  1720.1193
 6644.0000    65.9902  1786.6486
 6644.5000    62.8183  1848.2468
 6645.0000    64.6454  1887.3490
 6645.5000    66.2306  1891.6256
 6646.0000    66.6117  1871.9211
 6646.5000    69.6194  1830.0493
 6647.0000    72.9715  1768.4729
 6647.5000    75.6406  1714.2858
 6648.0000    78.9071  1664.4401
 6648.5000    81.3449  1621.1143
 6649.0000    83.7828  1577.2789
 6649.5000    85.9767  1525.0811
 6650.0000    86.9512  1479.4862
 6650.5000    86.4622  1487.8193
 6651.0000    84.6987  1514.5835
 6651.5000    82.9323  1537.5641
 6652.0000    81.8244  1519.7045
 6652.5000    83.1805  1477.8325
 6653.0000    86.0534  1433.4976
 6653.5000    88.9800  1440.8867
 6654.0000    91.7824  1470.4434
 6654.5000    94.2571  1465.3521
 6655.0000    92.3047  1450.7539
 6655.5000    90.8401  1335.5549
 6656.0000    89.8633  1217.9055
 6656.5000    86.9353  1192.1183
 6657.0000    82.2405  1216.3683
 6657.5000    76.8987  1258.2809
 6658.0000    70.4326  1295.3667
 6658.5000    66.2873  1354.6798
