~VERSION INFORMATION
 VERS.                2.0:   CWLS LOG ASCII STANDARD - VERSION 2.0
 WRAP.                 NO:   ONE LINE PER DEPTH STEP
~WELL INFORMATION
#MNEM.UNIT      DATA TYPE    INFORMATION
#----------   ------------   ------------------------------
 STRT.F          520.0000:   START DEPTH
 STOP.F         3092.0000:   STOP DEPTH
 STEP.F            0.5000:   STEP LENGTH
 NULL.          -999.2500:   NO VALUE
 COMP.    FENIX & SCISSON:   COMPANY
 WELL. FENIX 87 "AX" #3-3:   WELL
 FLD .              N P R:   FIELD
 LOC .       S3 T38N R78W:   LOCATION
 CNTY.            NATRONA:   COUNTY
 STAT.            WYOMING:   STATE
 CTRY. UNITED STATES OF AMERICA:   COUNTRY
 SRVC.              WELEX:   SERVICE COMPANY
 DATE.        30-OCT-1980:   LOGDATE
 API .     49025108510000:   API NUMBER
~CURVE INFORMATION
#MNEM.UNIT       API CODE    CURVE DESCRIPTION
#----------   ------------   ------------------------------
 DEPT.F                  :   
 CALD.IN     45 280 60 00:   CALIPER FROM DENSITY LOG
 GRD .GAPI   45 310 01 00:   GAMMA RAY FROM DENSITY LOG
 RHOB.G/C3   45 350 01 00:   BULK DENSITY
 CORR.G/C3   45 356 01 00:   DENSITY CORRECTION
 SPR .MV     07 010 01 00:   SPONTANEOUS POTENTIAL
 ILD .OHMM   07 120 46 00:   DEEP INDUCTION RESISTIVITY
 ILM .OHMM   07 120 44 00:   INDUCTION LOG MEDIUM RESISTIVITY
 SGRD.OHMM   07 220 05 00:   SHALLOW SHORT GUARD RESISTIVITY
~PARAMETER INFORMATION
#MNEM.UNIT          VALUE    DESCRIPTION
#----------   ------------   ------------------------------
 EKB .F         5131.0000:   Kelly bushing
 EGL .F         5121.0000:   Ground level
 TD  .F         3095.0000:   Total depth
 DATE.        30-OCT-1980:   Date logged
 CLNT.            A2DTECH:   Client Code
 SL  . 910' FWL & 95' FEL:   Surface Location
 PD  .                 GL:   Permanent Datum
 EPD .F              5121:   Elevation Permanent Datum
 LMF .                 KB:   Log Measured From
 DMF .                 KB:   Drilling Measured From
 DD  .F              3095:   Depth driller
 DL  .F              3094:   Depth logger
 BLI .F              3092:   Bottom log interval
 TLI .F               525:   Top log interval
 CS1 .IN            9.625:   Casing size
 CBD1.      9.625" @ 525':   Casing driller 1
 CBL1.F               525:   Casing logger 1
 BS1 .IN            7.875:   Bit size
 DFT .          DISPERSED:   Type fluid in hole
 DFD .                  9:   Density
 DFV .                 40:   Viscosity
 DFPH.                 10:   pH
 DFL .                  8:   Fluid loss
 MSS .             MUDPIT:   Source of sample
 RMS .OHMM           2.40:   Rm
 MST .F                68:   Rm Meas. temp.
 MFST.F                68:   Rmf Meas. temp.
 RMC .OHMM            2.8:   Rmc
 MCST.F                68:   Rmc Meas. temp.
 MFSS.F              MEAS:   Source Rmf.
 RMB .OHMM           1.36:   Rm. at BHT
 BHT .F               120:   BHT.
 TCS .HRS             5.5:   Time Circ. stopped
 MRT .F               120:   Maximum recorded temp.
 LUN .               1891:   Logging unit number
 LUL .             CASPER:   Logging unit location
 ENGI.          PFERIMMER:   Recorded By
 WITN.              FIVAS:   Witnessed by
 ORIG.           5" PRINT:   Origin of data
 UWI .     49025108510000:   Unique Well ID
 DICO. A2D TECHNOLOGIES, INC.:   Digitizing Company
 DAPD.F                10:   Feet Above Permanent Datum
 BSD1.F              3095:   Depth drilled with bit1
 RMF .OHMM           1.92:   Rmf
 MCSS.               MEAS:   Source Rmc.
~OTHER INFORMATION
~A   DEPT     CALD        GRD       RHOB       CORR        SPR          ILD        ILM      SGRD  
# ...
 2747.5000    10.1250    75.4890     2.5490     0.0080   -28.5710     9.7680    10.7650    15.2160
 2748.0000    10.1260    75.6200     2.5540     0.0050   -28.5570     9.8580    11.0420    15.5090
 2748.5000    10.1280    75.8600     2.5590     0.0010   -28.5430     9.9500    11.3200    14.3210
 2749.0000    10.1080    77.1790     2.5580     0.0060   -28.5290    10.0420    11.6440    13.4310
 2749.5000    10.0850    80.2750     2.5550     0.0120   -28.5150    10.0420    11.6440    12.5410
 2750.0000    10.0630    83.3190     2.5530     0.0190   -28.5010     9.9500    11.3780    12.4220
 2750.5000    10.0410    86.3620     2.5560     0.0260   -28.4870     9.7680    11.1180    12.5960
 2751.0000    10.0190    89.4060     2.5610     0.0330   -28.4730     9.5000    10.9140    12.7300
 2751.5000     9.9970    92.4410     2.5650     0.0400   -28.4590     9.3690    10.5210    12.8650
 2752.0000     9.9740    95.4910     2.5700     0.0440   -28.4450     9.1550    10.1440    13.0100
 2752.5000     9.9520    97.6700     2.5700     0.0390   -28.4310     8.7770     9.7670    13.0100
 2753.0000     9.9300    99.1620     2.5630     0.0360   -28.4180     8.2850     9.3980    12.9270
 2753.5000     9.9080   100.6450     2.5580     0.0320   -28.4040     7.7940     9.0520    12.1010
 2754.0000     9.8890   102.0790     2.5300     0.0280   -28.3900     7.3030     8.7050    11.2750
 2754.5000     9.8770   101.2160     2.5020     0.0240   -28.3750     6.8110     8.3590    10.4480
 2755.0000     9.8660   100.2190     2.4950     0.0200   -28.3620     6.3200     8.0120     9.6220
 2755.5000     9.8540    99.2370     2.5260     0.0160   -28.3990     5.8290     7.6660     8.7960
 2756.0000     9.8430    98.2600     2.5240     0.0120   -28.4400     5.3380     7.3190     7.8960
 2756.5000     9.8310    97.2890     2.5210     0.0080   -28.4820     4.8460     6.9730     7.6090
 2757.0000     9.8200    96.2380     2.5180     0.0030   -28.5240     4.4510     6.6240     7.6090
 2757.5000     9.8080    93.5390     2.5230     0.0090   -28.5660     4.3690     6.5020     7.9470
 2758.0000     9.7970    89.7550     2.5280     0.0150   -28.6080     4.3290     6.5020     8.2360
 2758.5000     9.7960    85.6660     2.5380     0.0220   -28.6500     4.3290     6.6700     8.5020
 2759.0000     9.7990    81.5390     2.5460     0.0290   -28.6920     4.3290     6.9000     8.1640
 2759.5000     9.8010    79.8490     2.5490     0.0350   -28.7330     4.4920     7.1310     7.9490
 2760.0000     9.8040    79.8340     2.5530     0.0420   -28.7750     4.7480     7.3620     7.8960
 2760.5000     9.8060    80.5000     2.5550     0.0400   -28.8170     5.1600     7.5930     8.7330
 2761.0000     9.8090    81.3620     2.5500     0.0360   -28.8590     5.5590     7.8240     9.8940
 2761.5000     9.8120    82.2260     2.5320     0.0330   -28.9010     5.9630     8.0540    11.0550
 2762.0000     9.8140    83.0890     2.5140     0.0290   -28.9420     6.3680     8.2850    11.8610
 2762.5000     9.8140    83.9510     2.5080     0.0250   -28.9840     6.7720     8.5160    11.4380
 2763.0000     9.8140    84.8140     2.5110     0.0210   -29.0260     7.1770     8.6610    10.8570
 2763.5000     9.8140    85.6760     2.5130     0.0180   -29.0680     7.5810     8.4380    10.2760
 2764.0000     9.8390    86.5380     2.5150     0.0140   -29.1100     7.9860     8.3470     9.6960
 2764.5000     9.8970    87.4000     2.5180     0.0100   -29.1520     8.0440     8.5540     9.3260
 2765.0000     9.9190    88.2640     2.5160     0.0060   -29.1930     7.9030     8.8670    10.0370
 2765.5000     9.8920    89.1350     2.5170     0.0030   -29.2350     7.7940     9.1800    10.8360
 2766.0000     9.8630    90.1010     2.5240     0.0100   -29.2770     7.6840     9.4930    11.6440
 2766.5000     9.8550    89.5670     2.5310     0.0170   -29.3190     7.5740     9.8580    11.8610
 2767.0000     9.9630    88.5670     2.5320     0.0250   -29.3610     7.4650     9.8580    11.5890
 2767.5000    10.2070    87.5670     2.5270     0.0320   -29.4030     7.3550     9.5170    10.9300
 2768.0000    10.3780    86.5680     2.5300     0.0390   -29.4440     7.2450     9.2270    10.2720
 2768.5000    10.3660    85.5690     2.5510     0.0380   -29.4860     7.1350     8.9360     9.6140
 2769.0000    10.3400    84.5660     2.5470     0.0340   -29.5280     7.0260     8.6460     8.8230
 2769.5000    10.3130    83.8890     2.5410     0.0310   -29.5700     6.9160     8.3550     9.5080
 2770.0000    10.2850    83.3530     2.5400     0.0260   -29.6120     6.8060     8.1540    10.3660
 2770.5000    10.2500    82.8150     2.5470     0.0210   -29.6540     6.6850     8.0650    11.6440
 2771.0000    10.2070    82.2840     2.5480     0.0160   -29.6950     6.7700     7.9700    11.2980
 2771.5000    10.1710    81.9050     2.5400     0.0110   -29.7220     6.8640     7.7510    10.6210
 2772.0000    10.1390    81.9110     2.5520     0.0050   -29.6900     6.9570     8.1330     9.9440
 2772.5000    10.1070    81.9010     2.5670     0.0080   -29.6600     7.0510     8.4150     9.0710
 2773.0000    10.0750    82.2780     2.5710     0.0130   -29.6300     7.2660     8.6980     9.4290
 2773.5000    10.0430    82.7110     2.5660     0.0180   -29.6000     7.4010     8.9810     9.9870
 2774.0000    10.0260    83.1460     2.5600     0.0230   -29.5700     6.9040     9.2630    10.5450
 2774.5000    10.0140    83.5810     2.5550     0.0280   -29.5400     6.4500     9.6780    11.1030
 2775.0000    10.0030    83.9650     2.5560     0.0330   -29.5110     5.9950     9.7680    11.6610
 2775.5000     9.9920    83.9610     2.5580     0.0380   -29.4810     5.8190     9.7680    12.3080
 2776.0000     9.9810    83.6680     2.5570     0.0430   -29.4510     6.6420     9.7680    12.1210
 2776.5000     9.9710    84.3940     2.5510     0.0410   -29.4210     7.3130     9.6070    11.8320
 2777.0000     9.9680    86.0880     2.5470     0.0390   -29.3910     7.8960     9.4610    11.5420
 2777.5000     9.9650    87.6730     2.5550     0.0370   -29.3610     7.7600     9.3160    11.2530
 2778.0000     9.9630    87.6200     2.5650     0.0350   -29.3310     7.5770     9.1700    10.9640
 2778.5000     9.9600    86.6160     2.5760     0.0320   -29.3010     7.3950     9.0240    10.6740
 2779.0000     9.9570    85.6270     2.5870     0.0250   -29.2710     7.2120     8.8790    10.3850
 2779.5000     9.9550    84.6420     2.5970     0.0180   -29.2410     7.0290     8.7330    10.0960
 2780.0000     9.9520    83.6580     2.6030     0.0110   -29.2110     6.8470     8.5870     9.8060
 2780.5000     9.9580    82.6730     2.5730     0.0050   -29.1810     6.6640     8.4420     9.5000
 2781.0000     9.9720    81.6880     2.5560     0.0070   -29.1510     6.5630     8.2960     9.7310
 2781.5000     9.9870    80.6980     2.5560     0.0090   -29.1220     6.4430     8.1500    10.1230
 2782.0000    10.0020    79.6830     2.5560     0.0120   -29.0920     6.5520     7.9920    10.5150
 2782.5000    10.0100    80.4400     2.5500     0.0200   -29.0620     6.6810     7.9700    10.7140
 2783.0000    10.0080    81.5010     2.5390     0.0290   -29.0320     6.8100     7.9830    10.4990
 2783.5000    10.0020    82.5610     2.5270     0.0360   -29.0020     6.9380     8.0810    10.2000
 2784.0000     9.9960    83.3670     2.5160     0.0260   -28.9720     7.0670     8.1790    10.0420
 2784.5000     9.9900    83.1620     2.5090     0.0160   -28.9420     7.1960     8.2770    10.6220
 2785.0000     9.9840    82.9820     2.5000     0.0090   -28.9120     7.3250     8.3750    11.2170
 2785.5000     9.9780    82.7740     2.4920     0.0120   -28.8820     7.4540     8.4730    11.8610
 2786.0000     9.9710    82.5550     2.5060     0.0150   -28.8520     7.5800     8.5710    11.8610
 2786.5000     9.9710    82.7910     2.5240     0.0220   -28.8220     7.7510     8.6690    11.1160
 2787.0000     9.9810    81.8100     2.5310     0.0380   -28.7920     7.7510     8.7670    10.5580
 2787.5000     9.9920    80.4340     2.5270     0.0480   -28.7630     7.8230     8.8230    10.1360
