~VERSION INFORMATION
 VERS.                2.0:   CWLS LOG ASCII STANDARD - VERSION 2.0
 WRAP.                 NO:   ONE LINE PER DEPTH STEP
~WELL INFORMATION
#MNEM.UNIT      DATA TYPE    INFORMATION
#----------   ------------   ------------------------------
 STRT.F           29.5000:   START DEPTH
 STOP.F         2719.5000:   STOP DEPTH
 STEP.F            0.5000:   STEP LENGTH
 NULL.          -999.2500:   NO VALUE
 COMP.          INTEX OIL:   COMPANY
 WELL. INTEX NPR 3 "AX" #82-20:   WELL
 FLD .             TEAPOT:   FIELD
 LOC .      S20 T39N R78W:   LOCATION
 CNTY.            NATRONA:   COUNTY
 STAT.            WYOMING:   STATE
 CTRY. UNITED STATES OF AMERICA:   COUNTRY
 SRVC.       SCHLUMBERGER:   SERVICE COMPANY
 DATE.        19-MAY-1956:   LOGDATE
 API .     49025095270000:   API NUMBER
~CURVE INFORMATION
#MNEM.UNIT       API CODE    CURVE DESCRIPTION
#----------   ------------   ------------------------------
 DEPT.F                  :   
 CALD.IN     45 280 60 00:   CALIPER FROM DENSITY LOG
 GRD .GAPI   45 310 01 00:   GAMMA RAY FROM DENSITY LOG
 CORR.G/C3   45 356 01 00:   DENSITY CORRECTION
 RHOB.G/C3   45 350 01 00:   BULK DENSITY
 SPR .MV     05 010 01 00:   SPONTANEOUS POTENTIAL
 ILD .OHMM   05 120 46 00:   DEEP INDUCTION RESISTIVITY
 SN  .OHMM   05 040 00 00:   SHORT NORMAL
~PARAMETER INFORMATION
#MNEM.UNIT          VALUE    DESCRIPTION
#----------   ------------   ------------------------------
 EKB .F         5014.3000:   Kelly bushing
 EGL .F         5004.0000:   Ground level
 EDF .F            0.0000:   Drilling floor
 TD  .F         2717.0000:   Total depth
 DATE.        19-MAY-1956:   Date logged
 CLNT.            A2DTECH:   Client Code
 PD  .                 GL:   Permanent Datum
 EPD .F              5004:   Elevation Permanent Datum
 LMF .                 KB:   Log Measured From
 DMF .                 KB:   Drilling Measured From
 DAPD.F              10.3:   Feet Above Permanent Datum
 DD  .F              2717:   Depth driller
 DL  .F              2717:   Depth logger
 BLI .F              2716:   Bottom log interval
 TLI .F               100:   Top log interval
 CS1 .IN            10.75:   Casing size
 CBD1.       10.75" @ 30':   Casing driller 1
 BS1 .IN            7.875:   Bit size
 BSD1.F              2717:   Depth drilled with bit1
 DFT .        GEL/CAUSTIC:   Type fluid in hole
 DFD .                9.7:   Density
 DFV .                 35:   Viscosity
 DFPH.                7.6:   pH
 DFL .                8.8:   Fluid loss
 MSS .           FLOWLINE:   Source of sample
 RMS .OHMM           1.68:   Rm
 MST .F                58:   Rm Meas. temp.
 RMF .OHMM           1.17:   Rmf
 MFST.F                68:   Rmf Meas. temp.
 MFSS.                 FP:   Source Rmf.
 RMB .OHMM              1:   Rm. at BHT
 BHT .F               101:   BHT.
 TCS .HRS               4:   Time Circ. stopped
 MRT .F               101:   Maximum recorded temp.
 LUN .               4507:   Logging unit number
 LUL .               CSPR:   Logging unit location
 ENGI.            MANGOLD:   Recorded By
 WITN.             TUTTLE:   Witnessed by
 ORIG.           5" PRINT:   Origin of data
 UWI .     49025095270000:   Unique Well ID
 DICO. A2D TECHNOLOGIES, INC.:   Digitizing Company
~OTHER INFORMATION
~A   DEPT     CALD         GRD      CORR       RHOB        SPR        ILD         SN   
# ...
  757.5000     8.7680    86.1380     0.0810     2.5370   -66.3990    10.0900    12.8890
  758.0000     8.7760    87.9580     0.0740     2.5330   -66.4620    10.0890    12.9760
  758.5000     8.7840    91.1210     0.0640     2.5270   -66.5250    10.0820    13.0640
  759.0000     8.7920    92.0830     0.0540     2.5180   -66.5880    10.1860    13.1510
  759.5000     8.7880    90.4660     0.0440     2.4990   -66.6500    10.2910    13.2380
  760.0000     8.7650    88.5720     0.0420     2.4870   -66.7130    10.3300    13.3250
  760.5000     8.7430    88.9500     0.0580     2.5240   -66.7760    10.3800    13.4130
  761.0000     8.7200    89.1090     0.0700     2.5470   -66.8390    10.4300    13.4700
  761.5000     8.6980    87.3960     0.0780     2.5420   -66.8970    10.4800    13.3670
  762.0000     8.6750    85.6900     0.0590     2.5100   -66.8980    10.4870    13.3570
  762.5000     8.6530    85.2110     0.0480     2.4830   -66.8780    10.4890    13.3410
  763.0000     8.6390    87.0140     0.0530     2.4620   -66.8580    10.5590    13.3260
  763.5000     8.6440    88.8220     0.0640     2.4690   -66.8390    10.5860    13.3100
  764.0000     8.6480    89.4600     0.0690     2.4840   -66.8190    10.5750    13.2950
  764.5000     8.6520    88.7490     0.0590     2.4920   -66.7990    10.5440    13.2800
  765.0000     8.6570    88.0710     0.0540     2.4940   -66.7800    10.5140    13.2700
  765.5000     8.6610    87.9090     0.0650     2.5070   -66.7600    10.4830    13.2700
  766.0000     8.6650    90.6500     0.0740     2.5160   -66.7410    10.4530    13.2440
  766.5000     8.6690    91.2170     0.0820     2.5210   -66.7210    10.4220    13.2160
  767.0000     8.6730    89.6290     0.0880     2.5390   -66.7010    10.3920    13.1870
  767.5000     8.6770    88.1940     0.0580     2.5320   -66.6820    10.3610    13.1590
  768.0000     8.6820    88.8980     0.0540     2.5250   -66.6620    10.3310    13.1300
  768.5000     8.6860    89.9250     0.0610     2.5160   -66.6430    10.3000    13.1020
  769.0000     8.6900    90.7830     0.0690     2.5230   -66.6230    10.2700    13.0730
  769.5000     8.6940    89.3020     0.0760     2.5310   -66.6030    10.2390    13.0450
  770.0000     8.6980    87.8220     0.0830     2.5250   -66.5840    10.2090    13.0160
  770.5000     8.7020    87.0080     0.0930     2.5410   -66.5640    10.1780    12.9880
  771.0000     8.7070    86.8930     0.1020     2.5560   -66.5450    10.1480    12.9260
  771.5000     8.7110    86.7730     0.0970     2.5510   -66.5250    10.1170    12.8710
  772.0000     8.7150    86.6580     0.0890     2.5470   -66.5050    10.0870    12.7820
  772.5000     8.7120    86.5450     0.0800     2.5480   -66.4860    10.0570    12.7720
  773.0000     8.6980    86.4430     0.0710     2.5480   -66.4660    10.0260    12.7920
  773.5000     8.6840    86.7630     0.0630     2.5390   -66.4470     9.9960    12.8330
  774.0000     8.6710    88.2420     0.0550     2.5320   -66.4270     9.9650    12.8700
  774.5000     8.6570    87.6580     0.0570     2.5340   -66.4070     9.9350    12.8330
  775.0000     8.6440    87.5000     0.0620     2.5300   -66.3880     9.9040    12.7930
  775.5000     8.6300    89.3580     0.0690     2.5230   -66.3680     9.8740    12.7530
  776.0000     8.6170    88.6010     0.0780     2.5280   -66.3480     9.8430    12.7130
  776.5000     8.6030    87.6130     0.0860     2.5620   -66.3280     9.8130    12.6730
  777.0000     8.5900    86.6450     0.0950     2.5590   -66.3110     9.7820    12.6330
  777.5000     8.5760    86.1850     0.0960     2.5530   -66.1740     9.7520    12.5930
  778.0000     8.5620    88.5840     0.0850     2.5470   -65.9750     9.7210    12.5530
  778.5000     8.5710    90.9260     0.0750     2.5420   -65.7710     9.6900    12.5140
  779.0000     8.6030    92.8840     0.0660     2.5240   -65.7850     9.6360    12.4740
  779.5000     8.6350    92.0050     0.0550     2.5080   -65.9240     9.5820    12.4340
  780.0000     8.6670    91.1840     0.0630     2.5450   -66.0990     9.5280    12.3940
  780.5000     8.6980    90.3800     0.0800     2.5400   -66.2710     9.4740    12.3530
  781.0000     8.7300    89.7320     0.0790     2.5320   -66.4490     9.4190    12.3130
  781.5000     8.7620    90.1310     0.0850     2.5370   -66.4980     9.3650    12.2770
  782.0000     8.7940    91.4250     0.0850     2.5430   -66.5010     9.3110    12.2140
  782.5000     8.8060    94.2130     0.0780     2.5490   -66.4630     9.2570    12.1070
  783.0000     8.7670    96.3080     0.0710     2.5440   -66.4060     9.2030    12.0000
  783.5000     8.7280    97.9300     0.0590     2.5330   -66.3490     9.1490    11.8930
  784.0000     8.7180    97.2500     0.0410     2.5080   -66.2930     9.0950    11.7850
  784.5000     8.7170    96.5700     0.0440     2.4870   -66.2360     9.0410    11.6780
  785.0000     8.7390    96.8530     0.0550     2.5030   -66.1790     8.9860    11.5820
  785.5000     8.7370    96.2550     0.0710     2.5310   -66.1220     8.9320    11.5820
  786.0000     8.7370    94.5100     0.0550     2.5060   -66.0650     8.8780    11.6240
  786.5000     8.7380    92.6270     0.0600     2.4830   -66.0080     8.8240    11.6650
  787.0000     8.7530    90.8880     0.0710     2.4910   -65.9510     8.7700    11.6090
  787.5000     8.7520    90.7770     0.0620     2.4970   -65.8940     8.7160    11.4980
  788.0000     8.7450    92.8770     0.0490     2.4820   -65.8370     8.6620    11.3860
  788.5000     8.7380    95.2370     0.0420     2.4690   -65.7800     8.6080    11.2730
  789.0000     8.7310    94.3560     0.0520     2.4830   -65.7220     8.5540    11.1610
  789.5000     8.7240    92.5520     0.0740     2.4960   -65.7200     8.5000    11.0490
  790.0000     8.7170    94.3900     0.0680     2.5050   -65.7930     8.4460    10.9360
  790.5000     8.7100    95.6750     0.0580     2.4990   -65.8650     8.3970    10.8200
  791.0000     8.7040    94.0620     0.0710     2.4930   -65.9370     8.4730    10.7870
  791.5000     8.6970    92.2520     0.0550     2.4860   -66.0100     8.5840    10.7840
  792.0000     8.6900    93.3920     0.0420     2.4790   -66.0840     8.6950    10.8650
  792.5000     8.6830    94.7270     0.0420     2.4730   -66.1030     8.8060    10.9820
  793.0000     8.6780    96.6850     0.0560     2.4950   -66.0860     8.9170    11.0990
  793.5000     8.6900    97.0590     0.0670     2.5190   -66.0630     9.0270    11.2160
  794.0000     8.7020    96.3160     0.0780     2.5260   -66.0400     9.1380    11.3340
  794.5000     8.7150    95.0660     0.0840     2.5260   -66.0160     9.2490    11.4510
  795.0000     8.7270    95.4760     0.0750     2.5210   -65.9930     9.3630    11.5690
  795.5000     8.7360    95.9530     0.0660     2.5160   -65.9690     9.3930    11.6830
  796.0000     8.6990    95.5640     0.0570     2.5000   -65.9460     9.3260    11.7370
  796.5000     8.6980    93.4370     0.0510     2.4860   -65.9220     9.2330    11.6810
  797.0000     8.7000    91.3450     0.0550     2.4940   -65.8810     9.1390    11.6360
  797.5000     8.7010    91.0320     0.0590     2.5010   -65.7730     9.0450    11.4850
  798.0000     8.7030    91.2180     0.0630     2.5100   -65.6670     8.9510    11.3510
  798.5000     8.7050    91.3730     0.0670     2.5190   -65.5610     8.8570    11.2180
  799.0000     8.7070    94.3360     0.0710     2.5260   -65.4550     8.7630    11.0860
  799.5000     8.7090    94.1200     0.0900     2.5310   -65.3490     8.6700    10.9820
  800.0000     8.7100    95.2350     0.0780     2.5300   -65.2420     8.5950    10.9830
  800.5000     8.7120    96.7660     0.0640     2.5140   -65.1310     8.5900    11.0520
  801.0000     8.7140    95.6080     0.0640     2.4980   -65.2370     8.5840    11.1390
  801.5000     8.7160    94.3250     0.0590     2.4860   -65.4000     8.5770    11.2270
  802.0000     8.7170    93.0300     0.0660     2.4910   -65.5650     8.5700    11.3150
  802.5000     8.7180    91.7340     0.0730     2.5040   -65.7300     8.5640    11.3850
