~VERSION INFORMATION
 VERS.                2.0:   CWLS LOG ASCII STANDARD - VERSION 2.0
 WRAP.                 NO:   ONE LINE PER DEPTH STEP
~WELL INFORMATION
#MNEM.UNIT      DATA TYPE    INFORMATION
#----------   ------------   ------------------------------
 STRT.F          200.0000:   START DEPTH
 STOP.F         3098.0000:   STOP DEPTH
 STEP.F            0.5000:   STEP LENGTH
 NULL.          -999.2500:   NO VALUE
 COMP.    FENIX & SCISSON:   COMPANY
 WELL.   FENIX "AX" #74-3:   WELL
 FLD .              N P R:   FIELD
 LOC .       S3 T38N R78W:   LOCATION
 CNTY.            NATRONA:   COUNTY
 STAT.            WYOMING:   STATE
 CTRY. UNITED STATES OF AMERICA:   COUNTRY
 SRVC.              WELEX:   SERVICE COMPANY
 DATE.        17-AUG-1977:   LOGDATE
 API .     49025104120000:   API NUMBER
~CURVE INFORMATION
#MNEM.UNIT       API CODE    CURVE DESCRIPTION
#----------   ------------   ------------------------------
 DEPT.F                  :   
 CALD.IN     45 280 60 00:   CALIPER FROM DENSITY LOG
 SPR .MV     07 010 01 00:   SPONTANEOUS POTENTIAL
 NPHI.DEC    42 890 00 00:   NEUTRON POROSITY
 GRD .GAPI   45 310 01 00:   GAMMA RAY FROM DENSITY LOG
 CORR.G/C3   45 356 01 00:   DENSITY CORRECTION
 RHOB.G/C3   45 350 01 00:   BULK DENSITY
 SGRD.OHMM   07 220 05 00:   SHALLOW SHORT GUARD RESISTIVITY
 ILD .OHMM   07 120 46 00:   DEEP INDUCTION RESISTIVITY
 ILM .OHMM   07 120 44 00:   INDUCTION LOG MEDIUM RESISTIVITY
~PARAMETER INFORMATION
#MNEM.UNIT          VALUE    DESCRIPTION
#----------   ------------   ------------------------------
 EKB .F         5141.0000:   Kelly bushing
 EGL .F         5131.0000:   Ground level
 EDF .F            0.0000:   Drilling floor
 TD  .F         3100.0000:   Total depth
 DATE.        17-AUG-1977:   Date logged
 CLNT.            A2DTECH:   Client Code
 SL  . 2272' FNL & 1060' FEL:   Surface Location
 PD  .                 GL:   Permanent Datum
 EPD .F              5131:   Elevation Permanent Datum
 LMF .                 KB:   Log Measured From
 DMF .                 KB:   Drilling Measured From
 DD  .F              3100:   Depth driller
 DL  .F              3100:   Depth logger
 BLI .F              3098:   Bottom log interval
 TLI .F               200:   Top log interval
 CS1 .IN            8.625:   Casing size
 CBD1.      8.625" @ 215':   Casing driller 1
 CBL1.F               218:   Casing logger 1
 BS1 .IN            7.875:   Bit size
 DFT .            KCL MUD:   Type fluid in hole
 DFD .                8.8:   Density
 DFV .                 33:   Viscosity
 DFPH.                9.5:   pH
 DFL .               10.6:   Fluid loss
 MSS .           FLOWLINE:   Source of sample
 RMS .OHMM            .67:   Rm
 MST .F                98:   Rm Meas. temp.
 RMF .OHMM            .64:   Rmf
 MFST.F                98:   Rmf Meas. temp.
 RMC .OHMM            .31:   Rmc
 MCST.F                98:   Rmc Meas. temp.
 MFSS.           MEASURED:   Source Rmf.
 RMB .OHMM            .57:   Rm. at BHT
 BHT .F               115:   BHT.
 TCS .HRS               3:   Time Circ. stopped
 MRT .F               115:   Maximum recorded temp.
 LUN .               8611:   Logging unit number
 LUL .             CASPER:   Logging unit location
 ENGI.            C. DOAK:   Recorded By
 WITN.     MR. PETTINGILL:   Witnessed by
 ORIG.           5" PRINT:   Origin of data
 UWI .     49025104120000:   Unique Well ID
 DICO. A2D TECHNOLOGIES, INC.:   Digitizing Company
 BSD1.               3100:   Depth drilled with bit1
~OTHER INFORMATION
~A   DEPT       CALD      SPR       NPHI          GRD      CORR        RHOB     SGRD        ILD        ILM   
# ...
 2682.0000     8.5090   -56.0120     0.1470    95.9110     0.0230     2.4980    23.0490    10.2250    13.5530
 2682.5000     8.5180   -55.6430     0.1480    94.5840     0.0150     2.4870    16.2770    10.0500    13.5530
 2683.0000     8.5280   -55.2750     0.1470    94.9480     0.0080     2.4770    18.6730     9.8740    13.5530
 2683.5000     8.5380   -54.9060     0.1450    97.4810     0.0020     2.4660    17.6210     9.6990    13.4740
 2684.0000     8.5450   -54.5380     0.1490    99.9860     0.0050     2.4630    16.0810     9.5230    13.3820
 2684.5000     8.5620   -54.1690     0.1530   102.2170     0.0080     2.4650    14.7170     9.4840    13.2910
 2685.0000     8.5730   -53.8010     0.1570   100.4260     0.0120     2.4670    15.3630     9.4840    13.2000
 2685.5000     8.5850   -53.4320     0.1620    97.6460     0.0150     2.4680    16.5250     9.4840    13.1090
 2686.0000     8.5990   -53.0640     0.1650    95.2450     0.0190     2.4690    17.5140     9.4840    13.0660
 2686.5000     8.6120   -52.6950     0.1650    95.7090     0.0190     2.4610    16.5780     9.6590    13.4090
 2687.0000     8.6220   -52.3270     0.1650    98.8490     0.0170     2.4600    17.6580     9.6900    13.7070
 2687.5000     8.6220   -51.9590     0.1650   101.0680     0.0150     2.4610    17.8370     9.7400    14.0060
 2688.0000     8.6220   -51.5900     0.1650   103.2560     0.0130     2.4540    16.7300     9.7900    14.3040
 2688.5000     8.6190   -51.2220     0.1650   104.7150     0.0110     2.4430    17.6600     9.8400    14.6020
 2689.0000     8.6160   -50.8530     0.1650   103.0080     0.0110     2.4420    18.6390     9.8900    14.8530
 2689.5000     8.6140   -50.4850     0.1650   100.2540     0.0120     2.4430    19.6170     9.9400    14.8530
 2690.0000     8.6110   -50.1160     0.1640    97.4580     0.0130     2.4430    20.0920     9.9900    14.8530
 2690.5000     8.6080   -49.7490     0.1620    94.6550     0.0140     2.4350    17.4760    10.0400    14.8530
 2691.0000     8.6060   -49.3890     0.1610    94.1520     0.0140     2.4360    16.1280    10.0900    14.8530
 2691.5000     8.6030   -49.1320     0.1590    93.6910     0.0090     2.4370    16.4450    10.1400    14.8530
 2692.0000     8.6020   -49.1850     0.1610    91.4450     0.0010     2.4340    16.6690    10.1900    14.8530
 2692.5000     8.6020   -49.6480     0.1640    90.2970    -0.0080     2.4260    16.8930    10.2400    14.8530
 2693.0000     8.6020   -50.1150     0.1670    91.2460    -0.0160     2.4210    17.1170    10.2900    14.8530
 2693.5000     8.6020   -50.5790     0.1710    92.2250    -0.0190     2.4260    17.3410    10.3400    14.8530
 2694.0000     8.6020   -51.0440     0.1740    94.5140    -0.0120     2.4420    17.5650    10.3900    14.8530
 2694.5000     8.6020   -51.5080     0.1770    96.8870    -0.0050     2.4580    17.8370    10.4400    14.6430
 2695.0000     8.6020   -51.9700     0.1800    99.2600     0.0010     2.4740    17.3900    10.4900    14.4340
 2695.5000     8.5990   -52.2300     0.1830   101.6190     0.0080     2.4900    16.8180    10.5400    14.3190
 2696.0000     8.5910   -52.2290     0.1850   103.0800     0.0150     2.5060    15.9810    10.5900    14.6490
 2696.5000     8.5840   -52.2290     0.1850   101.5940     0.0140     2.4960    16.7730    10.6400    15.0280
 2697.0000     8.5770   -52.2290     0.1850    99.1420     0.0110     2.4840    19.9470    10.6900    15.4070
 2697.5000     8.5680   -52.2290     0.1850    96.6130     0.0080     2.4850    23.1210    10.7390    15.7850
 2698.0000     8.5590   -52.2290     0.1830    97.2560     0.0040     2.4810    26.2950    10.7890    15.8360
 2698.5000     8.5490   -52.2290     0.1780    98.8340     0.0010     2.4700    27.1790    10.8390    15.5430
 2699.0000     8.5440   -52.2280     0.1730   101.1950    -0.0020     2.4600    21.5360    10.8800    15.2780
 2699.5000     8.5440   -52.2280     0.1680   103.5610    -0.0050     2.4490    16.7300    10.7720    14.9890
 2700.0000     8.5440   -52.2300     0.1640   104.2060    -0.0090     2.4390    16.9560    10.6390    14.9730
 2700.5000     8.5440   -52.3370     0.1640   101.6650    -0.0050     2.4410    17.2940    10.5060    14.9160
 2701.0000     8.5440   -52.6780     0.1700    99.9220     0.0010     2.4440    17.6320    10.3730    14.8590
 2701.5000     8.5440   -53.0160     0.1750    99.7640     0.0010     2.4460    17.9700    10.2400    14.8030
 2702.0000     8.5420   -53.3540     0.1800    99.6800    -0.0060     2.4480    18.3090    10.1080    14.7460
 2702.5000     8.5400   -53.6940     0.1810   101.2070    -0.0010     2.4530    18.8450     9.9750    14.4500
 2703.0000     8.5390   -54.0200     0.1800   102.7270     0.0080     2.4590    17.8680     9.7480    14.3190
 2703.5000     8.5370   -54.3390     0.1800   104.2140     0.0130     2.4650    16.5340     9.8610    13.4300
 2704.0000     8.5350   -54.2480     0.1790   104.5500     0.0100     2.4700    15.2660    10.0070    13.6690
 2704.5000     8.5330   -54.1700     0.1730   101.9700     0.0060     2.4650    17.4870    10.1530    14.0530
 2705.0000     8.5310   -54.0910     0.1680    99.4710     0.0030     2.4600    19.7270    10.2990    14.4360
 2705.5000     8.5290   -54.0120     0.1620    96.9720    -0.0010     2.4540    19.7270    10.4450    14.8200
 2706.0000     8.5270   -53.9330     0.1550    94.5250    -0.0040     2.4490    19.1930    10.5920    15.2030
 2706.5000     8.5250   -53.8530     0.1460    92.4490     0.0010     2.4570    31.6010    10.7380    16.3180
 2707.0000     8.5240   -53.7740     0.1400    90.3390     0.0050     2.4690    34.8010    10.8840    17.1960
 2707.5000     8.5240   -53.6950     0.1360    90.1400     0.0090     2.4770    25.5180    10.9800    16.1290
 2708.0000     8.5240   -53.6160     0.1330    91.6450     0.0110     2.4660    17.1960    10.8210    14.7220
 2708.5000     8.5240   -53.5380     0.1380    94.0390     0.0040     2.4530    18.4860    10.6560    14.1880
 2709.0000     8.5240   -53.4590     0.1440    96.3960    -0.0020     2.4460    18.6730    10.4910    14.1170
 2709.5000     8.5240   -53.2860     0.1510    97.5660     0.0020     2.4540    15.9810    10.3260    14.0090
 2710.0000     8.5230   -52.6050     0.1670    95.8620     0.0080     2.4620    16.7130    10.1620    13.9010
 2710.5000     8.5210   -51.9280     0.1740    94.2140     0.0140     2.4690    18.5030     9.9970    13.7930
 2711.0000     8.5200   -51.2520     0.1760    92.5580     0.0190     2.4750    18.1680     9.8320    13.6850
 2711.5000     8.5190   -50.5760     0.1750    90.9060     0.0220     2.4750    17.4940     9.7480    13.5770
 2712.0000     8.5170   -49.9010     0.1720    89.2520     0.0220     2.4670    16.5780     9.8370    13.4690
 2712.5000     8.5160   -49.2250     0.1700    87.4970     0.0200     2.4570    17.3540     9.9280    13.3610
 2713.0000     8.5140   -48.5490     0.1710    85.2800     0.0200     2.4470    16.2430    10.2200    13.2530
 2713.5000     8.5130   -47.8720     0.1720    83.0650     0.0200     2.4370    14.8680    10.4880    13.1450
 2714.0000     8.5110   -47.2010     0.1730    80.8460     0.0200     2.4410    13.8040    10.4880    13.0370
 2714.5000     8.5100   -46.7980     0.1740    78.4610     0.0190     2.4460    14.1560    10.3930    12.9470
 2715.0000     8.5080   -46.8020     0.1740    79.7620     0.0190     2.4450    14.4690    10.1920    12.8940
 2715.5000     8.5070   -46.8040     0.1740    81.7890     0.0190     2.4420    14.5830    10.1620    12.8260
 2716.0000     8.5050   -46.9990     0.1730    83.8350     0.0190     2.4380    13.6780    10.1310    12.7580
 2716.5000     8.5040   -47.5720     0.1720    85.9420     0.0190     2.4440    13.6780    10.1110    12.6900
 2717.0000     8.5020   -48.1400     0.1740    87.0750     0.0190     2.4510    14.2500    10.1110    12.6220
 2717.5000     8.5010   -48.7060     0.1770    89.0360     0.0180     2.4580    14.6780    10.1110    12.4810
 2718.0000     8.4990   -49.2790     0.1790    90.9750     0.0180     2.4660    15.1270    10.0810    12.0360
