~VERSION INFORMATION
 VERS.                2.0:   CWLS LOG ASCII STANDARD - VERSION 2.0
 WRAP.                 NO:   ONE LINE PER DEPTH STEP
~WELL INFORMATION
#MNEM.UNIT      DATA TYPE    INFORMATION
#----------   ------------   ------------------------------
 STRT.F            7.5000:   START DEPTH
 STOP.F         3140.0000:   STOP DEPTH
 STEP.F            0.5000:   STEP LENGTH
 NULL.          -999.2500:   NO VALUE
 COMP. LAWRENCE ALLISON WEST:   COMPANY
 WELL. LAWRENCE NPR 3 "AX" #51-3:   WELL
 FLD .                NPR:   FIELD
 LOC .       S3 T38N R78W:   LOCATION
 CNTY.            NATRONA:   COUNTY
 STAT.            WYOMING:   STATE
 CTRY. UNITED STATES OF AMERICA:   COUNTRY
 SRVC.      DRESSER ATLAS:   SERVICE COMPANY
 DATE.        09-NOV-1986:   LOGDATE
 API .     49025111180000:   API NUMBER
~CURVE INFORMATION
#MNEM.UNIT       API CODE    CURVE DESCRIPTION
#----------   ------------   ------------------------------
 DEPT.F                  :   
 CALD.IN     45 280 60 00:   CALIPER FROM DENSITY LOG
 DEN .LBS    45 350 01 00:   BULK DENSITY
 CORR.G/C3   45 356 01 00:   DENSITY CORRECTION
 NPOR.DEC    42 890 03 00:   ALPHA PROCESSED NEUTRON POROSITY
 SPR .MV     07 010 01 00:   SPONTANEOUS POTENTIAL
 GRR .GAPI   07 310 01 00:   GAMMA RAY FROM RESISTIVITY
 SFL .OHMM   07 220 01 00:   SHALLOW FOCUSED LOG RESISTIVITY
 ILD .OHMM   07 120 46 00:   DEEP INDUCTION RESISTIVITY
 ILM .OHMM   07 120 44 00:   INDUCTION LOG MEDIUM RESISTIVITY
 TENR.LBS    07 635 01 00:   TENSION FROM RESISTIVITY
~PARAMETER INFORMATION
#MNEM.UNIT          VALUE    DESCRIPTION
#----------   ------------   ------------------------------
 EKB .F         5132.0000:   Kelly bushing
 EGL .F         5120.0000:   Ground level
 TD  .F         3141.0000:   Total depth
 DATE.        09-NOV-1986:   Date logged
 CLNT.            A2DTECH:   Client Code
 SL  . 249' FNL & 2195' FEL:   Surface Location
 PD  .                 GL:   Permanent Datum
 EPD .F              5120:   Elevation Permanent Datum
 LMF .                 KB:   Log Measured From
 DMF .                 KB:   Drilling Measured From
 DAPD.F                12:   Feet Above Permanent Datum
 DD  .F              3141:   Depth driller
 DL  .F              3132:   Depth logger
 BLI .F              3126:   Bottom log interval
 CS1 .IN            8.625:   Casing size
 CBD1.      8.625" @ 690':   Casing driller 1
 CBL1.F               690:   Casing logger 1
 BS1 .IN            7.875:   Bit size
 BSD1.F              3141:   Depth drilled with bit1
 DFT .        KCL/POLYMER:   Type fluid in hole
 DFD .                8.9:   Density
 DFV .                 34:   Viscosity
 DFPH.                9.5:   pH
 DFL .                9.5:   Fluid loss
 MSS .           FLOWLINE:   Source of sample
 RMS .OHMM           .368:   Rm
 MST .F                66:   Rm Meas. temp.
 RMF .OHMM           .296:   Rmf
 MFST.F                66:   Rmf Meas. temp.
 RMC .OHMM           .468:   Rmc
 MCST.F                66:   Rmc Meas. temp.
 MFSS.               MEAS:   Source Rmf.
 MCSS.               CALC:   Source Rmc.
 RMB .OHMM           .282:   Rm. at BHT
 BHT .F               120:   BHT.
 TCS .HRS             3.5:   Time Circ. stopped
 MRT .F               120:   Maximum recorded temp.
 LUN .            HL-6274:   Logging unit number
 LUL .           GILLETTE:   Logging unit location
 ENGI.             RAUTIO:   Recorded By
 WITN.             STRONG:   Witnessed by
 ORIG.        2" 5" PRINT:   Origin of data
 UWI .     49025111180000:   Unique Well ID
 DICO. A2D TECHNOLOGIES, INC.:   Digitizing Company
~OTHER INFORMATION
~A    DEPT    CALD        DEN       CORR       NPOR        SPR         GRR       SFL        ILD        ILM       TENR   
# ...
 1347.5000  -999.2500  -999.2500  -999.2500  -999.2500   -78.0139   102.1301     8.2209     7.7294     7.2431   -44.1179
 1348.0000  -999.2500  -999.2500  -999.2500  -999.2500   -78.2183   101.3230     8.2193     7.7279     7.2417   -43.9669
 1348.5000  -999.2500  -999.2500  -999.2500  -999.2500   -78.4228    98.1090     8.3716     7.7265     7.3760   -43.8159
 1349.0000  -999.2500  -999.2500  -999.2500  -999.2500   -78.6280    96.9005     8.6062     7.7250     7.5128   -53.7452
 1349.5000  -999.2500  -999.2500  -999.2500  -999.2500   -78.8325    96.4942     8.7656     7.7955     7.5811   -43.5138
 1350.0000  -999.2500  -999.2500  -999.2500  -999.2500   -78.8364    95.2855     8.9280     7.8673     7.5799   -43.3628
 1350.5000  -999.2500  -999.2500  -999.2500  -999.2500   -79.0409    91.6693     9.0095     7.8655     7.5785   -53.2925
 1351.0000  -999.2500  -999.2500  -999.2500  -999.2500   -79.0448    90.0590     8.9246     7.8631     7.5770   -53.1416
 1351.5000  -999.2500  -999.2500  -999.2500  -999.2500   -79.0487    91.2562     8.8405     7.9197     7.5756   -52.9906
 1352.0000  -999.2500  -999.2500  -999.2500  -999.2500   -79.0526    90.4483     8.7573     7.9349     7.5741   -52.8397
 1352.5000  -999.2500  -999.2500  -999.2500  -999.2500   -79.0542    89.2390     8.8372     7.9328     7.5727   -42.6077
 1353.0000  -999.2500  -999.2500  -999.2500  -999.2500   -79.0604    86.8255     8.8355     7.9310     7.5012   -42.4566
 1353.5000  -999.2500  -999.2500  -999.2500  -999.2500   -79.0643    88.0239     8.7522     7.9295     7.4296   -52.3567
 1354.0000  -999.2500  -999.2500  -999.2500  -999.2500   -79.0682    92.4333     8.4315     7.8544     7.4290   -52.2057
 1354.5000  -999.2500  -999.2500  -999.2500  -999.2500   -78.6714    96.4418     8.3521     7.8528     7.4279   -52.0548
 1355.0000  -999.2500  -999.2500  -999.2500  -999.2500   -78.4746    98.4437     8.3505     7.7069     7.3989   -51.9038
 1355.5000  -999.2500  -999.2500  -999.2500  -999.2500   -78.2778    99.6428     8.4277     7.7063     7.3700   -51.7529
 1356.0000  -999.2500  -999.2500  -999.2500  -999.2500   -78.0818    98.8350     8.5036     7.6327     7.3412   -51.6019
 1356.5000  -999.2500  -999.2500  -999.2500  -999.2500   -78.0856    98.4285     8.6612     7.7743     7.3126   -51.4509
 1357.0000  -999.2500  -999.2500  -999.2500  -999.2500   -78.0895    99.6259     8.7402     7.7737     7.2840   -51.3000
 1357.5000  -999.2500  -999.2500  -999.2500  -999.2500   -78.0934   100.0244     8.7386     7.6998     7.2556   -51.1490
 1358.0000  -999.2500  -999.2500  -999.2500  -999.2500   -78.2980   100.8225     8.4187     7.6980     7.2273   -50.9980
 1358.5000  -999.2500  -999.2500  -999.2500  -999.2500   -78.5027   102.0222     8.1105     7.6254     7.1991   -50.8471
 1359.0000  -999.2500  -999.2500  -999.2500  -999.2500   -78.3058   102.8195     8.0340     7.6239     7.1710   -50.6961
 1359.5000  -999.2500  -999.2500  -999.2500  -999.2500   -78.1089   102.8146     8.0325     7.5520     7.1424   -50.5451
 1360.0000  -999.2500  -999.2500  -999.2500  -999.2500   -78.1127   101.2034     8.0309     7.5505     7.0753   -50.3639
 1360.5000  -999.2500  -999.2500  -999.2500  -999.2500   -78.1166    99.5920     8.0291     7.4790     7.0083   -50.2130
 1361.0000  -999.2500  -999.2500  -999.2500  -999.2500   -78.3213    97.1772     8.1779     7.4776     7.0069   -50.0620
 1361.5000  -999.2500  -999.2500  -999.2500  -999.2500   -78.5260    94.7621     8.1763     7.4070     7.0707   -49.9110
 1362.0000  -999.2500  -999.2500  -999.2500  -999.2500   -78.9332    94.7569     8.1748     7.4056     7.0696   -49.7600
 1362.5000  -999.2500  -999.2500  -999.2500  -999.2500   -78.9363    94.7516     8.0977     7.4042     7.0682   -49.6090
 1363.0000  -999.2500  -999.2500  -999.2500  -999.2500   -79.1411    94.3447     8.0214     7.4027     7.0668   -49.4580
 1363.5000  -999.2500  -999.2500  -999.2500  -999.2500   -79.1450    94.7412     8.0199     7.4013     7.2643   -49.3070
 1364.0000  -999.2500  -999.2500  -999.2500  -999.2500   -78.7472    97.9500     8.1685     7.4689     7.2272   -49.1560
 1364.5000  -999.2500  -999.2500  -999.2500  -999.2500   -78.3493    94.3289     8.3974     7.5372     7.1952   -49.0050
 1365.0000  -999.2500  -999.2500  -999.2500  -999.2500   -77.7505    91.1082     8.6328     7.5357     7.1938   -38.7703
 1365.5000  -999.2500  -999.2500  -999.2500  -999.2500   -77.3525    91.5046     9.0409     7.5343     7.1929   -38.6192
 1366.0000  -999.2500  -999.2500  -999.2500  -999.2500   -77.3564    96.7232     8.4708     7.5328     7.1910   -38.4681
 1366.5000  -999.2500  -999.2500  -999.2500  -999.2500   -77.3602    99.5311     8.0853     7.5314     7.1896   -38.2867
 1367.0000  -999.2500  -999.2500  -999.2500  -999.2500   -77.5650    99.9280     8.0088     7.5296     7.1879   -38.1356
 1367.5000  -999.2500  -999.2500  -999.2500  -999.2500   -77.7698    99.5211     8.0819     7.4594     7.1866   -37.9845
 1368.0000  -999.2500  -999.2500  -999.2500  -999.2500   -78.3765    99.5161     8.1557     7.4571     7.2522   -37.8333
 1368.5000  -999.2500  -999.2500  -999.2500  -999.2500   -78.3804    99.5111     8.3068     7.4557     7.2508   -37.6822
 1369.0000  -999.2500  -999.2500  -999.2500  -999.2500   -78.3843    99.9081     8.3826     7.5238     7.2494   -37.5311
 1369.5000  -999.2500  -999.2500  -999.2500  -999.2500   -78.1880   100.7061     8.3036     7.5224     7.2480   -37.3799
 1370.0000  -999.2500  -999.2500  -999.2500  -999.2500   -78.1919   100.7021     8.1494     7.5911     7.2466   -37.2288
 1370.5000  -999.2500  -999.2500  -999.2500  -999.2500   -78.1957   100.6972     7.9980     7.5896     7.2452   -47.1624
 1371.0000  -999.2500  -999.2500  -999.2500  -999.2500   -78.1996   101.0943     8.1463     7.6590     7.2438   -47.0114
 1371.5000  -999.2500  -999.2500  -999.2500  -999.2500   -78.4045   101.8927     8.2973     7.7290     7.1755   -46.8603
 1372.0000  -999.2500  -999.2500  -999.2500  -999.2500   -78.6095   101.4887     8.2957     7.7275     7.1741   -46.7092
 1372.5000  -999.2500  -999.2500  -999.2500  -999.2500   -78.6134    99.8744     8.2175     7.7260     7.1064   -46.5582
 1373.0000  -999.2500  -999.2500  -999.2500  -999.2500   -78.6173    99.0652     8.1400     7.7245     7.1047   -46.4071
 1373.5000  -999.2500  -999.2500  -999.2500  -999.2500   -78.4201    98.6580     8.0145     7.6513     7.1034   -46.2259
 1374.0000  -999.2500  -999.2500  -999.2500  -999.2500   -78.4240    99.8595     8.0135     7.6507     7.1020   -46.0748
 1374.5000  -999.2500  -999.2500  -999.2500  -999.2500   -78.2268   102.2677     8.0120     7.5777     7.0350   -45.9237
 1375.0000  -999.2500  -999.2500  -999.2500  -999.2500   -78.0296   103.4672     8.2368     7.5762     7.0336   -45.7726
 1375.5000  -999.2500  -999.2500  -999.2500  -999.2500   -77.8324   105.4735     8.4680     7.5047     6.9672   -45.6215
 1376.0000  -999.2500  -999.2500  -999.2500  -999.2500   -77.8370   107.8823     8.3105     7.5038     6.9659   -45.4705
 1376.5000  -999.2500  -999.2500  -999.2500  -999.2500   -77.8409   107.0754     8.0806     7.4324     6.9645   -45.3194
 1377.0000  -999.2500  -999.2500  -999.2500  -999.2500   -77.8447   101.0365     8.0043     7.4310     6.9632   -45.1683
 1377.5000  -999.2500  -999.2500  -999.2500  -999.2500   -77.8486    97.8132     8.0028     7.4296     6.9618   -45.0172
 1378.0000  -999.2500  -999.2500  -999.2500  -999.2500   -77.6513    97.0011     8.0012     7.4282     6.9605   -44.8661
 1378.5000  -999.2500  -999.2500  -999.2500  -999.2500   -77.6552    99.0077     8.0744     7.4267     6.9591   -44.7150
 1379.0000  -999.2500  -999.2500  -999.2500  -999.2500   -77.4578    99.8075     8.1482     7.4946     7.0219   -44.5639
 1379.5000  -999.2500  -999.2500  -999.2500  -999.2500   -77.2605   101.8134     7.9224     7.4929     7.0208   -44.4128
 1380.0000  -999.2500  -999.2500  -999.2500  -999.2500   -77.0631   104.6254     7.9209     7.4914     7.0197   -44.2315
 1380.5000  -999.2500  -999.2500  -999.2500  -999.2500   -77.2682   106.2304     8.0679     7.4900     7.0184   -44.0804
