~VERSION INFORMATION
 VERS.                2.0:   CWLS LOG ASCII STANDARD - VERSION 2.0
 WRAP.                 NO:   ONE LINE PER DEPTH STEP
~WELL INFORMATION
#MNEM.UNIT      DATA TYPE    INFORMATION
#----------   ------------   ------------------------------
 STRT.F          520.0000:   START DEPTH
 STOP.F         3092.0000:   STOP DEPTH
 STEP.F            0.5000:   STEP LENGTH
 NULL.          -999.2500:   NO VALUE
 COMP.    FENIX & SCISSON:   COMPANY
 WELL. FENIX 87 "AX" #3-3:   WELL
 FLD .              N P R:   FIELD
 LOC .       S3 T38N R78W:   LOCATION
 CNTY.            NATRONA:   COUNTY
 STAT.            WYOMING:   STATE
 CTRY. UNITED STATES OF AMERICA:   COUNTRY
 SRVC.              WELEX:   SERVICE COMPANY
 DATE.        30-OCT-1980:   LOGDATE
 API .     49025108510000:   API NUMBER
~CURVE INFORMATION
#MNEM.UNIT       API CODE    CURVE DESCRIPTION
#----------   ------------   ------------------------------
 DEPT.F                  :   
 CALD.IN     45 280 60 00:   CALIPER FROM DENSITY LOG
 GRD .GAPI   45 310 01 00:   GAMMA RAY FROM DENSITY LOG
 RHOB.G/C3   45 350 01 00:   BULK DENSITY
 CORR.G/C3   45 356 01 00:   DENSITY CORRECTION
 SPR .MV     07 010 01 00:   SPONTANEOUS POTENTIAL
 ILD .OHMM   07 120 46 00:   DEEP INDUCTION RESISTIVITY
 ILM .OHMM   07 120 44 00:   INDUCTION LOG MEDIUM RESISTIVITY
 SGRD.OHMM   07 220 05 00:   SHALLOW SHORT GUARD RESISTIVITY
~PARAMETER INFORMATION
#MNEM.UNIT          VALUE    DESCRIPTION
#----------   ------------   ------------------------------
 EKB .F         5131.0000:   Kelly bushing
 EGL .F         5121.0000:   Ground level
 TD  .F         3095.0000:   Total depth
 DATE.        30-OCT-1980:   Date logged
 CLNT.            A2DTECH:   Client Code
 SL  . 910' FWL & 95' FEL:   Surface Location
 PD  .                 GL:   Permanent Datum
 EPD .F              5121:   Elevation Permanent Datum
 LMF .                 KB:   Log Measured From
 DMF .                 KB:   Drilling Measured From
 DD  .F              3095:   Depth driller
 DL  .F              3094:   Depth logger
 BLI .F              3092:   Bottom log interval
 TLI .F               525:   Top log interval
 CS1 .IN            9.625:   Casing size
 CBD1.      9.625" @ 525':   Casing driller 1
 CBL1.F               525:   Casing logger 1
 BS1 .IN            7.875:   Bit size
 DFT .          DISPERSED:   Type fluid in hole
 DFD .                  9:   Density
 DFV .                 40:   Viscosity
 DFPH.                 10:   pH
 DFL .                  8:   Fluid loss
 MSS .             MUDPIT:   Source of sample
 RMS .OHMM           2.40:   Rm
 MST .F                68:   Rm Meas. temp.
 MFST.F                68:   Rmf Meas. temp.
 RMC .OHMM            2.8:   Rmc
 MCST.F                68:   Rmc Meas. temp.
 MFSS.F              MEAS:   Source Rmf.
 RMB .OHMM           1.36:   Rm. at BHT
 BHT .F               120:   BHT.
 TCS .HRS             5.5:   Time Circ. stopped
 MRT .F               120:   Maximum recorded temp.
 LUN .               1891:   Logging unit number
 LUL .             CASPER:   Logging unit location
 ENGI.          PFERIMMER:   Recorded By
 WITN.              FIVAS:   Witnessed by
 ORIG.           5" PRINT:   Origin of data
 UWI .     49025108510000:   Unique Well ID
 DICO. A2D TECHNOLOGIES, INC.:   Digitizing Company
 DAPD.F                10:   Feet Above Permanent Datum
 BSD1.F              3095:   Depth drilled with bit1
 RMF .OHMM           1.92:   Rmf
 MCSS.               MEAS:   Source Rmc.
~OTHER INFORMATION
~A   DEPT     CALD        GRD       RHOB       CORR        SPR          ILD        ILM      SGRD  
# ...
 2383.0000     9.7690    95.4810     2.5720     0.0320   -25.8140     3.8060     6.7560     7.4780
 2383.5000     9.7620    95.7860     2.5880     0.0350   -25.8270     3.7820     6.4770     7.1430
 2384.0000     9.7540    96.0940     2.5870     0.0370   -25.7790     3.7420     6.1980     6.8100
 2384.5000     9.7460    96.3990     2.5700     0.0380   -25.7170     3.6750     5.9280     6.8100
 2385.0000     9.7390    96.6250     2.5560     0.0390   -25.6540     3.6090     6.4890     7.7790
 2385.5000     9.7430    96.6330     2.5410     0.0470   -25.5920     3.5420     7.0340     8.5810
 2386.0000     9.7590    96.5630     2.5290     0.0560   -25.5290     3.4760     7.1990     8.1530
 2386.5000     9.7740    94.3410     2.5470     0.0650   -25.4660     3.4090     6.7440     7.6730
 2387.0000     9.7900    91.9880     2.5660     0.0720   -25.4040     3.3420     6.3950     7.1930
 2387.5000     9.8050    89.6700     2.5850     0.0690   -25.3410     3.2500     6.0470     6.7120
 2388.0000     9.8210    87.8770     2.5950     0.0660   -25.2790     3.2740     5.6990     6.2320
 2388.5000     9.8330    88.9240     2.5790     0.0630   -25.2500     3.3110     5.5050     6.0390
 2389.0000     9.8250    89.9270     2.5730     0.0600   -25.2820     3.3720     6.1500     5.9830
 2389.5000     9.8190    90.9310     2.5720     0.0570   -25.3130     3.5050     6.6260     7.0990
 2390.0000     9.8120    91.9310     2.5620     0.0540   -25.3430     3.6270     7.1010     7.9720
 2390.5000     9.8050    92.8690     2.5480     0.0510   -25.3740     3.7500     7.5770     8.8460
 2391.0000     9.7980    93.2320     2.5600     0.0480   -25.4050     3.8720     8.0520     9.7200
 2391.5000     9.7910    93.6270     2.5560     0.0450   -25.4350     3.9950     8.5810    10.5940
 2392.0000     9.7850    93.2700     2.5530     0.0420   -25.4660     4.1170     8.4760    10.9140
 2392.5000     9.7780    92.7770     2.5610     0.0390   -25.4970     4.2390     8.3110    10.1480
 2393.0000     9.7710    92.2820     2.5810     0.0360   -25.5270     4.3620     8.1460     9.6170
 2393.5000     9.7640    91.7880     2.5990     0.0350   -25.5580     4.4920     7.9800     9.0850
 2394.0000     9.7570    91.2920     2.5960     0.0350   -25.5890     4.4920     7.8150     8.7050
 2394.5000     9.7530    90.7870     2.5920     0.0380   -25.6190     4.4420     7.6800     8.6610
 2395.0000     9.7500    91.1490     2.5890     0.0420   -25.6500     4.3910     7.6800     8.6880
 2395.5000     9.7460    91.6310     2.5970     0.0450   -25.6810     4.3390     7.7370     8.8150
 2396.0000     9.7430    92.1150     2.5950     0.0480   -25.7110     4.2870     7.8270     8.9420
 2396.5000     9.7390    92.5960     2.5830     0.0510   -25.7420     4.2360     7.9170     9.0690
 2397.0000     9.7350    93.0780     2.5710     0.0550   -25.7730     4.1840     8.0070     9.2020
 2397.5000     9.7320    93.5590     2.5590     0.0580   -25.8030     4.1330     8.0970     9.2400
 2398.0000     9.7280    94.0410     2.5560     0.0610   -25.8290     4.0810     8.1180     8.9880
 2398.5000     9.7250    94.5230     2.5530     0.0640   -25.8270     4.0290     8.0180     8.9210
 2399.0000     9.7210    95.0040     2.5460     0.0580   -25.8340     3.9780     7.8500     8.8370
 2399.5000     9.7180    95.4820     2.5370     0.0460   -25.9760     3.9260     7.6830     8.7530
 2400.0000     9.7150    95.5910     2.5270     0.0350   -26.0070     3.8740     7.5150     8.6610
 2400.5000     9.7020    95.2860     2.5300     0.0240   -25.9760     3.8230     7.4010     8.6610
 2401.0000     9.6890    94.9840     2.5450     0.0140   -25.9450     3.7710     7.5390     8.5810
 2401.5000     9.6760    94.6800     2.5600     0.0180   -25.9160     3.7200     7.7630     8.5810
 2402.0000     9.6630    94.3770     2.5710     0.0210   -25.8870     3.6650     8.0550     8.7280
 2402.5000     9.6500    94.0740     2.5640     0.0250   -25.8580     3.6650     8.3470     8.9720
 2403.0000     9.6340    93.7700     2.5580     0.0280   -25.8290     3.6790     8.5020     9.2150
 2403.5000     9.5980    93.4670     2.5520     0.0310   -25.8000     3.7330     8.5020     9.4590
 2404.0000     9.6080    93.1640     2.5470     0.0350   -25.7710     3.7330     8.5810     9.7020
 2404.5000     9.6180    92.8590     2.5510     0.0380   -25.7420     3.7220     8.5810     9.9500
 2405.0000     9.6280    92.5440     2.5550     0.0410   -25.7120     3.6890     8.3630     9.6010
 2405.5000     9.6380    92.8190     2.5590     0.0450   -25.6820     3.6560     7.9880     9.1520
 2406.0000     9.6480    93.2150     2.5620     0.0440   -25.6600     3.6230     7.6140     8.7030
 2406.5000     9.6580    93.6120     2.5580     0.0390   -25.7800     3.5980     7.1990     8.2530
 2407.0000     9.6680    94.0080     2.5530     0.0340   -25.8320     3.5650     7.4080     8.1180
 2407.5000     9.6780    94.4050     2.5490     0.0290   -25.8290     3.5650     7.8670     8.3400
 2408.0000     9.6880    94.8020     2.5570     0.0240   -25.8280     3.6210     8.3260     8.7540
 2408.5000     9.6980    95.1940     2.5660     0.0210   -25.8280     3.6800     8.4240     9.1690
 2409.0000     9.7080    95.3610     2.5640     0.0290   -25.8280     3.7390     8.4240     9.5000
 2409.5000     9.7260    94.8650     2.5660     0.0370   -25.8280     3.7980     8.4240     9.5000
 2410.0000     9.7620    94.3800     2.5750     0.0450   -25.8280     3.8740     8.4240     9.2980
 2410.5000     9.7930    93.8960     2.5650     0.0460   -25.8280     3.8400     8.2840     9.1090
 2411.0000     9.8240    93.4110     2.5590     0.0400   -25.8280     3.7750     8.0110     8.9200
 2411.5000     9.8530    92.9270     2.5610     0.0350   -25.8280     3.7090     7.7380     8.7300
 2412.0000     9.8100    92.4420     2.5630     0.0300   -25.8280     3.6440     7.4700     8.5810
 2412.5000     9.7470    91.9580     2.5440     0.0250   -25.8280     3.5790     7.2660     8.5810
 2413.0000     9.6960    91.4710     2.5420     0.0190   -25.8280     3.5130     7.5390     8.9670
 2413.5000     9.7050    90.9760     2.5490     0.0140   -25.8280     3.4670     7.6090     9.1550
 2414.0000     9.7130    90.4230     2.5570     0.0130   -25.8280     3.4710     7.3190     8.5740
 2414.5000     9.7210    91.0590     2.5490     0.0150   -25.8280     3.4750     7.1050     8.1270
 2415.0000     9.7290    91.7560     2.5340     0.0160   -25.8280     3.4790     7.0020     7.6800
 2415.5000     9.7370    92.4480     2.5200     0.0180   -25.8280     3.4820     7.3000     7.6090
 2416.0000     9.7450    93.1390     2.5060     0.0220   -25.8280     3.4860     7.5330     8.3970
 2416.5000     9.7540    93.8290     2.4960     0.0330   -25.8280     3.4900     7.7320     8.9050
 2417.0000     9.7760    94.5210     2.5010     0.0430   -25.8280     3.4940     7.8230     8.9880
 2417.5000     9.7780    95.2120     2.5160     0.0540   -25.8280     3.4970     7.5940     8.7040
 2418.0000     9.7910    95.8740     2.5270     0.0540   -25.8280     3.4990     7.3460     8.4880
 2418.5000     9.8050    96.5130     2.5450     0.0470   -25.8280     3.4450     7.0970     8.2710
 2419.0000     9.8190    97.1570     2.5450     0.0390   -25.8280     3.3900     6.8490     8.0550
 2419.5000     9.8320    97.8000     2.5460     0.0320   -25.8280     3.3340     6.6300     7.8390
 2420.0000     9.8460    98.4440     2.5470     0.0240   -25.8280     3.2790     6.4730     7.6230
 2420.5000     9.8590    99.0890     2.5330     0.0170   -25.8280     3.2230     6.4070     7.4060
 2421.0000     9.8730    99.7450     2.4940     0.0280   -25.8280     3.1680     6.3560     7.2660
 2421.5000     9.8870    99.6850     2.4570     0.0390   -25.8280     3.1120     6.3250     7.3700
 2422.0000     9.9000    99.1120     2.4270     0.0430   -25.8280     3.0570     6.2660     7.4700
 2422.5000     9.9120    98.1620     2.4170     0.0330   -25.8280     3.0010     6.0810     7.2590
 2423.0000     9.9100    97.2140     2.4490     0.0230   -25.8280     2.9460     5.7890     7.0020
