~VERSION INFORMATION
 VERS.                2.0:   CWLS LOG ASCII STANDARD - VERSION 2.0
 WRAP.                 NO:   ONE LINE PER DEPTH STEP
~WELL INFORMATION
#MNEM.UNIT      DATA TYPE    INFORMATION
#----------   ------------   ------------------------------
 STRT.F            0.0000:   START DEPTH
 STOP.F         1165.5000:   STOP DEPTH
 STEP.F            0.5000:   STEP LENGTH
 NULL.          -999.2500:   NO VALUE
 COMP.   JOHN BROWN E & C:   COMPANY
 WELL. BROWN NPR 3 "X" 1 #63-14:   WELL
 FLD .                NPR:   FIELD
 LOC .      S14 T38N R78W:   LOCATION
 CNTY.            NATRONA:   COUNTY
 STAT.            WYOMING:   STATE
 CTRY. UNITED STATES OF AMERICA:   COUNTRY
 SRVC.     ATLAS WIRELINE:   SERVICE COMPANY
 DATE.        15-JAN-1992:   LOGDATE
 API .     49025224960000:   API NUMBER
~CURVE INFORMATION
#MNEM.UNIT       API CODE    CURVE DESCRIPTION
#----------   ------------   ------------------------------
 DEPT.F                  :   
 GRR .GAPI   07 310 01 00:   GAMMA RAY FROM RESISTIVITY
 RILD.OHMM   07 120 46 00:   INDUCTION LOG DEEP RESISTIVITY
 RILM.OHMM   07 120 44 00:   INDUCTION LOG MEDIUM RESISTIVITY
 TENR.LBS    07 635 01 00:   TENSION
~PARAMETER INFORMATION
#MNEM.UNIT          VALUE    DESCRIPTION
#----------   ------------   ------------------------------
 EKB .F         5270.0000:   Kelly bushing
 EGL .F         5260.0000:   Ground level
 EDF .F         5269.0000:   Drilling floor
 TD  .F         1160.0000:   Total depth
 DATE.        15-JAN-1992:   Date logged
 CLNT.            A2DTECH:   Client Code
 SL  . 1893' FNL & 1971' FEL:   Surface Location
 PD  .                 GL:   Permanent Datum
 EPD .F              5260:   Elevation Permanent Datum
 LMF .                 KB:   Log Measured From
 DMF .                 KB:   Drilling Measured From
 DAPD.F                10:   Feet Above Permanent Datum
 DD  .F              1160:   Depth driller
 DL  .F              1158:   Depth logger
 BLI .F              1150:   Bottom log interval
 CS1 .IN            9.625:   Casing size
 CBD1.       9.625" @ 50':   Casing driller 1
 CBL1.F                48:   Casing logger 1
 BS1 .IN             8.75:   Bit size
 BSD1.F              1160:   Depth drilled with bit1
 DFT .                AIR:   Type fluid in hole
 MRT .F                90:   Maximum recorded temp.
 LUN .            HL-6274:   Logging unit number
 LUL .             CASPER:   Logging unit location
 ENGI.             RAUTIO:   Recorded By
 WITN.        GARY STRONG:   Witnessed by
 ORIG.           5" PRINT:   Origin of data
 UWI .     49025224960000:   Unique Well ID
 DICO. A2D TECHNOLOGIES, INC.:   Digitizing Company
 TLI .F                 0:   Top log interval
~OTHER INFORMATION
~A    DEPT      GRR      RILD       RILM       TENR   
# ...
 1022.0000   125.7990     9.6780     9.8040    96.6430
 1022.5000   127.4380     9.7200     9.9200    97.2330
 1023.0000   126.3920     9.7480    10.0350    97.8230
 1023.5000   124.2510     9.7760    10.1510    98.4130
 1024.0000   122.4860     9.8050    10.2570    99.0030
 1024.5000   121.7720     9.8330    10.2760    99.5940
 1025.0000   121.0600     9.8610    10.3170   100.1840
 1025.5000   120.3010     9.8890    10.3570   100.7740
 1026.0000   118.4870     9.9180    10.3980   101.3640
 1026.5000   117.5430     9.9460    10.4380   101.9540
 1027.0000   119.2440     9.9740    10.4790   102.5450
 1027.5000   120.6700    10.0020    10.5190   103.1350
 1028.0000   119.9690    10.0310    10.5460   103.7250
 1028.5000   118.0920    10.0590    10.5220   104.3150
 1029.0000   120.2990    10.0870    10.5020   104.9050
 1029.5000   122.5030    10.1160    10.4820   105.4950
 1030.0000   121.8450    10.1440    10.4610   106.0860
 1030.5000   118.8420    10.1720    10.4490   106.6760
 1031.0000   115.7160    10.2000    10.4490   107.2660
 1031.5000   115.3560    10.2290    10.4490   107.9030
 1032.0000   116.5190    10.2570    10.4490   108.5710
 1032.5000   117.0260    10.2570    10.4490   109.2390
 1033.0000   115.7190    10.2570    10.4490   109.9070
 1033.5000   114.8380    10.2560    10.4490   110.5750
 1034.0000   116.2200    10.2570    10.4480   111.2430
 1034.5000   117.5730    10.2570    10.4510   111.9110
 1035.0000   118.9430    10.0790    10.3060   112.5790
 1035.5000   120.2030     9.9530    10.1920   113.2470
 1036.0000   121.1180     9.8260    10.0780   113.9150
 1036.5000   118.3760     9.7000     9.9640   114.5830
 1037.0000   116.5300     9.5730     9.8490   115.2510
 1037.5000   118.4230     9.4470     9.7350   115.9190
 1038.0000   120.0800     9.3200     9.6280   116.5880
 1038.5000   120.9740     9.1940     9.4830   117.2560
 1039.0000   121.8850     9.0670     9.3380   117.9240
 1039.5000   122.7830     8.9580     9.1930   118.5920
 1040.0000   123.2160     8.8650     9.0480   119.2600
 1040.5000   121.6660     8.7710     8.9110   119.9280
 1041.0000   122.5790     8.6780     8.8210   120.5960
 1041.5000   126.1220     8.5990     8.7310   121.2640
 1042.0000   129.6440     8.4940     8.6410   121.9320
 1042.5000   133.1580     8.3850     8.5510   122.6000
 1043.0000   134.9450     8.2760     8.4610   123.2680
 1043.5000   134.4470     8.1670     8.3710   123.9360
 1044.0000   133.9790     8.0590     8.2810   124.6040
 1044.5000   133.4830     8.0420     8.2100   125.2720
 1045.0000   132.4610     8.0140     8.1880   125.9400
 1045.5000   129.5340     7.9860     8.1530   126.6080
 1046.0000   129.0770     7.9580     8.1180   127.2760
 1046.5000   132.6650     7.9300     8.0830   127.9450
 1047.0000   136.1270     7.9020     8.0480   128.6130
 1047.5000   139.5850     7.8740     8.0130   129.2810
 1048.0000   139.0860     7.8460     7.9780   129.9490
 1048.5000   137.7320     7.8190     7.9430   130.6170
 1049.0000   135.1020     7.7920     7.9110   131.2850
 1049.5000   132.5700     7.7650     7.8440   131.9530
 1050.0000   130.5940     7.5920     7.7170   132.6210
 1050.5000   133.0970     7.4330     7.5820   133.2890
 1051.0000   135.7510     7.2740     7.4480   133.9570
 1051.5000   135.7830     7.1160     7.3130   134.6250
 1052.0000   131.3490     6.9470     7.1780   135.2930
 1052.5000   130.8290     6.9220     7.1430   135.9610
 1053.0000   133.6120     6.8950     7.1170   136.6290
 1053.5000   136.3990     6.8680     7.0700   137.2970
 1054.0000   136.3530     6.8410     7.0220   138.0410
 1054.5000   134.3600     6.7680     6.9040   138.9100
 1055.0000   132.7300     6.4920     6.6740   139.7800
 1055.5000   132.9690     6.2230     6.4440   140.6490
 1056.0000   133.0250     5.9820     6.2140   141.5180
 1056.5000   132.4510     5.7410     5.9840   142.3880
 1057.0000   130.8920     5.5090     5.7540   143.2570
 1057.5000   130.5720     5.4590     5.6650   144.1260
 1058.0000   133.7220     5.5460     5.8070   144.9960
 1058.5000   136.7600     5.6800     5.9300   145.8650
 1059.0000   137.3540     5.8140     6.0380   146.7340
 1059.5000   137.5780     5.9480     6.1460   147.6040
 1060.0000   137.7930     6.2400     6.5340   148.4730
 1060.5000   137.7050     6.6330     6.9090   149.3420
 1061.0000   136.7650     7.0270     7.2850   150.2120
 1061.5000   134.3700     7.4210     7.6610   151.0810
 1062.0000   131.6850     7.8380     8.0590   151.9500
 1062.5000   131.8810     7.9420     8.1500   152.8200
 1063.0000   133.2460     8.0520     8.2460   153.6890
 1063.5000   134.4810     8.1630     8.3430   154.5580
 1064.0000   133.9850     8.2100     8.4410   155.4280
 1064.5000   131.9450     8.1810     8.4030   156.2970
 1065.0000   130.5470     8.1580     8.3640   157.1660
 1065.5000   132.1210     8.1340     8.3250   158.0360
 1066.0000   130.5120     8.1340     8.2860   158.9050
 1066.5000   128.2530     8.1340     8.2470   159.7740
 1067.0000   127.9980     8.1330     8.2100   160.6440
 1067.5000   130.2500     8.1400     8.1880   161.5130
 1068.0000   131.1770     8.0180     8.1670   162.3820
 1068.5000   130.3820     7.9700     8.1460   163.2520
 1069.0000   129.5850     7.9220     8.1250   164.1210
 1069.5000   130.4070     7.8740     8.1030   164.9900
 1070.0000   131.4260     7.8260     8.0820   165.8600
 1070.5000   132.4230     7.7790     8.0610   166.7290
 1071.0000   132.6160     7.7310     8.0400   167.5980
 1071.5000   130.8420     7.6830     8.0190   168.4680
 1072.0000   129.0990     7.6350     7.9980   169.3370
 1072.5000   127.3550     7.5140     7.8520   170.2060
 1073.0000   125.9780     7.2020     7.4680   171.0760
 1073.5000   127.2070     6.8900     7.0850   171.9450
 1074.0000   130.3860     6.5090     6.7020   172.8140
 1074.5000   133.5450     6.0780     6.3320   173.6840
 1075.0000   136.7420     5.6460     5.9200   174.5530
 1075.5000   138.2030     5.1690     5.5030   175.4220
 1076.0000   136.2360     4.5340     4.9340   176.2920
 1076.5000   131.0350     3.7300     4.1500   177.1610
 1077.0000   126.9460     3.0470     3.3670   177.9960
 1077.5000   129.6530     2.7020     2.7950   178.4790
 1078.0000   132.7010     2.3570     2.4870   178.9430
 1078.5000   135.7970     2.0120     2.1790   179.4080
 1079.0000   136.5910     1.9500     2.0410   179.8720
 1079.5000   136.1820     1.9890     2.0050   180.3370
 1080.0000   132.6840     2.0370     2.1670   180.8010
 1080.5000   129.2710     2.1730     2.3070   181.2650
 1081.0000   126.2660     2.3090     2.6750   181.7300
 1081.5000   126.7980     2.7570     3.2690   182.1940
 1082.0000   127.7750     3.3240     3.8630   182.6590
 1082.5000   129.8160     3.8920     4.4510   183.1230
 1083.0000   131.8800     4.4710     4.9990   183.5880
 1083.5000   132.8390     5.1120     5.5480   184.0520
 1084.0000   133.0370     5.7530     6.0960   184.5170
 1084.5000   135.7580     6.3150     6.4260   184.9810
 1085.0000   136.2800     6.5350     6.6940   185.4450
 1085.5000   134.3220     6.7560     6.9440   185.9100
 1086.0000   133.1720     6.9760     7.1490   186.3740
 1086.5000   132.2420     7.1960     7.3550   186.8390
 1087.0000   131.6220     7.2770     7.5520   187.3030
 1087.5000   134.5650     7.2770     7.6230   187.7680
 1088.0000   138.5840     7.2480     7.4860   188.2320
 1088.5000   138.0310     7.1850     7.3910   188.6960
 1089.0000   135.1920     7.1220     7.2960   189.1610
 1089.5000   135.4540     7.0770     7.2010   189.6250
 1090.0000   136.9690     6.9520     7.1070   190.0900
 1090.5000   136.7380     6.8840     7.0120   190.5540
 1091.0000   136.6320     6.8160     6.9470   191.0190
 1091.5000   139.0890     6.7570     6.8830   191.4830
 1092.0000   141.3670     6.8610     6.8200   191.9480
 1092.5000   143.1750     6.9530     6.9330   192.4120
 1093.0000   144.0770     7.0450     7.0770   192.8760
 1093.5000   144.8030     7.1370     7.2210   193.3410
 1094.0000   147.0370     7.2290     7.3650   193.8050
 1094.5000   146.9490     7.3210     7.4820   194.2700
