~VERSION INFORMATION
 VERS.                2.0:   CWLS LOG ASCII STANDARD - VERSION 2.0
 WRAP.                 NO:   ONE LINE PER DEPTH STEP
~WELL INFORMATION
#MNEM.UNIT      DATA TYPE    INFORMATION
#----------   ------------   ------------------------------
 STRT.F          484.0000:   START DEPTH
 STOP.F         4334.0000:   STOP DEPTH
 STEP.F            0.5000:   STEP LENGTH
 NULL.          -999.2500:   NO VALUE
 COMP.    FENIX & SCISSON:   COMPANY
 WELL. FENIX NPR 3 "JX" #46-27:   WELL
 FLD .              N P R:   FIELD
 LOC .      S27 T39N R78W:   LOCATION
 CNTY.            NATRONA:   COUNTY
 STAT.            WYOMING:   STATE
 CTRY. UNITED STATES OF AMERICA:   COUNTRY
 SRVC.       SCHLUMBERGER:   SERVICE COMPANY
 DATE.        01-MAR-1979:   LOGDATE
 API .     49025107660000:   API NUMBER
~CURVE INFORMATION
#MNEM.UNIT       API CODE    CURVE DESCRIPTION
#----------   ------------   ------------------------------
 DEPT.F                  :   
 TENR.LBS    07 635 01 00:   TENSION FROM RESISTIVITY
 SPR .MV     07 010 01 00:   SPONTANEOUS POTENTIAL
 SFL .OHMM   07 220 01 00:   SHALLOW FOCUSED LOG RESISTIVITY
 ILD .OHMM   07 120 46 00:   DEEP INDUCTION RESISTIVITY
 ILM .OHMM   07 120 44 00:   INDUCTION LOG MEDIUM RESISTIVITY
 TEND.LBS    42 635 01 00:   TENSION FROM COMPENSATE NEUTRON
 GRD .GAPI   45 310 01 00:   GAMMA RAY FROM DENSITY LOG
 CALD.IN     45 280 60 00:   CALIPER FROM DENSITY LOG
 RHOB.G/C3   45 350 01 00:   BULK DENSITY
 CORR.G/C3   45 356 01 00:   DENSITY CORRECTION
 NPHI.DEC    42 890 03 00:   NEUTRON POROSITY SANDSTONE
~PARAMETER INFORMATION
#MNEM.UNIT          VALUE    DESCRIPTION
#----------   ------------   ------------------------------
 EKB .F         5059.0000:   Kelly bushing
 EGL .F         5049.0000:   Ground level
 EDF .F            0.0000:   Drilling floor
 TD  .F         4320.0000:   Total depth
 DATE.        01-MAR-1979:   Date logged
 CLNT.            A2DTECH:   Client Code
 SL  . 1625' FSL & 2281' FWL:   Surface Location
 PD  .                 GL:   Permanent Datum
 DD  .F              4320:   Depth driller
 DL  .F              4319:   Depth logger
 BLI .F              4316:   Bottom log interval
 CS1 .IN            8.625:   Casing size
 CBD1.      8.625" @ 505':   Casing driller 1
 CBL1.F               500:   Casing logger 1
 BS1 .IN            7.875:   Bit size
 DFT .                FGM:   Type fluid in hole
 DFD .                9.1:   Density
 DFV .                 40:   Viscosity
 DFPH.               11.7:   pH
 DFL .                6.5:   Fluid loss
 MSS .               TANK:   Source of sample
 RMS .OHMM           .901:   Rm
 MST .F                65:   Rm Meas. temp.
 RMF .OHMM           .852:   Rmf
 MFST.F                65:   Rmf Meas. temp.
 MFSS.               MEAS:   Source Rmf.
 RMB .OHMM            .39:   Rm. at BHT
 BHT .F               151:   BHT.
 TCS .HRS            1200:   Time Circ. stopped
 MRT .F               151:   Maximum recorded temp.
 LUN .               8043:   Logging unit number
 LUL .               CSPR:   Logging unit location
 ENGI.              PFARR:   Recorded By
 WITN.              AMENO:   Witnessed by
 ORIG.         2.5" PRINT:   Origin of data
 UWI .     49025107660000:   Unique Well ID
 DICO. A2D TECHNOLOGIES, INC.:   Digitizing Company
 DAPD.                 10:   Feet Above Permanent Datum
 BSD1.F              4320:   Depth drilled with bit1
 EPD .F              5049:   Elevation Permanent Datum
 LMF .                 KB:   Log Measured From
 DMF .                 KB:   Drilling Measured From
 TLI .F               500:   Top log interval
 TLAB.HRS            1900:   Time logger at bottom
~OTHER INFORMATION
~A   DEPT     TENR        SPR        SFL        ILD        ILM       TEND         GRD      CALD       RHOB       CORR         NPHI 
# ...
 1765.0000   566.5370   -39.6890     8.0460     7.2260     6.9660   950.1180    99.8480     8.7830     2.5120     0.0080     0.3060
 1765.5000   566.6180   -39.4070     8.0300     7.2470     6.9870   949.8890   101.7890     8.7400     2.5190    -0.0010     0.3000
 1766.0000   566.6990   -39.1290     8.0150     7.2670     7.0060   949.6610   103.4300     8.6970     2.5340    -0.0040     0.2990
 1766.5000   566.7810   -38.8030     7.9990     7.2880     7.0260   949.4330   105.4150     8.6540     2.5470     0.0020     0.2870
 1767.0000   566.8620   -39.0930     7.9830     7.3090     7.0460   949.2050   105.3620     8.6210     2.5630     0.0080     0.2880
 1767.5000   566.9430   -40.2200     7.9670     7.3290     7.0660   948.9770   103.9450     8.6240     2.5600     0.0100     0.2910
 1768.0000   567.0250   -41.1550     7.9480     7.3500     7.0860   948.7480   102.6690     8.6250     2.5420     0.0040     0.2900
 1768.5000   567.1060   -41.1390     7.9480     7.3710     7.1060   948.5200   101.4500     8.6280     2.5160    -0.0020     0.2850
 1769.0000   567.1870   -40.4430     8.2210     7.3870     7.1220   948.2920   100.4290     8.6310     2.5080    -0.0010     0.2870
 1769.5000   567.2680   -39.7830     8.4940     7.5400     7.2700   948.0640   101.4830     8.6330     2.5260     0.0140     0.2930
 1770.0000   567.3500   -39.5640     8.7670     7.6670     7.3920   947.8360   102.1050     8.6360     2.5440     0.0230     0.2960
 1770.5000   567.4310   -39.8470     9.0410     7.7950     7.5150   947.6070   104.1650     8.6380     2.5640     0.0290     0.2890
 1771.0000   567.5120   -40.0900     9.3680     7.9480     7.6620   947.3790   101.7870     8.6410     2.5800     0.0280     0.2810
 1771.5000   567.5940   -40.3280     9.2380     7.9230     7.6390   947.1510   100.1100     8.6440     2.5990     0.0290     0.2740
 1772.0000   567.6750   -40.5910     8.9120     7.8620     7.5800   946.9230    99.0140     8.6460     2.6080     0.0320     0.2660
 1772.5000   567.7560   -40.8210     8.5860     7.8010     7.5210   946.6950   100.8010     8.6490     2.6130     0.0370     0.2580
 1773.0000   567.8370   -41.0380     8.2600     7.7410     7.4630   946.4660   102.5270     8.6510     2.6120     0.0760     0.2590
 1773.5000   567.9190   -40.7370     7.9340     7.6800     7.4040   946.2380   100.8920     8.6540     2.6080     0.1270     0.2730
 1774.0000   568.0000   -40.3960     7.6620     7.6190     7.3450   946.0100    98.1630     8.6580     2.5760     0.1850     0.2940
 1774.5000   568.0810   -40.3800     7.6890     7.5580     7.2870   945.7820    95.3530     8.6540     2.4690     0.1340     0.3290
 1775.0000   568.1630   -40.6230     7.7570     7.4970     7.2280   945.5540    93.3320     8.7010     2.4000     0.0590     0.3270
 1775.5000   568.2440   -40.8300     7.8240     7.4360     7.1690   945.3250    94.2950     8.7720     2.4170     0.0050     0.2960
 1776.0000   568.3250   -41.0410     7.8920     7.3870     7.1220   945.0970    95.0100     8.8500     2.4560    -0.0080     0.3040
 1776.5000   568.4060   -41.2520     7.9590     7.3410     7.0770   944.8690    96.7290     8.7670     2.4960    -0.0070     0.2800
 1777.0000   568.4880   -41.4550     8.0270     7.3020     7.0400   944.6410    99.7170     8.6320     2.5270    -0.0060     0.2820
 1777.5000   568.5690   -41.4670     8.0940     7.2630     7.0010   944.4130   102.4260     8.5810     2.5420     0.0030     0.2870
 1778.0000   568.6500   -41.4700     8.0700     7.2240     6.9640   944.1840   105.7520     8.5260     2.5490     0.0110     0.2920
 1778.5000   568.7320   -41.4690     8.0300     7.1850     6.9260   943.9560   105.3600     8.4980     2.5420     0.0150     0.2930
 1779.0000   568.8130   -41.4690     7.9890     7.1450     6.8890   943.7280   105.8890     8.5000     2.5330     0.0180     0.2960
 1779.5000   568.8940   -41.4630     7.9480     7.1160     6.8600   943.5000   107.1190     8.4900     2.5290     0.0120     0.2960
 1780.0000   568.9750   -41.4870     7.9410     7.1010     6.8460   943.2720   108.2640     8.4820     2.5340     0.0090     0.2970
 1780.5000   569.0570   -41.2600     7.9280     7.0870     6.8320   943.0430   109.7280     8.4730     2.5430     0.0150     0.2970
 1781.0000   569.1380   -40.8230     7.9140     7.0720     6.8180   942.8150   108.1350     8.4640     2.5520     0.0200     0.2980
 1781.5000   569.2190   -40.4110     7.9010     7.0580     6.8040   942.5870   104.2100     8.4600     2.5580     0.0260     0.2980
 1782.0000   569.3010   -40.0110     7.8880     7.0430     6.7900   942.3590   100.8520     8.4600     2.5540     0.0240     0.2970
 1782.5000   569.3820   -39.5930     7.8760     7.0280     6.7760   942.1310    97.2340     8.4600     2.5530     0.0100     0.2910
 1783.0000   569.4630   -39.6100     7.8630     7.0140     6.7620   941.9020    98.8800     8.4630     2.5560     0.0100     0.2850
 1783.5000   569.5440   -39.8020     7.8500     6.9990     6.7480   941.6740    99.5370     8.4670     2.5720     0.0150     0.2800
 1784.0000   569.6260   -39.9870     7.8350     6.9930     6.7420   941.4460    97.5900     8.4700     2.5920     0.0200     0.2830
 1784.5000   569.7070   -40.1670     7.8160     6.9130     6.6640   941.2180    97.9010     8.4740     2.5830     0.0160     0.2900
 1785.0000   569.7880   -40.3520     7.8200     6.8450     6.6000   940.9900    99.5630     8.4770     2.5550     0.0140     0.2970
 1785.5000   569.8700   -40.5340     7.7910     6.7780     6.5350   940.7610   101.1120     8.4810     2.5500     0.0100     0.2980
 1786.0000   569.9510   -40.7170     7.9620     6.7110     6.4700   940.5330   102.7310     8.4840     2.5500     0.0080     0.2940
 1786.5000   570.0320   -40.8990     7.9480     6.6440     6.4050   940.3050   103.6360     8.4880     2.5510     0.0100     0.2890
 1787.0000   570.1130   -41.0870     7.9480     6.5760     6.3400   940.0770   101.9500     8.4910     2.5500     0.0100     0.2840
 1787.5000   570.1950   -41.2620     7.6840     6.5090     6.2760   939.8490   101.1400     8.4940     2.5510     0.0160     0.2770
 1788.0000   570.2760   -41.4520     7.3560     6.4420     6.2110   939.6200   101.3800     8.4990     2.5580     0.0540     0.2850
 1788.5000   570.3570   -41.4030     7.0270     6.3750     6.1460   939.3920   102.7850     8.4940     2.5710     0.1450     0.2950
 1789.0000   570.4390   -41.3390     6.6980     6.3070     6.0810   939.1640   104.2190     8.4780     2.5640     0.2130     0.3040
 1789.5000   570.5200   -41.2610     6.5000     6.2670     6.0420   938.9360   103.5440     8.4630     2.4940     0.1920     0.3460
 1790.0000   570.6010   -41.1940     6.6550     6.2670     6.0420   938.7080   102.3950     8.4480     2.4500     0.1210     0.3400
 1790.5000   570.6820   -41.1290     6.9140     6.4310     6.2010   938.4790   101.2640     8.4320     2.4280     0.0400     0.3300
 1791.0000   570.7640   -40.9470     7.1720     6.5680     6.3330   938.2510   100.6060     8.4200     2.4750     0.0080     0.3200
 1791.5000   570.8450   -40.5000     7.4310     6.7060     6.4650   938.0230   102.6050     8.4200     2.5190     0.0060     0.3130
 1792.0000   570.9260   -40.0430     7.6890     6.8430     6.5970   937.7950   104.2010     8.4200     2.5500     0.0090     0.3110
 1792.5000   571.0070   -39.6140     7.9480     6.9800     6.7290   937.5670   106.2940     8.4200     2.5700     0.0140     0.3100
 1793.0000   571.0890   -39.1300     8.2430     7.1170     6.8610   937.3380   105.5570     8.4200     2.5710     0.0160     0.3070
 1793.5000   571.1700   -39.2780     8.2170     7.2540     6.9930   937.1100   103.0180     8.4200     2.5700     0.0110     0.2990
 1794.0000   571.2510   -39.4870     8.1960     7.2390     6.9800   936.8820   101.4290     8.4200     2.5680     0.0060     0.2950
 1794.5000   571.3330   -39.7190     8.1740     7.2160     6.9570   936.6540   103.6930     8.4200     2.5600     0.0160     0.2920
 1795.0000   571.4140   -39.9320     8.1520     7.1920     6.9340   936.4260   105.5620     8.4200     2.5610     0.0290     0.2950
