~VERSION INFORMATION
 VERS.                2.0:   CWLS LOG ASCII STANDARD - VERSION 2.0
 WRAP.                 NO:   ONE LINE PER DEPTH STEP
~WELL INFORMATION
#MNEM.UNIT      DATA TYPE    INFORMATION
#----------   ------------   ------------------------------
 STRT.F           11.5000:   START DEPTH
 STOP.F         1726.0000:   STOP DEPTH
 STEP.F            0.5000:   STEP LENGTH
 NULL.          -999.2500:   NO VALUE
 COMP. LAWRENCE ALLISON & ASSOC WEST:   COMPANY
 WELL. LAWRENCE NPR 3 "X" #51-26:   WELL
 FLD .                NPR:   FIELD
 LOC .      S26 T38N R78W:   LOCATION
 CNTY.            NATRONA:   COUNTY
 STAT.            WYOMING:   STATE
 CTRY. UNITED STATES OF AMERICA:   COUNTRY
 SRVC.      DRESSER ATLAS:   SERVICE COMPANY
 DATE.        13-AUG-1983:   LOGDATE
 API .     49025109270000:   API NUMBER
~CURVE INFORMATION
#MNEM.UNIT       API CODE    CURVE DESCRIPTION
#----------   ------------   ------------------------------
 DEPT.F                  :   
 CALD.IN     45 280 60 00:   CALIPER FROM DENSITY LOG
 RHOB.G/C3   45 350 01 00:   BULK DENSITY
 CORR.G/C3   45 356 01 00:   DENSITY CORRECTION
 TEND.LBS    45 635 01 00:   TENSION FROM DENSITY LOG
 GRR .GAPI   07 310 01 00:   GAMMA RAY FROM RESISTIVITY
 RILD.OHMM   07 120 46 00:   INDUCTION LOG DEEP RESISTIVITY
 RILM.OHMM   07 120 44 00:   INDUCTION LOG MEDIUM RESISTIVITY
 TENR.LBS    07 635 01 00:   TENSION
~PARAMETER INFORMATION
#MNEM.UNIT          VALUE    DESCRIPTION
#----------   ------------   ------------------------------
 EKB .F         5455.0000:   Kelly bushing
 EGL .F         5444.0000:   Ground level
 EDF .F            0.0000:   Drilling floor
 EPD .F         5444.0000:   Permanent datum
 TD  .F         1726.0000:   Total depth
 DATE.        13-AUG-1983:   Date logged
 CLNT.            A2DTECH:   Client Code
 PD  .                 GL:   Permanent Datum
 LMF .                 KB:   Log Measured From
 DMF .                 KB:   Drilling Measured From
 DAPD.F                11:   Feet Above Permanent Datum
 DD  .F              1726:   Depth driller
 DL  .F              1724:   Depth logger
 BLI .F              1718:   Bottom log interval
 CBD1.F                47:   Casing driller 1
 CBL1.F                48:   Casing logger 1
 BS1 .IN            12.25:   Bit size
 BSD1.F              1726:   Depth drilled with bit1
 DFT .           AIR/FOAM:   Type fluid in hole
 TCS .HRS               1:   Time Circ. stopped
 MRT .F                85:   Maximum recorded temp.
 LUN .               6270:   Logging unit number
 LUL .              WLSTN:   Logging unit location
 ENGI.            QUICKEL:   Recorded By
 WITN.           JENNINGS:   Witnessed by
 ORIG.           5" PRINT:   Origin of data
 UWI .     49025109270000:   Unique Well ID
 DICO. A2D TECHNOLOGIES, INC.:   Digitizing Company
~OTHER INFORMATION
~A   DEPT     CALD       RHOB       CORR       TEND         GRR      RILD       RILM       TENR   
# ...
 1024.0000    13.0900     2.4190     0.0440   -69.1850   119.8440     4.2430     4.1910   -70.6910
 1024.5000    13.0920     2.4180     0.0260   -69.0980   118.3230     4.3560     4.2730   -70.6540
 1025.0000    13.0930     2.4150     0.0260   -69.0100   116.7840     4.3560     4.3560   -70.6160
 1025.5000    13.0950     2.4110     0.0270   -68.9220   116.5120     4.3560     4.4390   -70.5790
 1026.0000    13.0970     2.4050     0.0210   -68.8340   117.3770     4.3560     4.5200   -70.5410
 1026.5000    13.0980     2.3940     0.0150   -68.7460   120.6800     4.2740     4.4370   -70.5030
 1027.0000    13.1000     2.3830     0.0100   -68.6580   123.7980     4.1570     4.2370   -70.4660
 1027.5000    13.1010     2.3710     0.0080   -68.5710   125.0290     3.9880     4.0440   -70.4280
 1028.0000    13.1030     2.3490     0.0050   -68.4830   125.5560     3.8010     3.8500   -70.3900
 1028.5000    13.1040     2.3190     0.0060   -68.3950   124.4280     3.5620     3.6560   -70.3530
 1029.0000    13.1060     2.2050     0.0160   -68.3070   119.5400     3.3230     3.4630   -70.3150
 1029.5000    13.1080     2.0800     0.0260   -68.2190   115.0020     3.0830     3.2690   -70.2770
 1030.0000    13.1370     2.0010     0.1410   -68.1320   115.4470     2.9630     3.0950   -70.2400
 1030.5000    13.1680     2.0010     0.2630   -68.0440   119.3090     2.8940     2.9710   -70.2020
 1031.0000    13.1980     2.0020     0.1650   -67.9560   124.4730     2.8180     2.8580   -70.1640
 1031.5000    13.2290     2.1260     0.0440   -67.8680   126.9900     2.7230     2.7450   -70.1270
 1032.0000    13.2440     2.2290    -0.0410   -67.7800   124.9970     2.6290     2.6330   -70.0890
 1032.5000    13.2390     2.2710     0.0590   -67.6930   121.0200     2.5340     2.5200   -70.0510
 1033.0000    13.2340     2.2210     0.2070   -67.6050   118.2790     2.4400     2.4070   -70.0140
 1033.5000    13.2290     2.1490     0.3180   -67.5170   120.9580     2.3450     2.2940   -69.9760
 1034.0000    13.1860     2.0760     0.4120   -67.4290   123.5530     2.2510     2.1820   -69.9380
 1034.5000    13.1290     1.9990     0.3940   -67.3410   124.2870     2.1560     2.0690   -69.9010
 1035.0000    13.0720     1.9990     0.3590   -67.2540   125.2620     2.0620     2.0230   -69.8630
 1035.5000    13.0500     1.9980     0.2550   -67.1660   127.5240     1.9680     2.0230   -69.8250
 1036.0000    13.0540     1.9980     0.1280   -67.0780   128.1180     2.1590     2.1600   -69.7880
 1036.5000    13.0590     2.0350     0.0020   -66.9900   124.0880     2.3490     2.3820   -69.7500
 1037.0000    13.0630     2.1880    -0.0270   -66.9020   119.4570     2.5380     2.6050   -69.7120
 1037.5000    13.0670     2.3400    -0.0250   -66.8150   115.4110     2.7280     2.8280   -69.6750
 1038.0000    13.0710     2.3730    -0.0160   -67.2590   114.0590     2.9170     3.0500   -69.6370
 1038.5000    13.0750     2.3790     0.0010   -69.1290   116.6810     3.1070     3.2730   -69.5990
 1039.0000    13.0800     2.3800     0.0050   -70.9990   119.3290     3.2960     3.3940   -69.5620
 1039.5000    13.0840     2.3800    -0.0030   -72.8680   121.9410     3.4260     3.3940   -69.5240
 1040.0000    13.0880     2.3850     0.0000   -74.7380   123.4260     3.3780     3.4260   -69.4860
 1040.5000    13.0920     2.3900     0.0120   -76.6080   124.7620     3.2280     3.1870   -69.4490
 1041.0000    13.0960     2.3930     0.0240   -78.4770   126.5820     3.0790     3.0030   -69.4110
 1041.5000    13.1010     2.3950     0.0470   -80.3470   127.9260     2.8980     2.8190   -69.3730
 1042.0000    13.1050     2.3640     0.0730   -80.0540   126.9580     2.7050     2.6350   -69.3360
 1042.5000    13.1360     2.3130     0.1130   -71.5360   126.4360     2.5110     2.4520   -69.2980
 1043.0000    13.2030     2.2650     0.1740   -63.0190   128.8460     2.3180     2.2680   -69.2600
 1043.5000    13.4340     2.1380     0.2360   -54.5010   131.3030     2.1240     2.0420   -69.2230
 1044.0000    13.7490     2.0160     0.2910   -53.2680   135.5450     1.9860     2.0800   -69.1850
 1044.5000    14.0630     2.0020     0.2340   -55.5910   142.0010     2.0340     2.1300   -69.1480
 1045.0000    14.2430     2.0020     0.1690   -57.9130   146.0080     2.1150     2.1790   -69.1100
 1045.5000    13.8990     2.0860     0.1030   -60.2360   141.2920     2.1970     2.3950   -69.0720
 1046.0000    13.5540     2.3440     0.0410   -60.2580   134.0320     2.3150     2.7190   -69.0350
 1046.5000    13.4100     2.4110     0.0670   -55.9990   126.6650     2.5630     3.0440   -68.9970
 1047.0000    13.4140     2.4130     0.1020   -51.7070   122.0000     2.8120     3.3690   -68.9590
 1047.5000    13.4190     2.4110     0.1180   -51.9430   120.5230     3.1960     3.6940   -68.9220
 1048.0000    13.4250     2.4080     0.1080   -52.3360   119.3960     3.6550     3.9840   -68.8840
 1048.5000    13.4300     2.4060     0.0940   -52.7300   117.2480     4.0830     4.1770   -68.8460
 1049.0000    13.4350     2.4070     0.0720   -53.1240   115.5590     4.2760     4.3700   -68.8090
 1049.5000    13.4410     2.4100     0.0460   -53.5180   116.8220     4.4560     4.5630   -68.7710
 1050.0000    13.4460     2.4430     0.0570   -53.9110   120.1600     4.6360     4.7550   -68.7330
 1050.5000    13.4520     2.4750     0.0790   -54.3050   123.8100     4.7880     4.9480   -68.6960
 1051.0000    13.4570     2.5040     0.0990   -54.6990   124.0120     4.9640     5.0980   -68.6580
 1051.5000    13.4620     2.5120     0.0980   -55.0930   124.1370     5.1410     5.2810   -68.6200
 1052.0000    13.4680     2.5220     0.0980   -55.4860   125.4010     5.3180     5.4640   -68.5830
 1052.5000    13.4730     2.5330     0.1030   -55.8800   127.0230     5.4950     5.6470   -68.5450
 1053.0000    13.4780     2.5430     0.1100   -56.2740   126.9670     5.6720     5.9080   -68.5070
 1053.5000    13.4840     2.5490     0.1160   -56.6670   125.6480     5.8540     5.9010   -68.4700
 1054.0000    13.4850     2.5510     0.1190   -57.0610   123.7660     5.8410     5.8890   -68.4320
 1054.5000    13.4860     2.5520     0.1180   -57.4550   122.3260     5.8210     5.8770   -68.3940
 1055.0000    13.4860     2.5530     0.1160   -57.8490   122.9830     5.8000     5.8650   -68.3570
 1055.5000    13.4870     2.5540     0.1220   -58.2420   121.9940     5.7790     5.8540   -68.3190
 1056.0000    13.4870     2.5550     0.1390   -58.6360   118.0110     5.7580     5.8300   -68.2810
 1056.5000    13.4880     2.5560     0.1550   -59.0300   114.6590     5.7360     5.8070   -68.2440
 1057.0000    13.4880     2.5520     0.1690   -59.4240   115.6590     5.6920     5.7840   -68.2060
 1057.5000    13.4890     2.5490     0.1760   -59.8170   119.1020     5.6490     5.7610   -68.1680
 1058.0000    13.4890     2.5450     0.1680   -60.2110   123.2570     5.6050     5.7380   -68.1310
 1058.5000    13.4890     2.5420     0.1530   -60.6050   126.9080     5.5620     5.7150   -68.0930
 1059.0000    13.4900     2.5420     0.1380   -60.9990   126.5950     5.5190     5.6920   -68.0550
 1059.5000    13.4900     2.5480     0.1200   -61.3920   125.5920     5.4750     5.6690   -68.0180
 1060.0000    13.4910     2.5530     0.1330   -61.7470   125.6170     5.4320     5.6450   -67.9800
 1060.5000    13.4910     2.5570     0.1610   -61.8960   126.6810     5.3870     5.6220   -67.9420
 1061.0000    13.4920     2.5510     0.1880   -62.0620   128.9260     5.3470     5.5990   -67.9050
 1061.5000    13.4920     2.5450     0.2090   -62.2280   132.0050     5.3050     5.5630   -67.8670
 1062.0000    13.4930     2.5390     0.1850   -62.3930   134.2790     5.2630     5.5170   -67.8290
 1062.5000    13.4930     2.5360     0.1600   -62.5590   132.5240     5.2210     5.4710   -67.7920
 1063.0000    13.4930     2.5410     0.1530   -62.7250   131.0220     5.1790     5.4250   -67.7540
 1063.5000    13.4940     2.5470     0.1720   -62.8900   135.8980     5.1370     5.3790   -67.7170
 1064.0000    13.4940     2.5430     0.1870   -63.0560   138.5900     5.0960     5.3330   -67.6790
