~VERSION INFORMATION
 VERS.                2.0:   CWLS LOG ASCII STANDARD - VERSION 2.0
 WRAP.                 NO:   ONE LINE PER DEPTH STEP
~WELL INFORMATION
#MNEM.UNIT      DATA TYPE    INFORMATION
#----------   ------------   ------------------------------
 STRT.F            0.0000:   START DEPTH
 STOP.F         1077.0000:   STOP DEPTH
 STEP.F            0.5000:   STEP LENGTH
 NULL.          -999.2500:   NO VALUE
 COMP.         JOHN BROWN:   COMPANY
 WELL.       JOHN X #66-2:   WELL
 FLD .                NPR:   FIELD
 LOC .       S2 T38N R78W:   LOCATION
 CNTY.            NATRONA:   COUNTY
 STAT.            WYOMING:   STATE
 CTRY. UNITED STATES OF AMERICA:   COUNTRY
 SRVC.     ATLAS WIRELINE:   SERVICE COMPANY
 DATE.        04-DEC-1991:   LOGDATE
 API .     49025224820000:   API NUMBER
~CURVE INFORMATION
#MNEM.UNIT       API CODE    CURVE DESCRIPTION
#----------   ------------   ------------------------------
 DEPT.F                  :   
 TENR.LBS    07 635 01 00:   TENSION
 RILD.OHMM   07 120 46 00:   INDUCTION LOG DEEP RESISTIVITY
 RILM.OHMM   07 120 44 00:   INDUCTION LOG MEDIUM RESISTIVITY
 GRR .GAPI   07 310 01 00:   GAMMA RAY FROM RESISTIVITY
~PARAMETER INFORMATION
#MNEM.UNIT          VALUE    DESCRIPTION
#----------   ------------   ------------------------------
 EKB .F         5189.0000:   Kelly bushing
 EGL .F         5179.0000:   Ground level
 EDF .F         5188.0000:   Drilling floor
 EPD .F         5179.0000:   Permanent datum
 TD  .F         1072.0000:   Total depth
 DATE.        04-DEC-1991:   Date logged
 CLNT.            A2DTECH:   Client Code
 SL  . 1893' FSL & 1937' FEL:   Surface Location
 PD  .                 GL:   Permanent Datum
 LMF .                 KB:   Log Measured From
 DMF .                 KB:   Drilling Measured From
 DAPD.F                10:   Feet Above Permanent Datum
 DD  .F              1072:   Depth driller
 DL  .F              1073:   Depth logger
 BLI .F              1071:   Bottom log interval
 CS1 .IN            9.625:   Casing size
 CBD1.       9.625" @ 40':   Casing driller 1
 CBL1.F                50:   Casing logger 1
 BS1 .IN            7.875:   Bit size
 BSD1.F              1072:   Depth drilled with bit1
 DFT .                AIR:   Type fluid in hole
 LUN .            HL 6387:   Logging unit number
 LUL .             CASPER:   Logging unit location
 WITN.        GARY STRONG:   Witnessed by
 ORIG.         2.5" PRINT:   Origin of data
 UWI .     49025224820000:   Unique Well ID
 DICO. A2D TECHNOLOGIES, INC.:   Digitizing Company
~OTHER INFORMATION
~A    DEPT    TENR       RILD       RILM         GRR  
# ...
  438.0000   -59.5780     3.2950     3.6860   121.5990
  438.5000   -59.5320     2.8130     2.4640   129.1530
  439.0000   -59.4870     2.5510     2.4850   138.4520
  439.5000   -59.4410     2.3700     2.5180   151.5060
  440.0000   -59.3960     2.3770     2.5550   160.4890
  440.5000   -59.3500     2.5380     2.7100   153.8460
  441.0000   -59.3050     2.7480     2.9000   147.6750
  441.5000   -59.2590     3.0720     3.8870   143.3860
  442.0000   -59.2140     3.3950     4.9680   141.3890
  442.5000   -59.1680     4.3110     6.0490   132.5080
  443.0000   -59.1220     5.7100     7.1300   119.9660
  443.5000   -59.0770     7.1080     8.2100   106.8840
  444.0000   -59.0310     8.5070     9.2910   103.9290
  444.5000   -58.9860     9.6470    10.1330   104.7910
  445.0000   -58.9400     9.8740    10.1330   106.2750
  445.5000   -58.8950    10.1330    10.1330   107.1570
  446.0000   -58.8490     9.4270    10.1330   107.8610
  446.5000   -58.8040     8.6050     9.1900   108.7200
  447.0000   -58.7580     7.7820     8.3080   108.6820
  447.5000   -58.7130     6.9600     7.4270   108.2080
  448.0000   -58.6670     6.1370     6.5460   113.5390
  448.5000   -58.6220     5.2760     5.2760   122.9710
  449.0000   -58.5760     5.3020     5.3710   131.8850
  449.5000   -58.5310     5.3290     5.5420   134.6600
  450.0000   -58.4850     5.3560     5.7120   127.5060
  450.5000   -58.4400     5.6390     5.8820   116.0080
  451.0000   -58.3940     6.3020     6.8630   110.6620
  451.5000   -58.3490     6.9640     7.8410   109.3390
  452.0000   -58.3030     7.6270     8.7490   108.5590
  452.5000   -58.2580     8.2900     9.4050   106.4210
  453.0000   -58.2120     8.9530    10.0620   106.4450
  453.5000   -58.1670     9.5970    10.7000   107.7640
  454.0000   -58.1210     9.9480    10.5080   111.7730
  454.5000   -58.0760    10.2910    10.9020   111.1890
  455.0000   -58.0300    10.6330    11.1440   109.1600
  455.5000   -57.9850    10.9750    11.3860   108.3280
  456.0000   -57.9390    11.3170    11.6290   111.2790
  456.5000   -57.8940    11.5420    11.8710   113.5280
  457.0000   -57.8480    11.6250    12.1480   113.5650
  457.5000   -57.8030    11.7080    12.1730   111.8230
  458.0000   -57.7570    11.7910    12.2020   107.1440
  458.5000   -57.7110    11.8740    12.2320   103.9210
  459.0000   -57.6660    11.9570    12.2610   107.2280
  459.5000   -57.6200    12.0400    12.2900   111.7340
  460.0000   -57.5750    12.1230    12.3200   109.4650
  460.5000   -57.5290    12.2060    12.3490   107.4060
  461.0000   -57.4840    12.2890    12.4100   105.3080
  461.5000   -57.4380    12.3720    12.5500   106.1500
  462.0000   -57.3930    12.4550    12.6900   112.4170
  462.5000   -57.3470    12.5380    12.8300   118.5510
  463.0000   -57.3020    12.5960    12.9700   120.0570
  463.5000   -57.2560    12.8000    13.1100   118.5420
  464.0000   -57.2110    13.0250    13.2500   113.1850
  464.5000   -57.1650    13.2500    13.3900   113.0490
  465.0000   -57.1200    13.4750    13.5310   115.1290
  465.5000   -57.0740    13.7000    13.6710   118.0710
  466.0000   -57.0290    13.9250    13.8110   120.6870
  466.5000   -56.9830    14.1510    13.9510   122.4640
  467.0000   -56.9380    14.3760    14.1630   124.1690
  467.5000   -56.8920    14.6010    14.5180   125.3030
  468.0000   -56.8470    14.8260    14.8740   121.7350
  468.5000   -56.8010    15.0510    15.2290   115.4670
  469.0000   -56.7560    15.2760    15.5840   109.1810
  469.5000   -56.7100    15.6130    15.9400   108.0360
  470.0000   -56.6650    16.0390    16.2950   109.4610
  470.5000   -56.6190    16.4650    16.6500   109.5460
  471.0000   -56.5740    16.8910    17.0060   109.1490
  471.5000   -56.5280    17.3170    17.3610   110.9840
  472.0000   -56.4830    17.7440    17.7170   114.2440
  472.5000   -56.4370    18.4330    18.0720   117.8090
  473.0000   -56.3920    18.3810    18.4330   118.6280
  473.5000   -56.3460    18.2450    18.3450   117.1880
  474.0000   -56.3000    18.1080    18.2550   115.8540
  474.5000   -56.2550    17.9720    18.1650   115.8080
  475.0000   -56.2090    17.8360    18.0750   117.5180
  475.5000   -56.1640    17.7000    17.9850   119.0900
  476.0000   -56.1180    17.5630    17.8950   118.1560
  476.5000   -56.0730    17.4270    17.8050   113.0600
  477.0000   -56.0270    17.2910    17.7150   110.2380
  477.5000   -55.9820    17.1550    17.6250   111.8730
  478.0000   -55.9360    17.0180    17.5350   126.5740
  478.5000   -55.8910    16.8820    17.4460   128.8400
  479.0000   -55.8450    16.7460    17.3560   127.1640
  479.5000   -55.8000    16.6100    17.2660   122.1580
  480.0000   -55.7540    16.5330    17.1440   118.2940
  480.5000   -55.7090    16.6390    17.1860   114.5840
  481.0000   -55.6630    16.7410    17.2510   113.7390
  481.5000   -55.6180    16.8440    17.3170   113.1010
  482.0000   -55.5720    16.9460    17.3820   112.3540
  482.5000   -55.5270    17.0480    17.4570   113.0180
  483.0000   -55.4810    17.1440    16.5810   115.1060
  483.5000   -55.4360    16.1520    15.5620   117.2380
  484.0000   -55.3900    15.1630    14.5430   118.4420
  484.5000   -55.3450    14.1120    13.5250   118.3760
  485.0000   -55.2990    13.0600    12.5060   118.5610
  485.5000   -55.2540    12.0080    11.4880   122.2510
  486.0000   -55.2080    10.9570    10.4690   127.0920
  486.5000   -55.1630     9.9050     9.4500   133.4500
  487.0000   -55.1170     8.8540     8.4320   139.9290
  487.5000   -55.0720     7.8020     7.3120   146.2420
  488.0000   -55.0260     6.7500     7.2020   152.5730
  488.5000   -54.9800     6.3250     7.0510   153.0970
  489.0000   -54.9350     6.2330     6.8290   152.2590
  489.5000   -54.8890     6.1320     6.6400   151.8820
  490.0000   -54.8440     6.0310     6.4520   146.7190
  490.5000   -54.7980     5.8820     6.3120   137.5940
  491.0000   -54.7530     6.0050     6.2710   132.8010
  491.5000   -54.7070     6.2380     6.2310   134.8670
  492.0000   -54.6620     6.5580     6.1900   139.6680
  492.5000   -54.6160     6.5190     6.1500   141.9630
  493.0000   -54.5710     6.4040     5.9900   139.6730
  493.5000   -54.5250     6.2890     6.0160   137.2780
  494.0000   -54.4800     6.0990     6.0910   137.7910
  494.5000   -54.4340     6.1230     6.1660   141.4020
  495.0000   -54.3890     6.1910     6.2410   144.7660
  495.5000   -54.3430     6.2590     6.3160   145.3790
  496.0000   -54.2980     6.3270     6.3910   144.7980
  496.5000   -54.2520     6.3940     6.4660   142.9720
  497.0000   -54.2070     6.4620     6.5420   141.2720
  497.5000   -54.1610     6.5580     6.6170   139.6810
  498.0000   -54.1160     6.5310     6.6780   138.4440
  498.5000   -54.0700     6.4850     6.6020   137.2060
  499.0000   -54.0250     6.4390     6.5380   135.8630
  499.5000   -53.9790     6.3930     6.4730   138.2110
  500.0000   -53.9340     6.3470     6.4090   141.5280
  500.5000   -53.8880     6.3010     6.3450   144.6220
  501.0000   -53.8430     6.2550     6.2800   142.5760
  501.5000   -53.7970     6.2110     6.2160   140.3740
  502.0000   -53.7520     6.2110     6.1520   138.7520
  502.5000   -53.7060     6.2110     6.0880   139.3300
  503.0000   -53.6610     6.2110     6.0230   140.2280
  503.5000   -53.6150     6.2110     5.9900   141.7360
  504.0000   -53.5690     6.2110     6.0110   145.0670
  504.5000   -53.5240     6.2690     6.0310   140.6160
  505.0000   -53.4780     6.3340     6.0510   135.7220
  505.5000   -53.4330     6.3990     6.0710   135.8020
  506.0000   -53.3870     6.4640     6.0900   138.1780
  506.5000   -53.3420     6.5280     6.1380   140.4810
  507.0000   -53.2960     6.5930     6.2070   140.7360
  507.5000   -53.2510     6.6580     6.2770   140.2620
  508.0000   -53.2050     6.7230     6.3470   139.3560
  508.5000   -53.1600     6.8000     6.4170   136.5960
  509.0000   -53.1140     6.8390     6.4860   132.1560
  509.5000   -53.0690     6.8870     6.5560   131.6260
  510.0000   -53.0230     6.9350     6.6260   133.5080
  510.5000   -52.9780     6.9830     6.6900   134.9500
