~VERSION INFORMATION
 VERS.                2.0:   CWLS LOG ASCII STANDARD - VERSION 2.0
 WRAP.                 NO:   ONE LINE PER DEPTH STEP
~WELL INFORMATION
#MNEM.UNIT      DATA TYPE    INFORMATION
#----------   ------------   ------------------------------
 STRT.F            0.0000:   START DEPTH
 STOP.F         3358.0000:   STOP DEPTH
 STEP.F            0.5000:   STEP LENGTH
 NULL.          -999.2500:   NO VALUE
 COMP. LAWRENCE ALLISON & ASSOC.:   COMPANY
 WELL. LAWRENCE NPR 3 "X" #14-11:   WELL
 FLD .                NPR:   FIELD
 LOC .      S11 T38N R78W:   LOCATION
 CNTY.            NATRONA:   COUNTY
 STAT.            WYOMING:   STATE
 CTRY. UNITED STATES OF AMERICA:   COUNTRY
 SRVC.      DRESSER ATLAS:   SERVICE COMPANY
 DATE.        25-SEP-1985:   LOGDATE
 API .     49025110470000:   API NUMBER
~CURVE INFORMATION
#MNEM.UNIT       API CODE    CURVE DESCRIPTION
#----------   ------------   ------------------------------
 DEPT.F                  :   
 TENR.LBS    07 635 01 00:   TENSION
 SPR .MV     07 010 01 00:   SPONTANEOUS POTENTIAL
 SFL .OHMM   07 220 01 00:   SHALLOW FOCUSED LOG RESISTIVITY
 ILD .OHMM   07 120 46 00:   DEEP INDUCTION RESISTIVITY
 ILM .OHMM   07 120 44 00:   INDUCTION LOG MEDIUM RESISTIVITY
 TENS.LBS    60 635 01 00:   TENSION FROM SONIC LOG
 DT  .US/F   60 520 00 00:   DELTA TIME
 TEND.LBS    45 635 01 00:   TENSION FROM DENSITY LOG
 RHOB.G/C3   45 350 01 00:   BULK DENSITY
 CORR.G/C3   45 356 01 00:   DENSITY CORRECTION
 NPHI.DEC    42 890 01 00:   NEUTRON POROSITY LIMESTONE
 GRR .GAPI   07 310 01 00:   GAMMA RAY FROM RESISTIVITY
~PARAMETER INFORMATION
#MNEM.UNIT          VALUE    DESCRIPTION
#----------   ------------   ------------------------------
 EKB .F         5184.0000:   Kelly bushing
 EGL .F         5173.0000:   Ground level
 EDF .F            0.0000:   Drilling floor
 TD  .F         3353.0000:   Total depth
 DATE.        25-SEP-1985:   Date logged
 CLNT.            A2DTECH:   Client Code
 SL  . 473' FWL & 2360' FNL:   Surface Location
 PD  .                 GL:   Permanent Datum
 EPD .F              5173:   Elevation Permanent Datum
 LMF .                 KB:   Log Measured From
 DMF .                 KB:   Drilling Measured From
 DAPD.F                11:   Feet Above Permanent Datum
 DD  .F              3353:   Depth driller
 DL  .F              3346:   Depth logger
 BLI .F              3344:   Bottom log interval
 CS1 .IN            8.625:   Casing size
 CBD1.      8.625" @ 586':   Casing driller 1
 CBL1.F               585:   Casing logger 1
 BS1 .IN            7.875:   Bit size
 BSD1.F              3353:   Depth drilled with bit1
 DFT .     GEL/KCL/STAFLO:   Type fluid in hole
 DFD .                8.9:   Density
 DFV .                 39:   Viscosity
 DFPH.                  8:   pH
 DFL .                8.9:   Fluid loss
 MSS .           FLOWLINE:   Source of sample
 RMS .OHMM            .45:   Rm
 MST .F                80:   Rm Meas. temp.
 RMF .OHMM            .33:   Rmf
 MFST.F                80:   Rmf Meas. temp.
 RMC .OHMM            .56:   Rmc
 MCST.F                80:   Rmc Meas. temp.
 MFSS.               CALC:   Source Rmf.
 MCSS.               CALC:   Source Rmc.
 RMB .OHMM            .27:   Rm. at BHT
 BHT .F               130:   BHT.
 TCS .HRS               3:   Time Circ. stopped
 MRT .F               135:   Maximum recorded temp.
 LUN .               6274:   Logging unit number
 LUL .               GLTE:   Logging unit location
 ENGI.               MACK:   Recorded By
 WITN.             STRONG:   Witnessed by
 ORIG.           5" PRINT:   Origin of data
 UWI .     49025110470000:   Unique Well ID
 DICO. A2D TECHNOLOGIES, INC.:   Digitizing Company
~OTHER INFORMATION
~A    DEPT    TENR        SPR        SFL        ILD        ILM       TENS         DT       TEND       RHOB       CORR       NPHI         GRR  
# ...
 2044.0000   -87.1330   -57.9230     8.5560     7.2640     7.1320  -999.2500  -999.2500  -999.2500  -999.2500  -999.2500  -999.2500    65.6130
 2044.5000   -87.3110   -58.2540     8.6140     7.2830     7.1510  -999.2500  -999.2500  -999.2500  -999.2500  -999.2500  -999.2500    64.7760
 2045.0000   -87.4880   -58.5830     8.6140     7.3010     7.1690  -999.2500  -999.2500  -999.2500  -999.2500  -999.2500  -999.2500    64.0980
 2045.5000   -87.6660   -58.9000     8.6140     7.3420     7.2080  -999.2500  -999.2500  -999.2500  -999.2500  -999.2500  -999.2500    63.3290
 2046.0000   -87.8440   -58.9240     8.7740     7.4410     7.3060  -999.2500  -999.2500  -999.2500  -999.2500  -999.2500  -999.2500    63.3170
 2046.5000   -88.0220   -58.7770     8.9100     7.5410     7.4040  -999.2500  -999.2500  -999.2500  -999.2500  -999.2500  -999.2500    63.2580
 2047.0000   -88.2000   -58.5700     9.0880     7.6400     7.5020  -999.2500  -999.2500  -999.2500  -999.2500  -999.2500  -999.2500    63.2860
 2047.5000   -88.3770   -58.3910     9.2690     7.7400     7.5990  -999.2500  -999.2500  -999.2500  -999.2500  -999.2500  -999.2500    61.9730
 2048.0000   -88.5550   -58.0750     9.2690     7.8610     7.7180  -999.2500  -999.2500  -999.2500  -999.2500  -999.2500  -999.2500    60.2750
 2048.5000   -88.7330   -57.6950     9.2690     8.0060     7.8610  -999.2500  -999.2500  -999.2500  -999.2500  -999.2500  -999.2500    58.6820
 2049.0000   -88.9110   -57.8230     9.3300     7.8480     7.7060  -999.2500  -999.2500  -999.2500  -999.2500  -999.2500  -999.2500    59.1190
 2049.5000   -89.0890   -57.9310     9.3910     7.6890     7.5490  -999.2500  -999.2500  -999.2500  -999.2500  -999.2500  -999.2500    59.6610
 2050.0000   -89.2660   -58.0640     9.5280     7.5290     7.3920  -999.2500  -999.2500  -999.2500  -999.2500  -999.2500  -999.2500    60.1000
 2050.5000   -89.4440   -58.1840     9.3220     7.3690     7.2360  -999.2500  -999.2500  -999.2500  -999.2500  -999.2500  -999.2500    59.8100
 2051.0000   -89.6220   -58.3100     8.9560     7.3060     7.1730  -999.2500  -999.2500  -999.2500  -999.2500  -999.2500  -999.2500    59.5700
 2051.5000   -89.8000   -58.4340     8.5910     7.2790     7.1470  -999.2500  -999.2500  -999.2500  -999.2500  -999.2500  -999.2500    59.3710
 2052.0000   -89.9780   -58.5240     8.2250     7.2130     7.0820  -999.2500  -999.2500  -999.2500  -999.2500  -999.2500  -999.2500    59.8170
 2052.5000   -90.1550   -58.4090     8.0060     7.1730     7.0430  -999.2500  -999.2500  -999.2500  -999.2500  -999.2500  -999.2500    63.1020
 2053.0000   -90.3330   -58.2600     8.2970     7.1730     7.0430  -999.2500  -999.2500  -999.2500  -999.2500  -999.2500  -999.2500    66.8010
 2053.5000   -90.5110   -58.1100     8.5870     7.1660     7.0360  -999.2500  -999.2500  -999.2500  -999.2500  -999.2500  -999.2500    65.4460
 2054.0000   -90.6890   -57.9620     8.9360     7.1520     7.0220  -999.2500  -999.2500  -999.2500  -999.2500  -999.2500  -999.2500    61.9900
 2054.5000   -90.8670   -57.8140     8.9030     7.1370     7.0070  -999.2500  -999.2500  -999.2500  -999.2500  -999.2500  -999.2500    58.5460
 2055.0000   -91.0440   -57.6610     8.8220     7.1220     6.9930  -999.2500  -999.2500  -999.2500  -999.2500  -999.2500  -999.2500    57.2820
 2055.5000   -91.2220   -57.5210     8.7740     7.1070     6.9780  -999.2500  -999.2500  -999.2500  -999.2500  -999.2500  -999.2500    58.5410
 2056.0000   -91.4000   -57.3510     8.6140     7.0920     6.9630  -999.2500  -999.2500  -999.2500  -999.2500  -999.2500  -999.2500    59.6150
 2056.5000   -91.5780   -57.4230     8.5690     7.0770     6.9490  -999.2500  -999.2500  -999.2500  -999.2500  -999.2500  -999.2500    59.4950
 2057.0000   -91.7560   -57.6200     8.5130     7.0620     6.9340  -999.2500  -999.2500  -999.2500  -999.2500  -999.2500  -999.2500    56.3490
 2057.5000   -91.9330   -57.8080     8.4570     7.0470     6.9190  -999.2500  -999.2500  -999.2500  -999.2500  -999.2500  -999.2500    53.4310
 2058.0000   -92.1110   -57.9960     8.4000     7.0320     6.9040  -999.2500  -999.2500  -999.2500  -999.2500  -999.2500  -999.2500    51.5570
 2058.5000   -92.2890   -58.1870     8.3440     7.0170     6.8900  -999.2500  -999.2500  -999.2500  -999.2500  -999.2500  -999.2500    52.3290
 2059.0000   -92.4670   -58.3730     8.2880     7.0020     6.8750  -999.2500  -999.2500  -999.2500  -999.2500  -999.2500  -999.2500    54.6940
 2059.5000   -92.6450   -58.5650     8.2310     6.9870     6.8600  -999.2500  -999.2500  -999.2500  -999.2500  -999.2500  -999.2500    56.8110
 2060.0000   -92.8220   -58.7520     8.1750     6.9720     6.8450  -999.2500  -999.2500  -999.2500  -999.2500  -999.2500  -999.2500    59.1310
 2060.5000   -93.0000   -58.9190     8.1190     6.9570     6.8300  -999.2500  -999.2500  -999.2500  -999.2500  -999.2500  -999.2500    60.0650
 2061.0000   -93.1780   -58.9240     8.0620     6.9420     6.8160  -999.2500  -999.2500  -999.2500  -999.2500  -999.2500  -999.2500    60.1760
 2061.5000   -93.3560   -58.9100     8.0060     6.9270     6.8010  -999.2500  -999.2500  -999.2500  -999.2500  -999.2500  -999.2500    58.2990
 2062.0000   -93.5340   -58.6940     8.0960     6.9150     6.7900  -999.2500  -999.2500  -999.2500  -999.2500  -999.2500  -999.2500    56.4220
 2062.5000   -93.7110   -58.4920     8.2450     6.7810     6.6580  -999.2500  -999.2500  -999.2500  -999.2500  -999.2500  -999.2500    54.1680
 2063.0000   -93.8890   -58.2800     8.6030     6.6130     6.4930  -999.2500  -999.2500  -999.2500  -999.2500  -999.2500  -999.2500    53.0340
 2063.5000   -94.0670   -58.0710     9.1010     6.4450     6.3280  -999.2500  -999.2500  -999.2500  -999.2500  -999.2500  -999.2500    53.8710
 2064.0000   -94.2450   -57.8650     8.2650     6.3100     6.1960  -999.2500  -999.2500  -999.2500  -999.2500  -999.2500  -999.2500    54.0700
 2064.5000   -94.4230   -57.6540     7.4300     6.3100     6.1960  -999.2500  -999.2500  -999.2500  -999.2500  -999.2500  -999.2500    53.9150
 2065.0000   -94.6000   -57.4370     6.4270     6.5300     6.4110  -999.2500  -999.2500  -999.2500  -999.2500  -999.2500  -999.2500    55.3770
 2065.5000   -94.7780   -57.3720     6.4270     6.8960     6.7710  -999.2500  -999.2500  -999.2500  -999.2500  -999.2500  -999.2500    56.3890
 2066.0000   -94.9560   -57.8000     7.8480     7.2630     7.1310  -999.2500  -999.2500  -999.2500  -999.2500  -999.2500  -999.2500    55.4190
 2066.5000   -95.1340   -58.1830     9.2690     7.6290     7.4900  -999.2500  -999.2500  -999.2500  -999.2500  -999.2500  -999.2500    54.6030
 2067.0000   -95.3120   -58.5880     9.4020     7.9950     7.8500  -999.2500  -999.2500  -999.2500  -999.2500  -999.2500  -999.2500    54.8160
 2067.5000   -95.4890   -58.9830     9.6240     8.3620     8.2100  -999.2500  -999.2500  -999.2500  -999.2500  -999.2500  -999.2500    55.5000
 2068.0000   -95.6670   -59.3830     9.8470     8.7280     8.5700  -999.2500  -999.2500  -999.2500  -999.2500  -999.2500  -999.2500    56.5430
 2068.5000   -95.8450   -59.7050    10.0690     9.0940     8.9290  -999.2500  -999.2500  -999.2500  -999.2500  -999.2500  -999.2500    58.7930
 2069.0000   -96.0230   -59.5950    10.3080     9.4610     9.2890  -999.2500  -999.2500  -999.2500  -999.2500  -999.2500  -999.2500    61.1630
 2069.5000   -96.2010   -59.4330    10.5580     9.8270     9.6490  -999.2500  -999.2500  -999.2500  -999.2500  -999.2500  -999.2500    62.0010
 2070.0000   -96.3780   -59.2610    10.8090     9.9990     9.8170  -999.2500  -999.2500  -999.2500  -999.2500  -999.2500  -999.2500    61.5050
 2070.5000   -96.5560   -59.1010    11.0590    10.0400     9.8580  -999.2500  -999.2500  -999.2500  -999.2500  -999.2500  -999.2500    61.1800
 2071.0000   -96.7340   -58.9400    11.3090    10.0820     9.8990  -999.2500  -999.2500  -999.2500  -999.2500  -999.2500  -999.2500    60.7970
 2071.5000   -96.9120   -58.9350    11.5600    10.1240     9.9400  -999.2500  -999.2500  -999.2500  -999.2500  -999.2500  -999.2500    60.6820
