~VERSION INFORMATION
 VERS.                2.0:   CWLS LOG ASCII STANDARD - VERSION 2.0
 WRAP.                 NO:   ONE LINE PER DEPTH STEP
~WELL INFORMATION
#MNEM.UNIT      DATA TYPE    INFORMATION
#----------   ------------   ------------------------------
 STRT.F          196.5000:   START DEPTH
 STOP.F         2376.0000:   STOP DEPTH
 STEP.F            0.5000:   STEP LENGTH
 NULL.          -999.2500:   NO VALUE
 COMP.    FENIX & SCISSON:   COMPANY
 WELL. FENIX & SCISSON NPR-3 #55-10:   WELL
 FLD .  TEAPOT DOME NPR-3:   FIELD
 LOC .      S10 T38N R78W:   LOCATION
 CNTY.            NATRONA:   COUNTY
 STAT.            WYOMING:   STATE
 CTRY. UNITED STATES OF AMERICA:   COUNTRY
 SRVC.           BIRDWELL:   SERVICE COMPANY
 DATE.        09-MAY-1979:   LOGDATE
 API .     49025107780000:   API NUMBER
~CURVE INFORMATION
#MNEM.UNIT       API CODE    CURVE DESCRIPTION
#----------   ------------   ------------------------------
 DEPT.F                  :   
 CALD.IN     45 280 60 00:   CALIPER FROM DENSITY LOG
 GRD .GAPI   45 310 01 00:   GAMMA RAY FROM DENSITY LOG
 RHOB.G/C3   45 350 01 00:   BULK DENSITY
 CORR.G/C3   45 356 01 00:   DENSITY CORRECTION
~PARAMETER INFORMATION
#MNEM.UNIT          VALUE    DESCRIPTION
#----------   ------------   ------------------------------
 EKB .F         5203.0000:   Kelly bushing
 EGL .F         5193.0000:   Ground level
 EDF .F            0.0000:   Drilling floor
 TD  .F         2376.0000:   Total depth
 CLNT.            A2DTECH:   Client Code
 SL  . 2283' FSL & 2107' FEL:   Surface Location
 PD  .                 GL:   Permanent Datum
 EPD .F              5193:   Elevation Permanent Datum
 LMF .                 KB:   Log Measured From
 DMF .                 KB:   Drilling Measured From
 DAPD.F                10:   Feet Above Permanent Datum
 DATE.        09-MAY-1979:   Date Logged [DD-MMM-YYYY]
 DD  .F              2360:   Depth driller
 DL  .F              2376:   Depth logger
 BLI .F              2376:   Bottom log interval
 TLI .F               196:   Top log interval
 CS1 .IN            9.625:   Casing size
 CBD1.             9.625":   Casing driller 1
 CBL1.F               545:   Casing logger 1
 BS1 .IN             8.75:   Bit size
 BSD1.F              2360:   Depth drilled with bit1
 DFT .                AIR:   Type fluid in hole
 TCS .HRS               3:   Time Circ. stopped
 LUN .               2959:   Logging unit number
 LUL .             CASPER:   Logging unit location
 ENGI.         B. ROLLINS:   Recorded By
 WITN.             RHODES:   Witnessed by
 ORIG.           5" PRINT:   Origin of data
 UWI .     49025107780000:   Unique Well ID
 DICO. A2D TECHNIOLOGIES,INC.:   Digitizing Company
~OTHER INFORMATION
~A  DEPTH     CALD        GRD       RHOB       CORR
# ...
 1364.5000     9.0296   130.8820     2.5051    -0.0005
 1365.0000     9.0302   131.7958     2.5043     0.0010
 1365.5000     9.0308   131.5030     2.5066     0.0027
 1366.0000     9.0314   130.9085     2.5149     0.0116
 1366.5000     9.0168   130.3140     2.5150     0.0176
 1367.0000     9.0024   127.4571     2.5049     0.0191
 1367.5000     9.0030   124.6002     2.5020     0.0131
 1368.0000     9.0036   124.1125     2.5103     0.0040
 1368.5000     9.0042   116.6261     2.5088     0.0055
 1369.0000     9.0048   118.5957     2.5065     0.0221
 1369.5000     8.9903   119.9620     2.5133     0.0357
 1370.0000     8.9910   122.0825     2.5277     0.0417
 1370.5000     8.9916   126.3145     2.5376     0.0492
 1371.0000     8.9922   128.2842     2.5421     0.0553
 1371.5000     8.9928   127.9909     2.5360     0.0598
 1372.0000     8.9934   127.2460     2.5247     0.0492
 1372.5000     8.9940   125.2864     2.5163     0.0357
 1373.0000     8.9946   123.2742     2.5108     0.0281
 1373.5000     8.9952   121.3924     2.5080     0.0296
 1374.0000     8.9958   119.5913     2.5451     0.0523
 1374.5000     9.0115   118.5443     2.5716     0.0734
 1375.0000     8.9970   118.7040     2.5852     0.0915
 1375.5000     8.9825   120.6736     2.5936     0.1020
 1376.0000     8.9832   124.6040     2.5754     0.1080
 1376.5000     8.9838   127.1769     2.5534     0.0990
 1377.0000     8.9844   127.6891     2.5443     0.0899
 1377.5000     8.9697   124.3288     2.5428     0.0854
 1378.0000     8.9705   121.8884     2.5390     0.0854
 1378.5000     8.9862   119.7689     2.5444     0.0839
 1379.0000     8.9868   120.8885     2.5480     0.0764
 1379.5000     8.9873   125.1206     2.5458     0.0626
 1380.0000     9.0030   123.4703     2.5329     0.0417
 1380.5000     9.0036   120.7642     2.5185     0.0296
 1381.0000     9.0042   121.0747     2.5033     0.0161
 1381.5000     9.0049   122.8934     2.4972     0.0025
 1382.0000     8.9902   124.7122     2.4919    -0.0111
 1382.5000     8.9758   126.3802     2.4874    -0.0231
 1383.0000     8.9916   126.9925     2.4874    -0.0322
 1383.5000     9.0073   126.3550     2.4936    -0.0184
 1384.0000     9.0078   127.6156     2.5136     0.0075
 1384.5000     9.0235   128.2255     2.5267     0.0236
 1385.0000     9.0392   124.1641     2.5260     0.0281
 1385.5000     9.0550   125.9829     2.5139     0.0266
 1386.0000     9.0556   126.8945     2.5032     0.0251
 1386.5000     9.0562   124.1907     2.5138     0.0236
 1387.0000     9.0568   121.9370     2.5260     0.0236
 1387.5000     9.0574   120.4376     2.5350     0.0342
 1388.0000     9.0580   120.2956     2.5418     0.0462
 1388.5000     9.0586   121.8130     2.5494     0.0613
 1389.0000     9.0592   121.3691     2.5509     0.0523
 1389.5000     9.0597   121.6818     2.5438     0.0432
 1390.0000     9.0603   123.8022     2.5350     0.0435
 1390.5000     9.0446   128.0343     2.5320     0.0680
 1391.0000     9.0313   131.0597     2.5312     0.0960
 1391.5000     9.0169   128.3536     2.5350     0.1035
 1392.0000     9.0024   125.1950     2.5569     0.1080
 1392.5000     8.9880   125.3547     2.5812     0.1111
 1393.0000     8.9734   128.3801     2.5948     0.1126
 1393.5000     8.9741   131.3014     2.5872     0.1111
 1394.0000     8.9896   129.6052     2.5622     0.1005
 1394.5000     8.9601   125.9941     2.5485     0.0658
 1395.0000     8.9457   124.9318     2.5330     0.0357
 1395.5000     8.9463   123.5400     2.5198     0.0342
 1396.0000     8.9469   123.1549     2.5069     0.0294
 1396.5000     8.9626   123.1659     2.5160    -0.0005
 1397.0000     8.9632   121.3648     2.5326     0.0176
 1397.5000     8.9639   120.0162     2.5478     0.0342
 1398.0000     8.9645   121.8349     2.5432     0.0296
 1398.5000     8.9802   123.1990     2.5303     0.0131
 1399.0000     9.0109   120.3443     2.5349     0.0055
 1399.5000     9.0266   118.4532     2.5485     0.0236
 1400.0000     9.0423   124.2065     2.5583     0.0492
 1400.5000     9.0429   128.7495     2.5579     0.0568
 1401.0000     9.0421   130.2669     2.5417     0.0417
 1401.5000     9.0396   130.7241     2.5106     0.0281
 1402.0000     9.0372   128.7629     2.4954     0.0116
 1402.5000     9.0347   128.4637     2.5098     0.0070
 1403.0000     9.0323   129.2257     2.5174     0.0165
 1403.5000     9.0298   130.4405     2.5234     0.0251
 1404.0000     9.0289   128.6295     2.5265     0.0191
 1404.5000     9.0292   121.2210     2.5272     0.0116
 1405.0000     9.0294   121.3767     2.5196     0.0070
 1405.5000     9.0297   123.6686     2.5113     0.0116
 1406.0000     9.0299   125.9667     2.5147     0.0221
 1406.5000     9.0603   124.5379     2.5372     0.0402
 1407.0000     9.0756   120.3367     2.5529     0.0523
 1407.5000     9.0909   119.1309     2.5537     0.0630
 1408.0000     9.1062   122.7662     2.5461     0.0540
 1408.5000     9.1215   123.0733     2.5423     0.0495
 1409.0000     9.1217   123.3803     2.5506     0.0525
 1409.5000     9.1219   124.2925     2.5650     0.0616
 1410.0000     9.1222   124.9021     2.5726     0.0812
 1410.5000     9.1073   124.4527     2.5727     0.0933
 1411.0000     9.0925   123.7008     2.5665     0.0821
 1411.5000     9.0776   120.8308     2.5776     0.0707
 1412.0000     9.0477   114.7838     2.6037     0.1205
 1412.5000     9.0178   114.1831     2.6225     0.1763
 1413.0000     8.9878   115.3979     2.6256     0.2125
 1413.5000     8.9880   119.9872     2.6263     0.2291
 1414.0000     8.9883   122.8521     2.6112     0.2125
 1414.5000     8.9885   123.1271     2.5536     0.1688
 1415.0000     9.0189   123.8889     2.5156     0.1266
 1415.5000     9.0191   125.7088     2.4952     0.0799
 1416.0000     9.0193   128.5877     2.4815     0.0467
 1416.5000     9.0196   129.1973     2.4971     0.0166
 1417.0000     9.0198   128.1428     2.4982     0.0000
 1417.5000     9.0200   126.9366     2.4664    -0.0105
 1418.0000     9.0051   124.5205     2.4649    -0.0181
 1418.5000     9.0054   123.6172     2.4665    -0.0118
 1419.0000     9.0207   123.9244     2.4612    -0.0075
 1419.5000     9.0058   123.7159     2.4550    -0.0180
 1420.0000     9.0211   120.7573     2.4428    -0.0240
 1420.5000     9.0213   118.9452     2.4746    -0.0119
 1421.0000     9.0216   119.7073     2.5059    -0.0014
 1421.5000     9.0218   119.5593     2.5150     0.0062
 1422.0000     9.0371   119.1111     2.5090     0.0062
 1422.5000     9.0374   119.8719     2.5113     0.0107
 1423.0000     9.0376   121.5406     2.5280     0.0213
 1423.5000     9.0378   123.5117     2.5394     0.0334
 1424.0000     9.0531   124.4239     2.5500     0.0409
 1424.5000     9.0365   123.5207     2.5485     0.0424
 1425.0000     9.0234   122.0123     2.5462     0.0364
 1425.5000     9.0236   121.0933     2.5523     0.0304
 1426.0000     9.0087   123.8367     2.5728     0.0773
 1426.5000     8.9939   123.9924     2.5970     0.1284
 1427.0000     8.9791   122.1032     2.6054     0.1556
 1427.5000     8.9944   116.7400     2.5933     0.1526
 1428.0000     9.0097   112.3572     2.5736     0.1421
 1428.5000     9.0099   115.3874     2.5590     0.1345
 1429.0000     8.9950   121.4559     2.5515     0.1285
 1429.5000     8.9651   125.0786     2.5438     0.0984
 1430.0000     8.9653   117.7299     2.4729     0.0456
 1430.5000     8.9656   110.4139     2.4797     0.0034
 1431.0000     8.9658   109.8132     2.5017     0.0050
 1431.5000     8.9660   109.3638     2.5214     0.0155
 1432.0000     8.9662   111.4863     2.5464     0.0246
 1432.5000     8.9815   115.7268     2.5389     0.0201
 1433.0000     8.9818   118.7570     2.5290     0.0110
 1433.5000     9.0124   119.8193     2.5389     0.0130
 1434.0000     9.0275   117.4043     2.5435     0.0216
 1434.5000     9.0277   118.6191     2.5450     0.0232
 1435.0000     9.0279   120.5903     2.5420     0.0247
 1435.5000     9.0282   119.2332     2.5427     0.0232
 1436.0000     9.0133   117.8112     2.5359     0.0217
 1436.5000     9.0135   120.9063     2.5216     0.0217
 1437.0000     8.9986   123.9515     2.5178     0.0187
