~VERSION INFORMATION
 VERS.                2.0:   CWLS LOG ASCII STANDARD - VERSION 2.0
 WRAP.                 NO:   ONE LINE PER DEPTH STEP
~WELL INFORMATION
#MNEM.UNIT      DATA TYPE    INFORMATION
#----------   ------------   ------------------------------
 STRT.F           16.0000:   START DEPTH
 STOP.F         2860.0000:   STOP DEPTH
 STEP.F            0.5000:   STEP LENGTH
 NULL.          -999.2500:   NO VALUE
 COMP.    FENIX & SCISSON:   COMPANY
 WELL. FENIX NPR 3 "AX" #22-21:   WELL
 FLD .  TEAPOT DOME - NPR:   FIELD
 LOC .      S21 T39N R78W:   LOCATION
 CNTY.            NATRONA:   COUNTY
 STAT.            WYOMING:   STATE
 CTRY. UNITED STATES OF AMERICA:   COUNTRY
 SRVC.      DRESSER ATLAS:   SERVICE COMPANY
 DATE.        07-AUG-1978:   LOGDATE
 API .     49025106790000:   API NUMBER
~CURVE INFORMATION
#MNEM.UNIT       API CODE    CURVE DESCRIPTION
#----------   ------------   ------------------------------
 DEPT.F                  :   
 CALD.IN     45 280 60 00:   CALIPER FROM DENSITY LOG
 GRD .GAPI   45 310 01 00:   GAMMA RAY FROM DENSITY LOG
 CORR.G/C3   45 356 01 00:   DENSITY CORRECTION
 RHOB.G/C3   45 350 01 00:   BULK DENSITY
 SPR .MV     05 010 01 00:   SPONTANEOUS POTENTIAL
 ILD .OHMM   05 120 46 00:   DEEP INDUCTION RESISTIVITY
 SN  .OHMM   05 040 00 00:   SHORT NORMAL
~PARAMETER INFORMATION
#MNEM.UNIT          VALUE    DESCRIPTION
#----------   ------------   ------------------------------
 EKB .F         4989.0000:   Kelly bushing
 EGL .F         4979.0000:   Ground level
 EDF .F            0.0000:   Drilling floor
 TD  .F         2847.0000:   Total depth
 DATE.        07-AUG-1978:   Date logged
 CLNT.            A2DTECH:   Client Code
 SL  . 880' FNL & 660' FWL:   Surface Location
 PD  .                 GL:   Permanent Datum
 DD  .F              2845:   Depth driller
 DL  .F              2847:   Depth logger
 BLI .F              2841:   Bottom log interval
 CS1 .IN            8.625:   Casing size
 CBD1.      8.625" @ 240':   Casing driller 1
 CBL1.F               240:   Casing logger 1
 BS1 .IN            7.875:   Bit size
 DFT .                KCL:   Type fluid in hole
 DFD .                9.2:   Density
 DFV .                 31:   Viscosity
 DFPH.               10.5:   pH
 MSS .           FLOWLINE:   Source of sample
 RMS .OHMM           1.25:   Rm
 MST .F                74:   Rm Meas. temp.
 RMF .OHMM            1.8:   Rmf
 MFST.F                76:   Rmf Meas. temp.
 RMC .OHMM              3:   Rmc
 MCST.F                78:   Rmc Meas. temp.
 MFSS.               MEAS:   Source Rmf.
 TCS .HRS               4:   Time Circ. stopped
 LUN .               3006:   Logging unit number
 LUL .               CASP:   Logging unit location
 ENGI.             MILLER:   Recorded By
 WITN.           MCGINLEY:   Witnessed by
 ORIG.           5" PRINT:   Origin of data
 UWI .     49025106790000:   Unique Well ID
 DICO. A2D TECHNOLOGIES, INC.:   Digitizing Company
 DAPD.                 10:   Feet Above Permanent Datum
 BSD1.F              2845:   Depth drilled with bit1
 EPD .F              4970:   Elevation Permanent Datum
 LMF .                 KB:   Log Measured From
 DMF .                 KB:   Drilling Measured From
 TLI .                240:   Top log interval
~OTHER INFORMATION
~A   DEPT     CALD         GRD      CORR       RHOB        SPR        ILD         SN   
# ...
 2655.0000    10.4760   117.3100     0.1680     2.3810    -9.5860     3.3380     4.5150
 2655.5000    10.4820   112.9710     0.1700     2.3740    -9.6210     3.0910     4.2990
 2656.0000    10.4890   162.5520     0.1720     2.3620    -9.6530     2.8440     4.0820
 2656.5000    10.4950   158.0860     0.1740     2.3480    -9.0520     2.6070     3.8660
 2657.0000    10.5240   156.4750     0.1760     2.3400    -8.2920     2.6380     3.6500
 2657.5000    10.5640   147.8210     0.1780     2.3420    -7.5420     2.6670     3.4290
 2658.0000    10.6010   124.9140     0.1790     2.3460    -6.9750     2.6970     3.4590
 2658.5000    10.6440   106.0570     0.1810     2.4050    -7.3500     2.7270     3.4920
 2659.0000    10.6380   101.9250     0.1820     2.4120    -7.6840     2.7540     3.8060
 2659.5000    10.5980   102.3040     0.1800     2.4160    -8.0640     2.9640     4.1460
 2660.0000    10.5960   103.5300     0.1780     2.4110    -8.4040     3.1950     4.4870
 2660.5000    10.6190   102.1530     0.1760     2.4180    -8.7920     3.4260     4.8270
 2661.0000    10.6280    99.1280     0.1750     2.4200    -9.1030     3.6580     5.0330
 2661.5000    10.6430    99.9950     0.1750     2.4200    -9.5880     3.9690     5.0330
 2662.0000    10.6570   103.4770     0.1740     2.4210    -9.3450     3.9460     5.0330
 2662.5000    10.6700   107.0410     0.1750     2.4220    -9.0680     3.8780     5.0180
 2663.0000    10.6840   109.2540     0.1730     2.4240    -8.7670     3.8100     4.9890
 2663.5000    10.6950   111.4650     0.1700     2.4250    -8.5320     3.7420     4.9590
 2664.0000    10.7000   113.5120     0.1670     2.4210    -8.7260     3.6840     4.9300
 2664.5000    10.7040   112.5330     0.1650     2.4170    -8.9280     3.6640     4.9010
 2665.0000    10.7080   110.3520     0.1630     2.4130    -9.1630     3.6440     4.8520
 2665.5000    10.7120   109.9620     0.1640     2.4110    -9.3640     3.6220     4.8670
 2666.0000    10.7170   110.9700     0.1640     2.4090    -9.5450     3.6680     4.9080
 2666.5000    10.7210   110.9470     0.1650     2.4090    -9.7390     3.7180     4.9500
 2667.0000    10.7260   109.9540     0.1660     2.4120    -9.9300     3.7670     4.9910
 2667.5000    10.7290   109.4420     0.1670     2.4160   -10.1220     3.8260     5.0330
 2668.0000    10.7330   108.9070     0.1680     2.4130   -10.3130     3.7190     5.0740
 2668.5000    10.7060   115.7880     0.1690     2.4040   -10.5080     3.5880     5.1160
 2669.0000    10.6720   123.7860     0.1700     2.3950   -10.6980     3.4570     4.9530
 2669.5000    10.6530   132.3110     0.1710     2.3870   -10.8560     3.3260     4.7250
 2670.0000    10.6550   139.4650     0.1720     2.3800   -10.7990     3.1950     4.4960
 2670.5000    10.6550   153.2380     0.1730     2.3820   -10.7430     3.0630     4.2680
 2671.0000    10.6550   174.8090     0.1740     2.3800   -10.6810     2.9710     4.0390
 2671.5000    10.6550   188.3630     0.1750     2.3700   -10.6230     3.0080     3.8110
 2672.0000    10.6550   169.7640     0.1780     2.3630   -10.5560     3.0450     3.6220
 2672.5000    10.6550   150.6510     0.1800     2.4020   -10.5200     3.0820     3.7790
 2673.0000    10.6550   132.1730     0.1820     2.4200   -10.2860     3.1190     3.9120
 2673.5000    10.6600   110.5620     0.1850     2.4230    -9.8850     3.1620     4.0460
 2674.0000    10.6650   106.6240     0.1850     2.4280    -9.5150     3.3780     4.4120
 2674.5000    10.6700   107.6720     0.1820     2.4280    -9.0820     3.7850     5.0430
 2675.0000    10.6760   108.4810     0.1780     2.4270    -9.0800     4.1920     5.4890
 2675.5000    10.6810   107.7150     0.1750     2.4360    -9.6430     4.1920     5.6680
 2676.0000    10.6860   105.7510     0.1720     2.4430   -10.1630     4.4090     5.8480
 2676.5000    10.6920   100.5650     0.1690     2.4430   -10.6700     4.4870     6.0270
 2677.0000    10.6850   101.7180     0.1670     2.4390   -11.2230     4.5100     6.1540
 2677.5000    10.6540   105.4140     0.1680     2.4300   -11.2590     4.5100     6.2370
 2678.0000    10.6250   108.2740     0.1680     2.4200   -11.2710     4.5100     6.3320
 2678.5000    10.5950   109.3250     0.1690     2.4240   -11.2590     4.5680     6.4260
 2679.0000    10.5650   109.0770     0.1690     2.4260   -11.2660     4.7060     6.5210
 2679.5000    10.5370   105.6440     0.1700     2.4210   -11.2640     4.8520     6.6200
 2680.0000    10.5220   101.1850     0.1710     2.4190   -11.2640     4.8670     6.7060
 2680.5000    10.5090    96.9510     0.1730     2.4190   -11.2650     4.8940     6.7970
 2681.0000    10.4960    98.6720     0.1760     2.4190   -11.2650     4.9220     6.8870
 2681.5000    10.4820   103.2250     0.1780     2.4190   -11.2650     4.9490     6.9930
 2682.0000    10.4690   106.8060     0.1780     2.4230   -11.2650     4.9770     7.0340
 2682.5000    10.4560   107.6840     0.1790     2.4320   -11.2650     5.0040     7.0820
 2683.0000    10.4430   108.3150     0.1750     2.4400   -11.2650     5.0330     7.1310
 2683.5000    10.4290   104.8770     0.1680     2.4480   -11.2650     5.0330     7.1800
 2684.0000    10.4160   101.6990     0.1630     2.4570   -11.2650     5.0330     7.2280
 2684.5000    10.3950   100.9220     0.1600     2.4550   -11.2650     5.0330     7.2540
 2685.0000    10.3750   101.9770     0.1580     2.4490   -11.2650     5.0330     7.2540
 2685.5000    10.3540    99.8280     0.1560     2.4440   -11.2660     4.9550     7.2540
 2686.0000    10.3340    97.7480     0.1540     2.4390   -11.2640     4.8620     7.0950
 2686.5000    10.3140    95.8050     0.1520     2.4330   -11.2650     4.7640     6.9380
 2687.0000    10.2930    99.7750     0.1500     2.4290   -11.2710     4.6780     6.6810
 2687.5000    10.2720   105.0570     0.1480     2.4250   -11.3500     4.5640     6.3380
 2688.0000    10.2640   110.8580     0.1460     2.4200   -11.4190     4.4630     5.9960
 2688.5000    10.2840   111.4830     0.1440     2.4120   -11.4990     4.2700     5.6530
 2689.0000    10.2910   111.7350     0.1440     2.4030   -11.5630     3.9580     5.3170
 2689.5000    10.2690   111.8620     0.1470     2.4010   -11.6350     3.6460     5.2000
 2690.0000    10.2310   112.9440     0.1490     2.4020   -11.3150     3.3340     5.0850
 2690.5000    10.1790   132.9350     0.1520     2.3840   -10.8630     3.0220     4.8220
 2691.0000    10.1280   158.0930     0.1560     2.3580   -10.4110     2.7100     4.4370
 2691.5000    10.0880   201.2930     0.1600     2.3280    -9.9640     2.3980     4.0510
 2692.0000    10.0670   199.9920     0.1640     2.3160    -9.5310     2.2940     3.6660
 2692.5000    10.0420   201.1990     0.1660     2.3020    -9.0390     2.3360     3.2800
 2693.0000    10.0180   177.8080     0.1650     2.3240    -9.1210     2.4020     3.1160
 2693.5000     9.9930   152.9070     0.1640     2.3580    -9.6060     2.5110     3.0930
 2694.0000     9.9720   127.9420     0.1620     2.3910   -10.0340     2.8050     3.0730
 2694.5000     9.9560    98.2720     0.1610     2.4170   -10.4690     3.2500     3.9400
 2695.0000     9.9380    91.4370     0.1600     2.4030   -10.8680     3.6960     5.0330
 2695.5000     9.9210    90.2390     0.1590     2.3910   -11.1410     4.1410     6.4070
 2696.0000     9.9040    89.0050     0.1700     2.3760   -11.2760     4.5860     7.2540
 2696.5000     9.8870    85.5350     0.1820     2.3770   -11.2590     4.9420     7.1380
 2697.0000     9.8690    84.9620     0.1890     2.3740   -11.2650     4.7240     6.9490
 2697.5000     9.8600    90.5850     0.1930     2.3610   -11.2640     4.5420     6.7600
 2698.0000     9.8620    97.4150     0.1980     2.3530   -11.2640     4.3610     6.5710
 2698.5000     9.8610    98.9970     0.1970     2.3550   -11.2640     4.2700     6.3830
 2699.0000     9.8620   100.8260     0.1950     2.3560   -11.2640     4.2360     6.1940
 2699.5000     9.8640   102.4830     0.1970     2.3590   -11.2700     4.2040     6.0050
 2700.0000     9.9050   105.6980     0.1990     2.3430   -11.3380     4.1920     5.8110
