~VERSION INFORMATION
 VERS.                2.0:   CWLS LOG ASCII STANDARD - VERSION 2.0
 WRAP.                 NO:   ONE LINE PER DEPTH STEP
~WELL INFORMATION
#MNEM.UNIT      DATA TYPE    INFORMATION
#----------   ------------   ------------------------------
 STRT.F           50.0000:   START DEPTH
 STOP.F         5698.0000:   STOP DEPTH
 STEP.F            0.5000:   STEP LENGTH
 NULL.          -999.2500:   NO VALUE
 COMP. LAWRENCE - ALLISON:   COMPANY
 WELL. LAWRENCE TPX #57-3:   WELL
 FLD .              NPR 3:   FIELD
 LOC .       S3 T38N R78W:   LOCATION
 CNTY.            NATRONA:   COUNTY
 STAT.            WYOMING:   STATE
 CTRY. UNITED STATES OF AMERICA:   COUNTRY
 SRVC.       SCHLUMBERGER:   SERVICE COMPANY
 DATE.        09-AUG-1982:   LOGDATE
 API .     49025108900000:   API NUMBER
~CURVE INFORMATION
#MNEM.UNIT       API CODE    CURVE DESCRIPTION
#----------   ------------   ------------------------------
 DEPT.F                  :   
 TEND.LBS    45 635 01 00:   TENSION FROM DENSITY LOG
 CALD.IN     45 280 60 00:   CALIPER FROM DENSITY LOG
 NPHI.DEC    42 890 03 00:   NEUTRON POROSITY SANDSTONE
 CORR.G/C3   45 356 01 00:   DENSITY CORRECTION
 RHOB.G/C3   45 350 01 00:   BULK DENSITY
 SPR .MV     11 010 01 00:   SPONTANEOUS POTENTIAL FROM RESISTIVITY
 TENR.LBS    11 635 01 00:   TENSION FROM RESISTIVITY
 GRR .GAPI   11 310 01 00:   GAMMA RAY FROM RESISTIVITY
 LLD .OHMM   11 220 10 00:   LATEROLOG DEEP
 LLS .OHMM   11 220 09 00:   LATEROLOG LOG SHALLOW
 MSFL.OHMM   11 270 04 00:   MICRO SPHERICALLY FOCUSED
~PARAMETER INFORMATION
#MNEM.UNIT          VALUE    DESCRIPTION
#----------   ------------   ------------------------------
 EKB .F         5190.0000:   Kelly bushing
 EGL .F         5180.0000:   Ground level
 EDF .F         5189.0000:   Drilling floor
 TD  .F         5686.0000:   Total depth
 CLNT.            A2DTECH:   Client Code
 SL  . 1002' FSL & 2479' FEL:   Surface Location
 PD  .                 GL:   Permanent Datum
 EPD .F              5180:   Elevation Permanent Datum
 LMF .                 KB:   Log Measured From
 DMF .                 KB:   Drilling Measured From
 DAPD.F                10:   Feet Above Permanent Datum
 DATE.        09-AUG-1982:   Date Logged [DD-MMM-YYYY]
 DD  .F              5685:   Depth driller
 DL  .F              5686:   Depth logger
 BLI .F              5683:   Bottom log interval
 TLI .F               494:   Top log interval
 CS1 .IN            9.625:   Casing size
 CBD1.      9.625" @ 500':   Casing driller 1
 CBL1.F               494:   Casing logger 1
 BS1 .IN             8.75:   Bit size
 BSD1.F              5685:   Depth drilled with bit1
 DFT .                KCL:   Type fluid in hole
 DFD .                9.0:   Density
 DFV .                 38:   Viscosity
 DFPH.                8.5:   pH
 DFL .                9.0:   Fluid loss
 MSS .            MUDTANK:   Source of sample
 RMS .OHMM           0.27:   Rm
 MST .F                79:   Rm Meas. temp.
 RMF .OHMM           0.27:   Rmf
 MFST.F                79:   Rmf Meas. temp.
 MFSS.               MEAS:   Source Rmf.
 RMB .OHMM            .13:   Rm. at BHT
 BHT .F               164:   BHT.
 TCS .HRS            1300:   Time Circ. stopped
 MRT .F               164:   Maximum recorded temp.
 LUN .               8035:   Logging unit number
 LUL .               CSPR:   Logging unit location
 ENGI.            PERAKIS:   Recorded By
 WITN.           L. FIVAS:   Witnessed by
 ORIG.        2" 5" PRINT:   Origin of data
 UWI .     49025108900000:   Unique Well ID
 DICO. A2D TECHNIOLOGIES,INC.:   Digitizing Company
 RMC .OHMM           0.41:   Rmc
 MCST.F                79:   Rmc Meas. temp.
 MCSS.               CALC:   Source Rmc.
 TLAB.HRS            2000:   Time logger at bottom
~OTHER INFORMATION
~A  DEPTH     TEND       CALD       NPHI       CORR       RHOB        SPR       TENR        GRR        LLD        LLS       MSFL
# ...
 2215.5000  1034.1366     9.6381     0.3050     0.0060     2.4579   -78.6989   978.7388   100.3500     8.5468     8.9873    11.2691
 2216.0000  1034.1366     9.6235     0.3076     0.0195     2.4788   -78.6078   978.4431   101.2740     8.7256     9.1154     9.3609
 2216.5000  1033.2908     9.6239     0.3113     0.0262     2.5005   -78.3284   978.0843    99.4872     9.3470     9.8980    11.2024
 2217.0000  1030.8713     9.6244     0.3163     0.0203     2.5036   -78.0642   977.7933    97.4043    10.0818    10.7505    13.7807
 2217.5000  1028.4448     9.6085     0.3178     0.0099     2.4853   -77.8818   977.5024    95.9187    10.5238    11.4380    14.4684
 2218.0000  1026.0194     9.5802     0.3166     0.0062     2.4775   -77.7069   977.2115   102.7460    10.7268    11.5979    14.3665
 2218.5000  1023.5956     9.5656     0.3207     0.0234     2.4842   -77.7620   976.9207   127.5911    10.6540    11.4407    14.1860
 2219.0000  1021.1718     9.5661     0.3306     0.0338     2.4925   -77.8269   976.6298   142.9729    10.5092    11.1323    15.4177
 2219.5000  1018.7479     9.5514     0.3486     0.0286     2.4836   -77.8909   991.3174   140.8849     9.9476    10.6108    15.0058
 2220.0000  1016.3241     9.5670     0.3597     0.0203     2.4560   -77.9000   991.0179   130.6644     9.2875    10.1742    13.0812
 2220.5000  1013.9003     9.5522     0.3603     0.0168     2.4419   -77.8994   990.7185   124.9619     8.9128     9.9769    11.9664
 2221.0000  1011.4765     9.5528     0.3545     0.0221     2.4479   -77.9045   990.3635   125.2835     9.3673    10.3987    12.1381
 2221.5000  1009.0527     9.5532     0.3446     0.0243     2.4554   -77.9992   990.0725   127.1315    10.1577    11.0637    14.1312
 2222.0000  1006.6288     9.5517     0.3350     0.0154     2.4629   -78.0978   989.7816   128.9438    10.1584    10.8394    13.6592
 2222.5000  1004.2051     9.5391     0.3229     0.0095     2.4626   -78.2929   974.5205   130.4703     9.8159    10.4028    12.9330
 2223.0000  1001.7812     9.5396     0.3331     0.0066     2.4488   -78.4731   974.2297   131.3943     9.0394    10.1221    12.4152
 2223.5000   999.3574     9.5401     0.3505     0.0044     2.4414   -78.6671   973.9388   131.7159     8.7947     9.8489    12.2512
 2224.0000   996.9336     9.5405     0.3730     0.0022     2.4362   -78.4610   973.6478   130.2303     9.4212     9.9869    12.7758
 2224.5000   994.5098     9.5409     0.3759     0.0000     2.4340   -78.1511   973.3532   128.4435    10.0922    10.4805    13.7881
 2225.0000   996.8967     9.5414     0.3532    -0.0007     2.4341   -77.9291   973.0538   128.7651    10.2326    10.5542    13.7947
 2225.5000  1000.6426     9.5568     0.3276    -0.0007     2.4341   -78.1424   972.7544   128.7861    10.0245    10.4115    13.2424
 2226.0000  1004.3885     9.5573     0.3014     0.0001     2.4349   -78.3839   972.4114   123.9917     9.5543    10.0611    12.3668
 2226.5000  1008.1343     9.5729     0.2954    -0.0014     2.4401   -78.7070   987.1634   117.3856     9.1689     9.4588    11.5490
 2227.0000  1011.8802     9.5582     0.2969    -0.0006     2.4546   -78.7021   986.7997   112.8879     8.6195     9.2006    11.6521
 2227.5000  1015.6262     9.5587     0.3077     0.0129     2.4879   -78.7097   986.5087   111.6984     8.5023     9.1417    12.9086
 2228.0000  1019.3720     9.5591     0.3234     0.0479     2.5028   -78.3797   986.2179   115.6396     8.6206     9.5282    11.4087
 2228.5000  1023.1179     9.5596     0.3407     0.0882     2.4917   -77.9944   985.9270   121.6841     9.1241     9.8626    12.0608
 2229.0000  1026.8638     9.5600     0.3569     0.0629     2.4351   -77.9007   985.6287   125.6807     9.4278     9.9320    13.8490
 2229.5000  1030.6097     9.5605     0.3598     0.0176     2.3986   -77.8986   985.2723   128.0553     9.1099     9.7974    14.3395
 2230.0000  1034.1366     9.5609     0.3478     0.0004     2.4031   -77.9339   999.9515   127.1721     8.5640     9.4031    13.1189
 2230.5000  1034.1366     9.5463     0.3376    -0.0018     2.4397   -77.9975   999.6606   122.0720     7.8865     8.3663    10.3845
 2231.0000  1034.1366     9.5469     0.3259    -0.0003     2.4643   -78.0588   999.3697   117.8755     7.6730     7.8125    10.1071
 2231.5000  1034.1366     9.5473     0.3204     0.0027     2.4816   -78.0143   984.1087   117.2935     7.8335     7.8138    10.6114
 2232.0000  1034.1366     9.5477     0.3261     0.0050     2.4876   -77.7771   983.8177   116.4103     8.2859     8.2000     9.9109
 2232.5000  1034.1366     9.5632     0.3264     0.0021     2.4853   -77.5395   983.5268   114.6235     8.5670     8.6647    10.6228
 2233.0000  1034.1366     9.5636     0.3200    -0.0016     2.4794   -77.4995   983.2335   111.8135     8.4506     8.7256    11.5438
 2233.5000  1034.1366     9.5791     0.3152    -0.0023     2.4779   -77.5025   982.9341   108.6453     8.1656     8.4901    11.7081
 2234.0000  1034.1366     9.5796     0.3096     0.0007     2.4832   -77.6791   982.5814   112.8826     7.3157     7.9272    10.7115
 2234.5000  1034.1366     9.5950     0.3025     0.0126     2.4907   -77.9405   982.2904   115.0114     6.5094     6.9872     7.4207
 2235.0000  1034.1366     9.6105     0.3010     0.0432     2.4937   -78.0228   981.9996   114.4294     5.5579     4.9011     5.7493
 2235.5000  1034.1366     9.6261     0.3157     0.0708     2.4632   -78.1038   981.7087   105.4137     4.6738     4.1850     4.1750
 2236.0000  1034.1366     9.6867     0.3451     0.0798     2.2884   -78.1848   981.4177    99.1088     3.8882     4.3618     2.7060
 2236.5000  1051.5541     9.9728     0.4070     0.0120     2.0569   -78.2633   981.1268    97.9244     5.8331     5.2882     4.3254
 2237.0000  1073.9480    10.4244     0.4126    -0.0185     2.0430   -78.3292   980.8359    98.5523     7.7325     7.2556     9.8232
 2237.5000  1096.3419    10.3196     0.3964    -0.0333     2.1012   -78.3860   980.5389   100.0787     8.6319     8.5580    10.7473
 2238.0000  1118.7358     9.7035     0.3681    -0.0199     2.2614   -78.4418   980.1813   103.1112     8.2270     8.1455    10.1073
 2238.5000  1134.5382     9.4483     0.3201     0.0003     2.4313   -78.5021   979.8904   105.2400     7.6284     7.2588     9.6195
 2239.0000  1091.6892     9.3871     0.3131     0.0077     2.4724   -78.6646   964.6294   105.8628     7.1222     6.8242     8.8158
 2239.5000  1083.2800     9.3589     0.3101     0.0017     2.4791   -78.8359   964.3386   104.0760     6.8820     6.7782     8.1764
 2240.0000  1074.8710     9.3443     0.3140     0.0063     2.4970   -78.8622   964.0476   101.9880     7.7357     7.1625     7.7417
 2240.5000  1066.4618     9.2998     0.3167     0.0108     2.5067   -78.8036   963.7567   100.4629     8.9374     7.9962     9.8572
 2241.0000  1058.0526     9.2551     0.3151     0.0027     2.4915   -78.7445   963.4658    98.1182     9.9087     9.2391    11.7153
 2241.5000  1049.6434     9.2253     0.3097     0.0005     2.4599   -78.7319   963.1736    94.5242    10.4695     9.9674    12.9968
 2242.0000  1041.2344     9.2108     0.2908    -0.0010     2.4554   -78.8823   962.8742    89.7253    10.1863    10.2452    13.0929
 2242.5000  1032.8252     9.2113     0.2814    -0.0017     2.4607   -79.0230   962.5203    89.1382     9.3805     9.6987    12.3637
 2243.0000  1024.4160     9.2117     0.2805    -0.0016     2.4689   -78.8705   962.2294    93.9830     8.6180     8.6303    11.0333
 2243.5000  1016.0069     9.2122     0.2848     0.0006     2.4772   -78.4100   961.9384    96.7142     7.5814     7.7325     9.8183
 2244.0000  1026.2280     9.1976     0.2931     0.0022     2.4832   -77.9103   976.6176    96.4334     7.3762     7.3702     8.6179
 2244.5000  1042.0422     9.1981     0.2979     0.0044     2.4884   -77.5952   976.3268    94.9529     7.5305     7.6816     8.6816
 2245.0000  1054.0383     9.1986     0.2993     0.0022     2.4855   -77.9072   976.0358    94.0697     8.4645     8.6944     9.3362
 2245.5000  1052.7971     9.1990     0.2993     0.0008     2.4765   -78.1543   975.7449    92.2828    10.4035    10.3706    11.9312
