~VERSION INFORMATION
 VERS.                2.0:   CWLS LOG ASCII STANDARD - VERSION 2.0
 WRAP.                 NO:   ONE LINE PER DEPTH STEP
~WELL INFORMATION
#MNEM.UNIT      DATA TYPE    INFORMATION
#----------   ------------   ------------------------------
 STRT.F          164.0000:   START DEPTH
 STOP.F         3223.5000:   STOP DEPTH
 STEP.F            0.5000:   STEP LENGTH
 NULL.          -999.2500:   NO VALUE
 COMP.    FENIX & SCISSON:   COMPANY
 WELL. FENIX & SCISSON "AX" #64-34:   WELL
 FLD . NAVAL PETROLEUM RESERVE #3:   FIELD
 LOC .      S34 T39N R78W:   LOCATION
 CNTY.            NATRONA:   COUNTY
 STAT.            WYOMING:   STATE
 CTRY. UNITED STATES OF AMERICA:   COUNTRY
 SRVC.       SCHLUMBERGER:   SERVICE COMPANY
 DATE.        30-DEC-1980:   LOGDATE
 API .     49025108660000:   API NUMBER
~CURVE INFORMATION
#MNEM.UNIT       API CODE    CURVE DESCRIPTION
#----------   ------------   ------------------------------
 DEPT.F                  :   
 GRD .GAPI   45 310 01 00:   GAMMA RAY FROM DENSITY LOG
 RHOB.G/C3   45 350 01 00:   BULK DENSITY
 CALD.IN     45 280 60 00:   CALIPER FROM DENSITY LOG
 CORR.G/C3   45 356 01 00:   DENSITY CORRECTION
 SPR .MV     07 010 01 00:   SPONTANEOUS POTENTIAL
 TENR.LBS    06 635 01 00:   TENSION FROM RESISTIVITY
 ILD .OHMM   07 120 46 00:   DEEP INDUCTION RESISTIVITY
 ILM .OHMM   07 120 44 00:   INDUCTION LOG MEDIUM RESISTIVITY
 SFL .OHMM   07 220 01 00:   SHALLOW FOCUSED LOG RESISTIVITY
~PARAMETER INFORMATION
#MNEM.UNIT          VALUE    DESCRIPTION
#----------   ------------   ------------------------------
 EKB .F         5088.0000:   Kelly bushing
 EGL .F         5078.0000:   Ground level
 TD  .F         3225.0000:   Total depth
 CLNT.            A2DTECH:   Client Code
 SL  . 3107' FSL & 3680' FWL:   Surface Location
 PD  .                 GL:   Permanent Datum
 EPD .F              5078:   Elevation Permanent Datum
 LMF .                 KB:   Log Measured From
 DMF .                 KB:   Drilling Measured From
 DAPD.F                10:   Feet Above Permanent Datum
 DATE.        30-DEC-1980:   Date Logged [DD-MMM-YYYY]
 DD  .F              3225:   Depth driller
 DL  .F              3225:   Depth logger
 BLI .F              3219:   Bottom log interval
 TLI .F               190:   Top log interval
 CS1 .IN            8.625:   Casing size
 CBD1.      8.625" @ 205':   Casing driller 1
 CBL1.F               190:   Casing logger 1
 BS1 .IN            7.875:   Bit size
 BSD1.F              3225:   Depth drilled with bit1
 DFT .              FRESH:   Type fluid in hole
 DFD .                  9:   Density
 DFV .                 46:   Viscosity
 MSS .           MUD TANK:   Source of sample
 RMS .OHMM           2.47:   Rm
 MST .F                57:   Rm Meas. temp.
 RMF .OHMM           1.45:   Rmf
 MFST.F                57:   Rmf Meas. temp.
 MFSS.               MEAS:   Source Rmf.
 RMB .OHMM            1.2:   Rm. at BHT
 BHT .F               124:   BHT.
 TCS .HRS            0400:   Time Circ. stopped
 MRT .F               124:   Maximum recorded temp.
 LUN .               8034:   Logging unit number
 LUL .               CSPR:   Logging unit location
 ENGI.             LARSON:   Recorded By
 WITN.              FIVAS:   Witnessed by
 ORIG.        2" 5" PRINT:   Origin of data
 UWI .     49025108660000:   Unique Well ID
 DICO. A2D TECHNOLOGIES, INC:   Digitizing Company
 TLAB.HRS            2030:   Time logger at bottom
~OTHER INFORMATION
~A   DEPT       GRD      RHOB       CALD       CORR        SPR       TENR        ILD        ILM        SFL   
# ...
 1989.0000   116.3773     2.5306     8.7551     0.0278   -44.6200  1306.2893     5.5784     5.6029     8.1946
 1989.5000   109.7587     2.5073     8.7835     0.0331   -44.8993  1310.2205     5.1131     4.9531     7.9562
 1990.0000   102.6078     2.4631     8.8422     0.0980   -45.2619  1310.2953     4.4757     4.3160     6.0670
 1990.5000   100.3175     2.2530     8.9616     0.0861   -45.1532  1310.2793     3.9860     3.9271     4.4311
 1991.0000   103.4806     2.1356     8.9597     0.0098   -44.7163  1310.2725     3.5084     3.6210     3.4658
 1991.5000   108.4582     2.2133     8.8117     0.0010   -44.4625  1310.2725     3.5569     3.5968     2.8305
 1992.0000   116.7918     2.3319     8.6827     0.0028   -44.3104  1310.2725     3.6841     3.7258     2.9324
 1992.5000   117.9917     2.4931     8.6960     0.0189   -44.4985  1310.2725     4.5366     4.3953     5.0316
 1993.0000   117.3611     2.5473     8.7097     0.0268   -44.1106  1310.2725     4.9072     4.9297     8.0303
 1993.5000   116.2801     2.5612     8.7074     0.0292   -43.7206  1310.2725     5.0109     5.0389     9.0055
 1994.0000   117.3475     2.5549     8.7358     0.0318   -43.3149  1310.2725     5.2286     5.3289     9.1976
 1994.5000   118.9738     2.5518     8.7491     0.0361   -42.8985  1310.2725     6.0334     5.8912     9.1237
 1995.0000   117.8881     2.5509     8.7623     0.0394   -42.4845  1310.2725     7.2707     7.3096     9.0519
 1995.5000   115.1378     2.5610     8.7448     0.0420   -42.5504  1310.2725     7.7522     7.7947     8.9148
 1996.0000   112.9946     2.5731     8.7127     0.0447   -42.7964  1310.2725     7.9174     8.0176     8.7812
 1996.5000   113.1279     2.5988     8.6956     0.0484   -43.0249  1310.2725     8.0254     8.0111     8.8386
 1997.0000   113.8627     2.5887     8.7089     0.0539   -43.3962  1310.2725     8.0197     8.0058     9.0909
 1997.5000   115.0578     2.5755     8.7065     0.0579   -43.4740  1310.2725     8.0723     8.0006     9.2843
 1998.0000   116.5564     2.5506     8.7047     0.0612   -43.8689  1310.2725     8.1251     7.9955     9.6851
 1998.5000   117.1446     2.5261     8.7331     0.0653   -43.8649  1310.2725     8.1181     7.9902     9.9632
 1999.0000   117.2777     2.5210     8.7464     0.0742   -43.8658  1310.2725     8.1713     8.1009    10.0284
 1999.5000   117.4104     2.5318     8.7444     0.0820   -43.8613  1310.2725     8.2920     8.2714     9.7351
 2000.0000   116.4764     2.5504     8.6512     0.0875   -44.1076  1310.2725     8.4226     8.3908     9.4519
 2000.5000   114.9401     2.5573     8.6190     0.2505   -44.4476  1310.2725     8.4940     8.4115     9.3157
 2001.0000   114.6225     2.5675     8.6328     0.2523   -44.8210  1310.2725     8.5089     8.4323     9.2280
 2001.5000   116.2681     2.6131     8.6910     0.2515   -45.2806  1310.2725     8.4413     8.4331     9.2259
 2002.0000   116.0688     2.6224     8.7497     0.2295   -45.7316  1310.2725     8.3756     8.4273     9.7634
 2002.5000   114.7130     2.5820     8.7171     0.1767   -45.8486  1310.2725     8.3705     8.4227    10.7136
 2003.0000   115.6088     2.5231     8.6702     0.1006   -45.8101  1310.2725     8.4258     8.4791    11.0999
 2003.5000   119.8402     2.4781     8.6397     0.0661   -45.5600  1310.2725     8.5415     8.5964    11.0885
 2004.0000   125.2856     2.5017     8.5926  -999.2500   -45.4503  1310.2725     8.7857     8.7809    10.9976
 2004.5000   124.6611     2.5361     8.5608  -999.2500   -45.2471  1310.2725     9.0369     8.9668    10.9887
 2005.0000   123.1056     2.5400     8.5436  -999.2500   -44.8406  1310.2725     9.0968     9.0268    11.4648
 2005.5000   122.6492     2.5462     8.5269  -999.2500   -44.4280  1310.2725     9.1568     9.0207    11.4555
 2006.0000   122.1765     2.5547     8.5101  -999.2500   -43.8274  1310.2725     9.1497     9.0158    11.1148
 2006.5000   121.2486     2.5453     8.5085  -999.2500   -43.2102  1310.2725     9.1441     9.0109    10.7163
 2007.0000   119.7137     2.5407     8.4918  -999.2500   -42.6544  1310.2725     9.2060     9.0059    10.5543
 2007.5000   116.6613     2.5422     8.4902  -999.2500   -42.4278  1310.2725     9.1989     9.0662    10.3948
 2008.0000   111.6740     2.5514     8.5036  -999.2500   -42.1262  1310.2725     9.2597     9.0600    10.3863
 2008.5000   109.6418     2.5599     8.5020  -999.2500   -42.1593  1310.2725     9.2526     9.1219    10.4507
 2009.0000   110.5348     2.5560     8.5002  -999.2500   -42.3570  1310.2725     9.2469     9.1157    10.8253
 2009.5000   116.7389     2.5475     8.5138  -999.2500   -42.5590  1310.2725     9.2413     9.1766    11.7088
 2010.0000   122.0325     2.5366     8.5197  -999.2500   -42.7613  1310.2725     9.2354     9.2380    12.2162
 2010.5000   121.7116     2.5474     8.5404  -999.2500   -42.9321  1310.2725     9.2285     9.2318    12.4730
 2011.0000   120.7609     2.5489     8.5388  -999.2500   -43.0478  1310.2725     9.2234     9.2937    12.2819
 2011.5000   120.3110     2.5411     8.5221  -999.2500   -43.1793  1310.2725     9.2175     9.3557    11.6682
 2012.0000   121.3513     2.5365     8.5053  -999.2500   -43.3759  1310.2725     9.2115     9.3493    10.7701
 2012.5000   122.2487     2.5341     8.5038  -999.2500   -43.5848  1310.2725     9.1384     9.2771    10.3027
 2013.0000   121.7717     2.5333     8.5021  -999.2500   -43.9920  1310.2725     9.0673     9.2054    10.2953
 2013.5000   120.5382     2.5379     8.5002  -999.2500   -44.3131  1310.2725     8.9321     9.0648    10.8192
 2014.0000   120.3667     2.5518     8.4986  -999.2500   -44.8944  1310.2725     8.6732     8.8685    11.4519
 2014.5000   120.9562     2.5588     8.4820  -999.2500   -45.1000  1310.2725     8.4824     8.7999    11.0375
 2015.0000   122.0010     2.5564     8.4803  -999.2500   -45.0882  1310.2725     8.3549     8.6692    10.1128
 2015.5000   123.6527     2.5525     8.4635  -999.2500   -44.9376  1310.2725     8.1713     8.4179     9.6074
 2016.0000   126.3667     2.5440     8.4615  -999.2500   -44.8023  1310.2725     8.0495     8.0560     9.3942
 2016.5000   128.4737     2.5393     8.4602  -999.2500   -44.4892  1310.2725     7.8141     7.7107     9.2522
 2017.0000   125.7204     2.5362     8.4585  -999.2500   -44.1474  1310.2725     7.4799     7.5961     9.1122
 2017.5000   122.6681     2.5346     8.4567     0.0383   -43.8185  1310.2725     7.2631     7.4294     9.0377
 2018.0000   115.2151     2.5291     8.4551     0.0421   -43.6179  1310.2725     7.0525     7.2133     8.9010
 2018.5000   116.5634     2.5049     8.4535     0.0491   -43.2601  1311.2737     6.9474     7.0550     8.7665
 2019.0000   120.0361     2.5035     8.4667     0.0538   -43.0032  1312.3721     6.8362     6.9502     8.3874
 2019.5000   124.3666     2.5034     8.4651     0.0538   -42.8490  1313.4727     6.6444     6.8469     8.0835
 2020.0000   129.7085     2.4988     8.4791     0.0497   -42.9016  1314.5723     6.5454     6.7386     8.3131
 2020.5000   130.4541     2.4879     8.4619     0.0287   -43.1016  1315.6720     6.4945     6.6441     8.8647
 2021.0000   129.5218     2.4522     8.4603    -0.0002   -43.4023  1316.7715     6.5374     6.6885     8.0057
 2021.5000   127.6834     2.4280     8.4586     0.0019   -43.4415  1317.8711     6.5806     6.6849     7.3125
 2022.0000   122.2032     2.4343     8.4723     0.0062   -43.4877  1318.9707     6.6720     6.6812     6.8687
 2022.5000   116.7735     2.4978     8.4703     0.0138   -43.7162  1320.0702     6.8135     6.8227     7.9845
 2023.0000   115.1880     2.5195     8.4688     0.0195   -44.0765  1321.1697     6.9569     7.0186     8.9530
 2023.5000   116.2284     2.5164     8.4671     0.0114   -44.0596  1322.2693     7.2065     7.2724     9.6882
 2024.0000   119.0941     2.5171     8.4655     0.0043   -44.3259  1323.3689     7.3076     7.4274     9.6044
 2024.5000   118.3179     2.5220     8.4635     0.0025   -44.5261  1324.4684     7.3020     7.4223     9.3913
 2025.0000   117.2382     2.5233     8.4621     0.0012   -44.6655  1325.5679     7.2975     7.4183     9.2493
