~VERSION INFORMATION
 VERS.                2.0:   CWLS LOG ASCII STANDARD - VERSION 2.0
 WRAP.                 NO:   ONE LINE PER DEPTH STEP
~WELL INFORMATION
#MNEM.UNIT      DATA TYPE    INFORMATION
#----------   ------------   ------------------------------
 STRT.F          590.0000:   START DEPTH
 STOP.F         3123.0000:   STOP DEPTH
 STEP.F            0.5000:   STEP LENGTH
 NULL.          -999.2500:   NO VALUE
 COMP.         U. S. NAVY:   COMPANY
 WELL. U.S. NPR 3 "A" #402-33:   WELL
 FLD .             TEAPOT:   FIELD
 LOC .      S33 T39N R78W:   LOCATION
 CNTY.            NATRONA:   COUNTY
 STAT.            WYOMING:   STATE
 CTRY. UNITED STATES OF AMERICA:   COUNTRY
 SRVC.         MCCULLOUGH:   SERVICE COMPANY
 DATE.        23-OCT-1967:   LOGDATE
 API .     49025104460000:   API NUMBER
~CURVE INFORMATION
#MNEM.UNIT       API CODE    CURVE DESCRIPTION
#----------   ------------   ------------------------------
 DEPT.F                  :   
 GRN .GAPI   35 310 01 00:   GAMMA RAY FROM NEUTRON
 NEUT.NAPI   35 330 01 00:   NEUTRON
~PARAMETER INFORMATION
#MNEM.UNIT          VALUE    DESCRIPTION
#----------   ------------   ------------------------------
 EKB .F            0.0000:   Kelly bushing
 EGL .F         5160.5000:   Ground level
 EDF .F         5162.0000:   Drilling floor
 TD  .F         3123.5000:   Total depth
 CLNT.            A2DTECH:   Client Code
 PD  .                 GL:   Permanent Datum
 EPD .F            5160.5:   Elevation Permanent Datum
 LMF .                 DF:   Log Measured From
 DMF .                 DF:   Drilling Measured From
 DAPD.F               1.5:   Feet Above Permanent Datum
 DATE.        23-OCT-1967:   Date Logged [DD-MMM-YYYY]
 DL  .F            3123.5:   Depth logger
 BLI .F              3122:   Bottom log interval
 TLI .F               600:   Top log interval
 CS1 .IN           5.1875:   Casing size
 DFT .              WATER:   Type fluid in hole
 TCS .HRS             4.5:   Time Circ. stopped
 ENGI.         COWLTHORPE:   Recorded By
 WITN.           THOMASON:   Witnessed by
 ORIG.         2.5" PRINT:   Origin of data
 UWI .     49025104460000:   Unique Well ID
 DICO. A2D TECHNOLOGIES, INC.:   Digitizing Company
 LUN .               1498:   Logging unit number
~OTHER INFORMATION
~A   DEPT       GRN      NEUT   
# ...
 2412.5000    36.2297   493.5887
 2413.0000    37.2709   476.3476
 2413.5000    36.5525   491.1257
 2414.0000    36.9255   474.9699
 2414.5000    41.1665   490.6568
 2415.0000    40.6438   530.5340
 2415.5000    38.0267   528.0710
 2416.0000    39.6157   555.1642
 2416.5000    39.8151   527.3652
 2417.0000    37.8321   472.9991
 2417.5000    36.8444   449.7470
 2418.0000    37.2519   446.7914
 2418.5000    36.3279   455.0917
 2419.0000    34.7542   465.9034
 2419.5000    36.3570   496.7655
 2420.0000    38.0616   540.3909
 2420.5000    36.3824   532.1962
 2421.0000    35.9370   459.1065
 2421.5000    37.6699   475.2876
 2422.0000    35.0224   489.1510
 2422.5000    34.7504   491.6140
 2423.0000    37.6665   476.3476
 2423.5000    36.4149   476.3476
 2424.0000    33.7041   471.6198
 2424.5000    31.3337   451.8190
 2425.0000    38.0793   461.5744
 2425.5000    40.9964   459.0582
 2426.0000    42.6629   464.1317
 2426.5000    43.2010   444.4348
 2427.0000    39.1173   451.3670
 2427.5000    41.2007   466.0020
 2428.0000    39.7406   464.6217
 2428.5000    41.1986   488.2953
 2429.0000    42.9868   471.9147
 2429.5000    38.2784   453.7382
 2430.0000    38.4858   488.6627
 2430.5000    40.1523   493.0479
 2431.0000    39.3175   466.4956
 2431.5000    35.9814   483.7367
 2432.0000    34.3129   496.0518
 2432.5000    33.4503   493.5887
 2433.0000    34.7277   461.5695
 2433.5000    37.0195   481.2737
 2434.0000    39.5197   456.6435
 2434.5000    37.2258   456.6435
 2435.0000    34.9320   473.8846
 2435.5000    35.9731   461.5695
 2436.0000    38.4986   424.6243
 2436.5000    38.4613   423.9596
 2437.0000    39.3051   471.4216
 2437.5000    39.7209   486.1997
 2438.0000    39.2886   466.4956
 2438.5000    37.1788   402.4571
 2439.0000    33.0141   386.0547
 2439.5000    33.8747   412.8264
 2440.0000    39.7436   417.2352
 2440.5000    41.0998   424.6243
 2441.0000    43.7511   468.9586
 2441.5000    44.7152   475.5589
 2442.0000    40.1285   496.0518
 2442.5000    40.7528   503.8103
 2443.0000    39.2620   478.8106
 2443.5000    39.0832   436.9394
 2444.0000    42.7337   436.9394
 2444.5000    42.5466   444.3284
 2445.0000    41.3732   456.6435
 2445.5000    39.0790   496.0518
 2446.0000    41.1624   478.8106
 2446.5000    42.3451   466.4956
 2447.0000    43.2447   466.4956
 2447.5000    40.0895   471.4216
 2448.0000    38.4485   505.9038
 2448.5000    39.0728   496.0518
 2449.0000    37.6931   454.1805
 2449.5000    35.8263   444.3284
 2450.0000    32.3302   481.2737
 2450.5000    31.5648   525.6282
 2451.0000    32.7724   536.7907
 2451.5000    34.3746   555.8320
 2452.0000    35.5221   586.5907
 2452.5000    34.3537   568.3472
 2453.0000    35.2388   552.5861
 2453.5000    36.6194   556.6047
 2454.0000    37.8773   544.2290
 2454.5000    40.1190   541.9464
 2455.0000    40.9900   527.6630
 2455.5000    41.9510   491.9637
 2456.0000    40.8381   469.2589
 2456.5000    42.0884   464.3527
 2457.0000    44.1575   498.8638
 2457.5000    42.0409   523.5182
 2458.0000    40.9288   489.0604
 2458.5000    41.1614   511.2519
 2459.0000    43.2223   535.9064
 2459.5000    45.4610   496.5225
 2460.0000    42.1751   513.7880
 2460.5000    36.5462   476.8670
 2461.0000    37.5873   499.0585
 2461.5000    38.8369   526.1760
 2462.0000    36.5431   513.8853
 2462.5000    36.3338   496.6685
 2463.0000    39.8760   486.8408
 2463.5000    41.3341   461.8743
 2464.0000    41.1246   486.8895
 2464.5000    40.0814   454.8946
 2465.0000    38.8297   517.1569
 2465.5000    37.7865   538.6860
 2466.0000    38.4107   503.2433
 2466.5000    39.2435   435.2919
 2467.0000    42.7859   456.8293
 2467.5000    43.2435   501.8380
 2468.0000    42.3670   454.3051
 2468.5000    40.0731   453.2129
 2469.0000    38.7547   482.7353
 2469.5000    39.2373   505.5404
 2470.0000    39.2362   532.5049
 2470.5000    38.6099   526.6178
 2471.0000    39.2342   585.7592
 2471.5000    40.4838   558.6903
 2472.0000    41.1247   561.1777
 2472.5000    39.0226   575.9802
 2473.0000    39.8553   541.5223
 2473.5000    42.5640   553.8617
 2474.0000    39.2279   576.0532
 2474.5000    40.0607   544.0583
 2475.0000    40.8934   487.4333
 2475.5000    41.7261   428.3452
 2476.0000    38.3671   438.2216
 2476.5000    36.9215   448.0980
 2477.0000    36.7204   443.1963
 2477.5000    36.7606   410.5808
 2478.0000    38.5187   492.5053
 2478.5000    40.9250   544.2531
 2479.0000    41.7631   518.6287
 2479.5000    43.1266   494.6939
 2480.0000    48.8038   499.9975
 2480.5000    47.4604   517.2584
 2481.0000    44.7156   499.9932
 2481.5000    40.5552   473.8369
 2482.0000    36.5680   498.7744
 2482.5000    37.4186   502.5788
 2483.0000    40.6684   513.2433
 2483.5000    37.9956   558.0313
 2484.0000    33.3709   496.4416
 2484.5000    34.8817   517.4601
 2485.0000    34.5080   515.0170
 2485.5000    36.6787   571.6953
 2486.0000    42.7466   566.7936
 2486.5000    41.1933   559.4288
 2487.0000    38.3091   542.2121
 2487.5000    37.5325   574.2556
 2488.0000    38.5736   542.2607
 2488.5000    37.0217   547.2111
 2489.0000    35.4448   517.6793
 2489.5000    37.0024   517.7036
 2490.0000    40.1952   499.8281
 2490.5000    38.1741   525.1414
 2491.0000    36.5717   537.4808
 2491.5000    37.5240   503.0229
 2492.0000    36.9365   507.9733
 2492.5000    34.7423   530.1647
 2493.0000    33.0516   515.4110
 2493.5000    31.7917   512.7537
 2494.0000    32.8365   525.9695
 2494.5000    35.8838   542.9575
 2495.0000    37.5167   547.5289
 2495.5000    36.5488   553.0880
 2496.0000    37.2887   559.8914
 2496.5000    39.4200   534.0318
 2497.0000    39.1441   485.6556
 2497.5000    36.6775   448.9293
 2498.0000    34.8005   441.8642
 2498.5000    36.2585   410.9369
 2499.0000    40.0094   415.4434
 2499.5000    40.0084   434.4479
 2500.0000    37.9229   429.5462
 2500.5000    36.9551   460.1826
 2501.0000    40.0053   461.8613
 2501.5000    41.0468   481.2737
 2502.0000    37.7323   471.2249
 2502.5000    37.8747   490.6273
 2503.0000    41.0435   515.7559
 2503.5000    40.7461   488.6627
 2504.0000    39.5852   502.9473
 2504.5000    39.2658   508.3669
 2505.0000    36.3848   478.3175
 2505.5000    35.1976   488.6165
 2506.0000    38.2968   532.9971
 2506.5000    36.1261   483.7367
 2507.0000    39.3674   493.1953
 2507.5000    41.8677   498.5148
 2508.0000    42.4921   450.2333
 2508.5000    41.8656   439.4024
 2509.0000    39.9886   491.5193
 2509.5000    36.8610   480.2243
 2510.0000    35.8177   464.0325
 2510.5000    35.8167   491.3735
 2511.0000    38.9423   483.8265
 2511.5000    40.0267   463.0998
 2512.0000    36.8558   427.5731
 2512.5000    36.8548   403.6923
 2513.0000    36.6453   397.5311
 2513.5000    34.9767   406.6430
 2514.0000    32.8913   444.9168
 2514.5000    34.1409   483.2411
 2515.0000    34.7652   494.0814
 2515.5000    34.7741   459.1065
 2516.0000    34.3463   439.4024
 2516.5000    34.3452   505.9038
 2517.0000    35.1887   557.6272
 2517.5000    36.2191   537.9231
 2518.0000    35.5928   552.7012
 2518.5000    35.8154   573.0448
 2519.0000    37.0498   569.3497
 2519.5000    37.2378   592.1095
 2520.0000    39.3406   584.7204
 2520.5000    36.2773   574.8683
 2521.0000    33.2938   569.9423
 2521.5000    34.3349   552.7012
 2522.0000    33.6197   569.9423
 2522.5000    32.8249   587.1834
 2523.0000    32.4557   562.5533
 2523.5000    31.9809   532.9971
 2524.0000    31.0439   557.6272
 2524.5000    28.4270   557.8217
 2525.0000    30.0198   537.9231
 2525.5000    28.9420   567.9165
 2526.0000    28.0724   606.8876
 2526.5000    33.0602   584.2759
 2527.0000    37.0830   582.2574
 2527.5000    35.6505   598.5221
 2528.0000    33.0706   614.2766
 2528.5000    32.1599   572.4053
 2529.0000    31.8064   604.8201
 2529.5000    37.7657   606.8876
 2530.0000    35.7486   547.7751
 2530.5000    35.0345   564.1783
 2531.0000    34.9709   577.3314
 2531.5000    38.8927   567.4793
 2532.0000    35.1465   569.5488
 2532.5000    36.8130   578.0705
 2533.0000    37.0288   575.7541
 2533.5000    32.6421   565.8033
