~VERSION INFORMATION
 VERS.                2.0:   CWLS LOG ASCII STANDARD - VERSION 2.0
 WRAP.                 NO:   ONE LINE PER DEPTH STEP
~WELL INFORMATION
#MNEM.UNIT      DATA TYPE    INFORMATION
#----------   ------------   ------------------------------
 STRT.F          700.5000:   START DEPTH
 STOP.F         3060.0000:   STOP DEPTH
 STEP.F            0.5000:   STEP LENGTH
 NULL.          -999.2500:   NO VALUE
 COMP.    FENIX & SCISSON:   COMPANY
 WELL.   FENIX "A" #23-34:   WELL
 FLD .           N P R #3:   FIELD
 LOC .      S34 T39N R78W:   LOCATION
 CNTY.            NATRONA:   COUNTY
 STAT.            WYOMING:   STATE
 CTRY. UNITED STATES OF AMERICA:   COUNTRY
 SRVC.       SCHLUMBERGER:   SERVICE COMPANY
 DATE.        23-APR-1977:   LOGDATE
 API .     49025103590000:   API NUMBER
~CURVE INFORMATION
#MNEM.UNIT       API CODE    CURVE DESCRIPTION
#----------   ------------   ------------------------------
 DEPT.F                  :   
 ILD .OHMM   07 120 46 00:   DEEP INDUCTION RESISTIVITY
 ILM .OHMM   07 120 44 00:   INDUCTION LOG MEDIUM RESISTIVITY
 LL8 .OHMM   07 220 08 00:   LATEROLOG-8 RES.
 SPR .MV     07 010 01 00:   SPONTANEOUS POTENTIAL
 GRD .GAPI   45 310 01 00:   GAMMA RAY FROM DENSITY LOG
 CALD.IN     45 280 60 00:   CALIPER FROM DENSITY LOG
 RHOB.G/C3   45 350 01 00:   BULK DENSITY
 CORR.G/C3   45 356 01 00:   DENSITY CORRECTION
~PARAMETER INFORMATION
#MNEM.UNIT          VALUE    DESCRIPTION
#----------   ------------   ------------------------------
 EKB .F         5094.0000:   Kelly bushing
 EGL .F         5082.0000:   Ground level
 EDF .F            0.0000:   Drilling floor
 EPD .F            0.0000:   Permanent datum
 TD  .F         3051.0000:   Total depth
 DATE.        23-APR-1977:   Date logged
 CLNT.            A2DTECH:   Client Code
 SL  . 990' FWL & 1650' FNL:   Surface Location
 PD  .                 GL:   Permanent Datum
 DD  .F              3050:   Depth driller
 DL  .F              3051:   Depth logger
 BLI .F              3045:   Bottom log interval
 CS1 .IN            8.625:   Casing size
 CBD1.      8.625" @ 718':   Casing driller 1
 CBL1.F               717:   Casing logger 1
 BS1 .IN            7.875:   Bit size
 DFT .                FGM:   Type fluid in hole
 DFD .                8.8:   Density
 DFV .                 34:   Viscosity
 DFPH.                8.5:   pH
 DFL .                8.2:   Fluid loss
 MSS .           FLOWLINE:   Source of sample
 RMS .OHMM           .155:   Rm
 MST .F                66:   Rm Meas. temp.
 RMF .OHMM           .152:   Rmf
 MFST.F                66:   Rmf Meas. temp.
 MFSS.               MEAS:   Source Rmf.
 RMB .OHMM           .085:   Rm. at BHT
 BHT .F               120:   BHT.
 TCS .HRS            0230:   Time Circ. stopped
 MRT .F               120:   Maximum recorded temp.
 LUN .               5642:   Logging unit number
 LUL .               CSPR:   Logging unit location
 ENGI.             TAYLOR:   Recorded By
 WITN.         HARRINGTON:   Witnessed by
 ORIG.           5" PRINT:   Origin of data
 UWI .     49025103590000:   Unique Well ID
 DICO. A2D TECHNOLOGIES, INC.:   Digitizing Company
 DAPD.                 12:   Feet Above Permanent Datum
 BSD1.               3050:   Depth drilled with bit1
 TLI .                717:   Top log interval
 TLAB.               0530:   Time logger at bottom
~OTHER INFORMATION
~A   DEPT      ILD        ILM        LL8        SPR         GRD      CALD       RHOB       CORR   
# ...
 2563.5000    11.1820    10.1450    12.9180   -55.9200   109.5990     9.0210     2.4640     0.0120
 2564.0000    11.3220    10.0370    13.2580   -55.7030   108.8940     9.0190     2.4690     0.0240
 2564.5000    11.4620     9.7770    13.2580   -55.6910   108.3410     9.0100     2.4710     0.0180
 2565.0000    11.6020     9.7770    12.8280   -55.7510   108.4440     9.0020     2.4730     0.0210
 2565.5000    11.7430     9.8880    12.1590   -55.8110   108.5360     8.9940     2.4750     0.0260
 2566.0000    11.8830     9.9970    12.5850   -55.7310   108.6350     8.9860     2.4770     0.0320
 2566.5000    12.0230    10.1060    13.3780   -55.3810   107.2520     8.9780     2.4790     0.0350
 2567.0000    12.1630    10.2150    14.1420   -55.0360   103.8460     8.9690     2.4750     0.0300
 2567.5000    12.3030    10.3240    13.5330   -54.6900   105.3730     8.9610     2.4700     0.0240
 2568.0000    12.4430    10.4330    12.5770   -54.3450   106.8900     8.9530     2.4730     0.0260
 2568.5000    12.5830    10.5420    12.4280   -53.9990   107.8840     8.9450     2.4690     0.0330
 2569.0000    12.6600    10.6240    12.2590   -53.6530   105.7750     8.9500     2.4650     0.0230
 2569.5000    12.6850    10.6240    12.0980   -53.3060   102.3550     8.9720     2.4750     0.0380
 2570.0000    12.7250    10.6240    11.9780   -52.9640   101.3340     8.9940     2.4420     0.0290
 2570.5000    12.7770    10.6240    12.4500   -52.6700   100.7480     9.0170     2.4250     0.0180
 2571.0000    12.6690    10.6240    12.7770   -52.6780   100.5490     9.0390     2.4260     0.0140
 2571.5000    12.5060    10.5440    13.2710   -52.6680   102.7560     9.0610     2.4420     0.0350
 2572.0000    12.3440    10.2500    13.8840   -53.0390   105.6340     9.0830     2.4530     0.0300
 2572.5000    12.1810     9.9570    13.5480   -53.4890   108.5690     9.1050     2.4470     0.0210
 2573.0000    12.0190     9.6630    13.1130   -53.9450   110.0040     9.1270     2.4680     0.0160
 2573.5000    11.8560     9.3690    12.6790   -54.3990   111.0900     9.1490     2.4960     0.0740
 2574.0000    11.6940     9.3360    12.5430   -54.8530   113.1270     9.1710     2.5240     0.0790
 2574.5000    11.5310     9.9050    12.5430   -55.3090   111.6910     9.1950     2.5540     0.1010
 2575.0000    11.3680    10.4450    13.3070   -55.7690   108.6660     9.2100     2.5610     0.1040
 2575.5000    11.2060    10.8220    14.6080   -55.7880   105.5530     9.2200     2.5500     0.0790
 2576.0000    11.1250    10.5270    15.6530   -55.7130   104.8600     9.2120     2.5340     0.0510
 2576.5000    11.2870    10.3000    15.6530   -55.6340   106.5450     9.2030     2.5190     0.0410
 2577.0000    11.4760    10.1450    13.6630   -55.5550   109.9710     9.1940     2.5040     0.0470
 2577.5000    11.6650    10.2250    12.8590   -55.4760   113.3720     9.1850     2.5160     0.0700
 2578.0000    11.8680    10.3120    12.0890   -55.3980   114.5230     9.1760     2.5130     0.0610
 2578.5000    11.8680    10.3990    11.9780   -55.3190   115.6490     9.1680     2.5070     0.0390
 2579.0000    11.7980    10.4860    12.1640   -55.2120   117.1710     9.1620     2.5000     0.0520
 2579.5000    11.7020    10.5260    12.7320   -54.9950   116.0800     9.1400     2.4810     0.0450
 2580.0000    11.6060    10.3480    13.2990   -54.7790   113.4080     9.1430     2.4860     0.0290
 2580.5000    11.5100    10.1920    13.8670   -54.5640   110.7480     9.1530     2.4970     0.0430
 2581.0000    11.4140    10.0350    14.1210   -54.3450   110.6860     9.1620     2.5020     0.0510
 2581.5000    11.3330     9.8780    14.2730   -54.3170   111.6010     9.1720     2.4820     0.0470
 2582.0000    11.3330     9.7770    13.7450   -54.3950   114.1580     9.1820     2.4680     0.0390
 2582.5000    11.3690    10.6460    13.0150   -54.4750   117.0280     9.1920     2.4940     0.0540
 2583.0000    11.4170    11.1320    13.1360   -54.5530   118.1610     9.1990     2.4890     0.0520
 2583.5000    11.4660    11.1490    13.6300   -54.6310   118.0550     9.1200     2.4800     0.0340
 2584.0000    11.5140    11.1660    13.3170   -54.6650   118.2290     9.0360     2.4760     0.0200
 2584.5000    11.6360    11.1840    12.2210   -54.4260   118.1860     8.9520     2.5210     0.0180
 2585.0000    11.8820    11.2010    11.4380   -53.9750   114.7270     8.8660     2.5480     0.0430
 2585.5000    12.1280    11.2180    13.4970   -53.1010   109.1190     8.8610     2.5440     0.0500
 2586.0000    12.3750    11.2290    17.9770   -52.1980   104.3210     8.8650     2.5210     0.0440
 2586.5000    12.6210    10.4970    16.7400   -51.2860   100.2140     8.8680     2.4910     0.0330
 2587.0000    12.8670    10.1450    14.4140   -50.3760    96.0900     8.8710     2.4690     0.0360
 2587.5000    13.1360    10.5040    12.0890   -49.4670    95.5030     8.8740     2.4640     0.0480
 2588.0000    13.0560    10.8760    11.8680   -48.5570    95.7480     8.8770     2.4500     0.0440
 2588.5000    12.9240    11.0230    12.3540   -47.6480    94.4210     8.8810     2.4560     0.0370
 2589.0000    12.7920    10.8250    12.5430   -46.7420    91.5720     8.8700     2.4560     0.0520
 2589.5000    12.6600    10.3670    10.3660   -45.8380    85.7750     8.8470     2.4480     0.0540
 2590.0000    12.5280     9.9100     9.6870   -45.4210    83.2120     8.8240     2.4320     0.0520
 2590.5000    12.3960     9.4520    10.3330   -45.6880    84.6050     8.8020     2.4230     0.0510
 2591.0000    12.2640     8.9150    11.1250   -46.3010    86.6760     8.8790     2.4400     0.0530
 2591.5000    12.1320     9.0450    10.8220   -46.9080    88.7740     8.9670     2.4340     0.0600
 2592.0000    11.9990     9.3580    11.0230   -47.5140    90.8770     9.0550     2.4300     0.0700
 2592.5000    11.8090    10.1450    11.5440   -48.1200    92.9320     9.1380     2.4570     0.0650
 2593.0000    11.6060    10.1450    11.1670   -48.7270    94.5430     9.1630     2.4520     0.0550
 2593.5000    11.4040    10.1450    10.5260   -49.3340    95.4140     9.1650     2.4500     0.0470
 2594.0000    11.3330    10.0290    10.7080   -49.9400    98.6030     9.1680     2.4680     0.0410
 2594.5000    11.3330     9.7770    11.1110   -50.5470   101.8780     9.1720     2.5020     0.0420
 2595.0000    11.5340     9.9400    11.5140   -51.1530   104.4570     9.1760     2.5190     0.0520
 2595.5000    11.7240    10.0930    11.9730   -51.7590   104.2570     9.1800     2.5150     0.0600
 2596.0000    11.9780    10.1450    12.7870   -52.3650   103.6950     9.1840     2.5040     0.0280
 2596.5000    11.9020     9.9080    13.3800   -52.9030   104.8410     9.1880     2.5110     0.0340
 2597.0000    11.7420     9.6350    12.6080   -53.3700   106.3050     9.1920     2.4990     0.0390
 2597.5000    11.5810     9.3610    11.9380   -53.8370   107.7880     9.1960     2.4720     0.0310
 2598.0000    11.4210     9.1240    11.3950   -54.3030   107.8600     9.2010     2.4790     0.0320
 2598.5000    11.2600     8.9780    10.8530   -54.7670   106.7390     9.2200     2.4900     0.0380
 2599.0000    11.0990     8.8320    10.3110   -55.2290   107.1400     9.2700     2.4850     0.0450
 2599.5000    10.9390     8.6860    10.1450   -55.6900   107.6610     9.3280     2.4830     0.0410
 2600.0000    10.4410     8.5410    10.3910   -56.5570   106.9880     9.3840     2.5320     0.0390
 2600.5000     9.9050     8.3950    10.6090   -57.3860   106.4030     9.4420     2.5270     0.0670
 2601.0000     9.3800     8.2490    10.8270   -58.2090   106.6720     9.4990     2.5160     0.0600
 2601.5000     9.3360     8.1890    10.9910   -58.6540   104.7350     9.5560     2.5040     0.0510
 2602.0000     9.3360     8.1670    10.6310   -59.2460   102.9610     9.5650     2.4980     0.0560
 2602.5000     9.6410     8.1450    10.3070   -59.8180   110.2270     9.5710     2.5160     0.0640
 2603.0000     9.9180     8.1290    10.1450   -60.2280   110.2600     9.5780     2.4960     0.0630
 2603.5000    10.1960     8.4550    10.3320   -60.2170   109.8800     9.5840     2.4940     0.0520
