~VERSION INFORMATION
 VERS.                2.0:   CWLS LOG ASCII STANDARD - VERSION 2.0
 WRAP.                 NO:   ONE LINE PER DEPTH STEP
~WELL INFORMATION
#MNEM.UNIT      DATA TYPE    INFORMATION
#----------   ------------   ------------------------------
 STRT.F          712.0000:   START DEPTH
 STOP.F         3352.0000:   STOP DEPTH
 STEP.F            0.5000:   STEP LENGTH
 NULL.          -999.2500:   NO VALUE
 COMP.    FENIX & SCISSON:   COMPANY
 WELL. FENIX & SCISSON "AX" #24-14:   WELL
 FLD .              NPR 3:   FIELD
 LOC .      S14 T38N R78W:   LOCATION
 CNTY.            NATRONA:   COUNTY
 STAT.            WYOMING:   STATE
 CTRY. UNITED STATES OF AMERICA:   COUNTRY
 SRVC.       SCHLUMBERGER:   SERVICE COMPANY
 DATE.        19-JUN-1981:   LOGDATE
 API .     49025108750000:   API NUMBER
~CURVE INFORMATION
#MNEM.UNIT       API CODE    CURVE DESCRIPTION
#----------   ------------   ------------------------------
 DEPT.F                  :   
 TENR.LBS    07 635 01 00:   TENSION
 ILD .OHMM   07 120 46 00:   DEEP INDUCTION RESISTIVITY
 SFL .OHMM   07 220 01 00:   SHALLOW FOCUSED LOG RESISTIVITY
 ILM .OHMM   07 120 44 00:   INDUCTION LOG MEDIUM RESISTIVITY
 SPR .MV     07 010 01 00:   SPONTANEOUS POTENTIAL
 TEND.LBS    45 635 01 00:   TENSION FROM DENSITY LOG
 DRHO.G/C3   45 356 01 00:   DENSITY CORRECTION
 CALD.IN     45 280 60 00:   CALIPER FROM DENSITY LOG
 GRD .GAPI   45 310 01 00:   GAMMA RAY FROM DENSITY LOG
 RHOB.G/C3   45 350 01 00:   BULK DENSITY
~PARAMETER INFORMATION
#MNEM.UNIT          VALUE    DESCRIPTION
#----------   ------------   ------------------------------
 EKB .F         5216.0000:   Kelly bushing
 EGL .F         5206.0000:   Ground level
 EDF .F         5215.0000:   Drilling floor
 EPD .F            0.0000:   Permanent datum
 TD  .F         3360.0000:   Total depth
 DATE.        19-JUN-1981:   Date logged
 CLNT.            A2DTECH:   Client Code
 SL  . 2413' FNL & 827' FWL:   Surface Location
 PD  .                 GL:   Permanent Datum
 DAPD.F                10:   Feet Above Permanent Datum
 DD  .F              3360:   Depth driller
 DL  .F              3348:   Depth logger
 BLI .F              3342:   Bottom log interval
 TLI .F               728:   Top log interval
 CS1 .IN            8.625:   Casing size
 CBD1.      8.625" @ 728':   Casing driller 1
 CBL1.F               728:   Casing logger 1
 BS1 .IN            7.875:   Bit size
 BSD1.F              3360:   Depth drilled with bit1
 DFT .                FGM:   Type fluid in hole
 DFD .                  9:   Density
 DFV .                 45:   Viscosity
 DFPH.                9.5:   pH
 DFL .                 10:   Fluid loss
 MSS .               TANK:   Source of sample
 RMS .OHMM           5.71:   Rm
 MST .F                68:   Rm Meas. temp.
 RMF .OHMM           1.27:   Rmf
 MFST.F                68:   Rmf Meas. temp.
 MFSS.               MEAS:   Source Rmf.
 RMB .OHMM           3.29:   Rm. at BHT
 BHT .F               118:   BHT.
 TCS .HRS            0800:   Time Circ. stopped
 TLAB.HRS            1130:   Time logger at bottom
 MRT .F               118:   Maximum recorded temp.
 LUN .               8039:   Logging unit number
 LUL .               CSPR:   Logging unit location
 ENGI.           G. PFARR:   Recorded By
 WITN.           R. SCOTT:   Witnessed by
 ORIG.           5" PRINT:   Origin of data
 UWI .     49025108750000:   Unique Well ID
 DICO. A2D TECHNOLOGIES, INC.:   Digitizing Company
~OTHER INFORMATION
~A   DEPT     TENR        ILD        SFL        ILM        SPR       TEND       DRHO       CALD         GRD      RHOB   
# ...
 1415.5000   923.3790     7.8050     8.5140     6.8940   -59.5860  1001.9840     0.0490     8.5850   110.4460     2.5300
 1416.0000   923.3790     7.8050     8.2410     6.8720   -59.4220  1001.9840     0.0400     8.5720   108.8400     2.5110
 1416.5000   923.3790     7.8050     8.3210     6.8500   -59.2600  1001.9840     0.0360     8.5630   106.7480     2.5170
 1417.0000   923.3790     7.8050     8.3980     6.8290   -59.1130  1001.9840     0.0440     8.5580   105.7510     2.5290
 1417.5000   923.3790     7.8050     8.4740     6.8070   -59.1160  1001.9840     0.0460     8.5540   107.1160     2.5410
 1418.0000   923.3790     7.8050     8.5440     6.7850   -59.0970  1001.9840     0.0400     8.5490   110.3170     2.5310
 1418.5000   923.3790     7.8050     8.5020     6.7540   -59.0930  1001.9840     0.0280     8.5440   113.6530     2.5130
 1419.0000   923.3790     7.8050     8.4640     6.7640   -58.5220  1001.9840     0.0180     8.5400   114.9190     2.5070
 1419.5000   923.3790     7.8050     8.4250     6.7890   -58.3260  1001.9840     0.0160     8.5350   114.2460     2.5130
 1420.0000   923.3790     7.8050     8.3910     6.8140   -58.3310  1001.9840     0.0210     8.5300   112.1850     2.5300
 1420.5000   923.3790     7.8050     8.6550     6.8380   -58.4500  1001.9840     0.0340     8.5260   110.6260     2.5470
 1421.0000   923.3790     7.8070     8.8590     6.8620   -58.6110  1001.9840     0.0350     8.5250   110.0410     2.5390
 1421.5000   923.3790     7.8330     8.8590     6.8860   -58.7810  1001.9840     0.0330     8.5250   109.5580     2.5310
 1422.0000   923.3790     7.8560     8.8590     6.9100   -58.9310  1001.9840     0.0300     8.5260   109.9940     2.5330
 1422.5000   923.3790     7.8800     8.8590     6.9340   -59.1070  1001.9840     0.0360     8.5260   111.2560     2.5420
 1423.0000   923.3790     7.9040     8.8590     6.9580   -59.1010  1001.9840     0.0430     8.5260   112.5130     2.5540
 1423.5000   923.3790     7.9280     8.8800     6.9820   -59.0940  1001.9840     0.0500     8.5270   112.9050     2.5670
 1424.0000   923.3790     7.9470     8.9070     7.0010   -59.2220  1001.9840     0.0540     8.5270   114.8810     2.5730
 1424.5000   923.3790     7.9480     8.9340     6.9720   -59.2250  1001.9840     0.0570     8.5270   117.4130     2.5710
 1425.0000   923.3790     7.9480     8.9620     6.9490   -59.1300  1001.9840     0.0610     8.5270   119.5920     2.5670
 1425.5000   923.3790     7.9480     8.9890     6.9250   -59.1770  1001.9840     0.0620     8.5280   118.2400     2.5680
 1426.0000   923.3790     7.9480     9.0210     6.9010   -59.2300  1001.9840     0.0590     8.5280   112.1430     2.5660
 1426.5000   923.3790     7.9480     8.7910     6.8780   -59.2530  1001.9840     0.0440     8.5280   106.7490     2.5510
 1427.0000   923.3790     7.9470     8.5100     6.9060   -59.2980  1001.9840     0.0300     8.5290   104.7040     2.5370
 1427.5000   923.3790     7.9480     8.2410     6.9330   -59.3330  1001.9840     0.0200     8.5290   104.0520     2.5280
 1428.0000   923.3790     7.9480     8.3660     6.9610   -59.3720  1001.9840     0.0240     8.5290   103.7960     2.5340
 1428.5000   923.3790     7.9870     8.5610     6.9880   -59.4090  1001.9840     0.0300     8.5290   103.6290     2.5480
 1429.0000   923.3790     8.0330     8.7560     7.0160   -59.4430  1001.9840     0.0340     8.5300   104.4380     2.5470
 1429.5000   923.3790     8.0790     8.9020     7.0440   -59.4960  1001.9840     0.0220     8.5300   105.9430     2.5330
 1430.0000   923.3790     8.1250     8.9930     7.0720   -59.3890  1001.9840     0.0110     8.5300   107.1350     2.5190
 1430.5000   923.3790     8.1710     9.0850     7.1000   -59.1980  1001.9840     0.0020     8.5300   108.0690     2.5180
 1431.0000   923.3790     8.2170     9.1860     7.1310   -59.0220  1001.9840     0.0040     8.5310   109.0310     2.5210
 1431.5000   923.3790     8.2620     9.1860     7.2290   -58.8270  1001.9840     0.0060     8.5310   108.9660     2.5240
 1432.0000   923.3790     8.3080     9.1860     7.3390   -58.7650  1001.9840     0.0090     8.5310   107.0470     2.5210
 1432.5000   923.3790     8.3540     9.2100     7.4130   -58.9660  1001.9840     0.0120     8.5320   104.8020     2.5120
 1433.0000   923.3790     8.4000     9.2570     7.4510   -59.1430  1001.9840     0.0150     8.5320   105.0640     2.5020
 1433.5000   923.3790     8.4460     9.3040     7.4900   -59.3250  1001.9840     0.0170     8.5320   107.5570     2.5040
 1434.0000   923.3790     8.4920     9.3530     7.5280   -59.5130  1001.9840     0.0190     8.5320   110.1830     2.5120
 1434.5000   923.3790     8.5380     9.5600     7.5670   -59.6890  1001.9840     0.0240     8.5330   112.7620     2.5260
 1435.0000   923.3790     8.5840     9.7800     7.6050   -59.8770  1001.9840     0.0310     8.5330   112.7400     2.5400
 1435.5000   923.3790     8.6300     9.8750     7.6440   -59.8350  1001.9840     0.0360     8.5330   111.0440     2.5490
 1436.0000   923.3790     8.6760     9.8750     7.6820   -59.7400  1001.9840     0.0320     8.5340   108.7980     2.5450
 1436.5000   923.3790     8.7220     9.6920     7.7210   -59.6440  1001.9840     0.0250     8.5340   106.4990     2.5380
 1437.0000   923.3790     8.7680     9.5040     7.7590   -59.5540  1001.9840     0.0230     8.5340   105.1100     2.5320
 1437.5000   923.3790     8.8140     9.3530     7.8050   -59.4590  1001.9840     0.0230     8.5340   104.2240     2.5400
 1438.0000   923.3790     8.8590     9.5650     7.7700   -59.3660  1001.9840     0.0240     8.5350   105.7700     2.5520
 1438.5000   923.3790     8.8030     9.7420     7.7260   -59.2750  1001.9840     0.0240     8.5350   108.2470     2.5560
 1439.0000   923.3790     8.7470     9.9190     7.6820   -59.1770  1001.9840     0.0200     8.5350   110.7480     2.5430
 1439.5000   923.3790     8.6920    10.0560     7.6390   -59.1040  1001.9840     0.0110     8.5350   113.0130     2.5240
 1440.0000   923.3790     8.6360    10.0560     7.5970   -58.9080  1001.9840     0.0020     8.5360   112.2010     2.5100
 1440.5000   923.3790     8.5800    10.0560     7.5550   -58.6610  1001.9840     0.0110     8.5360   110.2650     2.5170
 1441.0000   923.3790     8.5250     9.7550     7.5130   -58.4130  1001.9840     0.0230     8.5360   108.7300     2.5330
 1441.5000   923.3790     8.4690     9.3530     7.4700   -58.1760  1001.9840     0.0360     8.5370   109.3520     2.5480
 1442.0000   923.3790     8.4130     9.1860     7.4280   -57.9450  1001.9840     0.0400     8.5370   109.7760     2.5450
 1442.5000   923.3790     8.3580     9.2430     7.3860   -58.0450  1001.9840     0.0300     8.5370   110.0040     2.5310
 1443.0000   923.3790     8.3020     9.3270     7.3440   -58.2170  1001.9840     0.0200     8.5370   110.3040     2.5170
 1443.5000   923.3790     8.2410     9.4730     7.3020   -58.3820  1001.9840     0.0100     8.5380   112.2400     2.5180
 1444.0000   923.3790     8.2410     9.6730     7.2600   -58.5430  1001.9840     0.0070     8.5380   114.1690     2.5250
 1444.5000   923.3790     8.2410     9.6140     7.2170   -58.7070  1001.9840     0.0200     8.5380   113.5790     2.5320
 1445.0000   923.3790     8.2410     9.4940     7.1750   -58.8680  1001.9840     0.0290     8.5390   111.6990     2.5340
 1445.5000   923.3790     8.2410     9.3740     7.1300   -59.0370  1001.9840     0.0390     8.5390   109.3610     2.5370
 1446.0000   923.3790     8.2410     9.2540     7.1500   -59.1170  1001.9840     0.0470     8.5390   108.9160     2.5410
 1446.5000   923.3790     8.2410     9.1350     7.1720   -59.1050  1001.9840     0.0560     8.5390   109.3440     2.5500
 1447.0000   923.3790     8.2410     9.0150     7.1940   -59.1050  1001.9840     0.0660     8.5400   110.5830     2.5490
 1447.5000   923.3790     8.2410     8.8950     7.2160   -59.1260  1001.9840     0.0590     8.5400   113.3940     2.5360
 1448.0000   923.3790     8.2410     8.7000     7.2380   -59.0680  1001.9840     0.0470     8.5400   113.0710     2.5240
 1448.5000   923.3790     8.2410     8.8590     7.2600   -59.4230  1001.9840     0.0350     8.5400   109.9800     2.5150
