~VERSION INFORMATION
 VERS.                2.0:   CWLS LOG ASCII STANDARD - VERSION 2.0
 WRAP.                 NO:   ONE LINE PER DEPTH STEP
~WELL INFORMATION
#MNEM.UNIT      DATA TYPE    INFORMATION
#----------   ------------   ------------------------------
 STRT.F          209.5000:   START DEPTH
 STOP.F         3130.0000:   STOP DEPTH
 STEP.F            0.5000:   STEP LENGTH
 NULL.          -999.2500:   NO VALUE
 COMP. FENIX & SCISSON-U.S. NAVY:   COMPANY
 WELL.   FENIX "A" #66-29:   WELL
 FLD .              NPR 3:   FIELD
 LOC .      S29 T39N R78W:   LOCATION
 CNTY.            NATRONA:   COUNTY
 STAT.            WYOMING:   STATE
 CTRY. UNITED STATES OF AMERICA:   COUNTRY
 SRVC.       SCHLUMBERGER:   SERVICE COMPANY
 DATE.        12-JUN-1977:   LOGDATE
 API .     49025103850000:   API NUMBER
~CURVE INFORMATION
#MNEM.UNIT       API CODE    CURVE DESCRIPTION
#----------   ------------   ------------------------------
 DEPT.F                  :   
 CALD.IN     45 280 60 00:   CALIPER FROM DENSITY LOG
 GRD .GAPI   45 310 01 00:   GAMMA RAY FROM DENSITY LOG
 RHOB.G/C3   45 350 01 00:   BULK DENSITY
 CORR.G/C3   45 356 01 00:   DENSITY CORRECTION
 LL8 .OHMM   07 220 08 00:   LATEROLOG-8 RES.
 ILD .OHMM   07 120 46 00:   DEEP INDUCTION RESISTIVITY
 ILM .OHMM   07 120 44 00:   INDUCTION LOG MEDIUM RESISTIVITY
 SPR .MV     07 010 01 00:   SPONTANEOUS POTENTIAL
~PARAMETER INFORMATION
#MNEM.UNIT          VALUE    DESCRIPTION
#----------   ------------   ------------------------------
 EKB .F         5058.0000:   Kelly bushing
 EGL .F         5048.0000:   Ground level
 EDF .F            0.0000:   Drilling floor
 TD  .F         3120.0000:   Total depth
 DATE.        12-JUN-1977:   Date logged
 CLNT.            A2DTECH:   Client Code
 SL  . 1650' FSL & 1650' FEL:   Surface Location
 PD  .                 GL:   Permanent Datum
 EPD .F              5048:   Elevation Permanent Datum
 LMF .                 KB:   Log Measured From
 DMF .                 KB:   Drilling Measured From
 DAPD.F                10:   Feet Above Permanent Datum
 DD  .F              3120:   Depth driller
 DL  .F              3120:   Depth logger
 BLI .F              3120:   Bottom log interval
 TLI .F               219:   Top log interval
 CS1 .IN            8.625:   Casing size
 CBD1.      8.625" @ 225':   Casing driller 1
 CBL1.F               219:   Casing logger 1
 BS1 .IN            7.875:   Bit size
 BSD1.F              3120:   Depth drilled with bit1
 DFT .            KCL MUD:   Type fluid in hole
 DFD .                8.8:   Density
 DFV .                 32:   Viscosity
 DFPH.                7.5:   pH
 DFL .                  8:   Fluid loss
 MSS .              CIRC.:   Source of sample
 RMS .OHMM           2.01:   Rm
 MST .F                72:   Rm Meas. temp.
 RMF .OHMM            1.9:   Rmf
 MFST.F                72:   Rmf Meas. temp.
 RMC .OHMM           3.02:   Rmc
 MCST.F                72:   Rmc Meas. temp.
 MFSS.               MEAS:   Source Rmf.
 MCSS.               CALC:   Source Rmc.
 RMB .OHMM           1.21:   Rm. at BHT
 BHT .F               120:   BHT.
 TCS .HRS            1400:   Time Circ. stopped
 TLAB.HRS            1730:   Time logger at bottom
 MRT .F               120:   Maximum recorded temp.
 LUN .               7711:   Logging unit number
 LUL .               CSPR:   Logging unit location
 ENGI.             SAYLER:   Recorded By
 WITN.             RHODES:   Witnessed by
 ORIG.           5" PRINT:   Origin of data
 UWI .     49025103850000:   Unique Well ID
 DICO. A2D TECHNOLOGIES, INC.:   Digitizing Company
~OTHER INFORMATION
~A   DEPT     CALD         GRD      RHOB       CORR        LL8        ILD        ILM        SPR   
# ...
 1546.0000     8.1903   100.5293     2.5504    -0.0017    10.0329     8.8485     9.1783   -50.4669
 1546.5000     8.1905   101.5195     2.5524     0.0053     9.9383     8.6852     9.0917   -50.4740
 1547.0000     8.1907   104.0903     2.5643     0.0132     9.2337     8.5249     8.6021   -50.4811
 1547.5000     8.1909   106.0687     2.5574     0.0142     8.9817     8.3676     8.6004   -50.4883
 1548.0000     8.2109   108.4423     2.5624     0.0043     8.8162     8.2131     8.5192   -50.1005
 1548.5000     8.2111   108.6419     2.5524     0.0003     8.8133     8.1356     8.5164   -49.7126
 1549.0000     8.2113   107.2596     2.5564     0.0023     9.1382     8.1329     8.5135   -49.3290
 1549.5000     8.2115   103.7053     2.5614     0.0113     9.1351     8.0561     8.5107   -48.7847
 1550.0000     8.2117   103.5096     2.5525    -0.0086     9.0490     8.0534     8.5078   -48.7890
 1550.5000     8.2119   105.2903     2.5445    -0.0016     8.9638     8.0507     8.5050   -48.5986
 1551.0000     8.2121   106.0825     2.5435     0.0014     9.0430     8.1220     8.5803   -48.2107
 1551.5000     8.2123   106.4797     2.5356     0.0024     9.2067     8.1939     8.5774   -47.7802
 1552.0000     8.2125   107.0738     2.5426     0.0044     9.2881     8.2664     8.6533   -47.5898
 1552.5000     8.2126   106.2860     2.5476     0.0074     9.2005     8.3396     8.6504   -47.7944
 1553.0000     8.1931   104.1143     2.5525     0.0124     9.0309     8.4134     8.7270   -47.9990
 1553.5000     8.1735   104.5120     2.5625     0.0174     8.9458     8.4879     8.8043   -48.2036
 1554.0000     8.1737   106.4907     2.5824     0.0184     9.2757     8.5625     8.8822   -48.8047
 1554.5000     8.1739   107.7674     2.5755     0.0164     9.5302     8.5613     8.8792   -48.8118
 1555.0000     8.1741   110.4458     2.5675     0.0174     9.5271     8.5573     8.9578   -49.0164
 1555.5000     8.1743   110.4470     2.5596     0.0115     9.4373     8.5544     8.9548   -49.2211
 1556.0000     8.1745   109.2643     2.5566     0.0145     9.3483     8.6296     8.9518   -49.8209
 1556.5000     8.1747   107.4875     2.5646     0.0195     9.2602     8.7060     9.0311   -49.8280
 1557.0000     8.1945   106.3041     2.5676     0.0234     9.2571     8.8638     9.0281   -50.0327
 1557.5000     8.1949   105.3179     2.5765     0.0245     9.4247     8.9423     9.1080   -50.2374
 1558.0000     8.1951   104.5293     2.5865     0.0304     9.5080     8.9393     9.1887   -50.4421
 1558.5000     8.2149   103.3455     2.6034     0.0215     9.6801     9.0184     9.2694   -50.2517
 1559.0000     8.1954   102.5569     2.5756     0.0106     9.7657     9.0154     9.2663   -49.8636
 1559.5000     8.2154   101.7683     2.5686     0.0106     9.7625     9.0124     9.2632   -49.4756
 1560.0000     8.2156   102.3636     2.5776     0.0116     9.7586     9.0094     9.2601   -49.0875
 1560.5000     8.1960   104.7368     2.5816     0.0166     9.7553     9.0064     9.2570   -48.8970
 1561.0000     8.1962   106.7151     2.5726     0.0116     9.7749     9.0034     9.2540   -48.3113
 1561.5000     8.1964   107.3100     2.5707     0.0106     9.7730     8.9184     9.2509   -47.9232
 1562.0000     8.1966   106.3238     2.5667     0.0156     9.7697     8.9154     9.1635   -47.7326
 1562.5000     8.1968   104.3494     2.5647     0.0236     9.6775     8.9124     9.1605   -47.5421
 1563.0000     8.2168   103.7593     2.5657     0.0236     9.6743     8.9094     9.0740   -47.1539
 1563.5000     8.1972   102.1794     2.5667     0.0187     9.6710     8.9883     9.1544   -46.9633
 1564.0000     8.1974   101.5877     2.5648     0.0147     9.8464     9.1513     9.2354   -47.1680
 1564.5000     8.1976    98.6263     2.5648     0.0127    10.0249     9.3172     9.4029   -47.1751
 1565.0000     8.1978    97.0471     2.5658     0.0068    10.4908     9.5734     9.6614   -47.3798
 1565.5000     8.1980    96.0609     2.5678     0.0068    10.9783     9.7469     9.9270   -47.3869
 1566.0000     8.1982    95.6676     2.5708     0.0078    11.3839     9.8333     9.9237   -47.7892
 1566.5000     8.1786    94.2861     2.5748     0.0036    11.1737     9.8300     9.9204   -47.9940
 1567.0000     8.1986    95.2763     2.5847    -0.0011    10.1003     9.7372     9.8267   -48.9894
 1567.5000     8.1988    98.2428     2.5748    -0.0021     9.8235     9.4703     9.6453   -48.9965
 1568.0000     8.1792   100.0231     2.5678     0.0019    10.0016     9.2108     9.4659   -49.3989
 1568.5000     8.1992   102.9896     2.5470    -0.0031    10.2766     9.1238     9.4646   -49.4061
 1569.0000     8.1994   103.3869     2.5331    -0.0041    10.0868     9.1214     9.2893   -49.6109
 1569.5000     8.1996   103.3888     2.5211    -0.0051     9.6324     9.0354     9.2862   -49.8157
 1570.0000     8.1998   104.3790     2.5331     0.0009     9.4545     8.8672     9.2003   -49.8242
 1570.5000     8.2000   105.7644     2.5530     0.0059     9.5383     8.7035     9.1128   -49.4360
 1571.0000     8.2002   105.7664     2.5647     0.0129     9.7113     8.5427     9.0250   -49.2454
 1571.5000     8.2004   105.7683     2.5769     0.0179     9.7731     8.4621     8.9398   -49.0548
 1572.0000     8.2006   105.9679     2.5759     0.0239     9.3328     8.4592     8.8554   -48.6651
 1572.5000     8.2008   107.3526     2.5699     0.0249     9.2448     8.3793     8.7717   -47.8813
 1573.0000     8.2405   104.7861     2.5610     0.0219     9.0743     8.3765     8.6889   -47.6907
 1573.5000     8.2210   103.4046     2.5700     0.0179     8.9069     8.2974     8.6068   -47.6977
 1574.0000     8.2212   102.8137     2.5789     0.0170     8.7426     8.2946     8.5256   -47.5071
 1574.5000     8.2214   101.6294     2.5720     0.0070     8.7397     8.2163     8.4450   -47.1187
 1575.0000     8.2018   104.0034     2.5740     0.0080     8.7368     8.1387     8.4422   -47.1257
 1575.5000     8.1822   105.9813     2.5750     0.0070     8.8950     8.1360     8.3625   -47.3320
 1576.0000     8.2022   105.9833     2.5800     0.0071     9.3934     8.1332     8.3597   -47.5368
 1576.5000     8.2024   101.0452     2.5810     0.0071     9.4764     8.1305     8.3569   -47.7416
 1577.0000     8.2026   100.2566     2.5731     0.0071     9.3017     8.1278     8.3541   -47.7487
 1577.5000     8.2028   101.8397     2.5721     0.0081     9.0470     8.1250     8.3513   -47.9535
 1578.0000     8.2030   104.0153     2.5820     0.0161     8.9617     8.1223     8.3496   -48.9495
 1578.5000     8.1834   110.7369     2.5741     0.0181     8.8772     8.1943     8.3457   -48.9566
 1579.0000     8.2034   109.9483     2.5632     0.0181     8.7935     8.1915     8.3429   -49.1615
 1579.5000     8.1838   109.1597     2.5741     0.0161     8.7105     8.2641     8.3412   -49.3664
 1580.0000     8.1840   109.7546     2.5821     0.0131     8.7076     8.2613     8.3373   -49.5713
 1580.5000     8.2040   110.5463     2.5642     0.0072     9.2800     8.2585     8.3345   -49.5784
 1581.0000     8.1844   107.7821     2.5692     0.0032     9.5582     8.2552     8.3311   -49.5856
 1581.5000     8.1846   108.1794     2.5801     0.0032     9.2114     8.2524     8.3283   -49.5927
 1582.0000     8.1848   109.3672     2.5682     0.0042     8.8772     8.2502     8.4021   -49.4020
 1582.5000     8.2047   107.9853     2.5543     0.0023     8.7126     8.2469     8.3993   -49.2113
 1583.0000     8.2049   109.9640     2.5414    -0.0007     8.6303     8.1690     8.3965   -49.0206
 1583.5000     8.1854   110.3613     2.5384    -0.0037     8.6274     8.1662     8.3937   -48.6321
 1584.0000     8.1856   110.5609     2.5484    -0.0007     8.7839     8.0891     8.3908   -47.6500
 1584.5000     8.1858   112.3416     2.5543     0.0063     8.8617     8.0864     8.3880   -47.4593
 1585.0000     8.1859   113.1345     2.5593     0.0063     8.9403     8.0837     8.3852   -47.2685
 1585.5000     8.1862   113.1357     2.5733     0.0063     8.8558     8.0809     8.3824   -47.0777
 1586.0000     8.1468   110.1743     2.5673     0.0113     8.7721     8.0782     8.3796   -46.8870
