~VERSION INFORMATION
 VERS.                2.0:   CWLS LOG ASCII STANDARD - VERSION 2.0
 WRAP.                 NO:   ONE LINE PER DEPTH STEP
~WELL INFORMATION
#MNEM.UNIT      DATA TYPE    INFORMATION
#----------   ------------   ------------------------------
 STRT.F          204.0000:   START DEPTH
 STOP.F         3040.0000:   STOP DEPTH
 STEP.F            0.5000:   STEP LENGTH
 NULL.          -999.2500:   NO VALUE
 COMP.    FENIX & SCISSON:   COMPANY
 WELL.   FENIX "A" #47-21:   WELL
 FLD .            N P R 3:   FIELD
 LOC .      S21 T39N R78W:   LOCATION
 CNTY.            NATRONA:   COUNTY
 STAT.            WYOMING:   STATE
 CTRY. UNITED STATES OF AMERICA:   COUNTRY
 SRVC.              WELEX:   SERVICE COMPANY
 DATE.        20-JUN-1977:   LOGDATE
 API .     49025103820000:   API NUMBER
~CURVE INFORMATION
#MNEM.UNIT       API CODE    CURVE DESCRIPTION
#----------   ------------   ------------------------------
 DEPT.F                  :   
 SPR .MV     07 010 01 00:   SPONTANEOUS POTENTIAL
 ILM .OHMM   07 120 44 00:   INDUCTION LOG MEDIUM RESISTIVITY
 ILD .OHMM   07 120 46 00:   DEEP INDUCTION RESISTIVITY
 SGRD.OHMM   07 220 05 00:   SHALLOW GUARD LOG RESISTIVITY
 GRD .GAPI   45 310 01 00:   GAMMA RAY FROM DENSITY LOG
 CALD.IN     45 280 60 00:   CALIPER FROM DENSITY LOG
 RHOB.G/C3   45 350 01 00:   BULK DENSITY
 CORR.G/C3   45 356 01 00:   DENSITY CORRECTION
~PARAMETER INFORMATION
#MNEM.UNIT          VALUE    DESCRIPTION
#----------   ------------   ------------------------------
 EKB .F         5010.0000:   Kelly bushing
 EGL .F         5000.0000:   Ground level
 EDF .F            0.0000:   Drilling floor
 TD  .F         3050.0000:   Total depth
 DATE.        20-JUN-1977:   Date logged
 CLNT.            A2DTECH:   Client Code
 SL  . 990' FSL & 2310' FWL:   Surface Location
 PD  .                 GL:   Permanent Datum
 DD  .F              3050:   Depth driller
 DL  .F              3039:   Depth logger
 BLI .F              3037:   Bottom log interval
 CS1 .IN            8.625:   Casing size
 CBD1.      8.625" @ 210':   Casing driller 1
 CBL1.F               215:   Casing logger 1
 BS1 .IN            7.875:   Bit size
 DFT .                KCL:   Type fluid in hole
 DFD .                9.3:   Density
 DFV .                 35:   Viscosity
 DFPH.                7.5:   pH
 DFL .                7.2:   Fluid loss
 MSS .             MUDPIT:   Source of sample
 RMS .OHMM            .22:   Rm
 MST .F                80:   Rm Meas. temp.
 RMF .OHMM            .19:   Rmf
 MFST.F                80:   Rmf Meas. temp.
 RMC .OHMM            .35:   Rmc
 MCST.F                80:   Rmc Meas. temp.
 MFSS.               MEAS:   Source Rmf.
 RMB .OHMM            .15:   Rm. at BHT
 BHT .F               111:   BHT.
 TCS .HRS               4:   Time Circ. stopped
 MRT .F               111:   Maximum recorded temp.
 LUN .               8766:   Logging unit number
 LUL .             CAPSER:   Logging unit location
 ENGI.          T. JOYNER:   Recorded By
 WITN.         PETTINGILL:   Witnessed by
 ORIG.           5" PRINT:   Origin of data
 UWI .     49025103820000:   Unique Well ID
 DICO. A2D TECHNOLOGIES, INC.:   Digitizing Company
 DAPD.                 10:   Feet Above Permanent Datum
 BSD1.               3050:   Depth drilled with bit1
 MCSS.               MEAS:   Source Rmc.
 EPD .               5000:   Elevation Permanent Datum
 LMF .                 KB:   Log Measured From
 DMF .                 KB:   Drilling Measured From
 TLI .                215:   Top log interval
~OTHER INFORMATION
~A   DEPT      SPR        ILM        ILD       SGRD         GRD        CALD       RHOB      CORR  
# ...
  771.0000   -27.1420     9.1470     7.8040     9.1070    75.1870    13.7760     2.4510     0.0050
  771.5000   -27.1170     9.0740     7.7760     9.0450    75.2290    13.7930     2.4520     0.0050
  772.0000   -27.0910     8.9620     7.7390     9.0620    74.8440    13.8160     2.4530     0.0050
  772.5000   -27.0660     9.0780     7.8160     9.0960    74.1380    13.8380     2.4530     0.0050
  773.0000   -27.0410     9.3190     7.9290     9.1280    73.4900    13.8610     2.4530     0.0050
  773.5000   -27.0160     9.5610     8.0420     9.3290    72.8380    13.8830     2.4520     0.0050
  774.0000   -26.9910     9.8030     8.1560     9.5190    72.1720    13.9050     2.4510     0.0050
  774.5000   -26.9660    10.0450     8.2690     9.7090    71.5320    13.9280     2.4510     0.0060
  775.0000   -26.9410    10.2870     8.3820     9.8990    70.8540    13.9500     2.4500     0.0060
  775.5000   -26.9160    10.5290     8.6110    10.0890    70.2100    13.9710     2.4490     0.0060
  776.0000   -26.8910    10.7700     8.8690    10.2780    69.7550    13.9720     2.4470     0.0060
  776.5000   -26.8660    11.0120     9.1270    10.4680    70.5040    13.9740     2.4460     0.0060
  777.0000   -26.8400    11.1700     9.3850    10.6690    71.1090    13.9560     2.4450     0.0060
  777.5000   -26.8150    11.0450     9.5630    10.6530    71.7790    13.8950     2.4450     0.0060
  778.0000   -26.7980    10.9520     9.5810    10.6330    72.5000    13.8110     2.4480     0.0060
  778.5000   -26.8940    10.8590     9.5990    10.6120    72.6390    13.7300     2.4500     0.0070
  779.0000   -26.9880    10.7660     9.6170    10.5910    71.9940    13.6470     2.4530     0.0080
  779.5000   -27.0810    10.6730     9.6450    10.5720    71.4280    13.5670     2.4560     0.0080
  780.0000   -27.1740    10.5810     9.5680    10.3510    70.7830    13.4820     2.4600     0.0090
  780.5000   -27.2670    10.4880     9.4040    10.1460    70.5810    13.4600     2.4630     0.0100
  781.0000   -27.3600    10.3790     9.2400     9.8230    71.0130    13.4600     2.4670     0.0110
  781.5000   -27.4540    10.5450     9.2050     9.9400    71.3700    13.4610     2.4700     0.0110
  782.0000   -27.5470    10.7460     9.1960    10.2130    71.7450    13.4610     2.4740     0.0120
  782.5000   -27.6400    10.8490     9.1860    10.4870    72.1270    13.4580     2.4770     0.0130
  783.0000   -27.7330    10.6970     9.1770    10.7670    72.4890    13.4840     2.4810     0.0140
  783.5000   -27.8260    10.5760     9.1680    10.7240    72.8860    13.5310     2.4790     0.0150
  784.0000   -27.9190    10.4550     9.1590    10.6790    73.2350    13.5740     2.4780     0.0150
  784.5000   -28.0130    10.3330     9.1500    10.6350    73.5560    13.6170     2.4760     0.0160
  785.0000   -28.1060    10.2120     9.1400    10.5900    72.7880    13.6610     2.4740     0.0160
  785.5000   -28.1990    10.0910     9.1310    10.5460    71.9970    13.7040     2.4720     0.0150
  786.0000   -28.2930    10.0020     9.1000    10.5010    71.1530    13.7470     2.4700     0.0140
  786.5000   -28.3800     9.9920     9.0590    10.4570    70.3350    13.7910     2.4680     0.0140
  787.0000   -28.2730     9.9820     9.0190    10.4130    69.6960    13.8340     2.4660     0.0140
  787.5000   -28.1560     9.9720     8.9780    10.3790    69.7040    13.8780     2.4640     0.0140
  788.0000   -28.0400     9.9610     8.9380    10.3630    69.6610    13.9210     2.4630     0.0140
  788.5000   -27.9240     9.9510     8.8970    10.3480    69.7010    13.9650     2.4650     0.0140
  789.0000   -27.8080     9.9410     8.8570    10.3330    69.7920    14.0070     2.4650     0.0140
  789.5000   -27.6920     9.9310     8.8160    10.3180    71.2140    14.0490     2.4660     0.0140
  790.0000   -27.5760     9.9150     8.7990    10.3030    72.3550    14.0510     2.4670     0.0140
  790.5000   -27.4600    10.0230     8.7990    10.2880    73.5490    14.0600     2.4680     0.0130
  791.0000   -27.3440    10.3180     8.7990    10.2380    73.3920    14.0660     2.4690     0.0130
  791.5000   -27.2280    10.6130     8.7990    10.1770    73.1970    14.0740     2.4690     0.0130
  792.0000   -27.1110    10.9070     8.7990    10.1160    72.9340    14.0810     2.4690     0.0130
  792.5000   -26.9970    11.2020     8.7990    10.0550    73.3330    14.0880     2.4680     0.0130
  793.0000   -27.0140    11.4960     8.8000     9.9950    75.0660    14.0910     2.4680     0.0130
  793.5000   -27.0380    11.6560     8.8170     9.9140    74.6580    14.0830     2.4670     0.0130
  794.0000   -27.0620    11.7550     8.8360    10.0460    74.0450    14.0740     2.4680     0.0130
  794.5000   -27.0860    11.8540     8.8560    10.1910    73.3340    14.0650     2.4700     0.0130
  795.0000   -27.1090    11.9540     8.8760    10.1710    72.7170    14.0570     2.4710     0.0120
  795.5000   -27.1330    12.0530     8.8950    10.1560    72.0930    14.0480     2.4730     0.0120
  796.0000   -27.1560    12.2430     8.9150    10.1410    72.0090    14.0380     2.4750     0.0120
  796.5000   -27.1800    12.1790     8.9340    10.1260    72.5960    14.0300     2.4750     0.0120
  797.0000   -27.2030    12.1010     8.9540    10.1100    74.1370    14.0210     2.4740     0.0120
  797.5000   -27.2270    12.0200     8.9730    10.0980    75.5900    14.0100     2.4730     0.0120
  798.0000   -27.2510    12.0670     8.9930    10.1750    77.0430    14.0320     2.4720     0.0120
  798.5000   -27.2740    12.1140     9.0120    10.2410    78.5970    14.0490     2.4700     0.0120
  799.0000   -27.2980    12.1620     9.0320    10.2850    78.9770    14.0370     2.4690     0.0120
  799.5000   -27.3210    12.2100     9.0480    10.0970    78.5280    14.0280     2.4680     0.0120
  800.0000   -27.3450    12.2430     9.0580     9.9140    78.1650    14.0190     2.4670     0.0110
  800.5000   -27.3680    11.9630     9.0690     9.9440    77.8080    14.0090     2.4650     0.0110
  801.0000   -27.3930    11.7490     9.0790     9.9870    77.4240    13.9990     2.4670     0.0110
  801.5000   -27.4730    11.4840     9.0890    10.0290    77.0450    13.9890     2.4680     0.0110
  802.0000   -27.5510    11.0610     9.0990    10.0980    76.9230    13.9800     2.4690     0.0110
  802.5000   -27.6280    10.6380     9.1100    10.0380    77.5370    13.9700     2.4700     0.0110
  803.0000   -27.7060    10.3140     9.1200     9.8910    78.1160    13.9600     2.4710     0.0110
  803.5000   -27.7840    10.1460     9.1280     9.7450    78.7640    13.9510     2.4700     0.0110
  804.0000   -27.8610     9.9770     8.9490     9.5990    79.3420    13.9410     2.4680     0.0110
  804.5000   -27.9390     9.8090     8.7950     9.4520    79.8080    13.9310     2.4660     0.0110
  805.0000   -28.0170     9.6410     8.6210     9.3060    78.4550    13.9220     2.4630     0.0100
  805.5000   -28.0940     9.4720     8.4290     9.1600    77.2730    13.9120     2.4620     0.0100
  806.0000   -28.1720     9.2850     8.2970     9.0130    76.2020    13.9020     2.4640     0.0100
  806.5000   -28.2490     9.0770     8.1740     8.9620    76.4590    13.8950     2.4670     0.0110
  807.0000   -28.3260     8.8690     8.0510     8.9620    76.7970    13.8750     2.4690     0.0110
  807.5000   -28.3880     8.6600     7.9820     8.9620    77.1840    13.8120     2.4690     0.0110
  808.0000   -28.3860     8.4520     7.9260     8.9620    77.5260    13.7510     2.4690     0.0110
  808.5000   -28.3860     8.4020     7.8700     8.9620    77.8980    13.6890     2.4690     0.0120
  809.0000   -28.3860     8.3970     7.8100     8.9620    78.2560    13.6260     2.4720     0.0120
  809.5000   -28.3860     8.3930     7.8400     8.9620    78.5990    13.5650     2.4760     0.0120
  810.0000   -28.3860     8.3890     7.8720     8.9640    79.0300    13.5040     2.4790     0.0120
  810.5000   -28.3860     8.3840     7.9040     8.8870    78.6800    13.5010     2.4830     0.0120
  811.0000   -28.3860     8.3800     7.9350     8.7190    77.7230    13.5180     2.4820     0.0130
