~VERSION INFORMATION
 VERS.                2.0:   CWLS LOG ASCII STANDARD - VERSION 2.0
 WRAP.                 NO:   ONE LINE PER DEPTH STEP
~WELL INFORMATION
#MNEM.UNIT      DATA TYPE    INFORMATION
#----------   ------------   ------------------------------
 STRT.F          200.0000:   START DEPTH
 STOP.F         3124.0000:   STOP DEPTH
 STEP.F            0.5000:   STEP LENGTH
 NULL.          -999.2500:   NO VALUE
 COMP.    FENIX & SCISSON:   COMPANY
 WELL. FENIX SCISSON #18-27:   WELL
 FLD .                NPR:   FIELD
 LOC .      S27 T39N R78W:   LOCATION
 CNTY.            NATRONA:   COUNTY
 STAT.            WYOMING:   STATE
 CTRY. UNITED STATES OF AMERICA:   COUNTRY
 SRVC.              WELEX:   SERVICE COMPANY
 DATE.        26-SEP-1977:   LOGDATE
 API .     49025104210000:   API NUMBER
~CURVE INFORMATION
#MNEM.UNIT       API CODE    CURVE DESCRIPTION
#----------   ------------   ------------------------------
 DEPT.F                  :   
 CALD.IN     45 280 60 00:   CALIPER FROM DENSITY LOG
 GRD .GAPI   45 310 01 00:   GAMMA RAY FROM DENSITY LOG
 RHOB.G/C3   45 350 01 00:   BULK DENSITY
 CORR.G/C3   45 356 01 00:   DENSITY CORRECTION
 NPHI.DEC    42 890 03 00:   NEUTRON POROSITY SANDSTONE
 SPR .MV     07 010 01 00:   SPONTANEOUS POTENTIAL
 GURD.OHMM   07 220 05 00:   GUARD LOG RESISTIVITY
 ILD .OHMM   07 120 46 00:   DEEP INDUCTION RESISTIVITY
 ILM .OHMM   07 120 44 00:   INDUCTION LOG MEDIUM RESISTIVITY
 TENR.LBS    07 635 01 00:   TENSION FROM RESISTIVITY
~PARAMETER INFORMATION
#MNEM.UNIT          VALUE    DESCRIPTION
#----------   ------------   ------------------------------
 EKB .F         5080.0000:   Kelly bushing
 EGL .F         5070.0000:   Ground level
 EDF .F            0.0000:   Drilling floor
 EPD .F            0.0000:   Permanent datum
 TD  .F         3117.0000:   Total depth
 DATE.        26-SEP-1977:   Date logged
 CLNT.            A2DTECH:   Client Code
 SL  . 330' FSL & 1650' FWL:   Surface Location
 PD  .                 GL:   Permanent Datum
 DAPD.F                10:   Feet Above Permanent Datum
 DD  .F              3115:   Depth driller
 DL  .F              3117:   Depth logger
 BLI .F              3115:   Bottom log interval
 TLI .F               200:   Top log interval
 CS1 .IN            8.625:   Casing size
 CBD1.      8.625" @ 219':   Casing driller 1
 CBL1.F               220:   Casing logger 1
 BS1 .IN            7.875:   Bit size
 BSD1.F              3115:   Depth drilled with bit1
 DFT .            KCL MUD:   Type fluid in hole
 DFD .                9.1:   Density
 DFV .                 35:   Viscosity
 DFPH.                 11:   pH
 DFL .               17.2:   Fluid loss
 MSS .           FLOWLINE:   Source of sample
 RMS .OHMM            .59:   Rm
 MST .F                98:   Rm Meas. temp.
 RMF .OHMM            .56:   Rmf
 MFST.F                98:   Rmf Meas. temp.
 RMC .OHMM            .24:   Rmc
 MCST.F                98:   Rmc Meas. temp.
 MFSS.               MEAS:   Source Rmf.
 MCSS.               MEAS:   Source Rmc.
 RMB .OHMM            .48:   Rm. at BHT
 BHT .F               116:   BHT.
 TCS .HRS               4:   Time Circ. stopped
 MRT .F               116:   Maximum recorded temp.
 LUN .               8611:   Logging unit number
 LUL .             CASPER:   Logging unit location
 ENGI.            C. DOAK:   Recorded By
 WITN.         PETTINGILL:   Witnessed by
 ORIG.           5" PRINT:   Origin of data
 UWI .     49025104210000:   Unique Well ID
 DICO. A2D TECHNOLOGIES, INC.:   Digitizing Company
~OTHER INFORMATION
~A   DEPT     CALD        GRD       RHOB       CORR         NPHI      SPR       GURD        ILD        ILM        TENR  
  200.0000  -999.2500  -999.2500  -999.2500  -999.2500     0.3536  -999.2500  -999.2500  -999.2500  -999.2500   249.5849
  200.5000  -999.2500  -999.2500  -999.2500  -999.2500     0.3568  -999.2500  -999.2500  -999.2500  -999.2500   279.4126
  201.0000  -999.2500  -999.2500  -999.2500  -999.2500     0.3552  -999.2500  -999.2500  -999.2500  -999.2500   279.0051
  201.5000  -999.2500  -999.2500  -999.2500  -999.2500     0.3512  -999.2500  -999.2500  -999.2500  -999.2500   278.5162
  202.0000  -999.2500  -999.2500  -999.2500  -999.2500     0.3440  -999.2500  -999.2500  -999.2500  -999.2500   258.1187
  202.5000  -999.2500  -999.2500  -999.2500  -999.2500     0.3392  -999.2500  -999.2500  -999.2500  -999.2500   267.7829
  203.0000  -999.2500  -999.2500  -999.2500  -999.2500     0.3360  -999.2500  -999.2500  -999.2500  -999.2500   267.3755
  203.5000  -999.2500  -999.2500  -999.2500  -999.2500     0.3368  -999.2500  -999.2500  -999.2500  -999.2500   266.9681
  204.0000  -999.2500  -999.2500  -999.2500  -999.2500     0.3416  -999.2500  -999.2500  -999.2500  -999.2500   266.5607
  204.5000  -999.2500  -999.2500  -999.2500  -999.2500     0.3503  -999.2500  -999.2500  -999.2500  -999.2500   276.1427
  205.0000  -999.2500  -999.2500  -999.2500  -999.2500     0.3550  -999.2500  -999.2500  -999.2500  -999.2500   275.7352
  205.5000  -999.2500  -999.2500  -999.2500  -999.2500     0.3590  -999.2500  -999.2500  -999.2500  -999.2500   255.3495
  206.0000  -999.2500  -999.2500  -999.2500  -999.2500     0.3629  -999.2500  -999.2500  -999.2500  -999.2500   274.9201
  206.5000  -999.2500  -999.2500  -999.2500  -999.2500     0.3557  -999.2500  -999.2500  -999.2500  -999.2500   274.5127
  207.0000  -999.2500  -999.2500  -999.2500  -999.2500     0.3518  -999.2500  -999.2500  -999.2500  -999.2500   274.1052
  207.5000  -999.2500  -999.2500  -999.2500  -999.2500     0.3478  -999.2500  -999.2500  -999.2500  -999.2500   273.6978
  208.0000  -999.2500  -999.2500  -999.2500  -999.2500     0.3438  -999.2500  -999.2500  -999.2500  -999.2500   273.2904
  208.5000  -999.2500  -999.2500  -999.2500  -999.2500     0.3406  -999.2500  -999.2500  -999.2500  -999.2500   272.8830
  209.0000  -999.2500  -999.2500  -999.2500  -999.2500     0.3390  -999.2500  -999.2500  -999.2500  -999.2500   272.5571
  209.5000  -999.2500  -999.2500  -999.2500  -999.2500     0.3445  -999.2500  -999.2500  -999.2500  -999.2500   272.0505
  210.0000  -999.2500  -999.2500  -999.2500  -999.2500     0.3493  -999.2500  -999.2500  -999.2500  -999.2500   271.6608
  210.5000  -999.2500  -999.2500  -999.2500  -999.2500     0.3560  -999.2500  -999.2500  -999.2500  -999.2500   271.3350
  211.0000  -999.2500  -999.2500  -999.2500  -999.2500     0.3628  -999.2500  -999.2500  -999.2500  -999.2500   270.8461
  211.5000  -999.2500  -999.2500  -999.2500  -999.2500     0.3612  -999.2500  -999.2500  -999.2500  -999.2500   260.4516
  212.0000  -999.2500  -999.2500  -999.2500  -999.2500     0.3627  -999.2500  -999.2500  -999.2500  -999.2500   280.0186
  212.5000  -999.2500  -999.2500  -999.2500  -999.2500     0.3643  -999.2500  -999.2500  -999.2500  -999.2500   279.6111
  213.0000  -999.2500  -999.2500  -999.2500  -999.2500     0.3667  -999.2500  -999.2500  -999.2500  -999.2500   279.2037
  213.5000  -999.2500  -999.2500  -999.2500  -999.2500     0.3667  -999.2500  -999.2500  -999.2500  -999.2500   278.7962
  214.0000  -999.2500  -999.2500  -999.2500  -999.2500     0.3639  -999.2500  -999.2500  -999.2500  -999.2500   278.4703
  214.5000  -999.2500  -999.2500  -999.2500  -999.2500     0.3639  -999.2500  -999.2500  -999.2500  -999.2500   278.0629
  215.0000  -999.2500  -999.2500  -999.2500  -999.2500     0.3643  -999.2500  -999.2500  -999.2500  -999.2500   267.6693
  215.5000  -999.2500  -999.2500  -999.2500  -999.2500     0.3647  -999.2500  -999.2500  -999.2500  -999.2500   277.2479
  216.0000  -999.2500  -999.2500  -999.2500  -999.2500     0.3623  -999.2500  -999.2500  -999.2500  -999.2500   296.8124
  216.5000  -999.2500  -999.2500  -999.2500  -999.2500     0.3377  -999.2500  -999.2500  -999.2500  -999.2500   276.4332
  217.0000  -999.2500  -999.2500  -999.2500  -999.2500     0.3345  -999.2500  -999.2500  -999.2500  -999.2500   276.0259
  217.5000  -999.2500  -999.2500  -999.2500  -999.2500     0.3210  -999.2500  -999.2500  -999.2500  -999.2500   275.6185
  218.0000     8.4341    76.9143     2.2218    -0.0827     0.3134  -999.2500  -999.2500  -999.2500  -999.2500   285.1965
  218.5000     8.4538    74.9328     2.2729    -0.0091     0.3110  -999.2500  -999.2500  -999.2500  -999.2500   274.8039
  219.0000     8.4735    78.6942     2.3190     0.0644     0.3122  -999.2500  -999.2500  -999.2500  -999.2500   274.3966
  219.5000     8.5328    81.8615     2.3061     0.1360     0.3138  -999.2500  -999.2500  -999.2500  -999.2500   273.9893
  220.0000     8.5723    86.2167     2.2743     0.1181     0.3190  -999.2500  -999.2500  -999.2500  -999.2500   273.5820
  220.5000     9.1662    85.4235     2.2931     0.1181     0.3257   -16.3655     4.3140  -999.2500  -999.2500   283.1593
  221.0000     9.2255    84.8284     2.3140     0.1240     0.3341   -22.6378     4.4762  -999.2500  -999.2500   292.7363
  221.5000     9.2452    90.4696     2.3239     0.1240     0.3376   -26.5326     5.2352  -999.2500     3.4636   282.3445
  222.0000     9.2847    91.5588     2.3289     0.1161     0.3396   -32.2440     5.6891  -999.2500     3.5954   281.9372
  222.5000     9.4430    82.6466     2.3299     0.1101     0.3420   -37.7364     5.1921  -999.2500     3.9055   281.5298
  223.0000     9.7795    80.2696     2.3388     0.1001     0.3400   -41.8516     5.1945  -999.2500     4.2832   291.1063
  223.5000     9.8785    85.4168     2.3508     0.0922     0.3364   -44.3951     5.4914  -999.2500     4.7408   280.9595
  224.0000    11.0862    91.3563     2.3756     0.0743     0.3333   -46.7588     5.4939  -999.2500     4.7868   300.2748
  224.5000    12.0168    93.0376     2.3786     0.0703     0.3360   -49.8923     5.4462  -999.2500     4.7890   289.8838
  225.0000    12.2345    85.4137     2.3716     0.0663     0.3340   -52.2171     5.2521  -999.2500     4.7912   289.4764
  225.5000    12.1552    83.4324     2.3676     0.0663     0.3289   -54.1782     5.2055     3.7499     4.7053   289.1502
  226.0000    11.9769    82.2430     2.3686     0.0576     0.3237   -56.3277     4.8986     3.8562     4.8845   288.7428
  226.5000    11.5213    83.4302     2.3865     0.0490     0.3161   -58.2828     5.8185     3.9200     5.3079   288.3354
  227.0000    10.9272    90.5574     2.4243     0.0404     0.3114   -60.0416     6.9943     4.0686     5.6635   287.9280
  227.5000    10.5508    93.1309     2.4352     0.0424     0.3050   -61.9970     7.8871     4.7148     6.1532   277.5206
  228.0000     9.4220    93.3280     2.4392     0.0404     0.3054   -63.5555     7.8885     6.1758     6.3864   287.0956
  228.5000     9.2635    94.5150     2.4402     0.0404     0.3114   -64.7290     7.8921     6.1775     6.5077   276.7058
  229.0000     9.2238    99.0682     2.4431     0.0404     0.3185   -65.8986     7.8235     6.1798     6.5708   296.1355
  229.5000     9.2038   101.3861     2.4461     0.0384     0.3241   -66.6750     7.7555     6.1826     6.5948   295.8911
  230.0000     9.2038   102.7723     2.4471     0.0403     0.3268   -67.4515     8.0493     6.1854     6.6374   285.5021
  230.5000     9.2037   105.1485     2.4461     0.0403     0.3316   -68.0315     8.1273     6.1883     6.6405   275.1133
  231.0000     9.2629   105.1485     2.4471     0.0463     0.3332   -68.6115     8.1310     6.1911     6.6435   284.6506
  231.5000     9.2629   101.3861     2.4580     0.0463     0.3328   -69.3882     7.8413     6.3089     6.6465   284.2176
  232.0000     9.2627   101.5842     2.4570     0.0443     0.3308   -70.1650     7.9888     6.4883     6.4689   293.8169
  232.5000     9.2626   103.5644     2.4391     0.0423     0.3296   -71.7451     7.8015     6.6727     6.2384   283.4283
  233.0000     9.2625   100.5436     2.4292     0.0382     0.3288   -72.7188     7.6386     6.8625     5.9612   283.0209
