~VERSION INFORMATION
 VERS.                2.0:   CWLS LOG ASCII STANDARD - VERSION 2.0
 WRAP.                 NO:   ONE LINE PER DEPTH STEP
~WELL INFORMATION
#MNEM.UNIT      DATA TYPE    INFORMATION
#----------   ------------   ------------------------------
 STRT.F          200.0000:   START DEPTH
 STOP.F         3135.5000:   STOP DEPTH
 STEP.F            0.5000:   STEP LENGTH
 NULL.          -999.2500:   NO VALUE
 COMP.    FENOX & SCISSON:   COMPANY
 WELL. FENIX NPR 23 "AX" #3-11:   WELL
 FLD .                NPR:   FIELD
 LOC .      S11 T38N R78W:   LOCATION
 CNTY.            NATRONA:   COUNTY
 STAT.            WYOMING:   STATE
 CTRY. UNITED STATES OF AMERICA:   COUNTRY
 SRVC.       SCHLUMBERGER:   SERVICE COMPANY
 DATE.        06-NOV-1977:   LOGDATE
 API .     49025104320000:   API NUMBER
~CURVE INFORMATION
#MNEM.UNIT       API CODE    CURVE DESCRIPTION
#----------   ------------   ------------------------------
 DEPT.F                  :   
 CALD.IN     45 280 60 00:   CALIPER FROM DENSITY LOG
 GRD .GAPI   45 310 01 00:   GAMMA RAY FROM DENSITY LOG
 RHOB.G/C3   45 350 01 00:   BULK DENSITY
 CORR.G/C3   45 356 01 00:   DENSITY CORRECTION
 SPR .MV     07 010 01 00:   SPONTANEOUS POTENTIAL
 LL8 .OHMM   07 220 08 00:   LATEROLOG-8 RES.
 ILD .OHMM   07 120 46 00:   DEEP INDUCTION RESISTIVITY
 ILM .OHMM   07 120 44 00:   INDUCTION LOG MEDIUM RESISTIVITY
~PARAMETER INFORMATION
#MNEM.UNIT          VALUE    DESCRIPTION
#----------   ------------   ------------------------------
 EKB .F         5176.0000:   Kelly bushing
 EGL .F         5171.0000:   Ground level
 TD  .F         3138.0000:   Total depth
 DATE.        06-NOV-1977:   Date logged
 CLNT.            A2DTECH:   Client Code
 SL  . 1650' FNL & 750' FWL:   Surface Location
 PD  .                 GL:   Permanent Datum
 EPD .F              5171:   Elevation Permanent Datum
 LMF .                 KB:   Log Measured From
 DMF .                 KB:   Drilling Measured From
 DAPD.F                 5:   Feet Above Permanent Datum
 DD  .F              3138:   Depth driller
 DL  .F              3135:   Depth logger
 BLI .F              3134:   Bottom log interval
 TLI .F               196:   Top log interval
 CS1 .IN            8.625:   Casing size
 CBD1.      8.625" @ 205':   Casing driller 1
 CBL1.F               205:   Casing logger 1
 BS1 .IN            7.875:   Bit size
 BSD1.F              3138:   Depth drilled with bit1
 DFT .            KCL/MUD:   Type fluid in hole
 DFD .                8.8:   Density
 DFV .                 34:   Viscosity
 DFPH.                 11:   pH
 DFL .                  6:   Fluid loss
 MSS .            MUD/PIT:   Source of sample
 RMS .OHMM           0.27:   Rm
 MST .F                48:   Rm Meas. temp.
 RMF .OHMM           0.29:   Rmf
 MFST.F                48:   Rmf Meas. temp.
 RMC .OHMM           0.39:   Rmc
 MCST.F                48:   Rmc Meas. temp.
 MFSS.               MEAS:   Source Rmf.
 MCSS.               CALC:   Source Rmc.
 RMB .OHMM           0.12:   Rm. at BHT
 BHT .F               104:   BHT.
 TCS .HRS            1500:   Time Circ. stopped
 TLAB.HRS            1930:   Time logger at bottom
 MRT .F               104:   Maximum recorded temp.
 LUN .               7711:   Logging unit number
 LUL .               CSPR:   Logging unit location
 ENGI.       CRAIG/SAYLER:   Recorded By
 WITN.         PETTINGILL:   Witnessed by
 ORIG.           5" PRINT:   Origin of data
 UWI .     49025104320000:   Unique Well ID
 DICO. A2D TECHNOLOGIES, INC.:   Digitizing Company
~OTHER INFORMATION
~A   DEPT     CALD        GRD       RHOB       CORR        SPR        LL8        ILD        ILM   
# ...
 1172.0000     8.2288   114.7578     2.5521     0.0195   -66.7866     8.3136     9.1978     8.9867
 1172.5000     8.2288   114.7578     2.5531     0.0185   -66.7893     8.2369     9.1968     8.8228
 1173.0000     8.2088   115.9627     2.5461     0.0175   -66.9938     8.1611     9.1959     8.8220
 1173.5000     8.1887   116.2639     2.5321     0.0061   -66.7946     8.1604     9.0277     8.8212
 1174.0000     8.2088   116.2639     2.5200     0.0025   -66.7972     8.1593     8.9445     8.3487
 1174.5000     8.2088   115.0590     2.5180     0.0045   -67.0017     8.1588     8.7807     8.3480
 1175.0000     8.2088   113.5530     2.5120     0.0035   -66.8030     8.2330     8.6200     8.4239
 1175.5000     8.2288   113.2518     2.5110     0.0045   -67.0075     8.1201     8.4623     8.1201
 1176.0000     8.2088   112.3482     2.5130     0.0045   -66.8083     8.2695     8.3844     8.2695
 1176.5000     8.2088   112.0470     2.5170     0.0015   -66.8110     8.1933     8.3834     8.1933
 1177.0000     8.2088   112.6494     2.5261     0.0015   -66.6118     8.4208     8.6168     8.4208
 1177.5000     8.2288   112.6494     2.5361     0.0095   -66.6144     8.1919     8.5374     8.1919
 1178.0000     8.2088   112.0470     2.5451     0.0145   -66.6171     8.1164     8.4588     8.1164
 1178.5000     8.2288   111.1434     2.5441     0.0135   -66.6197     8.1157     8.3804     8.1157
 1179.0000     8.2288   111.4446     2.5361     0.0085   -66.6224     8.1150     8.3797     8.1150
 1179.5000     8.2288   110.5410     2.5301     0.0065   -66.6250     8.0403     8.3024     8.0403
 1180.0000     8.2288   107.8301     2.5170     0.0075   -66.6277     7.9662     8.2259     7.9662
 1180.5000     8.2288   106.0229     2.5120     0.0055   -66.8321     7.8929     7.8929     7.8929
 1181.0000     8.2288   104.5169     2.5070     0.0045   -66.6330     7.8922     7.8922     7.8922
 1181.5000     8.2088   104.8181     2.5050     0.0055   -66.6361     7.8913     7.9264     7.8913
 1182.0000     8.2088   106.6253     2.5150     0.0095   -66.6388     7.9632     7.8533     7.9632
 1182.5000     8.2088   107.5289     2.5271     0.0125   -66.6414     7.9625     7.8526     7.9625
 1183.0000     8.2088   109.3361     2.5371     0.0217   -66.4423     7.8892     7.7801     7.8892
 1183.5000     8.2088   111.1434     2.5441     0.0276   -66.4450     7.8885     7.7794     7.8885
 1184.0000     8.2088   111.1434     2.5451     0.0266   -66.4476     7.8878     7.6371     7.8878
 1184.5000     8.2288   110.2398     2.5411     0.0195   -66.4503     8.0329     7.5666     7.8871
 1185.0000     8.2088   111.1434     2.5321     0.0135   -66.6546     8.2559     7.4969     7.7432
 1185.5000     8.2288   112.0470     2.5331     0.0135   -66.6573     8.4078     7.4275     7.6019
 1186.0000     8.2288   112.6494     2.5341     0.0175   -66.4582     8.4841     7.4268     7.6015
 1186.5000     8.2288   112.9506     2.5321     0.0185   -66.4608     8.1784     7.3946     7.6705
 1187.0000     8.2288   113.2518     2.5251     0.0135   -66.4635     8.2529     7.3939     7.7404
 1187.5000     8.2288   113.2518     2.5230     0.0175   -66.4667     8.3281     7.4615     7.9552
 1188.0000     8.2288   111.7458     2.5361     0.0245   -66.4693     8.4043     7.7389     8.0278
 1188.5000     8.2288   109.3361     2.5391     0.0265   -66.4720     8.4806     7.9537     8.0269
 1189.0000     8.2088   106.9265     2.5391     0.0235   -66.4746     8.7159     7.9533     8.4023
 1189.5000     8.2489   105.4205     2.5311     0.0205   -66.2756     8.7151     8.0993     8.3250
 1190.0000     8.2489   102.1072     2.5220     0.0155   -66.2782     8.7947     8.2486     8.4011
 1190.5000     8.2288   100.6012     2.5190     0.0135   -66.0792     8.7135     8.4001     8.7135
 1191.0000     8.2288    99.6976     2.5210     0.0125   -66.2835     8.7929     8.4767     8.7929
 1191.5000     8.2489    99.3964     2.5251     0.0115   -66.2862     8.7921     8.5538     8.7921
 1192.0000     8.2489    98.1916     2.5261     0.0115   -66.0871     9.3730     8.6319     9.0363
 1192.5000     8.2489    98.4928     2.5281     0.0125   -66.0898     9.4590     9.1183     9.4589
 1193.0000     8.2489   100.3000     2.5281     0.0155   -65.8908     9.7212     9.1179     9.7215
 1193.5000     8.2489   102.1072     2.5281     0.0115   -65.6918     9.7210     9.2008     9.2855
 1194.0000     8.2288   102.4084     2.5240     0.0035   -65.6950     9.7198     9.2847     9.5431
 1194.5000     8.2288   102.4084     2.5130     0.0005   -65.6976     9.2836     9.2835     9.2836
 1195.0000     8.2288   102.7096     2.5120     0.0015   -65.7003     9.2828     9.3686     9.2828
 1195.5000     8.2288   103.3120     2.5190     0.0055   -65.7029     9.5406     9.5406     9.5406
 1196.0000     8.2288   103.9145     2.5190     0.0045   -65.7056     9.7161     9.7161     9.7161
 1196.5000     8.2489   103.0108     2.5140     0.0035   -65.3044     9.7152     9.7152     9.7152
 1197.0000     8.2489   103.3120     2.5130     0.0035   -65.3076     9.8939     9.8939     9.8939
 1197.5000     8.2489   103.3120     2.5150     0.0055   -65.3103     9.9841     9.9841     9.9841
 1198.0000     8.2489   102.1072     2.5130    -0.0005   -64.9097    10.0750    10.0750    10.0750
 1198.5000     8.2288   100.6012     2.5120     0.0055   -65.1140    10.0741    10.0741    10.0741
 1199.0000     8.2490    98.7940     2.5150     0.0075   -65.1167    10.1659    10.1659    10.1659
 1199.5000     8.2490    98.4928     2.5160     0.0095   -65.1178    10.0723    10.4480    10.0723
 1200.0000     8.2490    99.6976     2.5160     0.0135   -65.1210     9.7982    10.4474     9.7982
 1200.5000     8.2490    97.8287     2.5333     0.0154   -65.1237    10.0279    10.1196    10.0279
 1201.0000     8.2493    98.1955     2.5431     0.0145   -65.1253     9.9733    10.1171    10.5375
 1201.5000     8.2494    99.1011     2.5431     0.0135   -64.9251    10.4376    10.0216    10.5337
 1202.0000     8.2497    99.4042     2.5311     0.0115   -64.3218    10.4345     9.9275    10.5311
 1202.5000     8.2499    99.7074     2.5241     0.0156   -64.5248    10.1486     9.8338    10.5273
 1203.0000     8.2901    98.8059     2.5451     0.0196   -64.5262    10.1455     9.7409    10.5241
 1203.5000     8.3104    97.6031     2.5461     0.0216   -64.5276     9.8675     9.6494    10.6191
 1204.0000     8.3306    97.6051     2.5492     0.0246   -64.5290     9.7745     9.6465    10.6172
 1204.5000     8.3308    97.6072     2.5562     0.0236   -64.5304     9.7716     9.5542    10.6114
 1205.0000     8.3109    96.7057     2.5452     0.0136   -64.3302    10.1332     9.5525    10.6095
 1205.5000     8.3312    94.9006     2.5372     0.0116   -64.3316    10.4125     9.4616    10.7027
 1206.0000     8.3113    95.2039     2.5332     0.0116   -64.3331    10.3144     9.1163    10.6988
 1206.5000     8.3115    94.6036     2.5292     0.0116   -64.5360    10.2173     9.0313    10.5987
 1207.0000     8.3116    94.9072     2.5292     0.0146   -64.5374    10.0287     9.1529    10.5955
 1207.5000     8.3319    94.6081     2.5382     0.0156   -64.3381    10.1180     9.0644    10.4963
 1208.0000     8.3321    94.3090     2.5332     0.0126   -64.3390    10.3968     8.8971    10.3974
 1208.5000     8.3321    94.3094     2.5182     0.0106   -64.3404    10.5859     8.8960    10.1118
 1209.0000     8.3324    93.7107     2.5092     0.0056   -64.3418    10.7778     8.5716     9.9246
 1209.5000     8.3326    92.8094     2.5052     0.0046   -64.1417    10.8738     8.4128     9.7420
 1210.0000     8.2725    91.0046     2.5042     0.0036   -64.1432    11.1722     8.4123     9.7396
 1210.5000     8.3731    88.2964     2.4982     0.0046   -64.1446    11.3755     8.3515     9.6467
 1211.0000     8.3934    87.6962     2.4871     0.0086   -63.9446    11.4781     8.4051     9.5569
 1211.5000     8.4337    87.6983     2.4770     0.0167   -63.9460    11.6870     8.5590     9.3794
 1212.0000     8.5142    86.7971     2.4669     0.0237   -63.5446    11.7911     8.8748     9.2062
