~VERSION INFORMATION
 VERS.                2.0:   CWLS LOG ASCII STANDARD - VERSION 2.0
 WRAP.                 NO:   ONE LINE PER DEPTH STEP
~WELL INFORMATION
#MNEM.UNIT      DATA TYPE    INFORMATION
#----------   ------------   ------------------------------
 STRT.F          174.0000:   START DEPTH
 STOP.F         3492.0000:   STOP DEPTH
 STEP.F            0.5000:   STEP LENGTH
 NULL.          -999.2500:   NO VALUE
 COMP.    FENIX & SCISSON:   COMPANY
 WELL.   FENIX "AX" #18-3:   WELL
 FLD .        TEAPOT DOME:   FIELD
 LOC .       S3 T38N R78W:   LOCATION
 CNTY.            NATRONA:   COUNTY
 STAT.            WYOMING:   STATE
 CTRY. UNITED STATES OF AMERICA:   COUNTRY
 SRVC.       SCHLUMBERGER:   SERVICE COMPANY
 DATE.        09-FEB-1981:   LOGDATE
 API .     49025108630000:   API NUMBER
~CURVE INFORMATION
#MNEM.UNIT       API CODE    CURVE DESCRIPTION
#----------   ------------   ------------------------------
 DEPT.F                  :   
 CALD.IN     45 280 60 00:   CALIPER FROM DENSITY LOG
 GRD .GAPI   45 310 01 00:   GAMMA RAY FROM DENSITY LOG
 RHOB.G/C3   45 350 01 00:   BULK DENSITY
 DRHO.G/C3   45 356 01 00:   DENSITY CORRECTION
 TENR.LBS    07 635 01 00:   TENSION FROM RESISTIVITY
 SPR .MV     07 010 01 00:   SPONTANEOUS POTENTIAL
 ILM .OHMM   07 120 44 00:   INDUCTION LOG MEDIUM RESISTIVITY
 ILD .OHMM   07 120 46 00:   INDUCTION LOG DEEP RESISTIVITY
 SFLU.OHMM   07 220 01 00:   SPHERICALLY FOCUSED LOG UNAVERAGED RESISTIVITY
~PARAMETER INFORMATION
#MNEM.UNIT          VALUE    DESCRIPTION
#----------   ------------   ------------------------------
 EKB .F         5267.0000:   Kelly bushing
 EGL .F         5257.0000:   Ground level
 EDF .F            0.0000:   Drilling floor
 TD  .F         3472.0000:   Total depth
 DATE.        09-FEB-1981:   Date logged
 CLNT.            A2DTECH:   Client Code
 SL  . 669' FSL & 42' FWL:   Surface Location
 PD  .                 GL:   Permanent Datum
 DD  .F              3401:   Depth driller
 DL  .F              3472:   Depth logger
 BLI .F              3466:   Bottom log interval
 CS1 .IN            8.625:   Casing size
 CBD1.      8.625" @ 200':   Casing driller 1
 CBL1.F               196:   Casing logger 1
 BS1 .IN            7.875:   Bit size
 DFT .            KCL/GEL:   Type fluid in hole
 DFD .                  9:   Density
 DFV .                 60:   Viscosity
 DFPH.                8.5:   pH
 DFL .                 10:   Fluid loss
 MSS .            MUD/PIT:   Source of sample
 RMS .OHMM           1.88:   Rm
 MST .F                75:   Rm Meas. temp.
 RMF .OHMM           1.12:   Rmf
 MFST.F                75:   Rmf Meas. temp.
 MFSS.               MEAS:   Source Rmf.
 RMB .OHMM           1.21:   Rm. at BHT
 BHT .F               120:   BHT.
 TCS .HRS            1800:   Time Circ. stopped
 MRT .F               120:   Maximum recorded temp.
 LUN .               8043:   Logging unit number
 LUL .               CSPR:   Logging unit location
 ENGI.            CONNETT:   Recorded By
 WITN.              SCOTT:   Witnessed by
 ORIG.           5" PRINT:   Origin of data
 UWI .     49025108630000:   Unique Well ID
 DICO. A2D TECHNOLOGIES, INC.:   Digitizing Company
 DAPD.F                10:   Feet Above Permanent Datum
 BSD1.F              3401:   Depth drilled with bit1
 EPD .F              5257:   Elevation Permanent Datum
 LMF .                 KB:   Log Measured From
 DMF .                 KB:   Drilling Measured From
 TLI .F               196:   Top log interval
 TLAB.               0000:   Time logger at bottom
~OTHER INFORMATION
~A   DEPT     CALD         GRD      RHOB       DRHO       TENR        SPR        ILM        ILD       SFLU   
# ...
 2765.5000     9.1630   119.3620     2.6040     0.0730   964.1930   -34.4770     8.0550     7.5230     8.9920
 2766.0000     9.1620   115.4740     2.6050     0.0760   965.1510   -34.4450     8.0280     7.4570     8.7230
 2766.5000     9.1620   111.3870     2.6160     0.0920   966.1100   -34.4130     7.9500     7.3910     8.9490
 2767.0000     9.1610   112.5870     2.6270     0.0990   967.0680   -34.3800     7.8780     7.3250     9.3050
 2767.5000     9.1600   114.6790     2.6310     0.0980   968.0270   -34.2910     7.8070     7.2590     9.0510
 2768.0000     9.1600   116.8180     2.6280     0.0900   968.9850   -33.9940     7.7350     7.1930     8.7810
 2768.5000     9.1590   118.9520     2.6240     0.0860   969.9440   -33.7010     7.6630     7.1280     8.1860
 2769.0000     9.1590   121.0900     2.6210     0.0830   970.9710   -33.4090     7.5910     7.0620     7.6900
 2769.5000     9.1580   123.3100     2.6130     0.0820   971.4100   -33.3660     7.5190     6.9920     7.8680
 2770.0000     9.1580   122.4700     2.6030     0.0810   971.8830   -33.3660     7.4580     7.0320     8.0470
 2770.5000     9.1570   120.7330     2.5940     0.0790   972.3550   -33.3660     7.4840     7.0760     8.2260
 2771.0000     9.1560   118.9610     2.5860     0.0780   972.8280   -33.3670     7.5110     7.1200     8.4040
 2771.5000     9.1560   117.1350     2.5840     0.0770   973.3010   -33.3970     7.5390     7.1630     8.5830
 2772.0000     9.1550   117.9320     2.5840     0.0800   973.7740   -33.5240     7.5670     7.2070     8.8040
 2772.5000     9.1550   120.1610     2.5910     0.0830   974.2470   -33.6490     7.5940     7.2510     8.7610
 2773.0000     9.1540   122.7170     2.6000     0.0910   974.7190   -33.7730     7.6220     7.2940     8.6840
 2773.5000     9.1530   120.1430     2.5950     0.0880   975.1920   -33.8970     7.6500     7.3190     8.6080
 2774.0000     9.1530   116.6830     2.5800     0.0750   975.6650   -34.0220     7.6670     7.2990     8.4930
 2774.5000     9.1520   113.2660     2.5700     0.0620   976.1380   -34.1440     7.6240     7.2830     8.6440
 2775.0000     9.1520   112.6020     2.6080     0.0820   976.6100   -34.1080     7.5880     7.2670     9.0600
 2775.5000     9.1510   113.8340     2.6370     0.1050   977.0830   -34.0510     7.5530     7.2510     9.3910
 2776.0000     9.1510   116.9900     2.6570     0.1180   977.5560   -33.9940     7.5170     7.2350     8.9850
 2776.5000     9.1500   119.2770     2.6410     0.1100   978.0290   -33.9370     7.4810     7.2190     8.6490
 2777.0000     9.1490   120.1230     2.6340     0.1080   978.5020   -33.8790     7.4450     7.2030     8.3130
 2777.5000     9.1490   119.8310     2.6430     0.1150   978.9740   -33.8180     7.4090     7.1880     8.1840
 2778.0000     9.1480   120.5550     2.6500     0.1230   979.4470   -33.8030     7.3620     7.1040     8.0280
 2778.5000     9.1480   122.2110     2.6450     0.1210   979.9200   -33.9510     7.2450     7.0020     8.2560
 2779.0000     9.1470   123.8260     2.6380     0.1110   980.3930   -33.9610     7.1290     6.9010     8.4070
 2779.5000     9.1470   124.9700     2.6320     0.1080   980.8650   -33.9650     7.0120     6.8000     8.3450
 2780.0000     9.1460   126.0030     2.6440     0.1180   981.3380   -33.8200     6.8950     6.6990     8.2490
 2780.5000     9.1450   127.5570     2.6550     0.1300   981.8110   -33.6320     6.7790     6.5980     8.1780
 2781.0000     9.1450   129.2580     2.6590     0.1310   982.2840   -33.4430     6.6620     6.4960     7.8910
 2781.5000     9.1440   131.1110     2.6420     0.1130   982.7560   -33.2530     6.5550     6.3950     7.5610
 2782.0000     9.1440   132.9640     2.6290     0.0960   983.2290   -33.1670     6.5140     6.2940     7.1630
 2782.5000     9.1430   134.7820     2.6240     0.0970   983.7020   -33.2290     6.4680     6.2020     6.6020
 2783.0000     9.1430   134.1190     2.6220     0.1020   984.1750   -33.3080     6.4220     6.2060     6.3170
 2783.5000     9.1420   133.1270     2.6160     0.1000   984.6480   -33.3870     6.3770     6.2140     6.5180
 2784.0000     9.1410   132.1330     2.6090     0.0980   985.1200   -33.4670     6.3170     6.2220     7.1860
 2784.5000     9.1390   131.1180     2.6100     0.0980   985.5930   -33.5460     6.3450     6.2300     7.8550
 2785.0000     9.1380   129.7110     2.6130     0.1000   986.0660   -33.6110     6.3830     6.2380     8.1780
 2785.5000     9.1360   127.0670     2.6150     0.1010   986.5390   -33.6710     6.4220     6.2460     8.1780
 2786.0000     9.1340   124.5060     2.6180     0.1020   987.0110   -33.7320     6.4600     6.2540     7.6950
 2786.5000     9.1320   121.9410     2.6280     0.1050   987.4840   -33.7920     6.4990     6.2600     7.2540
 2787.0000     9.1310   120.9540     2.6380     0.1070   987.9570   -33.8520     6.5370     6.2560     7.3790
 2787.5000     9.1290   121.2400     2.6400     0.1090   988.4300   -33.9120     6.5550     6.2450     7.4720
 2788.0000     9.1270   123.1790     2.6330     0.1090   988.9030   -33.9620     6.5170     6.2340     7.5650
 2788.5000     9.1250   125.5750     2.6230     0.1000   989.3750   -33.9610     6.4890     6.2230     7.6580
 2789.0000     9.1240   128.0000     2.6150     0.0900   989.8480   -33.9620     6.4620     6.2120     7.7510
 2789.5000     9.1220   130.3930     2.6200     0.0870   990.3210   -33.9530     6.4340     6.2010     7.8090
 2790.0000     9.1200   130.9600     2.6240     0.0900   990.7940   -33.7300     6.4060     6.1900     6.9270
 2790.5000     9.1180   131.2320     2.6260     0.0920   990.7140   -33.5010     6.3780     6.1800     6.9780
 2791.0000     9.1170   130.3670     2.6080     0.0870   990.2370   -33.3670     6.3510     6.1680     7.0290
 2791.5000     9.1150   129.5980     2.5910     0.0800   989.7610   -33.3670     6.3170     6.1580     7.0810
 2792.0000     9.1130   130.7530     2.5770     0.0730   989.2850   -33.3660     6.3890     6.1450     7.1220
 2792.5000     9.1110   132.0070     2.5820     0.0690   988.8090   -33.3660     6.5080     6.3080     6.7380
 2793.0000     9.1100   133.1140     2.5870     0.0720   988.3320   -33.3940     6.6150     6.5110     6.8740
 2793.5000     9.1080   131.6130     2.5920     0.0760   987.8560   -33.4370     6.8300     6.7140     7.2030
 2794.0000     9.1060   129.4200     2.5960     0.0800   987.3800   -33.4810     7.0940     6.9170     7.5270
 2794.5000     9.1040   125.4730     2.6010     0.0850   986.9040   -33.5240     7.3570     7.1190     8.3850
 2795.0000     9.1030   121.5150     2.6070     0.0890   986.4270   -33.5640     7.6200     7.3220     9.2200
 2795.5000     9.1010   120.0990     2.6200     0.0940   985.9510   -33.5650     7.8840     7.5250    10.0170
 2796.0000     9.1000   119.9760     2.6440     0.1090   985.4750   -33.5640     8.0880     7.7310    10.1720
 2796.5000     9.0980   119.8610     2.6690     0.1250   984.9990   -33.5640     8.3280     7.9850    10.3210
 2797.0000     9.0970   118.4000     2.6770     0.1260   984.5220   -33.5640     8.5680     8.2400    10.4890
 2797.5000     9.0950   116.7430     2.6660     0.1170   984.0460   -33.5640     8.8070     8.4950    10.3070
 2798.0000     9.0940   117.6110     2.6570     0.1040   983.5700   -33.5640     9.0470     8.7500    10.0340
 2798.5000     9.0920   118.8660     2.6560     0.1020   983.0940   -33.5650     9.2190     9.0050     9.7610
 2799.0000     9.0910   118.1410     2.6590     0.1070   982.6170   -33.6660     9.6020     9.2590     9.5660
 2799.5000     9.0900   115.2740     2.6650     0.1110   982.1410   -33.7810     9.9550     9.5140    11.5190
 2800.0000     9.0880   112.4110     2.6700     0.1130   981.6650   -33.8950    10.2030     9.7440    13.2330
 2800.5000     9.0870   109.9220     2.6610     0.1150   981.1890   -34.0100     9.9940     9.4680    14.0890
 2801.0000     9.0850   111.5530     2.6460     0.1110   980.7130   -34.1330     9.7610     9.2160    12.5290
 2801.5000     9.0840   117.0090     2.6400     0.1070   980.2360   -33.9390     9.5280     8.9650    11.3310
