~VERSION INFORMATION
 VERS.                2.0:   CWLS LOG ASCII STANDARD - VERSION 2.0
 WRAP.                 NO:   ONE LINE PER DEPTH STEP
~WELL INFORMATION
#MNEM.UNIT      DATA TYPE    INFORMATION
#----------   ------------   ------------------------------
 STRT.F            0.0000:   START DEPTH
 STOP.F         5670.0000:   STOP DEPTH
 STEP.F            0.5000:   STEP LENGTH
 NULL.          -999.2500:   NO VALUE
 COMP.          INTEX OIL:   COMPANY
 WELL.    INTEX TP #71-15:   WELL
 FLD .             TEAPOT:   FIELD
 LOC .      S15 T38N R78W:   LOCATION
 CNTY.            NATRONA:   COUNTY
 STAT.            WYOMING:   STATE
 CTRY. UNITED STATES OF AMERICA:   COUNTRY
 SRVC.       SCHLUMBERGER:   SERVICE COMPANY
 DATE.        05-AUG-1966:   LOGDATE
 API .     49025097110000:   API NUMBER
~CURVE INFORMATION
#MNEM.UNIT       API CODE    CURVE DESCRIPTION
#----------   ------------   ------------------------------
 DEPT.F                  :   
 GRD .GAPI   45 310 01 00:   GAMMA RAY FROM DENSITY LOG
 CALD.IN     45 280 60 00:   CALIPER FROM DENSITY LOG
 CORR.G/C3   45 356 01 00:   DENSITY CORRECTION
 RHOB.G/C3   45 350 01 00:   BULK DENSITY
 SPR .MV     05 010 01 00:   SPONTANEOUS POTENTIAL FROM RES.
 ASN .OHMM   05 041 16 00:   AMPLIFIED SHORT NORMAL 16"
 ILD .OHMM   05 120 46 00:   INDUCTION LOG DEEP RESISTIVITY
~PARAMETER INFORMATION
#MNEM.UNIT          VALUE    DESCRIPTION
#----------   ------------   ------------------------------
 EKB .F         5247.5500:   Kelly bushing
 EGL .F         5236.1000:   Ground level
 EDF .F            0.0000:   Drilling floor
 EPD .F         5236.1000:   Permanent datum
 TD  .F         5670.0000:   Total depth
 CLNT.            A2DTECH:   Client Code
 SL  . 610' FNL & 710' FEL:   Surface Location
 PD  .                 GL:   Permanent Datum
 LMF .                 KB:   Log Measured From
 DMF .                 KB:   Drilling Measured From
 DAPD.F             11.45:   Feet Above Permanent Datum
 DATE.        05-AUG-1966:   Date Logged [DD-MMM-YYYY]
 DD  .F              5665:   Depth driller
 DL  .F              5670:   Depth logger
 BLI .F              5669:   Bottom log interval
 TLI .F              5551:   Top log interval
 CS1 .IN            10.75:   Casing size
 CBD1.    10.75" @ 567.9':   Casing driller 1
 CBL1.F               569:   Casing logger 1
 BS1 .IN           8.9375:   Bit size
 BSD1.F              5665:   Depth drilled with bit1
 DFT .            DEXTRID:   Type fluid in hole
 DFD .                9.4:   Density
 DFV .                 59:   Viscosity
 DFPH.                7.5:   pH
 DFL .                8.2:   Fluid loss
 MSS .           FLOWLINE:   Source of sample
 RMS .OHMM           1.80:   Rm
 MST .F                72:   Rm Meas. temp.
 RMF .OHMM           1.00:   Rmf
 MFST.F                82:   Rmf Meas. temp.
 MFSS.               MEAS:   Source Rmf.
 BHT .F               163:   BHT.
 TCS .HRS               3:   Time Circ. stopped
 MRT .F               163:   Maximum recorded temp.
 LUN .               4507:   Logging unit number
 LUL .               CSPR:   Logging unit location
 ENGI.            MANGOLD:   Recorded By
 ORIG.      2.5" 5" PRINT:   Origin of data
 UWI .     49025097110000:   Unique Well ID
 DICO. A2D TECHNOLOGIES, INC.:   Digitizing Company
~OTHER INFORMATION
~A    DEPT      GRD      CALD       CORR       RHOB        SPR        ASN        ILD   
# ...
 5323.5000    19.1968    11.5593     0.0173     2.8920   -42.9527    42.7826   126.8739
 5324.0000    14.6830    11.5594     0.0307     2.9604   -42.7966    44.7909   169.3437
 5324.5000    13.7598    11.5297     0.0258     2.9682   -42.7894    46.7993   176.0471
 5325.0000    13.4731    11.5000     0.0085     2.9667   -42.9328    47.7650   142.5109
 5325.5000    13.6855    11.4703     0.0151     2.9676   -42.9237    47.6858   105.9946
 5326.0000    14.1589    11.4406     0.0237     2.9743   -42.7677    46.2664    76.9300
 5326.5000    15.4153    11.4408     0.0250     2.9789   -42.6110    44.4000    54.6025
 5327.0000    19.3114    11.4409     0.0126     2.9774   -42.2889    42.3094    37.4659
 5327.5000    22.9042    11.4112     0.0053     2.9670   -41.8513    38.7291    32.4697
 5328.0000    26.9461    11.4114     0.0169     2.9446   -41.3976    35.4469    26.5794
 5328.5000    32.3353    11.3816     0.0389     2.9253   -40.7952    32.1640    22.9991
 5329.0000    37.7246    11.3519     0.0473     2.9059   -40.5972    30.8937    19.4927
 5329.5000    43.1138    11.3507     0.0541     2.8775   -40.4831    29.1763    18.5204
 5330.0000    52.0958    11.3224     0.0509     2.8357   -40.1782    28.0544    17.9207
 5330.5000    55.2576    11.2927     0.0371     2.8056   -39.7245    27.7528    17.5446
 5331.0000    57.6221    11.2630     0.0194     2.7983   -39.2666    27.4512    17.4671
 5331.5000    62.7769    11.2257     0.0016     2.7953   -38.9449    27.3731    17.5374
 5332.0000    67.2516    11.2036    -0.0132     2.7932   -38.6594    27.3689    17.5332
 5332.5000    70.0599    11.1931     0.0017     2.7754   -38.5033    27.3654    17.3061
 5333.0000    67.5480    11.1319    -0.0161     2.7507   -38.4961    27.3618    16.7803
 5333.5000    65.8335    11.1145    -0.0413     2.7389   -38.6395    27.3577    16.1806
 5334.0000    62.4251    11.0848     0.0062     2.7414   -38.7810    27.1306    15.5064
 5334.5000    63.2891    11.0849     0.0330     2.7667   -38.9211    26.8290    15.1303
 5335.0000    64.9029    11.0851     0.0434     2.7951   -39.0625    26.3783    14.8280
 5335.5000    67.4931    11.0554     0.0312     2.7600   -39.2110    25.8526    14.8244
 5336.0000    71.4072    11.0555    -0.0235     2.7535   -39.3691    25.4764    14.6724
 5336.5000    68.7126    11.0258    -0.0369     2.7617   -39.4871    25.3238    14.8179
 5337.0000    68.2635    11.0260    -0.0381     2.7602   -39.6287    25.2458    14.8882
 5337.5000    68.2635    11.0261    -0.0248     2.7543   -39.8065    25.6142    15.4057
 5338.0000    68.2635    11.0263    -0.0058     2.7558   -40.1052    26.5048    16.3708
 5338.5000    62.8743    11.0264     0.0062     2.7649   -40.4998    27.6190    18.1556
 5339.0000    52.9940    11.0266     0.0115     2.7769   -40.7884    28.9561    21.1320
 5339.5000    49.3967    11.0267     0.0148     2.8008   -41.0788    30.2939    25.0033
 5340.0000    49.4310    11.0269     0.0171     2.8129   -41.2204    31.8551    27.5048
 5340.5000    49.8503    11.0270     0.0113     2.8267   -41.3619    33.9586    29.7077
 5341.0000    49.2425    11.0272     0.0023     2.8408   -41.6505    34.8672    29.7929
 5341.5000    40.7540    11.0273     0.0068     2.8575   -41.6433    35.7757    29.4309
 5342.0000    27.9073    11.0275     0.0217     2.8678   -41.7867    36.0160    28.3255
 5342.5000    26.4970    11.0276     0.0380     2.8729   -41.9264    35.4343    26.7713
 5343.0000    28.4644    11.0278     0.0440     2.8744   -41.8330    34.6290    24.7700
 5343.5000    38.1899    11.0279     0.0470     2.8396   -41.7631    33.7491    22.0998
 5344.0000    57.3077    11.0281     0.0248     2.7974   -41.6071    32.8693    20.6201
 5344.5000    67.9467    11.0223    -0.0108     2.7684   -41.1533    32.5087    20.2563
 5345.0000    75.0000    10.9985    -0.0033     2.7476   -40.6980    32.2274    20.0434
 5345.5000    79.0419    10.9987    -0.0051     2.7238   -40.2443    32.2442    20.3556
 5346.0000    82.6347    10.9988    -0.0122     2.7172   -39.7906    32.3331    21.1859
 5346.5000    84.4311    10.9990     0.0266     2.7463   -39.7834    32.6479    22.1652
 5347.0000    82.6347    10.9991     0.0678     2.7807   -39.7281    33.1839    23.5933
 5347.5000    79.0419    10.9993     0.0774     2.8002   -39.6201    33.8689    24.7217
 5348.0000    71.8563    10.9994     0.1084     2.8017   -39.4643    34.7029    26.5952
 5348.5000    65.1189    10.9996     0.1206     2.7958   -39.3080    35.9119    29.5882
 5349.0000    64.6707    10.9997     0.1231     2.7719   -39.1356    36.8950    32.8775
 5349.5000    67.0674    10.9999     0.1141     2.7421   -38.8453    38.3251    35.3471
 5350.0000    72.2305    11.0000     0.0593     2.7242   -38.9869    39.7873    41.8423
 5350.5000    75.8487    11.0001    -0.0002     2.7183   -39.1303    41.4417    48.6703
 5351.0000    77.2455    11.0003    -0.0029     2.7236   -39.2718    42.9544    58.4948
 5351.5000    76.9467    11.0004     0.0150     2.7466   -39.4134    44.4429    64.4560
 5352.0000    75.2754    11.0006     0.0358     2.8147   -39.4044    45.8566    71.9076
 5352.5000    50.9366    11.0007     0.0477     2.8758   -39.2483    46.5255    77.1237
 5353.0000    39.7577    10.9867     0.0447     2.9057   -39.0923    46.7475    65.9464
 5353.5000    34.0399    10.9712     0.0374     2.9038   -38.9169    46.5219    52.8812
 5354.0000    31.8862    10.9713     0.0151     2.8750   -38.6296    45.0295    39.6051
 5354.5000    31.8862    10.9715     0.0078     2.8704   -38.4735    41.9726    35.1341
 5355.0000    33.6826    10.9717     0.0093     2.8727   -38.2410    38.6921    28.8748
 5355.5000    44.9102    10.9718     0.0152     2.8670   -37.5670    35.7094    25.0745
 5356.0000    62.8743    10.9720     0.0079     2.8340   -37.5595    34.2173    24.1058
 5356.5000    76.3473    11.0020    -0.0264     2.7892   -37.5507    32.8742    23.8823
 5357.0000    79.4910    11.0021    -0.0475     2.7623   -37.6922    32.4253    24.4039
 5357.5000    81.7365    11.0022    -0.0514     2.7414   -37.8337    32.1255    24.7019
 5358.0000    81.6501    11.0024    -0.0434     2.7370   -37.9752    32.1982    25.8942
 5358.5000    77.7765    11.0324    -0.0301     2.7371   -38.2655    32.7177    27.1610
 5359.0000    70.5360    11.0027    -0.0079     2.7476   -38.5558    33.0143    28.6513
 5359.5000    53.0732    11.0028     0.0034     2.7955   -38.8461    33.0870    29.6200
 5360.0000    40.3895    11.0030     0.0053     2.8284   -39.1364    32.7866    30.0671
 5360.5000    38.1737    11.0330     0.0000     2.8329   -39.2797    32.1142    29.1729
 5361.0000    39.6380    11.0331     0.0044     2.8231   -39.4194    30.5475    26.6393
 5361.5000    53.0156    11.0439     0.0142     2.7987   -39.4121    28.9064    24.1058
 5362.0000    75.5391    11.1053     0.0172     2.7646   -39.4048    27.6376    21.9449
 5362.5000    82.6347    11.1667     0.0158     2.7259   -39.3973    26.2945    20.0075
 5363.0000    82.6347    11.2128    -0.0064     2.6981   -39.2411    25.2495    18.5917
 5363.5000    81.7365    11.2895    -0.0085     2.6645   -38.9346    24.0554    17.7384
 5364.0000    83.0838    11.5714     0.0099     2.6354   -38.7785    22.8611    16.5052
 5364.5000    88.0239    11.7208     0.0144     2.6466   -38.6223    21.9651    15.7601
 5365.0000    88.0239    11.6911    -0.0004     2.6847   -38.4662    21.1437    15.1639
 5365.5000    87.5749    11.2733    -0.0078     2.7150   -38.6077    20.6948    14.5678
 5366.0000    87.1257    11.1242     0.0089     2.7110   -38.8980    20.2456    14.2697
 5366.5000    87.1257    11.1243     0.0175     2.6781   -39.3371    20.1693    14.2697
 5367.0000    87.1420    11.1543     0.0159     2.6617   -39.6274    20.0930    14.2697
 5367.5000    87.5749    11.1545     0.0111     2.6614   -39.7708    20.0909    14.2697
 5368.0000    87.5091    11.1546     0.0043     2.6872   -39.9104    19.9401    14.2697
 5368.5000    87.0348    11.1548     0.0283     2.7142   -39.9031    19.8638    14.4188
