~VERSION INFORMATION
 VERS.                2.0:   CWLS LOG ASCII STANDARD - VERSION 2.0
 WRAP.                 NO:   ONE LINE PER DEPTH STEP
~WELL INFORMATION
#MNEM.UNIT      DATA TYPE    INFORMATION
#----------   ------------   ------------------------------
 STRT.F           48.5000:   START DEPTH
 STOP.F         3509.0000:   STOP DEPTH
 STEP.F            0.5000:   STEP LENGTH
 NULL.          -999.2500:   NO VALUE
 COMP.   TESORO PETROLEUM:   COMPANY
 WELL. TESORO "TX" #45-33:   WELL
 FLD .        TEAPOT DOME:   FIELD
 LOC .      S33 T39N R78W:   LOCATION
 CNTY.            NATRONA:   COUNTY
 STAT.            WYOMING:   STATE
 CTRY. UNITED STATES OF AMERICA:   COUNTRY
 SRVC.      DRESSER ATLAS:   SERVICE COMPANY
 DATE.        03-OCT-1976:   LOGDATE
 API .     49025102700000:   API NUMBER
~CURVE INFORMATION
#MNEM.UNIT       API CODE    CURVE DESCRIPTION
#----------   ------------   ------------------------------
 DEPT.F                  :   
 SPR .MV     07 010 01 00:   SPONTANEOUS POTENTIAL
 TENR.LBS    07 635 01 00:   TENSION FROM RESISTIVITY
 SFL .OHMM   07 220 01 00:   SHALLOW FOCUSED LOG RESISTIVITY
 ILM .OHMM   07 120 44 00:   INDUCTION LOG MEDIUM RESISTIVITY
 ILD .OHMM   07 120 46 00:   DEEP INDUCTION RESISTIVITY
 GRD .GAPI   45 310 01 00:   GAMMA RAY FROM DENSITY LOG
 CALD.IN     45 280 60 00:   CALIPER FROM DENSITY LOG
 NPHI.DEC    42 890 03 00:   NEUTRON POROSITY SANDSTONE
 DPHI.DEC    45 890 12 00:   DENSITY POROSITY SANDSTONE
 TEND.LBS    45 635 01 00:   TENSION FROM DENSITY LOG
~PARAMETER INFORMATION
#MNEM.UNIT          VALUE    DESCRIPTION
#----------   ------------   ------------------------------
 EKB .F         5217.0000:   Kelly bushing
 EGL .F         5206.0000:   Ground level
 EDF .F         5216.0000:   Drilling floor
 EPD .F         5206.0000:   Permanent datum
 TD  .F         3491.0000:   Total depth
 DATE.        03-OCT-1976:   Date logged
 CLNT.            A2DTECH:   Client Code
 SL  . 2030' FWL & 2145' FSL:   Surface Location
 PD  .                 GL:   Permanent Datum
 DD  .F              3491:   Depth driller
 DL  .F              3487:   Depth logger
 BLI .F              3485:   Bottom log interval
 TLI .F               813:   Top log interval
 CS1 .IN            8.625:   Casing size
 CBD1.      8.625" @ 823':   Casing driller 1
 CBL1.F               819:   Casing logger 1
 BS1 .IN            7.875:   Bit size
 BSD1.F              3491:   Depth drilled with bit1
 DFT .           CHEM GEL:   Type fluid in hole
 DFD .                9.4:   Density
 DFV .                 47:   Viscosity
 DFPH.                 10:   pH
 DFL .                5.8:   Fluid loss
 MSS .           FLOWLINE:   Source of sample
 RMS .OHMM           1.09:   Rm
 MST .F                68:   Rm Meas. temp.
 RMF .OHMM              1:   Rmf
 MFST.F                68:   Rmf Meas. temp.
 RMC .OHMM           1.24:   Rmc
 MCST.F                68:   Rmc Meas. temp.
 MFSS.               MEAS:   Source Rmf.
 MCSS.               MEAS:   Source Rmc.
 RMB .OHMM            .62:   Rm. at BHT
 BHT .F               119:   BHT.
 TCS .HRS              12:   Time Circ. stopped
 MRT .F               119:   Maximum recorded temp.
 LUN .               6134:   Logging unit number
 LUL .              GLTTE:   Logging unit location
 ENGI.            VAUGHIN:   Recorded By
 WITN.        WOLF-CARTER:   Witnessed by
 ORIG.     2.5", 5" PRINT:   Origin of data
 UWI .     49025102700000:   Unique Well ID
 DICO. A2D TECHNOLOGIES, INC.:   Digitizing Company
 DAPD.                 11:   Feet Above Permanent Datum
~OTHER INFORMATION
~A   DEPT      SPR        TENR       SFL        ILM        ILD        GRD       CALD       NPHI       DPHI       TEND   
# ...
 2795.5000   -25.9130  -999.2500     9.9180    10.8770    11.8830   110.7070     8.2890     0.1940     0.0720   275.0000
 2796.0000   -25.7910  -999.2500    10.8770    10.5770    11.5480   110.9290     8.2880     0.1910     0.0720   275.0000
 2796.5000   -25.6700  -999.2500    10.5910    10.2780    11.0790   109.7950     8.2870     0.1880     0.0680   275.0000
 2797.0000   -25.5520  -999.2500     9.8770     9.9180    11.1410   108.1830     8.2860     0.1870     0.0650   275.0000
 2797.5000   -25.4320  -999.2500     8.8780     9.9920    11.2450   106.5870     8.2850     0.1870     0.0660   275.0000
 2798.0000   -25.3120  -999.2500     9.1470    10.1030    11.2860   106.8030     8.2840     0.1860     0.0680   273.9080
 2798.5000   -25.1950  -999.2500     9.5960    10.1480    11.4380   106.7720     8.2830     0.1850     0.0680   272.9060
 2799.0000   -25.0660  -999.2500    10.0440    10.2620    11.5660   106.2160     8.2820     0.1850     0.0650   271.9040
 2799.5000   -24.9950  -999.2500    10.4930    10.3760    11.6930   106.6890     8.2810     0.1880     0.0660   270.9020
 2800.0000   -25.0040  -999.2500    10.9420    10.4900    11.8200   106.5450     8.2800     0.1920     0.0700   269.9000
 2800.5000   -25.0020  -999.2500    11.3900    10.6040    11.9470   106.3380     8.2790     0.1960     0.0750   268.8980
 2801.0000   -24.9990  -999.2500    11.9280    10.7170    12.0740   106.1300     8.2780     0.1970     0.0790   267.8960
 2801.5000   -25.0040  -999.2500    11.4070    10.8310    12.2690   106.2490     8.2770     0.1970     0.0830   266.8940
 2802.0000   -25.0080  -999.2500    10.7550    11.0360    12.5660   107.3100     8.2760     0.1960     0.0840   265.8920
 2802.5000   -25.2330  -999.2500    10.1030    11.3010    12.8620   107.0620     8.2750     0.1960     0.0800   265.5500
 2803.0000   -25.5460  -999.2500    10.2910    11.5670    13.1590   108.0500     8.2740     0.1980     0.0800   270.5600
 2803.5000   -25.8320  -999.2500    11.6170    11.8320    13.5740   109.4980     8.2730     0.2000     0.0790   275.5700
 2804.0000   -26.1660  -999.2500    12.7220    12.1510    13.3660   111.0020     8.2720     0.2020     0.0720   280.5800
 2804.5000   -26.1510  -999.2500    13.8260    11.9030    13.0190   112.2210     8.2710     0.2050     0.0650   285.5900
 2805.0000   -26.0970  -999.2500    12.2750    11.5920    12.6730   112.4170     8.2700     0.2070     0.0640   290.6000
 2805.5000   -26.0280  -999.2500    10.1030    11.2820    12.3260   112.3030     8.2690     0.2080     0.0660   293.7290
 2806.0000   -25.9790  -999.2500    10.2460    10.9720    11.9800   112.0470     8.2680     0.2030     0.0700   283.2920
 2806.5000   -25.9180  -999.2500    10.4860    10.6620    11.6340   110.9560     8.2670     0.1980     0.0750   272.8540
 2807.0000   -25.8430  -999.2500    10.6780    10.3520    11.0790   111.0530     8.2660     0.1930     0.0740   262.4170
 2807.5000   -25.8500  -999.2500     9.0870     9.9180    11.2090   111.2250     8.2650     0.1910     0.0710   251.9790
 2808.0000   -25.4040  -999.2500     8.5560    10.0920    11.5340   112.1070     8.2640     0.1910     0.0640   246.5090
 2808.5000   -25.0400  -999.2500     9.9040    10.3830    11.8580   113.3830     8.2630     0.1940     0.0580   251.0640
 2809.0000   -25.2100  -999.2500    11.0270    10.6730    12.1820   115.0260     8.2620     0.2000     0.0510   255.6180
 2809.5000   -25.2990  -999.2500    12.1510    10.9630    12.8420   115.7950     8.2610     0.2060     0.0450   260.1730
 2810.0000   -25.4060  -999.2500    12.1510    11.4960    12.4170   116.5440     8.2600     0.2100     0.0480   264.7270
 2810.5000   -25.5170  -999.2500    11.7760    11.0390    11.9920   116.0930     8.2590     0.2110     0.0520   269.2820
 2811.0000   -25.6210  -999.2500    10.8380    10.6590    11.5670   115.3050     8.2580     0.2120     0.0560   273.8360
 2811.5000   -25.7290  -999.2500     9.9000    10.2780    11.1410   114.2250     8.2570     0.2110     0.0620   278.3910
 2812.0000   -25.8350  -999.2500     8.9630     9.8970    10.7160   113.0650     8.2560     0.2120     0.0710   282.9450
 2812.5000   -25.9430  -999.2500     8.4000     9.5170    10.2910   111.9040     8.2550     0.2120     0.0800   285.0000
 2813.0000   -26.0450  -999.2500     8.2460     9.2120    10.4650   110.7420     8.2540     0.2090     0.0840   285.0000
 2813.5000   -26.1670  -999.2500     8.7970     9.4200    10.7540   109.5700     8.2530     0.2070     0.0890   285.0000
 2814.0000   -26.1120  -999.2500     9.4860     9.6790    11.0440   108.9340     8.2520     0.2050     0.0880   285.0000
 2814.5000   -25.9310  -999.2500    10.1740     9.9380    11.3340   108.4220     8.2510     0.2020     0.0850   285.8780
 2815.0000   -25.7620  -999.2500    10.8620    10.1980    11.6240   108.8710     8.2500     0.1980     0.0760   291.4440
 2815.5000   -25.6050  -999.2500    11.5510    10.4570    11.9130   109.5640     8.2490     0.1970     0.0640   289.5700
 2816.0000   -25.4290  -999.2500    12.3770    10.7160    12.2030   110.2730     8.2480     0.1980     0.0530   274.5400
 2816.5000   -25.8000  -999.2500    11.7410    10.9760    12.3770   110.1180     8.2470     0.1950     0.0470   266.0170
 2817.0000   -26.1560  -999.2500    10.9460    11.0790    12.1040   109.3160     8.2460     0.1920     0.0490   268.8000
 2817.5000   -25.8310  -999.2500    10.1500    10.7860    11.8310   108.4730     8.2450     0.1900     0.0520   271.5830
 2818.0000   -25.5470  -999.2500     8.8780    10.5420    11.5590   109.3360     8.2440     0.1930     0.0520   274.3670
 2818.5000   -25.2330  -999.2500     9.8690    10.2980    11.2860   110.6190     8.2440     0.1950     0.0520   278.3650
 2819.0000   -25.0090  -999.2500    13.3250    10.1030    11.2860   111.2910     8.2450     0.1970     0.0560   282.7220
 2819.5000   -25.0040  -999.2500    13.1440    10.1030    11.2860   111.7990     8.2460     0.2020     0.0610   287.0780
 2820.0000   -24.9960  -999.2500    12.6900    10.1030    11.2860   112.3050     8.2470     0.2030     0.0660   291.4350
 2820.5000   -25.0070  -999.2500    12.2360    10.1030    11.2860   112.5210     8.2480     0.2010     0.0710   293.9890
 2821.0000   -24.9950  -999.2500    11.7820    10.1030    11.2860   112.6200     8.2490     0.2020     0.0650   288.4220
 2821.5000   -25.0050  -999.2500    11.3280     9.9100    10.6410   114.0530     8.2510     0.2030     0.0570   282.8560
 2822.0000   -25.0430  -999.2500    10.8740     9.4290    10.1030   114.5120     8.2520     0.2050     0.0480   277.2890
 2822.5000   -25.6260  -999.2500    10.4210     8.9470     9.5650   116.9560     8.2530     0.2070     0.0470   271.7220
 2823.0000   -25.7600  -999.2500     9.9670     8.4660     9.0270   118.6690     8.2540     0.2080     0.0490   266.1560
 2823.5000   -25.6430  -999.2500     9.5130     7.9850     8.4900   120.0140     8.2550     0.2100     0.0510   260.5890
 2824.0000   -25.5740  -999.2500     9.0590     7.5030     7.9520   122.0780     8.2560     0.2100     0.0520   255.0000
 2824.5000   -25.4630  -999.2500     8.6050     7.0220     7.4140   123.1220     8.2580     0.2090     0.0450   258.8380
 2825.0000   -25.3360  -999.2500     8.1510     6.2520     6.9840   123.6930     8.2590     0.2090     0.0480   262.6920
 2825.5000   -24.6270  -999.2500     7.6970     6.3180     6.7400   122.6580     8.2600     0.2070     0.0520   266.5460
 2826.0000   -24.6460  -999.2500     7.2430     6.4840     6.5370   121.3570     8.2610     0.2040     0.0570   270.4000
 2826.5000   -24.6450  -999.2500     6.6080     6.6500     6.2520   120.3390     8.2620     0.2010     0.0620   274.2540
 2827.0000   -24.6950  -999.2500     6.6790     6.8160     6.2730   120.5750     8.2640     0.1990     0.0630   278.1080
 2827.5000   -24.7120  -999.2500     6.7960     6.9820     6.3090   120.9170     8.2640     0.1970     0.0630   281.9620
 2828.0000   -24.7440  -999.2500     6.9140     7.1140     6.3450   120.1680     8.2640     0.2010     0.0610   285.8150
 2828.5000   -24.7720  -999.2500     6.9840     7.0990     6.3800   119.2870     8.2640     0.2030     0.0570   289.6690
