~VERSION INFORMATION
 VERS.                2.0:   CWLS LOG ASCII STANDARD - VERSION 2.0
 WRAP.                 NO:   ONE LINE PER DEPTH STEP
~WELL INFORMATION
#MNEM.UNIT      DATA TYPE    INFORMATION
#----------   ------------   ------------------------------
 STRT.F          417.0000:   START DEPTH
 STOP.F         4133.0000:   STOP DEPTH
 STEP.F            0.5000:   STEP LENGTH
 NULL.          -999.2500:   NO VALUE
 COMP.    FENIX & SCISSON:   COMPANY
 WELL. FENIX  "LX" #18-11:   WELL
 FLD .              NPR 3:   FIELD
 LOC .      S11 T38N R78W:   LOCATION
 CNTY.            NATRONA:   COUNTY
 STAT.            WYOMING:   STATE
 CTRY. UNITED STATES OF AMERICA:   COUNTRY
 SRVC.       SCHLUMBERGER:   SERVICE COMPANY
 DATE.        14-JAN-1978:   LOGDATE
 API .     49025105590000:   API NUMBER
~CURVE INFORMATION
#MNEM.UNIT       API CODE    CURVE DESCRIPTION
#----------   ------------   ------------------------------
 DEPT.F                  :   
 SPR .MV     07 010 01 00:   SPONTANEOUS POTENTIAL
 SFL .OHMM   07 220 01 00:   SHALLOW FOCUSED LOG RESISTIVITY
 ILD .OHMM   07 120 46 00:   DEEP INDUCTION RESISTIVITY
 ILM .OHMM   07 120 44 00:   INDUCTION LOG MEDIUM RESISTIVITY
 CALD.IN     45 280 60 00:   CALIPER FROM DENSITY LOG
 GRD .GAPI   45 310 01 00:   GAMMA RAY FROM DENSITY LOG
 RHOB.G/C3   45 350 01 00:   BULK DENSITY
 CORR.G/C3   45 356 01 00:   DENSITY CORRECTION
 NPHI.DEC    42 890 03 00:   NEUTRON POROSITY SANDSTONE
~PARAMETER INFORMATION
#MNEM.UNIT          VALUE    DESCRIPTION
#----------   ------------   ------------------------------
 EKB .F         5220.0000:   Kelly bushing
 EGL .F         5210.0000:   Ground level
 EDF .F            0.0000:   Drilling floor
 TD  .F         4125.0000:   Total depth
 DATE.        14-JAN-1978:   Date logged
 CLNT.            A2DTECH:   Client Code
 SL  . 330' FSL & 530' FWL:   Surface Location
 PD  .                 GL:   Permanent Datum
 EPD .F              5210:   Elevation Permanent Datum
 LMF .                 KB:   Log Measured From
 DMF .                 KB:   Drilling Measured From
 DAPD.F                10:   Feet Above Permanent Datum
 DD  .F              4125:   Depth driller
 DL  .F              4121:   Depth logger
 BLI .F              4116:   Bottom log interval
 TLI .F               427:   Top log interval
 CS1 .IN            8.625:   Casing size
 CBD1.      8.625" @ 513':   Casing driller 1
 CBL1.F               427:   Casing logger 1
 BS1 .IN            7.875:   Bit size
 BSD1.F              4125:   Depth drilled with bit1
 DFT .                KCL:   Type fluid in hole
 DFD .                8.8:   Density
 DFV .                 40:   Viscosity
 DFPH.                 12:   pH
 DFL .                7.4:   Fluid loss
 MSS .           MUD TANK:   Source of sample
 RMS .OHMM           .418:   Rm
 MST .F                60:   Rm Meas. temp.
 RMF .OHMM           .343:   Rmf
 MFST.F                60:   Rmf Meas. temp.
 MFSS.               MEAS:   Source Rmf.
 RMB .OHMM            .20:   Rm. at BHT
 BHT .F               123:   BHT.
 TCS .HRS            0600:   Time Circ. stopped
 TLAB.HRS            0845:   Time logger at bottom
 MRT .F               123:   Maximum recorded temp.
 LUN .               8035:   Logging unit number
 LUL .               CSPR:   Logging unit location
 ENGI.             MARTIN:   Recorded By
 WITN.         HARRINGTON:   Witnessed by
 ORIG.      2.5" 5" PRINT:   Origin of data
 UWI .     49025105590000:   Unique Well ID
 DICO. A2D TECHNOLOGIES, INC.:   Digitizing Company
~OTHER INFORMATION
~A   DEPT      SPR        SFL        ILD        ILM       CALD         GRD      RHOB       CORR       NPHI   
# ...
 2643.5000   -32.6480     7.3890     6.9600     6.8480     9.6660   123.2000     2.5540     0.0120     0.2750
 2644.0000   -32.4800     7.1320     6.9680     6.8420     9.6600   122.1090     2.5540     0.0090     0.2700
 2644.5000   -31.6420     7.5590     6.9760     6.8350     9.6550   121.0780     2.5540     0.0120     0.2650
 2645.0000   -30.7570     7.9700     6.9840     6.8290     9.6490   119.9350     2.5560     0.0200     0.2600
 2645.5000   -30.1630     7.8270     6.9920     6.8230     9.6430   119.6100     2.5590     0.0270     0.2560
 2646.0000   -31.0340     7.6420     7.0030     6.8160     9.6380   119.7700     2.5630     0.0350     0.2530
 2646.5000   -31.8780     7.4570     7.0040     6.8100     9.6320   122.6420     2.5600     0.0360     0.2480
 2647.0000   -32.6280     7.2710     6.7820     6.6670     9.6280   125.1770     2.5520     0.0230     0.2500
 2647.5000   -32.5920     7.0860     6.6750     6.5320     9.6340   128.0730     2.5370     0.0110     0.2560
 2648.0000   -32.5470     7.0020     6.5690     6.3960     9.6440   128.2520     2.5230     0.0100     0.2610
 2648.5000   -32.5040     7.0020     6.4630     6.2610     9.6550   127.6140     2.5160     0.0100     0.2660
 2649.0000   -32.4460     7.0020     6.3830     6.2090     9.6640   125.5570     2.5220     0.0090     0.2690
 2649.5000   -31.6640     7.1410     6.3830     6.2090     9.6740   123.5280     2.5340     0.0120     0.2700
 2650.0000   -29.9360     7.3570     6.3830     6.1460     9.6850   122.7330     2.5430     0.0230     0.2740
 2650.5000   -28.1970     7.5390     6.3830     6.1290     9.6940   122.7740     2.5520     0.0350     0.2750
 2651.0000   -27.0360     7.1930     6.4830     6.1110     9.7050   122.7170     2.5530     0.0310     0.2750
 2651.5000   -26.0050     6.8930     6.7270     6.0940     9.6930   122.9710     2.5440     0.0220     0.2750
 2652.0000   -24.9770     6.8100     6.9930     6.0940     9.6780   120.6320     2.5340     0.0130     0.2790
 2652.5000   -23.9480     8.2270     7.5860     6.9260     9.6630   114.8210     2.5230     0.0060     0.2840
 2653.0000   -22.9180     9.6840     9.3070     7.9110     9.6480   107.6530     2.5140     0.0080     0.2900
 2653.5000   -21.7810    11.3470    11.0280     8.8960     9.6330    98.2130     2.4990     0.0110     0.2930
 2654.0000   -20.1390    13.0100    12.7500     9.8810     9.6180    90.9460     2.4680     0.0140     0.2730
 2654.5000   -18.4890    13.7020    14.4710    10.8660     9.6030    87.4670     2.4380     0.0170     0.2550
 2655.0000   -16.8410    14.1390    16.1920    11.8510     9.5890    83.7130     2.4140     0.0210     0.2370
 2655.5000   -15.2430    14.7820    17.9140    12.7450     9.5910    82.8200     2.4000     0.0170     0.2360
 2656.0000   -14.1310    15.3660    19.6350    13.5160     9.5930    84.3480     2.3850     0.0070     0.2320
 2656.5000   -14.9170    15.5090    20.1080    14.2710     9.5960    88.2590     2.3800     0.0100     0.2290
 2657.0000   -15.5510    15.8440    20.1290    14.5370     9.5990    91.9370     2.4000     0.0170     0.2260
 2657.5000   -15.0040    15.9450    20.1490    14.4030     9.6010    92.1250     2.4120     0.0230     0.2310
 2658.0000   -13.3970    15.8170    20.1700    14.2950     9.6040    88.5170     2.4140     0.0300     0.2380
 2658.5000   -10.6780    15.4630    20.1910    14.1870     9.6070    84.9510     2.4020     0.0320     0.2460
 2659.0000    -8.0660    15.0850    20.2120    14.0790     9.6100    80.6470     2.4010     0.0330     0.2460
 2659.5000    -6.8840    15.0850    20.2320    13.9710     9.6120    77.8780     2.3910     0.0320     0.2460
 2660.0000    -5.6360    15.0850    20.2530    13.8630     9.6150    75.6510     2.3830     0.0270     0.2420
 2660.5000    -4.3810    15.0850    20.2740    13.7550     9.6180    75.7050     2.3780     0.0220     0.2360
 2661.0000    -3.1050    15.0850    20.4970    13.6260     9.6200    77.0610     2.3760     0.0170     0.2300
 2661.5000    -3.0640    15.1630    20.7880    13.8390     9.6230    79.0710     2.3740     0.0110     0.2240
 2662.0000    -3.2760    15.4810    21.0440    14.1020     9.6250    81.1170     2.3730     0.0080     0.2280
 2662.5000    -3.4950    15.7990    21.0440    14.3650     9.6260    81.6800     2.3710     0.0080     0.2340
 2663.0000    -3.6860    15.7990    20.4600    14.6280     9.6000    82.3230     2.3680     0.0080     0.2400
 2663.5000    -3.6000    15.3400    19.8770    14.8080     9.5790    83.8720     2.3760     0.0080     0.2430
 2664.0000    -3.5090    14.4270    19.2930    14.1380     9.5560    88.4070     2.4000     0.0090     0.2380
 2664.5000    -3.4210    13.5130    18.7100    13.4250     9.5340    94.7870     2.4230     0.0130     0.2430
 2665.0000    -3.3260    12.7720    18.1270    12.7110     9.5120    93.0330     2.4260     0.0200     0.2510
 2665.5000    -3.9660    12.6540    17.5430    12.5380     9.4890    87.0960     2.4160     0.0260     0.2610
 2666.0000    -5.1320    12.6540    17.3290    12.5380     9.4680    81.9460     2.4070     0.0320     0.2620
 2666.5000    -6.3110    12.6540    17.3290    12.8410     9.4290    76.8660     2.4090     0.0390     0.2500
 2667.0000    -7.5210    12.9000    17.4900    13.1830     9.3960    78.1240     2.4130     0.0390     0.2360
 2667.5000    -7.1320    13.3280    18.4000    13.5000     9.3600    79.3140     2.4150     0.0330     0.2400
 2668.0000    -5.1690    14.5690    19.5040    14.5080     9.3250    80.8710     2.4110     0.0280     0.2460
 2668.5000     0.1610    15.9120    20.6080    15.4460     9.2900    74.8290     2.4170     0.0220     0.2410
 2669.0000     1.2070    17.2550    21.7120    16.3830     9.2550    67.5160     2.4200     0.0230     0.2320
 2669.5000     2.2160    17.8170    22.8160    17.1700     9.2210    59.6220     2.4220     0.0240     0.2220
 2670.0000     6.0830    17.8170    23.9200    17.3290     9.1850    53.6530     2.4140     0.0250     0.2120
 2670.5000     6.6080    17.6530    25.0250    17.4900     9.1500    50.3200     2.4030     0.0240     0.2020
 2671.0000     6.4140    17.7130    25.7910    17.4610     9.1140    46.9970     2.3910     0.0190     0.1920
 2671.5000     6.2110    17.7610    25.7910    17.4380     9.1190    44.1250     2.3900     0.0150     0.1820
 2672.0000     6.0130    17.8080    25.7910    17.4140     9.1170    42.7970     2.3880     0.0100     0.1720
 2672.5000     5.6000    17.8560    25.7910    17.3910     9.1170    45.8660     2.3970     0.0100     0.1670
 2673.0000     5.1010    17.9030    25.7910    17.3680     9.1180    51.7260     2.4060     0.0150     0.1700
 2673.5000     4.5910    17.9510    25.7910    17.3450     9.1170    59.7290     2.4160     0.0190     0.1740
 2674.0000     4.0800    17.9820    25.6180    17.3290     9.1180    63.8590     2.4260     0.0240     0.1760
 2674.5000     3.5690    17.8700    25.2890    17.1550     9.1180    68.2080     2.4320     0.0290     0.1770
 2675.0000     3.0580    17.6810    24.9600    16.9310     9.1180    72.6570     2.4400     0.0290     0.1850
 2675.5000     2.5480    17.4910    24.6310    16.7070     9.1180    74.9180     2.4400     0.0250     0.1930
 2676.0000     2.0390    17.3020    24.3030    16.4840     9.1120    71.9340     2.4350     0.0240     0.1980
 2676.5000     1.5270    17.1120    23.9740    16.2600     9.1000    67.9860     2.4260     0.0240     0.1990
 2677.0000     0.9290    16.9220    23.6450    16.0360     9.0890    64.0680     2.4170     0.0230     0.1960
 2677.5000     0.1020    16.7330    23.3160    15.8120     9.0790    62.2780     2.4070     0.0220     0.1950
 2678.0000    -2.8030    16.5430    23.0820    15.6530     9.0680    62.5950     2.3980     0.0220     0.1970
 2678.5000    -4.8110    16.3540    23.1970    15.7460     9.0570    62.7230     2.3880     0.0210     0.1990
 2679.0000    -5.0660    16.2430    23.2860    15.8180     9.0460    62.8290     2.3830     0.0200     0.2010
 2679.5000    -5.3530    16.2430    23.3750    15.8900     9.0350    63.0260     2.3830     0.0200     0.2030
