~VERSION INFORMATION
 VERS.                2.0:   CWLS LOG ASCII STANDARD - VERSION 2.0
 WRAP.                 NO:   ONE LINE PER DEPTH STEP
~WELL INFORMATION
#MNEM.UNIT      DATA TYPE    INFORMATION
#----------   ------------   ------------------------------
 STRT.F          620.0000:   START DEPTH
 STOP.F         4350.5000:   STOP DEPTH
 STEP.F            0.5000:   STEP LENGTH
 NULL.          -999.2500:   NO VALUE
 COMP.    FENIX & SCISSON:   COMPANY
 WELL. FENIX NPR 3 "LX" #25-10:   WELL
 FLD .                NPR:   FIELD
 LOC .      S10 T38N R78W:   LOCATION
 CNTY.            NATRONA:   COUNTY
 STAT.            WYOMING:   STATE
 CTRY. UNITED STATES OF AMERICA:   COUNTRY
 SRVC.              WELEX:   SERVICE COMPANY
 DATE.        06-MAR-1980:   LOGDATE
 API .     49025108070000:   API NUMBER
~CURVE INFORMATION
#MNEM.UNIT       API CODE    CURVE DESCRIPTION
#----------   ------------   ------------------------------
 DEPT.F                  :   
 CALD.IN     45 280 60 00:   CALIPER FROM DENSITY LOG
 GRD .GAPI   45 310 01 00:   GAMMA RAY FROM DENSITY LOG
 RHOB.G/C3   45 350 01 00:   BULK DENSITY
 CORR.G/C3   45 356 01 00:   DENSITY CORRECTION
 NPHI.DEC    42 890 03 00:   NEUTRON POROSITY SANDSTONE
 SPR .MV     07 010 01 00:   SPONTANEOUS POTENTIAL
 ILD .OHMM   07 120 46 00:   DEEP INDUCTION RESISTIVITY
 ILM .OHMM   07 120 44 00:   INDUCTION LOG MEDIUM RESISTIVITY
 SGRD.OHMM   07 220 05 00:   SHALLOW SHORT GUARD RESISTIVITY
~PARAMETER INFORMATION
#MNEM.UNIT          VALUE    DESCRIPTION
#----------   ------------   ------------------------------
 EKB .F         5247.0000:   Kelly bushing
 EGL .F         5237.0000:   Ground level
 EDF .F            0.0000:   Drilling floor
 TD  .F         4352.0000:   Total depth
 DATE.        06-MAR-1980:   Date logged
 CLNT.            A2DTECH:   Client Code
 SL  . 1075' FWL & 2450' FSL:   Surface Location
 PD  .                 GL:   Permanent Datum
 EPD .F              5237:   Elevation Permanent Datum
 LMF .                 KB:   Log Measured From
 DMF .                 KB:   Drilling Measured From
 DAPD.F                10:   Feet Above Permanent Datum
 DD  .F              4350:   Depth driller
 DL  .F              4352:   Depth logger
 BLI .F              4350:   Bottom log interval
 TLI .F               630:   Top log interval
 CS1 .IN            8.625:   Casing size
 CBD1.      8.625" @ 600':   Casing driller 1
 CBL1.F               632:   Casing logger 1
 BS1 .IN            7.875:   Bit size
 BSD1.F              4350:   Depth drilled with bit1
 DFT .           CHEM/GEL:   Type fluid in hole
 DFD .                8.9:   Density
 DFV .                 47:   Viscosity
 DFPH.               10.3:   pH
 DFL .                 10:   Fluid loss
 MSS .           FLOWLINE:   Source of sample
 RMS .OHMM            .89:   Rm
 MST .F                90:   Rm Meas. temp.
 RMF .OHMM            .71:   Rmf
 MFST.F                90:   Rmf Meas. temp.
 RMC .OHMM           1.06:   Rmc
 MCST.F                90:   Rmc Meas. temp.
 MFSS.               MEAS:   Source Rmf.
 MCSS.               MEAS:   Source Rmc.
 RMB .OHMM            .60:   Rm. at BHT
 BHT .F               112:   BHT.
 TCS .HRS               1:   Time Circ. stopped
 MRT .F               132:   Maximum recorded temp.
 LUN .               1892:   Logging unit number
 LUL .             CASPER:   Logging unit location
 ENGI.               REIN:   Recorded By
 WITN.           DINSMORE:   Witnessed by
 ORIG.           5" PRINT:   Origin of data
 UWI .     49025108070000:   Unique Well ID
 DICO. A2D TECHNOLOGIES, INC.:   Digitizing Company
~OTHER INFORMATION
~A   DEPT     CALD        GRD       RHOB       CORR       NPHI         SPR       ILD        ILM         SGRD 
# ...
 2810.0000    12.2190    77.0480     2.0770    -0.1000     0.0740   -26.6710    17.7630    21.9340    19.9650
 2810.5000    12.2260    78.1390     2.0750    -0.0990     0.0730   -26.6200    17.4480    21.4350    19.1040
 2811.0000    12.2340    78.6350     2.0780    -0.0990     0.0730   -26.5690    17.1320    20.9550    18.8360
 2811.5000    12.2420    77.7810     2.0800    -0.1070     0.0740   -26.5180    16.8160    20.4760    18.5670
 2812.0000    12.2490    76.9810     2.0830    -0.1040     0.0740   -26.4530    16.5000    20.0000    18.2980
 2812.5000    12.2570    76.1380     2.0860    -0.0840     0.0730   -26.3720    16.1850    19.9620    18.0300
 2813.0000    12.2650    75.3120     2.0880    -0.0820     0.0730   -26.2900    15.8690    19.9240    17.7610
 2813.5000    12.2720    74.4830     2.0890    -0.0780     0.0730   -26.2070    15.5530    19.8860    17.4930
 2814.0000    12.2790    73.6350     2.0910    -0.0740     0.0730   -26.1300    15.2370    19.8490    17.2240
 2814.5000    12.2870    72.9590     2.0930    -0.0700     0.0730   -26.0380    14.9220    19.8110    16.9560
 2815.0000    12.2680    72.9630     2.0960    -0.0670     0.0720   -25.9650    14.6060    19.7730    16.6870
 2815.5000    12.2370    73.8100     2.0990    -0.0660     0.0700   -25.9270    14.2900    19.7350    16.4180
 2816.0000    12.2060    74.8880     2.1030    -0.0650     0.0690   -26.3510    14.0840    19.6970    16.1500
 2816.5000    12.1760    75.0220     2.1060    -0.0640     0.0690   -26.7220    14.0840    19.6340    16.0260
 2817.0000    12.1440    74.3170     2.1090    -0.0630     0.0690   -27.1200    14.0840    20.7520    16.1030
 2817.5000    12.1260    73.6690     2.1130    -0.0620     0.0700   -27.5080    14.0840    19.6020    16.1700
 2818.0000    12.1200    73.7880     2.1110    -0.0600     0.0720   -27.8940    14.0840    17.4090    16.2380
 2818.5000    12.1130    74.1810     2.1050    -0.0620     0.0750   -28.2780    14.0840    15.4460    16.3050
 2819.0000    12.1050    75.2660     2.0990    -0.0680     0.0740   -28.6930    14.0840    15.2750    16.9710
 2819.5000    12.0990    76.2220     2.0910    -0.0730     0.0720   -28.8300    14.0840    15.1210    17.8910
 2820.0000    12.0930    76.6230     2.0850    -0.0770     0.0690   -28.6800    14.0840    14.9670    18.9230
 2820.5000    12.1190    76.7420     2.0810    -0.0830     0.0670   -28.5630    14.0840    14.6740    14.3460
 2821.0000    12.1470    76.9130     2.0870    -0.0880     0.0670   -28.4420    14.0840    14.4120    14.6340
 2821.5000    12.1680    77.0610     2.0950    -0.0910     0.0670   -28.3150    14.0850    14.6600    15.0640
 2822.0000    12.1400    78.2310     2.1110    -0.0900     0.0680   -28.1940    14.0820    14.9080    15.4940
 2822.5000    12.1180    79.7250     2.1230    -0.0860     0.0690   -28.0720    14.0880    15.1560    15.7330
 2823.0000    12.0920    81.1590     2.1410    -0.0830     0.0700   -27.9440    14.0810    15.4460    15.6570
 2823.5000    12.0920    81.1710     2.1600    -0.0690     0.0710   -27.8290    14.0840    15.1060    15.3310
 2824.0000    12.0910    80.3460     2.1760    -0.0540     0.0710   -27.6910    13.7460    14.6980    15.0050
 2824.5000    12.0910    79.6340     2.1840    -0.0470     0.0710   -27.7420    13.4150    14.2890    14.6790
 2825.0000    12.0910    78.9340     2.1820    -0.0480     0.0740   -27.8170    13.0850    13.8800    14.3540
 2825.5000    12.0910    79.3810     2.1760    -0.0510     0.0760   -27.8990    12.7540    13.4720    14.0280
 2826.0000    12.0910    79.8520     2.1700    -0.0540     0.0770   -27.9750    12.4240    13.0630    13.7020
 2826.5000    12.0910    80.3690     2.1670    -0.0570     0.0730   -28.0520    12.0930    12.6550    13.3760
 2827.0000    12.0910    80.8610     2.1640    -0.0600     0.0700   -28.1310    11.7630    12.1510    13.0500
 2827.5000    12.0910    81.3610     2.1650    -0.0630     0.0710   -28.2090    11.4320    12.1820    12.8420
 2828.0000    12.0910    81.8450     2.1660    -0.0630     0.0720   -28.2710    11.2860    12.2690    13.0870
 2828.5000    12.0910    82.4500     2.1660    -0.0620     0.0710   -28.2740    11.2860    12.3570    13.5270
 2829.0000    12.0910    83.3780     2.1620    -0.0600     0.0700   -28.2730    11.2860    12.4440    13.9680
 2829.5000    12.0910    84.7040     2.1590    -0.0590     0.0680   -28.2690    11.2860    12.5310    13.7190
 2830.0000    12.0910    84.3260     2.1620    -0.0580     0.0670   -28.1640    11.2860    12.6080    13.0820
 2830.5000    12.0910    83.7190     2.1650    -0.0570     0.0690   -28.0470    11.3920    12.9460    13.2440
 2831.0000    12.0910    83.1360     2.1670    -0.0560     0.0710   -27.9270    11.7300    13.2490    13.7600
 2831.5000    12.0910    82.5740     2.1700    -0.0540     0.0740   -27.8100    12.0690    13.5510    14.2760
 2832.0000    12.0910    83.5080     2.1660    -0.0530     0.0760   -27.6920    12.3770    13.8260    15.0510
 2832.5000    12.0910    84.4070     2.1600    -0.0520     0.0780   -27.5740    12.0930    13.2670    14.9460
 2833.0000    12.0910    85.4000     2.1520    -0.0490     0.0800   -27.4570    11.8320    12.7540    14.1790
 2833.5000    12.0910    86.3600     2.1410    -0.0450     0.0800   -27.3350    11.5710    12.2700    13.4110
 2834.0000    12.0910    87.3010     2.1260    -0.0460     0.0830   -27.2230    11.3100    11.8680    12.3770
 2834.5000    12.0910    88.3440     2.1090    -0.0500     0.0860   -27.0960    11.0490    11.4650    12.6190
 2835.0000    12.0910    89.1330     2.0920    -0.0550     0.0890   -27.1730    10.7880    11.0790    12.9900
 2835.5000    12.0830    90.0100     2.0740    -0.0590     0.0930   -27.2760    10.4830    10.8140    13.5740
 2836.0000    12.0770    90.7400     2.0580    -0.0640     0.0960   -27.3850    10.0900    10.7150    13.2270
 2836.5000    12.0690    90.6780     2.0250    -0.0680     0.0980   -27.4880     9.6180    10.3620    12.4170
 2837.0000    12.0620    90.4320     2.0100    -0.0720     0.0940   -27.5940     9.1460     9.8520    11.6060
 2837.5000    12.0550    89.2780     2.0020    -0.0770     0.0890   -27.7000     8.6740     9.3430    10.4790
 2838.0000    12.0480    86.2640     2.0070    -0.0810     0.0810   -27.8050     8.2020     8.8330     9.1460
 2838.5000    12.0410    83.3330     2.0450    -0.0860     0.0740   -27.9110     7.7300     8.3240     6.9840
 2839.0000    12.0340    80.3400     2.0850    -0.0880     0.0720   -28.0160     7.2470     7.8020     7.6740
 2839.5000    12.0270    77.9560     2.1110    -0.0890     0.0720   -28.1220     7.4960     8.5700     9.4930
 2840.0000    12.0200    76.8750     2.1090    -0.0900     0.0740   -28.2270     7.9470     9.3570    12.8280
 2840.5000    12.0120    76.6490     2.1030    -0.0910     0.0740   -28.3330     8.3770    10.1450    16.6260
 2841.0000    12.0090    76.3000     2.1010    -0.0920     0.0720   -28.4390     8.8250    10.9320    19.2750
 2841.5000    12.0060    76.1340     2.1000    -0.0930     0.0700   -28.5410     9.2120    11.7190    19.1410
 2842.0000    12.0030    74.6280     2.0990    -0.0940     0.0680   -28.6550    10.4110    12.5390    18.8940
 2842.5000    12.0000    71.9050     2.1000    -0.0950     0.0660   -28.7470    11.4650    13.3720    18.5770
 2843.0000    11.9970    69.3640     2.1010    -0.0960     0.0640   -28.8440    12.5190    14.2050    18.7040
 2843.5000    11.9940    66.7460     2.1050    -0.0970     0.0620   -28.4680    13.5730    15.0380    19.1090
 2844.0000    11.9910    64.5400     2.1090    -0.0980     0.0630   -28.0190    14.6280    15.8700    19.5140
 2844.5000    11.9880    63.1180     2.1180    -0.0990     0.0630   -27.5880    15.4020    16.6290    19.9190
 2845.0000    11.9850    61.7290     2.1180    -0.0990     0.0660   -27.1240    15.8870    19.2640    20.3730
 2845.5000    11.9820    61.1120     2.1180    -0.0980     0.0690   -27.2210    16.3730    23.1070    22.5550
 2846.0000    11.9790    61.7060     2.1140    -0.0970     0.0720   -27.3620    16.8580    26.9510    25.0380
