~VERSION INFORMATION
 VERS.                2.0:   CWLS LOG ASCII STANDARD - VERSION 2.0
 WRAP.                 NO:   ONE LINE PER DEPTH STEP
~WELL INFORMATION
#MNEM.UNIT      DATA TYPE    INFORMATION
#----------   ------------   ------------------------------
 STRT.F            5.0000:   START DEPTH
 STOP.F         5604.0000:   STOP DEPTH
 STEP.F            0.5000:   STEP LENGTH
 NULL.          -999.2500:   NO VALUE
 COMP.   LAWRENCE ALLISON:   COMPANY
 WELL. LAWRENCE 62 TPX #10-10:   WELL
 FLD .           NPR NO 3:   FIELD
 LOC .      S10 T38N R78W:   LOCATION
 CNTY.            NATRONA:   COUNTY
 STAT.            WYOMING:   STATE
 CTRY. UNITED STATES OF AMERICA:   COUNTRY
 SRVC.      DRESSER ATLAS:   SERVICE COMPANY
 DATE.        08-NOV-1985:   LOGDATE
 API .     49025110490000:   API NUMBER
~CURVE INFORMATION
#MNEM.UNIT       API CODE    CURVE DESCRIPTION
#----------   ------------   ------------------------------
 DEPT.F                  :   
 TEND.LBS    45 635 01 00:   TENSION FORM DENSITY LOG
 CNC .DEC    42 890 03 00:   NEUTRON POROSITY SANDSTONE
 CORR.G/C3   45 356 01 00:   DENSITY CORRECTION
 RHOB.G/C3   45 350 01 00:   BULK DENSITY
 TENR.LBS    11 635 01 00:   TENSION FROM RESISTIVITY
 GRR .GAPI   11 310 01 00:   GAMMA RAY FROM RESISTIVITY
 SPR .MV     11 010 01 00:   SPONTANEOUS POTENTIAL FROM RES.
 CALR.IN     11 280 01 00:   CALIPER FROM RESISTIVITY
 RD  .OHMM   11 220 10 00:   RESISTIVITY DEEP
 RS  .OHMM   11 220 09 00:   RESISTIVITY SHALLOW
 RMLL.OHMM   11 270 04 00:   MICRO LATEROLOG
 TENS.LBS    60 635 01 00:   TENSION FROM SONIC
 DT  .US/F   60 520 00 00:   DELTA TIME
~PARAMETER INFORMATION
#MNEM.UNIT          VALUE    DESCRIPTION
#----------   ------------   ------------------------------
 EKB .F         5167.0000:   Kelly bushing
 EGL .F         5155.0000:   Ground level
 EDF .F            0.0000:   Drilling floor
 TD  .F         5600.0000:   Total depth
 CLNT.            A2DTECH:   Client Code
 PD  .                 GL:   Permanent Datum
 EPD .F              5155:   Elevation Permanent Datum
 LMF .                 KB:   Log Measured From
 DMF .                 KB:   Drilling Measured From
 DAPD.F                12:   Feet Above Permanent Datum
 DATE.        08-NOV-1985:   Date Logged [DD-MMM-YYYY]
 DD  .F              5600:   Depth driller
 DL  .F              5600:   Depth logger
 BLI .F              5597:   Bottom log interval
 TLI .F               467:   Top log interval
 CS1 .IN            9.625:   Casing size
 CBD1.      9.625" @ 467':   Casing driller 1
 CBL1.F               465:   Casing logger 1
 BS1 .IN             8.75:   Bit size
 BSD1.F              5600:   Depth drilled with bit1
 DFT .        KCL POLYMER:   Type fluid in hole
 DFD .                9.2:   Density
 DFV .                 38:   Viscosity
 DFPH.                8.5:   pH
 DFL .                8.6:   Fluid loss
 MSS .           FLOWLINE:   Source of sample
 RMS .OHMM           0.28:   Rm
 MST .F                75:   Rm Meas. temp.
 RMF .OHMM           0.21:   Rmf
 MFST.F                75:   Rmf Meas. temp.
 MFSS.               CALC:   Source Rmf.
 RMC .OHMM           0.35:   Rmc
 MCST.F                75:   Rmc Meas. temp.
 MCSS.               CALC:   Source Rmc.
 RMB .OHMM           0.13:   Rm. at BHT
 BHT .F               168:   BHT.
 TCS .HRS               7:   Time Circ. stopped
 MRT .F               168:   Maximum recorded temp.
 LUN .               6274:   Logging unit number
 LUL .               GLTE:   Logging unit location
 ENGI.               MACK:   Recorded By
 WITN.             STRONG:   Witnessed by
 ORIG.      2.5" 5" PRINT:   Origin of data
 UWI .     49025110490000:   Unique Well ID
 DICO. A2D TECHNOLOGIES, INC.:   Digitizing Company
~OTHER INFORMATION
~A  DEPTH     TEND        CNC       CORR       RHOB       TENR        GRR        SPR       CALR         RD         RS       RMLL       TENS         DT
# ...
  473.0000  -999.2500  -999.2500  -999.2500  -999.2500   -15.5140    94.0567   -76.5558    10.5589    20.4790    19.5855     5.6096  -999.2500  -999.2500
  473.5000  -999.2500  -999.2500  -999.2500  -999.2500   -12.9977    92.2804   -76.9901    10.5452    19.5321    20.4361     5.6926  -999.2500  -999.2500
  474.0000  -999.2500  -999.2500  -999.2500  -999.2500   -10.4813    93.5115   -77.2746    10.5318    19.9621    20.8846     5.6972  -999.2500  -999.2500
  474.5000  -999.2500  -999.2500  -999.2500  -999.2500    -7.9650    92.9328   -77.4132    10.5489    19.8425    20.9034     5.6231  -999.2500  -999.2500
  475.0000  -999.2500  -999.2500  -999.2500  -999.2500    -5.4487    92.3675   -77.3946    10.5677    19.8626    21.3621     5.5120  -999.2500  -999.2500
  475.5000  -999.2500  -999.2500  -999.2500  -999.2500    -3.0242    93.2925   -77.2300    10.5971    20.1595    23.2370     5.3285  -999.2500  -999.2500
  476.0000  -999.2500  -999.2500  -999.2500  -999.2500    -9.8925    95.1157   -76.9158    10.5988    20.4609    24.0787     5.1511  -999.2500  -999.2500
  476.5000  -999.2500  -999.2500  -999.2500  -999.2500   -16.5188    93.3461   -76.7512    10.6154    20.3385    22.7996     5.0481  -999.2500  -999.2500
  477.0000  -999.2500  -999.2500  -999.2500  -999.2500   -23.1855    93.0668   -76.5867    10.6170    20.7869    21.2911     4.9836  -999.2500  -999.2500
  477.5000  -999.2500  -999.2500  -999.2500  -999.2500   -23.1855    93.3998   -76.7215    10.6184    21.3924    20.7273     5.1996  -999.2500  -999.2500
  478.0000  -999.2500  -999.2500  -999.2500  -999.2500   -23.1855    92.2290   -77.1557    10.6199    22.6348    20.4602     5.7344  -999.2500  -999.2500
  478.5000  -999.2500  -999.2500  -999.2500  -999.2500   -33.2661    90.4594   -77.2969    10.6065    24.4528    20.1965     6.1088  -999.2500  -999.2500
  479.0000  -999.2500  -999.2500  -999.2500  -999.2500   -33.0618    88.9892   -77.5751    10.6161    25.6942    19.7985     6.2844  -999.2500  -999.2500
  479.5000  -999.2500  -999.2500  -999.2500  -999.2500   -33.1993    88.1178   -77.7100    10.6250    26.2598    19.2742     5.9927  -999.2500  -999.2500
  480.0000  -999.2500  -999.2500  -999.2500  -999.2500   -33.9815    89.6416   -77.8643    10.6269    27.5928    19.0258     5.6347  -999.2500  -999.2500
  480.5000  -999.2500  -999.2500  -999.2500  -999.2500   -40.5692    91.1654   -78.5760    10.6285    29.1953    18.7807     5.4471  -999.2500  -999.2500
  481.0000  -999.2500  -999.2500  -999.2500  -999.2500   -38.8337    92.9887   -79.0102    10.6301    31.5403    18.2833     5.3392  -999.2500  -999.2500
  481.5000  -999.2500  -999.2500  -999.2500  -999.2500   -33.2661    95.4107   -79.1488    10.6318    35.5215    17.4326     5.3056  -999.2500  -999.2500
  482.0000  -999.2500  -999.2500  -999.2500  -999.2500   -32.8095    94.2399   -79.5793    10.6334    40.8464    16.1667     5.2732  -999.2500  -999.2500
  482.5000  -999.2500  -999.2500  -999.2500  -999.2500   -29.8861    92.1709   -79.7141    10.6350    48.9652    14.5825     5.3153  -999.2500  -999.2500
  483.0000  -999.2500  -999.2500  -999.2500  -999.2500   -26.9628    91.0001   -79.8527    10.6367    67.9007    13.3372     5.3196  -999.2500  -999.2500
  483.5000  -999.2500  -999.2500  -999.2500  -999.2500   -24.0394    90.4281   -79.8341    10.6532   331.5898    12.4548     5.3610  -999.2500  -999.2500
  484.0000  -999.2500  -999.2500  -999.2500  -999.2500   -23.1855    91.3853   -79.8193    10.6549 23382.7168     5.6149     5.2549  -999.2500  -999.2500
  484.5000  -999.2500  -999.2500  -999.2500  -999.2500   -23.1855    94.9871   -79.8044    10.6566 24362.7559     4.0280     5.1153  -999.2500  -999.2500
  485.0000  -999.2500  -999.2500  -999.2500  -999.2500   -36.1223    96.5569   -79.7896    10.6582 25761.4160     4.4130     4.8768  -999.2500  -999.2500
  485.5000  -999.2500  -999.2500  -999.2500  -999.2500   -43.3468    98.6192   -79.7747    10.6449 25770.3535     4.6367     4.5538  -999.2500  -999.2500
  486.0000  -999.2500  -999.2500  -999.2500  -999.2500   -46.2236    96.7864   -79.4604    10.6315 24902.3379     4.9057     4.2521  -999.2500  -999.2500
  486.5000  -999.2500  -999.2500  -999.2500  -999.2500   -50.0465    95.0429   -79.4456    10.6181     2.7833     5.2994     4.0821  -999.2500  -999.2500
  487.0000  -999.2500  -999.2500  -999.2500  -999.2500   -54.1457    94.7645   -79.2810    10.6198     2.9026     5.5295     4.6286  -999.2500  -999.2500
  487.5000  -999.2500  -999.2500  -999.2500  -999.2500   -60.3579    93.5378   -78.9668    10.6364     3.6251     5.7697     4.9997  -999.2500  -999.2500
  488.0000  -999.2500  -999.2500  -999.2500  -999.2500   -60.8295    92.0559   -78.8022    10.6231     4.4038     5.9787     5.1436  -999.2500  -999.2500
  488.5000  -999.2500  -999.2500  -999.2500  -999.2500   -43.3468    90.0974   -78.7873    10.6247     5.0608     6.1099     5.2992  -999.2500  -999.2500
  489.0000  -999.2500  -999.2500  -999.2500  -999.2500   -57.1371    91.3285   -78.7725    10.6114     5.7356     6.3312     5.4577  -999.2500  -999.2500
  489.5000  -999.2500  -999.2500  -999.2500  -999.2500   -43.3468    91.9541   -78.7575    10.5830     6.3226     6.6521     5.6872  -999.2500  -999.2500
  490.0000  -999.2500  -999.2500  -999.2500  -999.2500   -53.4274    90.7834   -78.7425    10.5547     6.8736     6.8931     5.8510  -999.2500  -999.2500
  490.5000  -999.2500  -999.2500  -999.2500  -999.2500   -53.4274    89.9120   -78.7279    10.5413     7.9540     6.8993     5.9742  -999.2500  -999.2500
  491.0000  -999.2500  -999.2500  -999.2500  -999.2500   -41.2097    89.6327   -78.7126    10.5430     8.7680     6.8104     6.0207  -999.2500  -999.2500
  491.5000  -999.2500  -999.2500  -999.2500  -999.2500   -53.4274    89.6662   -78.6976    10.6350     9.6654     6.7211     6.0255  -999.2500  -999.2500
  492.0000  -999.2500  -999.2500  -999.2500  -999.2500   -48.9764    88.7948   -78.5329    10.6516    10.5225     6.6807     6.0724  -999.2500  -999.2500
  492.5000  -999.2500  -999.2500  -999.2500  -999.2500   -43.3468    87.9167   -78.5151    10.6682    11.2145     6.6405     6.0353  -999.2500  -999.2500
  493.0000  -999.2500  -999.2500  -999.2500  -999.2500   -52.3942    87.9502   -78.5002    10.6998    11.6687     6.6005     6.0402  -999.2500  -999.2500
  493.5000  -999.2500  -999.2500  -999.2500  -999.2500   -48.2527    88.2764   -78.6387    10.7165    11.5909     6.6080     6.0451  -999.2500  -999.2500
  494.0000  -999.2500  -999.2500  -999.2500  -999.2500   -44.1112    88.6026   -78.7699    10.7181    11.9220     6.6600     6.0500  -999.2500  -999.2500
  494.5000  -999.2500  -999.2500  -999.2500  -999.2500   -43.3468    89.8271   -78.9084    10.7497    12.0091     6.7124     6.0971  -999.2500  -999.2500
  495.0000  -999.2500  -999.2500  -999.2500  -999.2500   -43.3468    92.2491   -79.1893    10.7814    12.1809     6.8123     6.1445  -999.2500  -999.2500
  495.5000  -999.2500  -999.2500  -999.2500  -999.2500   -43.3468    97.0596   -79.3241    10.8580    12.0998     6.8659     6.1495  -999.2500  -999.2500
  496.0000  -999.2500  -999.2500  -999.2500  -999.2500   -43.3468    90.2069   -79.4627    10.9495    12.1049     6.9199     6.1974  -999.2500  -999.2500
  496.5000  -999.2500  -999.2500  -999.2500  -999.2500   -43.3468    88.4306   -79.4441    10.9962    12.0253     6.9743     6.2024  -999.2500  -999.2500
  497.0000  -999.2500  -999.2500  -999.2500  -999.2500   -43.3468    89.6617   -79.4292    10.9978    12.0295     6.9806     6.2075  -999.2500  -999.2500
  497.5000  -999.2500  -999.2500  -999.2500  -999.2500   -43.3468    89.0897   -79.4144    10.9994    11.8542     6.9869     6.1683  -999.2500  -999.2500
  498.0000  -999.2500  -999.2500  -999.2500  -999.2500   -43.3468    88.5110   -79.3995    10.9707    11.7082     6.8969     6.1319  -999.2500  -999.2500
  498.5000  -999.2500  -999.2500  -999.2500  -999.2500   -43.3468    87.6463   -79.3847    10.9726    11.3927     6.7610     6.0945  -999.2500  -999.2500
