~VERSION INFORMATION
 VERS.                2.0:   CWLS LOG ASCII STANDARD - VERSION 2.0
 WRAP.                 NO:   ONE LINE PER DEPTH STEP
~WELL INFORMATION
#MNEM.UNIT      DATA TYPE    INFORMATION
#----------   ------------   ------------------------------
 STRT.F            0.0000:   START DEPTH
 STOP.F         3040.0000:   STOP DEPTH
 STEP.F            0.5000:   STEP LENGTH
 NULL.          -999.2500:   NO VALUE
 COMP. LAWRENCE ALLISON & ASSOCIATES:   COMPANY
 WELL. LAWRENCE NPR 3 "AX" #77-28:   WELL
 FLD .      NPR - WILDCAT:   FIELD
 LOC .      S28 T39N R78W:   LOCATION
 CNTY.            NATRONA:   COUNTY
 STAT.            WYOMING:   STATE
 CTRY. UNITED STATES OF AMERICA:   COUNTRY
 SRVC.      DRESSER ATLAS:   SERVICE COMPANY
 DATE.        19-OCT-1986:   LOGDATE
 API .     49025111150000:   API NUMBER
~CURVE INFORMATION
#MNEM.UNIT       API CODE    CURVE DESCRIPTION
#----------   ------------   ------------------------------
 DEPT.F                  :   
 TENR.LBS    07 635 01 00:   TENSION FROM RESISTIVITY
 RILD.OHMM   07 120 46 00:   DEEP INDUCTION RESISTIVITY
 RILM.OHMM   07 120 44 00:   INDUCTION LOG MEDIUM RESISTIVITY
 RFOC.OHMM   07 220 04 00:   RESISTIVITY FOCUSED LOG RES.
 SPR .MV     07 010 01 00:   SPONTANEOUS POTENTIAL
 GRR .GAPI   07 310 01 00:   GAMMA RAY FROM RESISTIVITY
 CNC .DEC    42 890 03 00:   NEUTRON POROSITY SANDSTONE
 RHOB.G/C3   45 350 01 00:   BULK DENSITY
 TEND.LBS    45 635 01 00:   TENSION FROM DENSITY LOG
 CORR.G/C3   45 356 01 00:   DENSITY CORRECTION
 CALD.IN     45 280 60 00:   CALIPER FROM DENSITY LOG
~PARAMETER INFORMATION
#MNEM.UNIT          VALUE    DESCRIPTION
#----------   ------------   ------------------------------
 EKB .F         5086.0000:   Kelly bushing
 EGL .F         5074.0000:   Ground level
 EDF .F            0.0000:   Drilling floor
 TD  .F         3025.0000:   Total depth
 DATE.        19-OCT-1986:   Date logged
 CLNT.            A2DTECH:   Client Code
 SL  . 967' FSL @ 763' FEL:   Surface Location
 PD  .                 GL:   Permanent Datum
 EPD .F              5074:   Elevation Permanent Datum
 LMF .                 KB:   Log Measured From
 DMF .                 KB:   Drilling Measured From
 DAPD.F                12:   Feet Above Permanent Datum
 DD  .F              3021:   Depth driller
 DL  .F              3025:   Depth logger
 BLI .F              3023:   Bottom log interval
 CS1 .IN            8.625:   Casing size
 CBD1.      8.625" @ 620':   Casing driller 1
 CBL1.F               615:   Casing logger 1
 BS1 .IN            7.875:   Bit size
 BSD1.F              3021:   Depth drilled with bit1
 DFT .        KCL/POLTMER:   Type fluid in hole
 DFD .                8.9:   Density
 DFV .                 38:   Viscosity
 DFPH.                9.5:   pH
 DFL .                 11:   Fluid loss
 MSS .           FLOWLINE:   Source of sample
 RMS .OHMM            .25:   Rm
 MST .F                65:   Rm Meas. temp.
 RMF .OHMM           .203:   Rmf
 MFST.F                65:   Rmf Meas. temp.
 RMC .OHMM            .31:   Rmc
 MCST.F                65:   Rmc Meas. temp.
 MFSS.               MEAS:   Source Rmf.
 MCSS.               CALC:   Source Rmc.
 RMB .OHMM           .136:   Rm. at BHT
 BHT .F               119:   BHT.
 TCS .HRS               5:   Time Circ. stopped
 MRT .F               119:   Maximum recorded temp.
 LUN .               6274:   Logging unit number
 LUL .               GLTE:   Logging unit location
 ENGI.             RAUTIO:   Recorded By
 WITN.             STRONG:   Witnessed by
 ORIG.         2.5" PRINT:   Origin of data
 UWI .     49025111150000:   Unique Well ID
 DICO. A2D TECHNOLOGIES, INC.:   Digitizing Company
~OTHER INFORMATION
~A    DEPT    TENR       RILD       RILM       RFOC        SPR         GRR       CNC       RHOB       TEND       CORR       CALD   
# ...
 1281.0000   -51.9170     6.3520     6.0130     7.4060   -82.7370   107.2210  -999.2500  -999.2500  -999.2500  -999.2500  -999.2500
 1281.5000   -53.3030     6.3820     6.0330     7.6280   -82.6950   107.3440  -999.2500  -999.2500  -999.2500  -999.2500  -999.2500
 1282.0000   -54.6890     6.4110     6.0520     7.7490   -82.7280   108.4080  -999.2500  -999.2500  -999.2500  -999.2500  -999.2500
 1282.5000   -56.0760     6.4410     6.0710     7.5280   -82.8150   109.3530  -999.2500  -999.2500  -999.2500  -999.2500  -999.2500
 1283.0000   -57.4620     6.4690     6.0910     7.3180   -82.8980   109.7850  -999.2500  -999.2500  -999.2500  -999.2500  -999.2500
 1283.5000   -58.8480     6.4690     6.1100     7.0800   -82.9720   108.6040  -999.2500  -999.2500  -999.2500  -999.2500  -999.2500
 1284.0000   -60.2350     6.4690     6.1270     7.0800   -83.0640   109.4130  -999.2500  -999.2500  -999.2500  -999.2500  -999.2500
 1284.5000   -61.6210     6.4690     6.1270     7.1090   -82.9630   109.9040  -999.2500  -999.2500  -999.2500  -999.2500  -999.2500
 1285.0000   -63.0070     6.4690     6.1280     7.1360   -82.8250   109.7860  -999.2500  -999.2500  -999.2500  -999.2500  -999.2500
 1285.5000   -64.3940     6.4690     6.1280     7.1630   -82.6840   109.1120  -999.2500  -999.2500  -999.2500  -999.2500  -999.2500
 1286.0000   -65.7800     6.4690     6.1280     7.1900   -82.5460   108.3000  -999.2500  -999.2500  -999.2500  -999.2500  -999.2500
 1286.5000   -67.1670     6.4690     6.1280     7.2800   -82.4060   108.1040  -999.2500  -999.2500  -999.2500  -999.2500  -999.2500
 1287.0000   -68.5530     6.4690     6.1280     7.5250   -82.2950   105.2790  -999.2500  -999.2500  -999.2500  -999.2500  -999.2500
 1287.5000   -69.9390     6.4690     6.1280     7.8910   -82.3360   101.9160  -999.2500  -999.2500  -999.2500  -999.2500  -999.2500
 1288.0000   -71.3260     6.4690     6.1280     7.7750   -82.4420   101.9250  -999.2500  -999.2500  -999.2500  -999.2500  -999.2500
 1288.5000   -72.7120     6.4690     6.1280     7.5450   -82.5460   104.7270  -999.2500  -999.2500  -999.2500  -999.2500  -999.2500
 1289.0000   -74.0980     6.4690     6.1280     7.3410   -82.6500   107.2580  -999.2500  -999.2500  -999.2500  -999.2500  -999.2500
 1289.5000   -75.4850     6.4690     6.1280     7.2880   -82.7540   108.4260  -999.2500  -999.2500  -999.2500  -999.2500  -999.2500
 1290.0000   -76.8710     6.4690     6.1280     7.2410   -82.8580   107.5990  -999.2500  -999.2500  -999.2500  -999.2500  -999.2500
 1290.5000   -78.2570     6.4690     6.1280     7.2090   -82.9630   107.0410  -999.2500  -999.2500  -999.2500  -999.2500  -999.2500
 1291.0000   -79.6440     6.4690     6.1280     7.2090   -83.0670   106.3040  -999.2500  -999.2500  -999.2500  -999.2500  -999.2500
 1291.5000   -81.0300     6.4690     6.1280     7.5150   -83.1700   107.1820  -999.2500  -999.2500  -999.2500  -999.2500  -999.2500
 1292.0000   -82.4160     6.4680     6.1280     7.7490   -83.2780   108.4630  -999.2500  -999.2500  -999.2500  -999.2500  -999.2500
 1292.5000   -83.3330     6.4690     6.1280     7.6580   -83.3770   109.4520  -999.2500  -999.2500  -999.2500  -999.2500  -999.2500
 1293.0000   -83.3330     6.4710     6.1280     7.3860   -83.4570   112.1150  -999.2500  -999.2500  -999.2500  -999.2500  -999.2500
 1293.5000   -83.3330     6.5040     6.1280     7.2090   -83.1810   115.8820  -999.2500  -999.2500  -999.2500  -999.2500  -999.2500
 1294.0000   -83.3330     6.5330     6.1820     7.2090   -82.8290   118.4570  -999.2500  -999.2500  -999.2500  -999.2500  -999.2500
 1294.5000   -83.3330     6.5630     6.2390     7.3230   -82.4750   116.9530  -999.2500  -999.2500  -999.2500  -999.2500  -999.2500
 1295.0000   -83.3330     6.5930     6.2960     7.4730   -82.0950   114.7010  -999.2500  -999.2500  -999.2500  -999.2500  -999.2500
 1295.5000   -83.3330     6.6220     6.3530     7.6240   -81.9220   111.2940  -999.2500  -999.2500  -999.2500  -999.2500  -999.2500
 1296.0000   -83.3330     6.6530     6.4100     7.7490   -82.0370   109.5260  -999.2500  -999.2500  -999.2500  -999.2500  -999.2500
 1296.5000   -83.3330     6.6820     6.4710     7.7490   -82.1190   108.6940  -999.2500  -999.2500  -999.2500  -999.2500  -999.2500
 1297.0000   -83.3330     6.7060     6.4680     7.7490   -82.2070   107.7460  -999.2500  -999.2500  -999.2500  -999.2500  -999.2500
 1297.5000   -83.3330     6.6600     6.4690     7.6700   -82.2990   106.8430  -999.2500  -999.2500  -999.2500  -999.2500  -999.2500
 1298.0000   -83.3330     6.6210     6.4690     7.5670   -82.3860   105.9600  -999.2500  -999.2500  -999.2500  -999.2500  -999.2500
 1298.5000   -83.3330     6.5820     6.4690     7.4650   -82.4760   104.9910  -999.2500  -999.2500  -999.2500  -999.2500  -999.2500
 1299.0000   -83.3330     6.5430     6.4690     7.3620   -82.5650   104.8390  -999.2500  -999.2500  -999.2500  -999.2500  -999.2500
 1299.5000   -83.3330     6.5040     6.4690     7.2090   -82.6540   105.3360  -999.2500  -999.2500  -999.2500  -999.2500  -999.2500
 1300.0000   -83.3330     6.4650     6.4690     7.0800   -82.7430   105.1160  -999.2500  -999.2500  -999.2500  -999.2500  -999.2500
 1300.5000   -83.3330     6.4260     6.4690     7.0800   -82.8320   104.3920  -999.2500  -999.2500  -999.2500  -999.2500  -999.2500
 1301.0000   -83.3330     6.3860     6.4690     7.0800   -82.9200   103.4390  -999.2500  -999.2500  -999.2500  -999.2500  -999.2500
 1301.5000   -83.3330     6.3470     6.4690     7.1500   -83.0090   101.6380  -999.2500  -999.2500  -999.2500  -999.2500  -999.2500
 1302.0000   -83.3330     6.3080     6.4690     7.3150   -83.0980   101.6290  -999.2500  -999.2500  -999.2500  -999.2500  -999.2500
 1302.5000   -83.3330     6.2690     6.4690     7.4740   -83.1860   101.3680  -999.2500  -999.2500  -999.2500  -999.2500  -999.2500
 1303.0000   -83.3330     6.2380     6.4690     7.3710   -83.2780   103.3230  -999.2500  -999.2500  -999.2500  -999.2500  -999.2500
 1303.5000   -83.3330     6.2340     6.4690     7.2720   -83.3630   106.2260  -999.2500  -999.2500  -999.2500  -999.2500  -999.2500
 1304.0000   -83.3330     6.2300     6.4690     7.1730   -83.4540   107.8760  -999.2500  -999.2500  -999.2500  -999.2500  -999.2500
 1304.5000   -83.3330     6.2260     6.4690     7.0800   -83.4070   109.2280  -999.2500  -999.2500  -999.2500  -999.2500  -999.2500
 1305.0000   -83.3330     6.2210     6.4690     7.1870   -83.3480   110.7970  -999.2500  -999.2500  -999.2500  -999.2500  -999.2500
 1305.5000   -83.3330     6.2170     6.4690     7.2860   -83.2840   110.3110  -999.2500  -999.2500  -999.2500  -999.2500  -999.2500
 1306.0000   -83.3330     6.2130     6.4690     7.3850   -83.2230   109.4300  -999.2500  -999.2500  -999.2500  -999.2500  -999.2500
 1306.5000   -83.3330     6.2090     6.4690     7.4740   -83.1630   111.5720  -999.2500  -999.2500  -999.2500  -999.2500  -999.2500
 1307.0000   -83.3330     6.2040     6.4680     7.3180   -83.0990   116.5280  -999.2500  -999.2500  -999.2500  -999.2500  -999.2500
 1307.5000   -83.3330     6.2000     6.4570     7.1760   -83.0670   118.4210  -999.2500  -999.2500  -999.2500  -999.2500  -999.2500
 1308.0000   -83.3330     6.1960     6.4440     7.0800   -83.1320   115.7980  -999.2500  -999.2500  -999.2500  -999.2500  -999.2500
 1308.5000   -83.3330     6.1920     6.4310     7.1300   -83.2910   112.1780  -999.2500  -999.2500  -999.2500  -999.2500  -999.2500
 1309.0000   -83.3330     6.1870     6.4170     7.2240   -83.4440   108.2880  -999.2500  -999.2500  -999.2500  -999.2500  -999.2500
 1309.5000   -83.3330     6.1830     6.4040     7.3310   -83.6020   107.2080  -999.2500  -999.2500  -999.2500  -999.2500  -999.2500
 1310.0000   -82.0730     6.1790     6.3910     7.3130   -83.7530   107.9600  -999.2500  -999.2500  -999.2500  -999.2500  -999.2500
 1310.5000   -78.5430     6.1740     6.3780     7.2760   -83.9150   108.5640  -999.2500  -999.2500  -999.2500  -999.2500  -999.2500
 1311.0000   -75.0140     6.1700     6.3650     7.2390   -84.0680   110.1950  -999.2500  -999.2500  -999.2500  -999.2500  -999.2500
