~VERSION INFORMATION
 VERS.                2.0:   CWLS LOG ASCII STANDARD - VERSION 2.0
 WRAP.                 NO:   ONE LINE PER DEPTH STEP
~WELL INFORMATION
#MNEM.UNIT      DATA TYPE    INFORMATION
#----------   ------------   ------------------------------
 STRT.F           60.0000:   START DEPTH
 STOP.F         3178.0000:   STOP DEPTH
 STEP.F            0.5000:   STEP LENGTH
 NULL.          -999.2500:   NO VALUE
 COMP. LAWRENCE-ALLISON & ASSOSCIATES:   COMPANY
 WELL. LAWRENCE "AX" #46-21:   WELL
 FLD .             NPR #3:   FIELD
 LOC .      S21 T39N R78W:   LOCATION
 CNTY.            NATRONA:   COUNTY
 STAT.            WYOMING:   STATE
 CTRY. UNITED STATES OF AMERICA:   COUNTRY
 SRVC.       SCHLUMBERGER:   SERVICE COMPANY
 DATE.        03-JUN-1982:   LOGDATE
 API .     49025108890000:   API NUMBER
~CURVE INFORMATION
#MNEM.UNIT       API CODE    CURVE DESCRIPTION
#----------   ------------   ------------------------------
 DEPT.F                  :   
 TEND.LBS    45 635 01 00:   TENSION FORM DENSITY LOG
 CALD.IN     45 280 60 00:   CALIPER FROM DENSITY LOG
 CORR.G/C3   45 356 01 00:   DENSITY CORRECTION
 RHOB.G/C3   45 350 01 00:   BULK DENSITY
 NPHI.DEC    42 890 03 00:   NEUTRON POROSITY SANDSTONE
 GRR .GAPI   07 310 01 00:   GAMMA RAY FROM RESISTIVITY
 SPR .MV     07 010 01 00:   SPONTANEOUS POTENTIAL
 SFL .OHMM   07 220 01 00:   SHALLOW FOCUSED LOG RESISTIVITY
 ILD .OHMM   07 120 46 00:   DEEP INDUCTION RESISTIVITY
 ILM .OHMM   07 120 44 00:   INDUCTION LOG MEDIUM RESISTIVITY
 TENR.LBS    07 635 01 00:   TENSION FROM RESISTIVITY
~PARAMETER INFORMATION
#MNEM.UNIT          VALUE    DESCRIPTION
#----------   ------------   ------------------------------
 EKB .F         5008.0000:   Kelly bushing
 EGL .F         4998.0000:   Ground level
 EDF .F         5007.0000:   Drilling floor
 TD  .F         3230.0000:   Total depth
 CLNT.            A2DTECH:   Client Code
 SL  . 1864' FSL & 2484' FWL:   Surface Location
 PD  .                 GL:   Permanent Datum
 EPD .F              4998:   Elevation Permanent Datum
 LMF .                 KB:   Log Measured From
 DMF .                 KB:   Drilling Measured From
 DAPD.F                10:   Feet Above Permanent Datum
 DATE.        03-JUN-1982:   Date Logged [DD-MMM-YYYY]
 DD  .F              3230:   Depth driller
 DL  .F              3200:   Depth logger
 BLI .F              3190:   Bottom log interval
 TLI .F               475:   Top log interval
 CS1 .IN            9.625:   Casing size
 CBD1.      9.625" @ 465':   Casing driller 1
 CBL1.F               475:   Casing logger 1
 BS1 .IN             8.75:   Bit size
 BSD1.F              3230:   Depth drilled with bit1
 DFT .   FORM WATER / AIR:   Type fluid in hole
 TCS .HRS            1530:   Time Circ. stopped
 TLAB.HRS            1900:   Time logger at bottom
 MRT .F               135:   Maximum recorded temp.
 LUN .               8035:   Logging unit number
 LUL .               CSPR:   Logging unit location
 ENGI.              PENNY:   Recorded By
 WITN.           JENNINGS:   Witnessed by
 ORIG.      2.5" 5" PRINT:   Origin of data
 UWI .     49025108890000:   Unique Well ID
 DICO. A2D TECHNOLOGIES, INC.:   Digitizing Company
~OTHER INFORMATION
~A   DEPT     TEND       CALD       CORR       RHOB       NPHI        GRR        SPR        SFL        ILD        ILM       TENR   
# ...
 1005.5000  1373.6595    10.7255     0.0461     2.4912  -999.2500   190.6574  -999.2500  -999.2500     7.1933     7.2810  1395.6639
 1006.0000  1372.1973    10.7990     0.0468     2.4883  -999.2500   191.1293  -999.2500  -999.2500     7.0928     7.1795  1395.0833
 1006.5000  1370.4127    10.7850     0.0190     2.4801  -999.2500   190.6909  -999.2500  -999.2500     7.0922     7.1789  1394.5024
 1007.0000  1369.2079    10.7271     0.0175     2.4605  -999.2500   188.8913  -999.2500  -999.2500     6.9932     7.0789  1393.9023
 1007.5000  1382.8351    10.6400     0.0176     2.4598  -999.2500   185.6516  -999.2500  -999.2500     6.9927     7.0784  1393.2927
 1008.0000  1381.0311    10.5231     0.0177     2.4584  -999.2500   182.5625  -999.2500  -999.2500     6.9922     7.0779  1392.6829
 1008.5000  1394.8967    10.4350     0.0177     2.4577  -999.2500   183.2409  -999.2500  -999.2500     6.9918     7.0775  1392.0731
 1009.0000  1393.1240    10.3928     0.0178     2.4682  -999.2500   185.0167  -999.2500  -999.2500     6.9913     7.0770  1391.4633
 1009.5000  1376.6816    10.3788     0.0179     2.4821  -999.2500   186.4402  -999.2500  -999.2500     7.0138     7.0997  1390.8536
 1010.0000  1374.8982    10.3801     0.0405     2.4931  -999.2500   187.4091  -999.2500  -999.2500     7.0889     7.1756  1390.1471
 1010.5000  1373.6920    10.3811     0.0528     2.4984  -999.2500   188.5672  -999.2500  -999.2500     7.0883     7.1750  1389.5664
 1011.0000  1372.1973    10.3673     0.0422     2.4745  -999.2500   189.4937  -999.2500  -999.2500     7.1877     7.2754  1388.9856
 1011.5000  1370.7024    10.3683     0.0339     2.4566  -999.2500   188.6020  -999.2500  -999.2500     7.1871     7.2748  1388.4049
 1012.0000  1354.1783    10.3843     0.0205     2.4491  -999.2500   185.4375  -999.2500  -999.2500     7.1867     7.2743  1387.8048
 1012.5000  1352.7352    10.3703     0.0409     2.4646  -999.2500   183.1822  -999.2500  -999.2500     7.2875     7.3762  1387.1951
 1013.0000  1356.5522    10.3566     0.0500     2.4748  -999.2500   183.1996  -999.2500  -999.2500     7.2870     7.3757  1386.5853
 1013.5000  1364.7968    10.3281     0.0523     2.4793  -999.2500   182.6348  -999.2500  -999.2500     7.3892     7.4789  1385.9756
 1014.0000  1362.9930    10.2999     0.0531     2.4824  -999.2500   180.7514  -999.2500  -999.2500     7.4026     7.4924  1385.3657
 1014.5000  1361.5499    10.2862     0.0517     2.4840  -999.2500   179.4705  -999.2500  -999.2500     7.5170     7.6079  1384.7561
 1015.0000  1355.5060    10.2724     0.0495     2.4780  -999.2500   180.0151  -999.2500  -999.2500     7.5975     7.6892  1384.0496
 1015.5000  1343.9565    10.3031     0.0488     2.4712  -999.2500   182.6206  -999.2500  -999.2500     7.7040     7.7968  1383.4688
 1016.0000  1357.2495    10.3336     0.0519     2.4662  -999.2500   186.9489  -999.2500  -999.2500     7.8120     7.9059  1382.8881
 1016.5000  1367.2018    10.3493     0.0671     2.4767  -999.2500   186.0572  -999.2500  -999.2500     7.9215     8.0164  1382.3074
 1017.0000  1371.5270    10.3503     0.0686     2.4813  -999.2500   181.9837  -999.2500  -999.2500     8.0326     8.1286  1381.7073
 1017.5000  1385.2766    10.3365     0.0461     2.4754  -999.2500   175.1829  -999.2500  -999.2500     8.0321     8.1281  1411.6338
 1018.0000  1398.5709    10.2786     0.0341     2.4679  -999.2500   172.9276  -999.2500  -999.2500     8.0315     8.1276  1410.9757
 1018.5000  1409.5665    10.1915     0.0296     2.4598  -999.2500   173.4266  -999.2500  -999.2500     8.0310     8.1270  1410.3658
 1019.0000  1408.0718    10.1336     0.0500     2.4981  -999.2500   174.3954  -999.2500  -999.2500     8.1437     8.2408  1416.8682
 1019.5000  1421.5247    10.1049     0.0706     2.5184  -999.2500   175.8189  -999.2500  -999.2500     8.1430     8.2402  1439.6342
 1020.0000  1419.9337    10.0911     0.1051     2.5319  -999.2500   177.3940  -999.2500  -999.2500     8.1807     8.2782  1438.9276
 1020.5000  1418.2501    10.0776     0.0916     2.5163  -999.2500   179.9615  -999.2500  -999.2500     8.2567     8.3549  1438.3469
 1021.0000  1417.0403    10.0639     0.0623     2.5124  -999.2500   181.4530  -999.2500  -999.2500     8.3725     8.4718  1437.7662
 1021.5000  1415.4843    10.0651     0.0564     2.5179  -999.2500   180.7852  -999.2500  -999.2500     8.6095     8.7111  1437.1855
 1022.0000  1414.0509    10.0809     0.0527     2.5240  -999.2500   178.9844  -999.2500  -999.2500     8.7303     8.8331  1436.5853
 1022.5000  1412.5560    10.1408     0.0324     2.4970  -999.2500   176.7291  -999.2500  -999.2500     8.9775     9.0827  1441.0557
 1023.0000  1411.0349    10.2154     0.0189     2.4694  -999.2500   175.3828  -999.2500  -999.2500     9.1034     9.2098  1465.9312
 1023.5000  1398.9768    10.2753     0.0115     2.4582  -999.2500   174.0366  -999.2500  -999.2500     9.3613     9.4701  1434.7562
 1024.0000  1393.1240    10.3059     0.0146     2.4628  -999.2500   173.5994  -999.2500  -999.2500     9.4926     9.6026  1434.1464
 1024.5000  1391.6292    10.3364     0.0206     2.4733  -999.2500   173.5462  -999.2500  -999.2500     9.4919     9.6019  1433.5367
 1025.0000  1389.9542    10.3373     0.0320     2.4811  -999.2500   173.1796  -999.2500  -999.2500     9.6251     9.7364  1432.8301
 1025.5000  1388.3907    10.3531     0.0404     2.4885  -999.2500   173.2000  -999.2500  -999.2500     9.6243     9.7356  1432.2494
 1026.0000  1387.1449    10.3689     0.0577     2.4960  -999.2500   173.2182  -999.2500  -999.2500     9.6960     9.8080  1401.1809
 1026.5000  1385.6251    10.4140     0.0721     2.4991  -999.2500   173.2364  -999.2500  -999.2500     9.7586     9.8712  1400.6002
 1027.0000  1394.4819    10.4298     0.0827     2.4879  -999.2500   172.3488  -999.2500  -999.2500     9.8955    10.0093  1400.0000
 1027.5000  1397.6866    10.4750     0.0625     2.4805  -999.2500   171.0025  -999.2500  -999.2500    10.0342    10.1493  1399.3903
 1028.0000  1396.1138    10.4762     0.0489     2.4783  -999.2500   170.5636  -999.2500  -999.2500    10.0335    10.1486  1368.2926
 1028.5000  1394.4398    10.4772     0.0483     2.4964  -999.2500   171.0373  -999.2500  -999.2500    10.1743    10.2907  1367.6829
 1029.0000  1393.1240    10.4782     0.0491     2.5039  -999.2500   172.4183  -999.2500  -999.2500    10.1736    10.2900  1367.0731
 1029.5000  1391.0758    10.5086     0.0462     2.4882  -999.2500   174.3228  -999.2500  -999.2500    10.1729    10.2893  1366.4634
 1030.0000  1374.9224    10.5390     0.0304     2.4636  -999.2500   176.1668  -999.2500  -999.2500    10.1722    10.2885  1365.7568
 1030.5000  1388.7877    10.5401     0.0327     2.4681  -999.2500   176.5614  -999.2500  -999.2500    10.1714    10.2878  1334.6884
 1031.0000  1386.8635    10.5413     0.0373     2.4758  -999.2500   174.4456  -999.2500  -999.2500    10.1707    10.2871  1334.1077
 1031.5000  1385.6501    10.5570     0.0359     2.4788  -999.2500   172.5620  -999.2500  -999.2500    10.1699    10.2863  1333.5269
 1032.0000  1383.8573    10.5580     0.0367     2.4818  -999.2500   170.9213  -999.2500  -999.2500    10.3126    10.4302  1332.9266
 1032.5000  1382.6608    10.5590     0.0421     2.4857  -999.2500   169.3669  -999.2500  -999.2500    10.3119    10.4296  1327.2357
 1033.0000  1381.0916    10.5747     0.0497     2.4902  -999.2500   168.9273  -999.2500  -999.2500    10.3112    10.4289  1301.2195
 1033.5000  1379.6713    10.5765     0.0588     2.4880  -999.2500   168.9471  -999.2500  -999.2500    10.3105    10.4282  1300.6097
 1034.0000  1378.1763    10.6064     0.0557     2.4798  -999.2500   169.4191  -999.2500  -999.2500    10.3098    10.4274  1300.0000
 1034.5000  1376.6815    10.6368     0.0401     2.4792  -999.2500   171.7092  -999.2500  -999.2500    10.3090    10.4267  1329.8779
 1035.0000  1374.9583    10.6820     0.0334     2.4800  -999.2500   173.0902  -999.2500  -999.2500    10.3083    10.4260  1329.1715
 1035.5000  1373.5153    10.7419     0.0395     2.4823  -999.2500   171.8823  -999.2500  -999.2500    10.3076    10.4252  1328.5908
