~VERSION INFORMATION
 VERS.                2.0:   CWLS LOG ASCII STANDARD - VERSION 2.0
 WRAP.                 NO:   ONE LINE PER DEPTH STEP
~WELL INFORMATION
#MNEM.UNIT      DATA TYPE    INFORMATION
#----------   ------------   ------------------------------
 STRT.F            7.0000:   START DEPTH
 STOP.F         3304.0000:   STOP DEPTH
 STEP.F            0.5000:   STEP LENGTH
 NULL.          -999.2500:   NO VALUE
 COMP. LAWRENCE ALLISON ASSOC. WEST:   COMPANY
 WELL. LAWRENCE NPR  "X" #18-2:   WELL
 FLD .              N P R:   FIELD
 LOC .       S2 T38N R78W:   LOCATION
 CNTY.            NATRONA:   COUNTY
 STAT.            WYOMING:   STATE
 CTRY. UNITED STATES OF AMERICA:   COUNTRY
 SRVC.      DRESSER ATLAS:   SERVICE COMPANY
 DATE.        28-APR-1986:   LOGDATE
 API .     49025110710000:   API NUMBER
~CURVE INFORMATION
#MNEM.UNIT       API CODE    CURVE DESCRIPTION
#----------   ------------   ------------------------------
 DEPT.F                  :   
 TEND.LBS    45 635 01 00:   TENSION FROM DENSITY LOG
 DEN .G/C3   45 635 01 00:   DENSITY
 CORR.G/C3   45 356 01 00:   DENSITY CORRECTION
 CNC .DEC    42 890 03 00:   NEUTRON PORISITY SANDSTONE
 TENR.LBS    07 635 01 00:   TENSION FROM RESISTIVITY
 CALR.IN     07 280 01 00:   CALIPER FROM RESISTIVITY
 SPR .MV     07 010 01 00:   SPONTANEOUS POTENTIAL
 GRR .GAPI   07 310 01 00:   GAMMA RAY FROM RESISTIVITY
 RFOC.OHMM   07 220 04 00:   RESISTIVITY FOCUSED LOG RES.
 RILD.OHMM   07 120 46 00:   DEEP INDUCTION RESISTIVITY
 RILM.OHMM   07 120 44 00:   INDUCTION LOG MEDIUM RESISTIVITY
 TENS.LBS    60 635 01 00:   TENSION
 AC  .US/F   60 250 00 00:   ACCOUSTIC
~PARAMETER INFORMATION
#MNEM.UNIT          VALUE    DESCRIPTION
#----------   ------------   ------------------------------
 EKB .F         5142.0000:   Kelly bushing
 EGL .F         5130.0000:   Ground level
 EDF .F            0.0000:   Drilling floor
 EPD .F         5130.0000:   Permanent datum
 TD  .F         3296.0000:   Total depth
 DATE.        28-APR-1986:   Date logged
 CLNT.            A2DTECH:   Client Code
 SL  . 210' FSL & 204' FWL:   Surface Location
 PD  .                 GL:   Permanent Datum
 DD  .F              3295:   Depth driller
 DL  .F              3290:   Depth logger
 BLI .F              3296:   Bottom log interval
 CS1 .IN            8.625:   Casing size
 CBD1.      8.625" @ 563':   Casing driller 1
 CBL1.F               560:   Casing logger 1
 BS1 .IN            7.875:   Bit size
 BSD1.F              3295:   Depth drilled with bit1
 DFT .        POLYMER KCL:   Type fluid in hole
 DFD .                8.9:   Density
 DFV .                 38:   Viscosity
 DFPH.                8.5:   pH
 DFL .                9.2:   Fluid loss
 MSS .           FLOWLINE:   Source of sample
 RMS .OHMM           .435:   Rm
 MST .F                74:   Rm Meas. temp.
 RMF .OHMM            .33:   Rmf
 MFST.F                74:   Rmf Meas. temp.
 RMC .OHMM            .54:   Rmc
 MCST.F                74:   Rmc Meas. temp.
 MFSS.               CALC:   Source Rmf.
 MCSS.               CALC:   Source Rmc.
 RMB .OHMM            .77:   Rm. at BHT
 BHT .F               119:   BHT.
 TCS .HRS               4:   Time Circ. stopped
 MRT .F               119:   Maximum recorded temp.
 LUN .            HL 6264:   Logging unit number
 LUL .           GILLETTE:   Logging unit location
 ENGI.      P.M. FAHLSING:   Recorded By
 WITN.             STRONG:   Witnessed by
 ORIG.         2.5" PRINT:   Origin of data
 UWI .     49025110710000:   Unique Well ID
 DICO. A2D TECHNOLOGIES, INC.:   Digitizing Company
 DAPD.                 12:   Feet Above Permanent Datum
~OTHER INFORMATION
~A    DEPT    TEND        DEN       CORR        CNC       TENR       CALR        SPR         GRR      RFOC       RILD       RILM       TENS         AC   
# ...
 3101.0000   -63.3600     2.4760     0.0700     0.2150   -44.1180     8.4520   -24.4930   103.6160     4.7590     3.8410     4.4690   -75.9820    80.9220
 3101.5000   -63.3600     2.4620     0.1000     0.2090   -44.1180     8.4360   -24.3870   103.4210     4.8170     3.9160     4.5080   -76.3390    80.4870
 3102.0000   -63.3600     2.4510     0.1410     0.2130   -44.1180     8.4200   -24.2730   105.0550     4.9510     3.9730     4.5080   -76.6970    79.9800
 3102.5000   -63.3600     2.4570     0.1420     0.2200   -44.1180     8.4040   -24.1670   108.1400     5.0240     3.9730     4.6740   -77.0550    79.9800
 3103.0000   -63.3600     2.4730     0.1110     0.2220   -45.1280     8.3880   -24.0520   109.1170     4.8780     3.9730     4.6560   -77.4130    80.5470
 3103.5000   -55.8940     2.4870     0.0770     0.2240   -46.0820     8.3720   -23.9450   109.0430     4.6590     3.9730     4.5900   -77.7710    81.0910
 3104.0000   -39.3910     2.5030     0.0650     0.2260   -47.0360     8.3560   -23.8390   109.1940     4.5080     3.9730     4.5250   -78.1290    81.6360
 3104.5000   -24.0670     2.5060     0.0630     0.2270   -47.9900     8.3400   -23.6770   112.5240     4.5080     3.9180     4.4590   -78.4870    82.1410
 3105.0000   -63.3600     2.5090     0.0620     0.2250   -48.9440     8.3240   -23.3330   115.2480     4.5080     3.8570     4.3930   -78.8450    82.1940
 3105.5000   -63.3600     2.5100     0.0620     0.2230   -49.8980     8.3080   -23.0270   113.3300     4.5080     3.7960     4.3280   -79.2030    82.2440
 3106.0000   -63.3600     2.5110     0.0620     0.2210   -50.8520     8.3020   -23.0820   110.9380     4.5080     3.7350     4.2620   -79.5600    82.2940
 3106.5000   -63.3600     2.5110     0.0640     0.2200   -51.8060     8.3110   -22.7040   109.6830     4.5080     3.6740     4.1960   -79.9180    82.3380
 3107.0000   -63.3600     2.5120     0.0690     0.2230   -52.7600     8.3280   -22.6220   110.7560     4.4870     3.6130     4.1300   -80.2760    82.4040
 3107.5000   -63.3600     2.5100     0.0730     0.2270   -53.7140     8.3430   -22.1740   113.7610     4.4290     3.5520     4.0650   -80.6340    82.6160
 3108.0000   -63.3600     2.5080     0.0740     0.2300   -54.6680     8.3410   -21.7000   114.5500     4.3710     3.4910     3.9990   -80.9920    82.8280
 3108.5000   -63.3600     2.5050     0.0790     0.2330   -55.6220     8.3440   -21.1880   113.4100     4.3480     3.4300     3.9250   -81.3500    83.1380
 3109.0000   -63.3600     2.5080     0.0790     0.2370   -56.5760     8.3500   -20.6930   112.1890     4.2810     3.3690     3.8460   -81.7080    83.5340
 3109.5000   -63.3600     2.5140     0.0910     0.2400   -57.5300     8.3790   -20.2710   110.9280     4.2250     3.3090     3.7660   -82.0660    83.9300
 3110.0000   -63.3600     2.5190     0.1020     0.2430   -58.4840     8.3370   -20.0450   110.7800     4.1660     3.2480     3.6870   -82.4240    84.3260
 3110.5000   -63.3600     2.5140     0.1000     0.2470   -59.4380     8.3450   -19.8480   111.3000     4.1040     3.1870     3.6070   -82.7820    84.4990
 3111.0000   -63.3600     2.5080     0.0870     0.2500   -60.3920     8.3420   -19.6470   111.8120     4.0450     3.1260     3.5280   -83.0060    84.7160
 3111.5000   -63.3600     2.5010     0.0730     0.2530   -61.3460     8.3420   -19.4520   112.2170     4.0210     3.0650     3.4480   -83.0060    84.9010
 3112.0000   -63.3600     2.4950     0.0650     0.2560   -62.3000     8.3430   -19.2540   113.1050     3.9980     3.0040     3.3690   -83.0060    85.0880
 3112.5000   -63.3600     2.4890     0.0660     0.2620   -63.2540     8.3420   -19.0710   114.4900     3.9730     2.9430     3.2890   -80.7730    85.9370
 3113.0000   -63.3600     2.4830     0.0680     0.2680   -63.7250     8.3290   -19.4230   115.9390     3.9050     2.8820     3.2100   -78.5230    86.7920
 3113.5000   -63.3600     2.4780     0.0730     0.2660   -54.5420     8.3130   -20.2880   117.7850     3.7730     2.8210     3.1300   -76.2730    87.6470
 3114.0000   -63.3600     2.4770     0.0770     0.2620   -46.2750     8.2960   -21.1520   119.4930     3.6400     2.7680     3.0510   -74.0220    88.5020
 3114.5000   -63.3600     2.4760     0.0780     0.2570   -51.4510     8.2800   -21.4820   120.7960     3.5010     2.7440     3.0300   -71.7720    88.8210
 3115.0000   -63.3600     2.4750     0.0730     0.2590   -61.3730     8.2630   -21.4510   118.6890     3.5470     2.7120     3.0300   -69.5210    88.6050
 3115.5000   -63.3600     2.4740     0.0600     0.2600   -71.2940     8.2470   -21.4560   115.9190     3.6300     2.6790     3.0300   -67.2710    88.1100
 3116.0000   -63.3600     2.4730     0.0480     0.2640   -81.2160     8.2300   -21.4760   114.4550     3.7130     2.6470     3.0300   -65.0210    87.6150
 3116.5000   -63.3600     2.4730     0.0360     0.2670   -74.6620     8.2140   -21.2970   117.0470     3.7630     2.6140     3.0300   -61.5070    87.7720
 3117.0000   -63.3600     2.4720     0.0340     0.2650   -63.6380     8.1960   -21.0400   119.8050     3.6920     2.5750     3.0300   -54.4340    88.2670
 3117.5000   -63.3600     2.4710     0.0390     0.2600   -52.6140     8.1860   -21.0810   120.6120     3.5750     2.5630     3.0300   -47.3620    88.8210
 3118.0000   -63.3600     2.4670     0.0480     0.2560   -45.2010     8.1750   -20.9870   117.9630     3.4380     2.5330     2.9760   -43.7130    88.7730
 3118.5000   -63.3600     2.4570     0.0570     0.2540   -49.9250     8.1510   -20.5550   114.5560     3.4480     2.5040     2.9000   -45.5120    88.7180
 3119.0000   -63.3600     2.4530     0.0650     0.2560   -54.6500     8.1280   -20.2500   113.1740     3.4710     2.4740     2.8500   -48.1180    88.6630
 3119.5000   -63.3600     2.4510     0.0730     0.2590   -59.3740     8.1060   -20.2750   117.1010     3.5010     2.4450     2.7990   -50.7240    88.8290
 3120.0000   -63.3600     2.4510     0.0740     0.2560   -64.0990     8.0810   -19.9670   121.9390     3.4690     2.4150     2.7480   -53.3300    89.4890
 3120.5000   -63.3600     2.4540     0.0660     0.2600   -68.8240     8.0660   -19.6470   124.2020     3.3560     2.3850     2.6980   -55.9350    90.1490
 3121.0000   -63.3600     2.4580     0.0540     0.2640   -73.5480     8.0670   -19.3070   124.2030     3.2420     2.3560     2.6470   -58.5410    90.8090
 3121.5000   -63.3600     2.4620     0.0430     0.2650   -78.2730     8.0670   -18.9820   124.4880     3.1410     2.3260     2.6220   -61.1470    90.9820
 3122.0000   -63.3600     2.4600     0.0470     0.2660   -83.3330     8.0670   -18.7110   124.9040     3.2130     2.2960     2.6220   -63.3600    90.5820
 3122.5000   -63.3600     2.4570     0.0550     0.2640   -81.5260     8.0670   -19.0050   125.6340     3.3120     2.2670     2.6220   -62.3940    90.1570
 3123.0000   -63.3600     2.4550     0.0630     0.2670   -79.5810     8.0670   -19.4140   126.4460     3.3770     2.2370     2.6220   -61.5550    89.8040
 3123.5000   -71.6110     2.4520     0.0580     0.2710   -77.6360     8.0670   -19.8280   130.2640     3.3180     2.2080     2.6220   -60.7160    90.1340
 3124.0000   -78.6840     2.4530     0.0490     0.2720   -75.6900     8.0690   -20.2310   132.6830     3.2130     2.1890     2.6220   -59.8760    90.4170
 3124.5000   -83.0060     2.4590     0.0540     0.2720   -73.7450     8.0710   -20.6460   133.2980     3.1070     2.2030     2.6220   -59.0370    90.5890
 3125.0000   -66.6340     2.4640     0.0640     0.2600   -71.7990     8.0730   -21.0490   129.1120     3.0850     2.2170     2.6700   -58.1980    90.2070
 3125.5000   -50.1310     2.4690     0.0740     0.2600   -69.8540     8.0750   -21.4430   124.7440     3.2340     2.2400     2.6220   -57.3590    89.8220
 3126.0000   -46.4640     2.4740     0.0840     0.2630   -67.9080     8.0770   -21.5880   120.5050     3.4380     2.3110     2.7140   -56.5200    89.4370
 3126.5000   -50.9640     2.4780     0.0860     0.2650   -65.9630     8.0790   -21.7260   116.1900     3.4190     2.4400     2.8190   -55.6810    89.2140
