~VERSION INFORMATION
 VERS.                2.0:   CWLS LOG ASCII STANDARD - VERSION 2.0
 WRAP.                 NO:   ONE LINE PER DEPTH STEP
~WELL INFORMATION
#MNEM.UNIT      DATA TYPE    INFORMATION
#----------   ------------   ------------------------------
 STRT.F           50.0000:   START DEPTH
 STOP.F         2832.5000:   STOP DEPTH
 STEP.F            0.5000:   STEP LENGTH
 NULL.          -999.2500:   NO VALUE
 COMP.    FENIX & SCISSON:   COMPANY
 WELL. FENIX NPR 3 "AX" #87-20:   WELL
 FLD .              N P R:   FIELD
 LOC .      S20 T39N R78W:   LOCATION
 CNTY.            NATRONA:   COUNTY
 STAT.            WYOMING:   STATE
 CTRY. UNITED STATES OF AMERICA:   COUNTRY
 SRVC.           BIRDWELL:   SERVICE COMPANY
 DATE.        01-AUG-1978:   LOGDATE
 API .     49025106780000:   API NUMBER
~CURVE INFORMATION
#MNEM.UNIT       API CODE    CURVE DESCRIPTION
#----------   ------------   ------------------------------
 DEPT.F                  :   
 CALD.IN     45 280 60 00:   CALIPER FROM DENSITY LOG
 CORR.G/C3   45 356 01 00:   DENSITY CORRECTION
 GRD .GAPI   45 310 01 00:   GAMMA RAY FROM DENSITY LOG
 RHOB.G/C3   45 350 01 00:   BULK DENSITY
 SPR .MV     05 010 01 00:   SPONTANEOUS POTENTIAL
 ILD .OHMM   05 120 46 00:   DEEP INDUCTION RESISTIVITY
 SN  .OHMM   05 040 00 00:   SHORT NORMAL
~PARAMETER INFORMATION
#MNEM.UNIT          VALUE    DESCRIPTION
#----------   ------------   ------------------------------
 EKB .F         5007.0000:   Kelly bushing
 EGL .F         4997.0000:   Ground level
 EDF .F            0.0000:   Drilling floor
 EPD .F            0.0000:   Permanent datum
 TD  .F         2832.0000:   Total depth
 DATE.        01-AUG-1978:   Date logged
 CLNT.            A2DTECH:   Client Code
 SL  . 940' FSL & 200' FEL:   Surface Location
 PD  .                 GL:   Permanent Datum
 DD  .F              2825:   Depth driller
 DL  .F              2832:   Depth logger
 BLI .F              2826:   Bottom log interval
 CS1 .IN            8.625:   Casing size
 CBD1.      8.625" @ 140':   Casing driller 1
 CBL1.F               240:   Casing logger 1
 BS1 .IN            7.875:   Bit size
 DFT .            KCL/GEL:   Type fluid in hole
 DFD .                  9:   Density
 DFV .                 34:   Viscosity
 DFL .                  8:   Fluid loss
 MSS .           FLOWLINE:   Source of sample
 RMS .OHMM            1.5:   Rm
 MST .F                70:   Rm Meas. temp.
 RMF .OHMM            .70:   Rmf
 MFST.F                72:   Rmf Meas. temp.
 RMC .OHMM            2.2:   Rmc
 MCST.F                75:   Rmc Meas. temp.
 MFSS.               MEAS:   Source Rmf.
 TCS .HRS               6:   Time Circ. stopped
 LUN .               3007:   Logging unit number
 LUL .               CASP:   Logging unit location
 ENGI.            POINTER:   Recorded By
 WITN.              AMEND:   Witnessed by
 ORIG.           5" PRINT:   Origin of data
 UWI .     49025106780000:   Unique Well ID
 DICO. A2D TECHNOLOGIES, INC.:   Digitizing Company
 DAPD.                 10:   Feet Above Permanent Datum
 BSD1.F              2825:   Depth drilled with bit1
 LMF .                 KB:   Log Measured From
 DMF .                 KB:   Drilling Measured From
 TLI .F               140:   Top log interval
~OTHER INFORMATION
~A   DEPT     CALD       CORR         GRD      RHOB        SPR        ILD         SN   
# ...
 1733.5000     8.5790     0.0930   120.4400     2.5260   -23.9410     8.4000     9.7320
 1734.0000     8.5790     0.0870   118.2990     2.5310   -23.9030     8.2770     9.7100
 1734.5000     8.5790     0.0850   118.3140     2.5030   -23.8660     8.1280     9.5130
 1735.0000     8.5790     0.0870   120.9520     2.4900   -23.8610     8.0130     9.3270
 1735.5000     8.5790     0.0860   118.6950     2.5030   -23.8610     8.0510     9.1400
 1736.0000     8.5790     0.0850   116.9010     2.5100   -23.8610     8.0870     8.9430
 1736.5000     8.5830     0.0870   122.2270     2.4800   -23.8610     8.0040     8.9690
 1737.0000     8.6070     0.1020   123.0070     2.4740   -23.8610     7.8920     9.0040
 1737.5000     8.6310     0.1160   120.2420     2.4910   -23.8610     7.7960     9.0250
 1738.0000     8.6380     0.1030   121.0920     2.5150   -23.8610     8.0400     9.8890
 1738.5000     8.6380     0.0870   125.5130     2.5260   -23.8610     8.2840     9.8810
 1739.0000     8.6380     0.0830   121.1490     2.5200   -23.8610     8.5270     9.8690
 1739.5000     8.6380     0.0860   122.0740     2.5270   -23.8610     8.7710     9.8560
 1740.0000     8.6390     0.0850   117.3550     2.5350   -23.8610     8.9550     9.8430
 1740.5000     8.6900     0.0830   120.1770     2.5360   -23.8610     8.9950     9.8300
 1741.0000     8.7440     0.0820   121.4760     2.5360   -23.8610     9.0350     9.8180
 1741.5000     8.7010     0.0820   126.5470     2.5110   -23.8610     9.0750     9.7990
 1742.0000     8.8770     0.0890   124.1560     2.4870   -23.8610     9.1080    10.0150
 1742.5000     8.3850     0.1050   122.5810     2.4880   -23.8700     9.2540    10.3950
 1743.0000     8.4420     0.1020   123.4730     2.5130   -23.9160     9.4390    10.5630
 1743.5000     8.4300     0.0930   124.8310     2.5100   -23.9620     9.6250    10.5960
 1744.0000     8.4280     0.0820   123.2380     2.5150   -24.0080     9.7990    10.6290
 1744.5000     8.4240     0.0710   117.9940     2.5170   -24.0540     9.8120    10.6930
 1745.0000     8.4210     0.0670   119.2160     2.5150   -24.0350     9.8300    10.7730
 1745.5000     8.4490     0.0670   115.5520     2.5140   -24.0080     9.8480    10.8520
 1746.0000     8.4790     0.0670   119.4200     2.5150   -23.9810     9.8670    10.9360
 1746.5000     8.4760     0.0670   122.6820     2.5200   -23.9530     9.8850    10.8920
 1747.0000     8.4700     0.0640   116.5510     2.5250   -23.9260     9.8970    10.8320
 1747.5000     8.4640     0.0600   113.1420     2.5230   -23.8990     9.9390    10.7730
 1748.0000     8.4590     0.0600   114.7340     2.5100   -23.8700     9.9820    10.7380
 1748.5000     8.5050     0.0770   116.8250     2.4810   -23.8650    10.0240    10.8160
 1749.0000     8.5630     0.0940   118.3650     2.4950   -23.9710    10.0660    10.8920
 1749.5000     8.9040     0.0980   120.8810     2.5240   -24.0780    10.0140    10.9680
 1750.0000     9.3430     0.0910   121.0860     2.5520   -24.1830     9.9800    11.0370
 1750.5000     8.5950     0.0620   120.9760     2.5510   -24.2590    10.8200    11.1130
 1751.0000     8.6290     0.0650   120.9190     2.5230   -24.2570    11.1380    11.2220
 1751.5000     8.6310     0.0670   118.8920     2.4940   -24.2570    10.4030    11.3310
 1752.0000     8.6380     0.0740   122.9440     2.4880   -24.2570     9.7990    11.4480
 1752.5000     8.6430     0.0810   121.1440     2.4950   -24.2570     9.7620    11.2070
 1753.0000     8.6480     0.0820   123.0900     2.4980   -24.2570     9.7210    10.9470
 1753.5000     8.6530     0.0990   120.3020     2.4780   -24.2570     9.5500    10.6870
 1754.0000     8.6580     0.1290   120.9290     2.4700   -24.2570     9.2530    10.4270
 1754.5000     8.6500     0.1510   121.9620     2.5050   -24.2570     8.9430    10.2580
 1755.0000     8.6390     0.1400   123.2380     2.5370   -24.2570     8.9470    10.3360
 1755.5000     8.6290     0.1100   125.5150     2.5470   -24.2580     8.9590    10.4040
 1756.0000     8.6190     0.1070   127.6140     2.5010   -24.2580     8.9710    10.4470
 1756.5000     8.6150     0.1120   130.5630     2.4410   -24.2560     8.9830    10.4070
 1757.0000     8.5990     0.1370   130.4350     2.4240   -24.2560     8.9940    10.3730
 1757.5000     8.5840     0.1650   125.1980     2.4240   -23.9910     9.0060    10.3390
 1758.0000     8.5680     0.1940   131.0870     2.4570   -23.5490     9.0180    10.3050
 1758.5000     8.5530     0.2140   132.3920     2.4930   -23.4670     9.0250    10.2710
 1759.0000     8.5390     0.2250   133.8960     2.5040   -23.4510     8.9510    10.2220
 1759.5000     8.5430     0.2240   133.5530     2.5200   -23.4850     8.8900    10.1330
 1760.0000     8.5470     0.2200   136.8730     2.5490   -24.2420     8.8280    10.0450
 1760.5000     8.5510     0.2100   140.2630     2.5680   -24.2520     8.7810     9.9560
 1761.0000     8.5550     0.1970   138.8530     2.5700   -24.2590     8.6450     9.8670
 1761.5000     8.5590     0.1790   142.4920     2.5730   -24.2580     8.4810     9.7990
 1762.0000     8.5590     0.1540   140.9650     2.5650   -24.2570     8.3170     9.7990
 1762.5000     8.5590     0.1310   139.8580     2.5420   -24.2570     8.1610     9.7990
 1763.0000     8.5590     0.1290   138.2510     2.5190   -24.2570     8.1610     9.7990
 1763.5000     8.5590     0.1280   136.7520     2.5070   -24.2580     8.1610     9.7990
 1764.0000     8.5620     0.1270   132.3990     2.5220   -24.2380     8.1610     9.7990
 1764.5000     8.6310     0.1260   131.9820     2.5370   -24.2100     8.1610     9.7990
 1765.0000     8.7000     0.1250   133.7420     2.5380   -24.1820     8.1610     9.7990
 1765.5000     8.7370     0.1240   129.0280     2.5390   -24.1530     8.2070     9.7990
 1766.0000     8.7170     0.1220   130.8110     2.5510   -24.1250     8.3670     9.7990
 1766.5000     8.6400     0.1140   131.9470     2.5510   -24.0960     8.5270     9.7990
 1767.0000     8.6210     0.1070   129.8690     2.5470   -24.0660     8.5790     9.7990
 1767.5000     8.6240     0.1030   132.0860     2.5420   -23.9670     8.6190     9.7990
 1768.0000     8.6270     0.0990   135.8710     2.5450   -23.7870     8.6590     9.7990
 1768.5000     8.6300     0.0970   141.0640     2.5440   -23.6610     8.6980     9.7990
 1769.0000     8.6340     0.0970   142.2760     2.5300   -23.6630     8.7380     9.7990
 1769.5000     8.6370     0.0980   138.6440     2.5190   -23.6630     8.7810     9.7990
 1770.0000     8.5790     0.0970   135.6560     2.5170   -23.6630     8.7940     9.7990
 1770.5000     8.5610     0.0920   133.2950     2.5030   -23.6630     8.8130     9.7890
 1771.0000     8.6780     0.0830   131.1500     2.4780   -23.6630     8.8310     9.7710
 1771.5000     8.4920     0.0590   130.0500     2.4430   -23.6630     8.8500     9.7520
 1772.0000     8.4280     0.0290   132.9670     2.3850   -23.6630     8.8900     9.7330
 1772.5000     8.4440     0.0840   127.5690     2.3040   -23.6630     9.0640     9.7100
 1773.0000     8.5470     0.2300   130.1030     2.2200   -23.6630     9.2760     9.7560
 1773.5000     8.7870     0.3310   132.9190     2.4460   -23.6630     9.2090     9.8360
 1774.0000     8.5700     0.2350   136.4500     2.6960   -23.6480     9.0930     9.9160
 1774.5000     8.8620     0.1740   137.6570     2.6350   -23.6330     8.9780     9.9800
 1775.0000     8.5360     0.1220   135.3960     2.6190   -23.6170     8.8620     9.9640
 1775.5000     8.5000     0.0770   127.8700     2.6010   -23.6010     8.7460     9.9510
 1776.0000     8.4650     0.0300   132.4190     2.5400   -23.5860     8.6160     9.9370
 1776.5000     8.4300     0.0240   139.2880     2.4800   -23.5700     8.4760     9.9240
 1777.0000     8.4470     0.0440   138.0720     2.4320   -23.5550     8.3360     9.9100
 1777.5000     8.7630     0.0900   137.1010     2.4110   -23.5390     8.3010     9.8970
 1778.0000     8.7230     0.1160   140.6380     2.4740   -23.5240     8.2880     9.8890
 1778.5000     8.6390     0.1030   144.6160     2.5350   -23.5080     8.2750     9.9370
