~VERSION INFORMATION
 VERS.                2.0:   CWLS LOG ASCII STANDARD - VERSION 2.0
 WRAP.                 NO:   ONE LINE PER DEPTH STEP
~WELL INFORMATION
#MNEM.UNIT      DATA TYPE    INFORMATION
#----------   ------------   ------------------------------
 STRT.F          330.0000:   START DEPTH
 STOP.F         2880.0000:   STOP DEPTH
 STEP.F            0.5000:   STEP LENGTH
 NULL.          -999.2500:   NO VALUE
 COMP.   TESORO PETROLEUM:   COMPANY
 WELL. TESORO NPR "AX" #3-21:   WELL
 FLD .        TEAPOT DOME:   FIELD
 LOC .      S21 T39N R78W:   LOCATION
 CNTY.            NATRONA:   COUNTY
 STAT.            WYOMING:   STATE
 CTRY. UNITED STATES OF AMERICA:   COUNTRY
 SRVC.       SCHLUMBERGER:   SERVICE COMPANY
 DATE.        17-AUG-1972:   LOGDATE
 API .     49025102150000:   API NUMBER
~CURVE INFORMATION
#MNEM.UNIT       API CODE    CURVE DESCRIPTION
#----------   ------------   ------------------------------
 DEPT.F                  :   
 GRD .GAPI   45 310 01 00:   GAMMA RAY FROM DENSITY LOG
 CALD.IN     45 280 60 00:   CALIPER FROM DENSITY LOG
 CORR.G/C3   45 356 01 00:   DENSITY CORRECTION
 RHOB.G/C3   45 350 01 00:   BULK DENSITY
 SPR .MV     05 010 01 00:   SPONTANEOUS POTENTIAL FROM RES.
 ILD .OHMM   05 120 46 00:   INDUCTION LOG DEEP
 ASN .OHMM   05 041 16 00:   AMPLIFIED SHORT NORMAL 16"
~PARAMETER INFORMATION
#MNEM.UNIT          VALUE    DESCRIPTION
#----------   ------------   ------------------------------
 EKB .F         4985.0000:   Kelly bushing
 EGL .F         4975.0000:   Ground level
 EDF .F            0.0000:   Drilling floor
 EPD .F         4975.0000:   Permanent datum
 TD  .F         2880.0000:   Total depth
 CLNT.            A2DTECH:   Client Code
 DATE.        17-AUG-1972:   Date Logged [DD-MMM-YYYY]
 DD  .F              2875:   Depth driller
 DL  .F              2880:   Depth logger
 BLI .F              2879:   Bottom log interval
 TLI .F               330:   Top log interval
 CS1 .              10.75:   Casing size
 CBD1.       10.75" @ 327:   Casing driller 1
 CBL1.IN              330:   Casing logger 1
 BS1 .IN                9:   Bit size
 BSD1.F              2875:   Depth drilled with bit1
 DFT .           CHEM-GEL:   Type fluid in hole
 DFD .                9.3:   Density
 DFV .                 61:   Viscosity
 DFPH.                9.0:   pH
 DFL .                 66:   Fluid loss
 MSS .           FLOWLINE:   Source of sample
 RMS .OHMM           1.86:   Rm
 MST .F                76:   Rm Meas. temp.
 RMF .OHMM           1.58:   Rmf
 MFST.F                76:   Rmf Meas. temp.
 MFSS.               MEAS:   Source Rmf.
 RMB .OHMM           1.25:   Rm. at BHT
 BHT .F               113:   BHT.
 TCS .HRS               3:   Time Circ. stopped
 MRT .F               113:   Maximum recorded temp.
 LUN .               7037:   Logging unit number
 LUL .               CSPR:   Logging unit location
 ENGI.              GOLAS:   Recorded By
 WITN.                MAY:   Witnessed by
 ORIG.      1" 2.5" PRINT:   Origin of data
 UWI .     49025102150000:   Unique Well ID
 DICO. A2D TECHNOLOGIES, INC.:   Digitizing Company
~OTHER INFORMATION
~A   DEPT      GRD       CALD       CORR       RHOB        SPR          ILD        ASN 
# ...
 2468.5000    81.1997     9.0327     0.0245     2.5171   -16.6830    17.5838    21.0080
 2469.0000    91.1358     9.0716     0.0159     2.5156   -16.6875    16.0383    19.8557
 2469.5000    94.1538     9.1602     0.0213     2.4902   -16.9896    14.4928    18.6166
 2470.0000    92.7692     9.2161     0.0188     2.4484   -16.9948    12.9473    17.3776
 2470.5000    91.8462     9.2154     0.0217     2.4364   -16.7009    11.7105    16.1386
 2471.0000    92.7692     9.2148     0.0152     2.4275   -16.4077    11.0910    14.9637
 2471.5000    93.6923     9.2142     0.0060     2.4215   -16.1146    10.4714    13.8248
 2472.0000    94.1538     9.2136     0.0199     2.4350   -15.8214     9.8519    12.6903
 2472.5000    96.4615     9.2130     0.0153     2.4381   -15.5283     9.0586    11.9281
 2473.0000   101.5385     9.2124     0.0030     2.4456   -15.2351     8.4454    11.3161
 2473.5000   104.3077     9.2244     0.0200     2.4726   -15.2397     8.1474    10.7249
 2474.0000   104.7692     9.2420     0.0246     2.4922   -15.2441     8.1451    10.2937
 2474.5000   103.8462     9.2099     0.0185     2.5012   -14.9508     8.2973     9.9902
 2475.0000   103.8462     9.2099     0.0262     2.5041   -14.9304     8.3333     9.8731
 2475.5000   104.3077     9.2099     0.0108     2.4938   -14.6619     8.4471     9.7240
 2476.0000   104.7692     9.2099     0.0062     2.4719   -14.6667     8.5991     9.8734
 2476.5000   105.2308     9.2099     0.0063     2.4618   -14.6712     8.5964     9.8736
 2477.0000   105.2171     9.2099     0.0078     2.4573   -14.6756     8.5941     9.8737
 2477.5000   104.2807     9.2099     0.0063     2.4549   -14.3818     8.5918     9.8738
 2478.0000   103.3846     9.2099     0.0048     2.4636   -14.3869     8.5895     9.8740
 2478.5000   104.3607     9.2099     0.0018     2.4689   -14.0929     8.5872    10.0234
 2479.0000   105.2308     9.2099     0.0082     2.4715   -14.0982     8.5849    10.0236
 2479.5000   102.1438     9.2099     0.0131     2.4752   -14.4003     8.4278    10.0238
 2480.0000   100.0615     9.2099     0.0192     2.4958   -14.5635     8.4255    10.0239
 2480.5000    99.6923     9.2099     0.0253     2.5124   -14.7069     8.4233    10.0241
 2481.0000    99.1121     9.2099     0.0303     2.5179   -15.0098     8.2667    10.1735
 2481.5000    97.5836     9.2099     0.0261     2.5189   -15.0141     8.2644    10.1736
 2482.0000    96.4615     9.2099     0.0050     2.5028   -15.0185     8.1078    10.0245
 2482.5000   100.7844     9.2099    -0.0020     2.4825   -15.0228     8.1056    10.0246
 2483.0000   104.3580     9.2099    -0.0082     2.4668   -15.0272     7.9490     9.8755
 2483.5000   106.0601     9.2099    -0.0118     2.4569   -15.0316     7.9467     9.8757
 2484.0000   107.0769     9.2099     0.0059     2.4973   -14.7383     7.9444     9.8758
 2484.5000   106.6154     9.2099     0.0135     2.5033   -14.7427     7.9357     9.7267
 2485.0000   105.7074     9.2099     0.0138     2.5109   -14.4494     7.7855     9.7269
 2485.5000   104.2967     9.2099     0.0175     2.5229   -14.4539     7.6289     9.7270
 2486.0000   102.4250     9.2099     0.0192     2.5005   -14.4584     7.6265     9.5748
 2486.5000   103.4477     9.2099     0.0170     2.5155   -14.4628     7.6242     9.2795
 2487.0000   106.6154     9.2099     0.0264     2.5275   -14.4673     7.6604     9.1304
 2487.5000   108.0000     9.2099     0.0399     2.5279   -14.4718     7.7743     9.1119
 2488.0000   107.0769     9.2099     0.0255     2.5156   -14.1780     7.9263     8.8322
 2488.5000   105.6923     9.2099     0.0074     2.5066   -13.7965     8.1358     8.8324
 2489.0000   104.7692     9.1790     0.0199     2.5097   -13.5915     8.2942     8.8668
 2489.5000   105.2308     9.1790     0.0117     2.5217   -14.0100     8.4527     9.0215
 2490.0000   105.6923     9.1790     0.0071     2.5080   -14.3255     8.5339     9.1313
 2490.5000   105.6923     9.1790     0.0133     2.4977   -14.9384     8.5316     9.3307
 2491.0000   105.2308     9.2099     0.0149     2.5042   -15.0983     8.4392     9.5794
 2491.5000   107.0769     9.2099     0.0103     2.5053   -15.4003     8.3723     9.7288
 2492.0000   108.4615     9.2099     0.0057     2.4922   -15.4056     8.2157     9.7289
 2492.5000   108.0000     9.2099     0.0057     2.4785   -15.1124     8.2134     9.7291
 2493.0000   107.0769     9.2099     0.0057     2.4890   -15.1167     8.0568     9.8785
 2493.5000   106.5994     9.2099     0.0042     2.4838   -15.1211     7.9002     9.7294
 2494.0000   108.4615     9.1790     0.0012     2.4859   -14.8278     7.7436     9.7296
 2494.5000   109.3846     9.1790     0.0105     2.4991   -14.8322     7.5870     9.8124
 2495.0000   109.3613     9.1661     0.0183     2.5031   -14.8366     7.4305     9.9166
 2495.5000   109.4929     9.1481     0.0229     2.5062   -14.5431     7.2739     9.8460
 2496.0000   111.6923     9.1481     0.0164     2.5093   -14.5477     7.1173     9.5149
 2496.5000   110.7692     9.1790     0.0119     2.5124   -14.5520     6.8064     9.2746
 2497.0000   110.9200     9.1790     0.0089     2.5110   -14.5565     6.6497     9.0926
 2497.5000   112.7037     9.1790     0.0052     2.5035   -14.5289     6.4931     8.9843
 2498.0000   114.7662     9.2099     0.0068     2.5015   -14.2675     6.3364     8.9488
 2498.5000   116.7692     9.2099     0.0200     2.5106   -14.2723     6.1476     8.9181
 2499.0000   116.0525     9.2099     0.0165     2.5164   -14.2768     5.9845     8.8795
 2499.5000   114.4615     9.2099     0.0134     2.5179   -13.9830     5.6671     8.7403
 2500.0000   116.9231     9.2099     0.0057     2.5101   -13.9881     5.4012     8.4577
 2500.5000   119.0769     9.2099    -0.0015     2.4824   -13.9926     5.2446     8.0127
 2501.0000   118.1538     9.2099     0.0364     2.5070   -13.9970     5.0879     7.7196
 2501.5000   117.8854     9.2099     0.0502     2.5271   -14.0015     5.0856     7.6161
 2502.0000   120.2061     9.2099     0.0261     2.5136   -14.0060     5.0834     7.5246
 2502.5000   118.6382     9.2099     0.0095     2.5034   -14.0104     5.0810     7.4635
 2503.0000   116.7661     9.2099    -0.0030     2.4983   -14.0149     5.0787     7.4636
 2503.5000   115.3554     9.2099    -0.0123     2.4871   -14.0123     5.2307     7.4166
 2504.0000   116.1048     9.2099    -0.0079     2.4884   -14.0020     5.3827     7.3445
 2504.5000   116.7692     9.2099     0.0003     2.5065   -13.9916     5.6887     7.4342
 2505.0000   116.7692     9.2099     0.0034     2.5140   -14.2857     6.1493     7.5836
 2505.5000   116.6055     9.2099     0.0081     2.5200   -14.2857     6.4556     8.3002
 2506.0000   118.1538     9.2099     0.0096     2.5231   -14.2857     6.6080     9.0604
 2506.5000   123.6923     9.2099     0.0050     2.5172   -14.2857     7.0684     9.3899
 2507.0000   125.6629     9.2099    -0.0042     2.5157   -14.5833     7.2207     9.5899
 2507.5000   122.7692     9.2099    -0.0103     2.5128   -14.8810     7.5268     9.7881
 2508.0000   121.8159     9.2099     0.0005     2.4993   -15.0397     7.6788     9.8650
 2508.5000   120.0230     9.2099     0.0129     2.5099   -15.0099     7.6765     9.8355
 2509.0000   118.6310     9.2099     0.0170     2.5129   -14.8810     7.8286     9.7749
 2509.5000   117.4959     9.2099     0.0121     2.5067   -14.8810     7.8263     9.7782
 2510.0000   115.4993     9.2099     0.0075     2.5009   -14.5833     7.8240     9.9104
 2510.5000   117.1484     9.2099     0.0060     2.4996   -14.5833     7.8217     9.9701
 2511.0000   118.2799     9.2099     0.0046     2.4997   -14.2857     7.8194     9.9701
 2511.5000   112.4305     9.2099     0.0101     2.4997   -13.9881     7.8172    10.0000
 2512.0000   110.9067     9.2099     0.0157     2.5046   -13.9881     7.6605    10.0000
 2512.5000   114.7885     9.2099     0.0148     2.5118   -13.9881     7.6454     9.9403
 2513.0000   115.7307     9.2196     0.0070     2.4744   -13.9881     7.3297     9.7313
 2513.5000   116.0019     9.2407     0.0089     2.4942   -13.9881     7.0141     9.7256
