~VERSION INFORMATION
 VERS.                2.0:   CWLS LOG ASCII STANDARD - VERSION 2.0
 WRAP.                 NO:   ONE LINE PER DEPTH STEP
~WELL INFORMATION
#MNEM.UNIT      DATA TYPE    INFORMATION
#----------   ------------   ------------------------------
 STRT.F         2676.0000:   START DEPTH
 STOP.F         3016.0000:   STOP DEPTH
 STEP.F            0.5000:   STEP LENGTH
 NULL.          -999.2500:   NO VALUE
 COMP.    FENIX & SCISSON:   COMPANY
 WELL.  FENIX "TX" #56-20:   WELL
 FLD .             NPR #3:   FIELD
 LOC .      S20 T39N R78W:   LOCATION
 CNTY.            NATRONA:   COUNTY
 STAT.            WYOMING:   STATE
 CTRY. UNITED STATES OF AMERICA:   COUNTRY
 SRVC.              WELEX:   SERVICE COMPANY
 DATE.        13-OCT-1980:   LOGDATE
 API .     49025108540000:   API NUMBER
~CURVE INFORMATION
#MNEM.UNIT       API CODE    CURVE DESCRIPTION
#----------   ------------   ------------------------------
 DEPT.F                  :   
 GRD .GAPI   45 310 01 00:   GAMMA RAY FROM DENSITY LOG
 CALD.IN     45 280 60 00:   CALIPER FROM DENSITY LOG
 RHOB.G/C3   45 350 01 00:   BULK DENSITY
 DRHO.G/C3   45 356 01 00:   DENSITY CORRECTION
 SPR .MV     07 010 01 00:   SPONTANEOUS POTENTIAL
 SGRD.OHMM   07 220 05 00:   SHALLOW GUARD
 ILM .OHMM   07 120 44 00:   INDUCTION LOG MEDIUM RESISTIVITY
 ILD .OHMM   07 120 46 00:   DEEP INDUCTION RESISTIVITY
~PARAMETER INFORMATION
#MNEM.UNIT          VALUE    DESCRIPTION
#----------   ------------   ------------------------------
 EKB .F         5035.0000:   Kelly bushing
 EGL .F         5030.0000:   Ground level
 EDF .F            0.0000:   Drilling floor
 TD  .F         3012.0000:   Total depth
 DATE.        13-OCT-1980:   Date logged
 CLNT.            A2DTECH:   Client Code
 PD  .                 GL:   Permanent Datum
 EPD .F              5030:   Elevation Permanent Datum
 LMF .                 KB:   Log Measured From
 DMF .                 KB:   Drilling Measured From
 DD  .F              3012:   Depth driller
 DL  .F              3010:   Depth logger
 BLI .F              3012:   Bottom log interval
 TLI .F              2688:   Top log interval
 CS1 .IN                7:   Casing size
 CBD1.         7" @ 2689':   Casing driller 1
 CBL1.F              2687:   Casing logger 1
 BS1 .IN             6.25:   Bit size
 BSD1.F              3012:   Depth drilled with bit1
 DFT .        FRESH WATER:   Type fluid in hole
 MSS .           FLOWLINE:   Source of sample
 RMS .OHMM           2.86:   Rm
 MST .F                50:   Rm Meas. temp.
 RMF .OHMM           2.29:   Rmf
 MFST.F                50:   Rmf Meas. temp.
 RMC .OHMM           3.43:   Rmc
 MCST.F                50:   Rmc Meas. temp.
 MFSS.               MEAS:   Source Rmf.
 MCSS.               MEAS:   Source Rmc.
 RMB .OHMM           1.21:   Rm. at BHT
 BHT .F               118:   BHT.
 TCS .HRS               5:   Time Circ. stopped
 MRT .F               118:   Maximum recorded temp.
 LUN .               1892:   Logging unit number
 LUL .             CASPER:   Logging unit location
 ENGI.           PERIMMER:   Recorded By
 WITN.              SCOTT:   Witnessed by
 ORIG.           5" PRINT:   Origin of data
 UWI .     49025108540000:   Unique Well ID
 DICO. A2D TECHNOLOGIES, INC.:   Digitizing Company
~OTHER INFORMATION
~A  DEPT        GRD        CALD       RHOB       DRHO      SPR       SGRD        ILM        ILD   
# ...
 2838.0000    80.0130     6.9550     2.5400     0.0920   -26.4000     6.2520     5.1380     2.9960
 2838.5000    80.5680     6.9930     2.5290     0.0840   -26.6610     6.7680     4.9530     2.9630
 2839.0000    81.8960     6.9970     2.5220     0.0770   -25.9150     5.4290     4.9980     2.9340
 2839.5000    83.2360     7.0110     2.5140     0.0700   -26.5130     5.4790     5.0450     2.9340
 2840.0000    84.5840     7.0110     2.5080     0.0630   -25.8210     6.6450     4.9980     2.9340
 2840.5000    84.5700     7.0280     2.5010     0.0570   -25.8400     6.0060     5.0910     2.9220
 2841.0000    84.1490     7.0470     2.5040     0.0630   -25.5100     6.8300     5.0450     2.8950
 2841.5000    83.9520     7.0670     2.5130     0.0730   -25.4890     6.3760     5.0910     2.8680
 2842.0000    84.2210     7.0870     2.5210     0.0830   -26.9910     5.5300     4.9080     2.8400
 2842.5000    85.4660     7.1070     2.5300     0.0910   -24.9440     5.6170     5.0910     2.8130
 2843.0000    85.4410     7.1280     2.5310     0.0930   -25.8820     5.5810     4.8180     2.8030
 2843.5000    85.4280     7.1090     2.5290     0.0880   -26.1790     5.7800     4.8630     2.8030
 2844.0000    85.7950     7.1080     2.5270     0.0890   -25.1280     6.2880     4.9530     2.7940
 2844.5000    86.2380     7.1060     2.5390     0.0980   -26.1180     6.1850     4.7740     2.7790
 2845.0000    86.5590     7.1040     2.5570     0.1080   -26.1110     6.0060     4.7710     2.7640
 2845.5000    86.0420     7.1030     2.5640     0.1110   -26.2900     5.7000     4.7540     2.7500
 2846.0000    85.8600     7.1010     2.5660     0.1150   -25.8210     5.3400     4.7370     2.7350
 2846.5000    86.1640     7.0990     2.5800     0.1140   -26.6300     5.1380     4.7190     2.7200
 2847.0000    86.4630     7.0970     2.5680     0.1090   -25.2000     5.4320     4.7020     2.7020
 2847.5000    86.7630     7.0950     2.5580     0.1090   -27.4000     5.7400     4.6870     2.7150
 2848.0000    86.8060     7.0930     2.5640     0.0930   -25.3380     6.1170     4.7770     2.7400
 2848.5000    86.5260     7.1020     2.5610     0.0850   -25.7030     5.4790     4.8720     2.7650
 2849.0000    86.2490     7.1160     2.5550     0.1020   -25.6890     6.0510     4.9680     2.7990
 2849.5000    85.9730     7.0900     2.5500     0.0790   -26.4330     6.1740     5.0630     2.8690
 2850.0000    85.6960     7.0300     2.5450     0.0690   -25.6470     6.1740     5.1120     2.9390
 2850.5000    85.4140     6.9880     2.5360     0.0680   -26.2040     6.1610     5.1380     3.0160
 2851.0000    84.8220     6.9480     2.5370     0.0680   -26.5170     6.1460     5.1730     3.0980
 2851.5000    84.2160     6.9080     2.5490     0.0720   -25.0920     6.1310     5.2520     3.2150
 2852.0000    82.9080     6.8680     2.5650     0.0820   -27.5570     6.1170     5.3790     3.3770
 2852.5000    81.5740     6.8280     2.5780     0.0920   -25.4180     6.8350     5.7930     3.5860
 2853.0000    80.9640     6.7930     2.5720     0.0980   -25.7940     9.2480     5.9330     3.7950
 2853.5000    80.9640     6.7930     2.5670     0.0970   -25.0830     8.3640     6.0810     4.0040
 2854.0000    80.9500     6.7930     2.5690     0.0930   -25.9620     7.9110     6.2310     4.2130
 2854.5000    80.6400     6.7940     2.5700     0.0960   -26.7810     8.4360     6.3820     4.4230
 2855.0000    79.1560     6.8230     2.5740     0.1010   -25.6280     7.9110     6.5000     4.6320
 2855.5000    78.6320     6.8520     2.5690     0.0960   -26.3510    10.5160     6.5560     4.8410
 2856.0000    79.6940     6.8810     2.5630     0.0980   -27.0950     9.5600     6.6120     5.0450
 2856.5000    80.9640     6.9110     2.5570     0.1000   -26.3560     8.2070     6.6450     5.0910
 2857.0000    81.3030     6.9130     2.5510     0.0990   -26.4250     8.5140     6.6450     5.0620
 2857.5000    80.2870     6.8900     2.5450     0.0960   -26.4630     9.5940     6.6180     5.0330
 2858.0000    78.8290     6.8900     2.5430     0.0900   -26.8330     9.3380     6.5600     5.0040
 2858.5000    77.3400     6.9130     2.5450     0.0920   -25.3690     8.7520     6.4430     4.9080
 2859.0000    78.2610     6.9150     2.5480     0.0990   -26.5150     8.3590     6.3260     4.8180
 2859.5000    78.4250     6.9180     2.5520     0.0950   -27.8280     7.9840     6.2310     4.7040
 2860.0000    77.8960     6.9200     2.5360     0.0840   -26.7290     8.1320     6.2220     4.5900
 2860.5000    79.0540     6.9230     2.5450     0.0850   -26.6770     7.5640     6.2140     4.4750
 2861.0000    80.2670     6.9250     2.5520     0.0880   -26.5330     7.2170     6.2050     4.3610
 2861.5000    81.4770     6.9280     2.5600     0.0910   -26.2640     8.1050     6.1970     4.2470
 2862.0000    82.6840     6.9300     2.5690     0.0920   -26.5430     8.5930     6.1880     4.1330
 2862.5000    83.8920     6.9330     2.5630     0.0940   -26.0740     7.1510     6.1800     4.0190
 2863.0000    83.7930     6.9330     2.5500     0.0920   -25.8880     7.6260     6.1530     3.9050
 2863.5000    83.5040     6.9340     2.5360     0.0770   -26.1850     7.0860     6.0120     3.8200
 2864.0000    83.0100     6.9070     2.5230     0.0630   -26.4780     8.1320     5.8700     3.7490
 2864.5000    82.2850     6.8900     2.5180     0.0600   -26.3440     7.5930     5.7280     3.6780
 2865.0000    81.5700     6.8530     2.5160     0.0580   -25.4350     6.5750     5.5630     3.6370
 2865.5000    80.9460     6.8520     2.5190     0.0600   -25.7970     6.2310     5.4290     3.5910
 2866.0000    80.9730     6.8430     2.5260     0.0610   -27.3070     6.2880     5.5920     3.6510
 2866.5000    81.2880     6.7990     2.5340     0.0620   -26.3160     7.1170     5.7710     3.7170
 2867.0000    82.4850     6.7930     2.5410     0.0710   -26.0030     9.6820     5.8970     3.7820
 2867.5000    83.6500     6.7920     2.5480     0.0810   -26.3740     8.5110     5.9090     3.8470
 2868.0000    84.8110     6.8150     2.5530     0.0840   -26.2780     7.6960     5.9230     3.9130
 2868.5000    86.0190     6.8300     2.5500     0.0820   -26.5180     8.5930     5.9360     3.9730
 2869.0000    85.3620     6.8470     2.5470     0.0780   -26.7610     8.1320     5.9500     4.0370
 2869.5000    84.5160     6.8640     2.5430     0.0800   -26.1010     7.5920     5.9630     4.0470
 2870.0000    83.6700     6.8810     2.5470     0.0700   -26.6660     8.1320     5.9770     4.0470
 2870.5000    83.0950     6.8980     2.5540     0.0780   -27.1650     7.8130     5.9910     4.0470
 2871.0000    84.3930     6.9150     2.5520     0.0860   -26.9490     7.3510     6.0060     4.0470
 2871.5000    85.4750     6.9320     2.5500     0.0830   -27.3440     7.2170     5.9710     4.0470
 2872.0000    86.2830     6.9490     2.5470     0.0800   -26.3590     8.2070     5.9290     4.0300
 2872.5000    86.8930     6.9520     2.5480     0.0780   -26.3150     8.0320     5.8760     3.9590
 2873.0000    87.3560     6.9520     2.5500     0.0750   -26.0300     7.5560     5.7880     3.8890
 2873.5000    87.8170     6.9520     2.5430     0.0730   -25.9830     8.1680     5.7000     3.8180
 2874.0000    88.2760     6.9520     2.5360     0.0700   -26.4880     8.7520     5.6050     3.7470
 2874.5000    88.7350     6.9520     2.5370     0.0720   -26.1010     5.7370     5.4790     3.6760
 2875.0000    89.7250     6.9520     2.5400     0.0780   -26.3340     6.1100     5.4790     3.6060
 2875.5000    90.7940     6.9520     2.5440     0.0780   -26.4630     7.0390     5.4790     3.5730
 2876.0000    89.9890     6.9520     2.5400     0.0720   -26.3770     7.4190     5.5300     3.5270
 2876.5000    89.0950     6.9520     2.5310     0.0680   -26.6290     6.7680     5.4790     3.4810
 2877.0000    89.6670     6.9520     2.5250     0.0680   -26.4460     7.1510     5.3990     3.4170
 2877.5000    90.9130     6.9490     2.5250     0.0680   -26.6390     7.3510     5.3180     3.3220
 2878.0000    92.1380     6.9910     2.5260     0.0690   -26.0120     6.8930     5.2380     3.2230
