~VERSION INFORMATION
 VERS.                2.0:   CWLS LOG ASCII STANDARD - VERSION 2.0
 WRAP.                 NO:   ONE LINE PER DEPTH STEP
~WELL INFORMATION
#MNEM.UNIT      DATA TYPE    INFORMATION
#----------   ------------   ------------------------------
 STRT.F           60.0000:   START DEPTH
 STOP.F         3178.0000:   STOP DEPTH
 STEP.F            0.5000:   STEP LENGTH
 NULL.          -999.2500:   NO VALUE
 COMP. LAWRENCE-ALLISON & ASSOSCIATES:   COMPANY
 WELL. LAWRENCE "AX" #46-21:   WELL
 FLD .             NPR #3:   FIELD
 LOC .      S21 T39N R78W:   LOCATION
 CNTY.            NATRONA:   COUNTY
 STAT.            WYOMING:   STATE
 CTRY. UNITED STATES OF AMERICA:   COUNTRY
 SRVC.       SCHLUMBERGER:   SERVICE COMPANY
 DATE.        03-JUN-1982:   LOGDATE
 API .     49025108890000:   API NUMBER
~CURVE INFORMATION
#MNEM.UNIT       API CODE    CURVE DESCRIPTION
#----------   ------------   ------------------------------
 DEPT.F                  :   
 TEND.LBS    45 635 01 00:   TENSION FORM DENSITY LOG
 CALD.IN     45 280 60 00:   CALIPER FROM DENSITY LOG
 CORR.G/C3   45 356 01 00:   DENSITY CORRECTION
 RHOB.G/C3   45 350 01 00:   BULK DENSITY
 NPHI.DEC    42 890 03 00:   NEUTRON POROSITY SANDSTONE
 GRR .GAPI   07 310 01 00:   GAMMA RAY FROM RESISTIVITY
 SPR .MV     07 010 01 00:   SPONTANEOUS POTENTIAL
 SFL .OHMM   07 220 01 00:   SHALLOW FOCUSED LOG RESISTIVITY
 ILD .OHMM   07 120 46 00:   DEEP INDUCTION RESISTIVITY
 ILM .OHMM   07 120 44 00:   INDUCTION LOG MEDIUM RESISTIVITY
 TENR.LBS    07 635 01 00:   TENSION FROM RESISTIVITY
~PARAMETER INFORMATION
#MNEM.UNIT          VALUE    DESCRIPTION
#----------   ------------   ------------------------------
 EKB .F         5008.0000:   Kelly bushing
 EGL .F         4998.0000:   Ground level
 EDF .F         5007.0000:   Drilling floor
 TD  .F         3230.0000:   Total depth
 CLNT.            A2DTECH:   Client Code
 SL  . 1864' FSL & 2484' FWL:   Surface Location
 PD  .                 GL:   Permanent Datum
 EPD .F              4998:   Elevation Permanent Datum
 LMF .                 KB:   Log Measured From
 DMF .                 KB:   Drilling Measured From
 DAPD.F                10:   Feet Above Permanent Datum
 DATE.        03-JUN-1982:   Date Logged [DD-MMM-YYYY]
 DD  .F              3230:   Depth driller
 DL  .F              3200:   Depth logger
 BLI .F              3190:   Bottom log interval
 TLI .F               475:   Top log interval
 CS1 .IN            9.625:   Casing size
 CBD1.      9.625" @ 465':   Casing driller 1
 CBL1.F               475:   Casing logger 1
 BS1 .IN             8.75:   Bit size
 BSD1.F              3230:   Depth drilled with bit1
 DFT .   FORM WATER / AIR:   Type fluid in hole
 TCS .HRS            1530:   Time Circ. stopped
 TLAB.HRS            1900:   Time logger at bottom
 MRT .F               135:   Maximum recorded temp.
 LUN .               8035:   Logging unit number
 LUL .               CSPR:   Logging unit location
 ENGI.              PENNY:   Recorded By
 WITN.           JENNINGS:   Witnessed by
 ORIG.      2.5" 5" PRINT:   Origin of data
 UWI .     49025108890000:   Unique Well ID
 DICO. A2D TECHNOLOGIES, INC.:   Digitizing Company
~OTHER INFORMATION
~A   DEPT     TEND       CALD       CORR       RHOB       NPHI        GRR        SPR        SFL        ILD        ILM       TENR   
# ...
 1188.5000  1480.8668    10.0508     0.0712     2.4812  -999.2500   168.5781  -999.2500  -999.2500     7.4151     7.5051  1500.9147
 1189.0000  1479.3844    10.0515     0.0810     2.4902  -999.2500   162.7242  -999.2500  -999.2500     7.4146     7.5045  1500.6097
 1189.5000  1478.0751    10.0522     0.0781     2.4790  -999.2500   161.0425  -999.2500  -999.2500     7.5186     7.6096  1500.3048
 1190.0000  1476.8312    10.0529     0.0488     2.4492  -999.2500   160.3636  -999.2500  -999.2500     7.5181     7.6090  1499.9517
 1190.5000  1475.4565    10.0536     0.0233     2.4334  -999.2500   160.3688  -999.2500  -999.2500     7.6234     7.7154  1499.6952
 1191.0000  1474.1406    10.0838     0.0173     2.4469  -999.2500   161.7368  -999.2500  -999.2500     7.6229     7.7149  1499.3903
 1191.5000  1472.7954    10.1286     0.0212     2.4612  -999.2500   169.9229  -999.2500  -999.2500     7.7299     7.8230  1499.0853
 1192.0000  1486.1490    10.2174     0.0281     2.4808  -999.2500   177.2182  -999.2500  -999.2500     7.7293     7.8224  1498.7805
 1192.5000  1485.0524    10.2769     0.0409     2.4878  -999.2500   178.1134  -999.2500  -999.2500     7.7288     7.8219  1498.4757
 1193.0000  1483.5304    10.2776     0.0350     2.4754  -999.2500   172.0191  -999.2500  -999.2500     7.8372     7.9314  1498.1708
 1193.5000  1482.2212    10.2930     0.0245     2.4584  -999.2500   165.1016  -999.2500  -999.2500     7.8366     7.9308  1497.8657
 1194.0000  1481.0165    10.2937     0.0156     2.4562  -999.2500   164.0364  -999.2500  -999.2500     7.8361     7.9302  1497.5609
 1194.5000  1494.7681    10.2652     0.0352     2.4848  -999.2500   165.2179  -999.2500  -999.2500     7.8828     7.9773  1497.2561
 1195.0000  1493.2408    10.2217     0.0519     2.5156  -999.2500   169.0462  -999.2500  -999.2500     7.9454     8.0406  1496.9028
 1195.5000  1491.8223    10.1051     0.0704     2.5224  -999.2500   171.7778  -999.2500  -999.2500     7.9448     8.0400  1496.6464
 1196.0000  1496.1622    10.0763     0.0814     2.5164  -999.2500   173.6003  -999.2500  -999.2500     7.9443     8.0394  1496.3414
 1196.5000  1504.2607    10.0772     0.0695     2.4925  -999.2500   174.5138  -999.2500  -999.2500     7.9437     8.0389  1496.0317
 1197.0000  1502.6239    10.0801     0.0485     2.4813  -999.2500   174.0211  -999.2500  -999.2500     7.9432     8.0384  1495.7317
 1197.5000  1501.3149    10.0831     0.0365     2.4739  -999.2500   172.1137  -999.2500  -999.2500     7.9427     8.0378  1495.4269
 1198.0000  1500.0056    10.0860     0.0253     2.4687  -999.2500   170.5456  -999.2500  -999.2500     7.9421     8.0373  1495.1218
 1198.5000  1498.6963    10.0889     0.0193     2.4687  -999.2500   168.9152  -999.2500  -999.2500     7.9416     8.0367  1498.5427
 1199.0000  1497.3871    10.0918     0.0156     2.4688  -999.2500   170.1636  -999.2500  -999.2500     7.9410     8.0361  1519.5809
 1199.5000  1496.0778    10.0947     0.0135     2.4681  -999.2500   172.3256  -999.2500  -999.2500     7.8301     7.9241  1524.6951
 1200.0000  1482.3772    10.0927     0.0120     2.4606  -999.2500   173.1825  -999.2500  -999.2500     7.7207     7.8137  1524.3418
 1200.5000  1491.5356    10.1041     0.0099     2.4566  -999.2500   170.9141  -999.2500  -999.2500     7.7200     7.8130  1524.0515
 1201.0000  1500.6940    10.0912     0.0077     2.4495  -999.2500   167.7366  -999.2500  -999.2500     7.7195     7.8125  1523.7611
 1201.5000  1519.7308    10.0926     0.0055     2.4533  -999.2500   167.2864  -999.2500  -999.2500     7.8278     7.9219  1523.4708
 1202.0000  1533.0344    10.0793     0.0139     2.4585  -999.2500   165.8911  -999.2500  -999.2500     7.8273     7.9213  1492.6830
 1202.5000  1546.3716    10.0958     0.0230     2.4653  -999.2500   165.4769  -999.2500  -999.2500     7.8268     7.9208  1492.3781
 1203.0000  1543.4493    10.0972     0.0309     2.4714  -999.2500   165.0267  -999.2500  -999.2500     7.8262     7.9203  1492.0731
 1203.5000  1527.7998    10.1134     0.0337     2.4744  -999.2500   165.2092  -999.2500  -999.2500     7.8058     7.8996  1486.1803
 1204.0000  1511.5096    10.1589     0.0187     2.4535  -999.2500   166.3939  -999.2500  -999.2500     7.7164     7.8093  1460.9756
 1204.5000  1494.9177    10.1898     0.0203     2.4325  -999.2500   168.2236  -999.2500  -999.2500     7.6753     7.7679  1460.6708
 1205.0000  1493.0724    10.2353     0.0264     2.4401  -999.2500   169.1370  -999.2500  -999.2500     7.6080     7.6999  1460.3175
 1205.5000  1476.6815    10.2662     0.0287     2.4446  -999.2500   170.4998  -999.2500  -999.2500     7.5018     7.5926  1460.0271
 1206.0000  1474.9033    10.2826     0.0258     2.4477  -999.2500   172.5177  -999.2500  -999.2500     7.5012     7.5920  1459.7368
 1206.5000  1488.2402    10.2690     0.0243     2.4516  -999.2500   174.5356  -999.2500  -999.2500     7.3964     7.4862  1459.4464
 1207.0000  1501.5773    10.2413     0.0297     2.4718  -999.2500   176.5228  -999.2500  -999.2500     7.2931     7.3818  1459.1464
 1207.5000  1506.8518    10.2277     0.0380     2.4808  -999.2500   178.7397  -999.2500  -999.2500     7.2926     7.3813  1458.8414
 1208.0000  1513.3035    10.2295     0.0479     2.4808  -999.2500   180.5645  -999.2500  -999.2500     7.1908     7.2785  1458.5366
 1208.5000  1511.6592    10.2456     0.0585     2.4764  -999.2500   181.4801  -999.2500  -999.2500     7.1903     7.2780  1458.2317
 1209.0000  1507.5238    10.2618     0.0571     2.4659  -999.2500   181.5213  -999.2500  -999.2500     7.1898     7.2775  1457.9269
 1209.5000  1508.4714    10.2635     0.0473     2.4525  -999.2500   176.9264  -999.2500  -999.2500     7.2907     7.3794  1457.6219
 1210.0000  1506.4581    10.2355     0.0301     2.4450  -999.2500   173.6819  -999.2500  -999.2500     7.3363     7.4255  1457.2687
 1210.5000  1504.8474    10.2370     0.0392     2.4646  -999.2500   172.4153  -999.2500  -999.2500     7.4494     7.5397  1456.9783
 1211.0000  1518.5870    10.2233     0.0544     2.4804  -999.2500   172.5485  -999.2500  -999.2500     7.4960     7.5868  1487.1952
 1211.5000  1516.7416    10.2100     0.0635     2.4917  -999.2500   173.6703  -999.2500  -999.2500     7.6011     7.6929  1486.8854
 1212.0000  1499.8809    10.2265     0.0605     2.4932  -999.2500   174.4606  -999.2500  -999.2500     7.7077     7.8005  1486.5854
 1212.5000  1498.5054    10.2279     0.0508     2.4767  -999.2500   173.7690  -999.2500  -999.2500     7.7072     7.8000  1486.1348
 1213.0000  1496.7939    10.2441     0.0517     2.4745  -999.2500   172.9046  -999.2500  -999.2500     7.7067     7.7995  1483.9939
 1213.5000  1510.1643    10.2606     0.0615     2.4866  -999.2500   173.3668  -999.2500  -999.2500     7.6920     7.7847  1481.8529
 1214.0000  1508.5201    10.2914     0.0669     2.4934  -999.2500   175.1915  -999.2500  -999.2500     7.5985     7.6902  1479.7119
 1214.5000  1506.8760    10.3075     0.0700     2.4934  -999.2500   176.5617  -999.2500  -999.2500     7.4923     7.5830  1477.5709
 1215.0000  1494.9515    10.2939     0.0708     2.4830  -999.2500   177.4773  -999.2500  -999.2500     7.4918     7.5825  1475.4299
 1215.5000  1488.6396    10.2806     0.0648     2.4680  -999.2500   178.4258  -999.2500  -999.2500     7.3871     7.4768  1473.2889
 1216.0000  1486.9954    10.2676     0.0563     2.4576  -999.2500   178.8545  -999.2500  -999.2500     7.2839     7.3725  1471.1479
 1216.5000  1485.1165    10.2838     0.0341     2.4614  -999.2500   178.2939  -999.2500  -999.2500     7.2834     7.3720  1469.0071
 1217.0000  1483.5059    10.3003     0.0334     2.4637  -999.2500   176.7440  -999.2500  -999.2500     7.2829     7.3715  1466.8661
 1217.5000  1482.0627    10.3017     0.0343     2.4607  -999.2500   172.5225  -999.2500  -999.2500     7.2824     7.3710  1464.7251
 1218.0000  1465.3368    10.3178     0.0230     2.4600  -999.2500   167.9607  -999.2500  -999.2500     7.2819     7.3705  1465.4989
 1218.5000  1463.8267    10.3046     0.0186     2.4608  -999.2500   167.7985  -999.2500  -999.2500     7.2924     7.3812  1465.7885
