~VERSION INFORMATION
 VERS.                2.0:   CWLS LOG ASCII STANDARD - VERSION 2.0
 WRAP.                 NO:   ONE LINE PER DEPTH STEP
~WELL INFORMATION
#MNEM.UNIT      DATA TYPE    INFORMATION
#----------   ------------   ------------------------------
 STRT.F           41.0000:   START DEPTH
 STOP.F          925.0000:   STOP DEPTH
 STEP.F            0.5000:   STEP LENGTH
 NULL.          -999.2500:   NO VALUE
 COMP. LAWRENCE ALLISON & ASSOCIATION:   COMPANY
 WELL. LAWRENCE ALLISON #48-2:   WELL
 FLD .       N.P.R. NO. 3:   FIELD
 LOC .       S2 T38N R78W:   LOCATION
 CNTY.            NATRONA:   COUNTY
 STAT.            WYOMING:   STATE
 CTRY. UNITED STATES OF AMERICA:   COUNTRY
 SRVC.       SCHLUMBERGER:   SERVICE COMPANY
 DATE.        06-SEP-1982:   LOGDATE
 API .     49025109110000:   API NUMBER
~CURVE INFORMATION
#MNEM.UNIT       API CODE    CURVE DESCRIPTION
#----------   ------------   ------------------------------
 DEPT.F                  :   
 ILM .OHMM   07 120 44 00:   INDUCTION LOG MEDIUM RESISTIVITY
 ILD .OHMM   07 120 46 00:   DEEP INDUCTION RESISTIVITY
 CALD.IN     45 280 60 00:   CALIPER FROM DENSITY LOG
 GRD .GAPI   45 310 01 00:   GAMMA RAY FROM DENSITY LOG
 TEND.LBS    45 635 01 00:   TENSION FROM DENSITY LOG
 CORR.G/C3   45 356 01 00:   DENSITY CORRECTION
 RHOB.G/C3   45 350 01 00:   BULK DENSITY
 NPHI.DEC    42 890 03 00:   NEUTRON POROSITY SANDSTONE
~PARAMETER INFORMATION
#MNEM.UNIT          VALUE    DESCRIPTION
#----------   ------------   ------------------------------
 EKB .F         5192.0000:   Kelly bushing
 EGL .F         5182.0000:   Ground level
 TD  .F          920.0000:   Total depth
 CLNT.            A2DTECH:   Client Code
 DATE.         6-SEP-1982:   Date Logged [DD-MMM-YYYY]
 DD  .F               920:   Depth driller
 DL  .F               918:   Depth logger
 BLI .F               908:   Bottom log interval
 TLI .F                49:   Top log interval
 CBL1.IN               49:   Casing logger 1
 BSD1.F               920:   Depth drilled with bit1
 DFT .                AIR:   Type fluid in hole
 TCS .HRS            0730:   Time Circ. stopped
 TLAB.HRS            0900:   Time logger at bottom
 LUN .               8035:   Logging unit number
 LUL .               CSPR:   Logging unit location
 ENGI.              PENNY:   Recorded By
 WITN.           JENNINGS:   Witnessed by
 ORIG.           5" PRINT:   Origin of data
 UWI .     49025109110000:   Unique Well ID
 DICO. A2D TECHNOLOGIES, INC.:   Digitizing Company
 PD  .                 GL:   Permanent Datum
 EPD .               5180:   Elevation Permanent Datum
 LMF .                 KB:   Log Measured From
 DMF .                 KB:   Drilling Measured From
 DAPD.                 10:   Feet Above Permanent Datum
~OTHER INFORMATION
~A   DEPT      ILM        ILD       CALD         GRD      TEND       CORR       RHOB       NPHI   
# ...
  162.5000     5.8706     6.0958    12.9290   146.8402   506.9975     0.0502     2.3996  -999.2500
  163.0000     5.8741     6.0962    12.9302   143.3052   506.0505     0.0503     2.3980  -999.2500
  163.5000     5.8769     6.0966    12.9165   141.7672   505.2930     0.0519     2.4019  -999.2500
  164.0000     5.9222     6.1855    12.9179   142.6701   504.5354     0.0572     2.4105  -999.2500
  164.5000     6.0107     6.1859    12.9191   144.6824   503.7778     0.0643     2.4090  -999.2500
  165.0000     6.0570     6.1863    12.9203   148.0260   518.6895     0.0761     2.4051  -999.2500
  165.5000     5.8884     6.1423    12.9214   149.7462   517.7425     0.0925     2.4027  -999.2500
  166.0000     5.5625     5.6757    12.9226   152.4970   516.9849     0.1019     2.4078  -999.2500
  166.5000     5.7280     5.6742    12.9385   155.1750   516.2274     0.1011     2.4137  -999.2500
  167.0000     5.8137     5.9735    12.9397   152.0837   515.4697     0.0925     2.4121  -999.2500
  167.5000     5.8584     6.0131    12.9409   149.6531   514.7122     0.0650     2.4067  -999.2500
  168.0000     5.9035     6.0135    12.9420   150.5597   529.4344     0.0477     2.3973  -999.2500
  168.5000     5.9064     6.0140    12.9432   151.9064   528.4875     0.0328     2.3872  -999.2500
  169.0000     5.9518     6.0144    12.9443   151.2559   527.7299     0.0233     2.3825  -999.2500
  169.5000     5.9547     6.0148    12.9458   150.1514   526.9723     0.0210     2.3810  -999.2500
  170.0000     5.9576     6.0152    12.9469   148.6212   526.2148     0.0280     2.3833  -999.2500
  170.5000     5.7925     5.7971    12.9481   148.8622   525.4572     0.0423     2.3919  -999.2500
  171.0000     5.5910     5.5587    12.9345   147.3242   524.6996     0.0533     2.4020  -999.2500
  171.5000     5.4354     5.4404    12.9356   148.2357   523.9420     0.0609     2.4067  -999.2500
  172.0000     5.2841     5.2866    12.9368   153.1773   523.1844     0.0507     2.3933  -999.2500
  172.5000     5.2113     5.1741    12.9231   150.0000   522.4269     0.0374     2.3770  -999.2500
  173.0000     5.0663     5.1005    12.9391   149.1617   521.6693     0.0389     2.3841  -999.2500
  173.5000     4.9607     5.0644    12.9403   145.6266   520.8978     0.0483     2.3974  -999.2500
  174.0000     4.9631     5.0285    12.9414   138.4938   483.6952     0.0546     2.4013  -999.2500
  174.5000     4.9662     5.0289    12.9426   137.0033   467.8593     0.0491     2.3912  -999.2500
  175.0000     4.9686     5.0293    12.9289   142.8997   483.0301     0.0506     2.3873  -999.2500
  175.5000     4.9710     5.0296    12.9304   150.1479   482.5550     0.0569     2.3928  -999.2500
  176.0000     4.9734     5.0300    12.9316   150.8078   482.1750     0.0624     2.4052  -999.2500
  176.5000     4.9759     5.0666    12.9327   152.3956   481.7949     0.0647     2.4131  -999.2500
  177.0000     5.0141     5.0670    12.9339   155.0087   481.4149     0.0639     2.4138  -999.2500
  177.5000     5.0166     5.0685    12.9498   161.0022   481.0348     0.0615     2.3990  -999.2500
  178.0000     5.0553     5.1411    12.9510   162.1854   480.6547     0.0574     2.3850  -999.2500
  178.5000     5.0947     5.1415    12.9669   158.6542   480.2747     0.0470     2.3748  -999.2500
  179.0000     5.0972     5.1419    12.9681   157.7781   479.8946     0.0332     2.3693  -999.2500
  179.5000     5.0997     5.1793    12.9840   158.6847   479.5145     0.0324     2.3741  -999.2500
  180.0000     5.1022     5.1797    12.9852   160.9189   494.5904     0.0332     2.3881  -999.2500
  180.5000     5.1046     5.2174    12.9864   161.8218   494.2040     0.0355     2.3999  -999.2500
  181.0000     5.1071     5.2178    12.9875   159.1743   493.8176     0.0394     2.4038  -999.2500
  181.5000     5.1835     5.2181    12.9890   149.4276   477.8993     0.0434     2.4038  -999.2500
  182.0000     5.1900     5.2186    12.9901   145.8925   477.5192     0.0449     2.4014  -999.2500
  182.5000     5.3022     5.2566    12.9913   148.5705   477.1391     0.0402     2.3975  -999.2500
  183.0000     5.3430     5.2949    12.9925   156.3533   492.3100     0.0260     2.3851  -999.2500
  183.5000     5.3841     5.3720    12.9936   157.6999   476.4740     0.0174     2.3710  -999.2500
  184.0000     5.4646     5.4111    12.9948   150.3927   506.9108     0.0205     2.3685  -999.2500
  184.5000     5.4673     5.4505    12.9959   149.4807   522.0817     0.0338     2.3851  -999.2500
  185.0000     5.4699     5.5299    12.9971   149.9795   521.6066     0.0464     2.3992  -999.2500
  185.5000     5.5120     5.5703    12.9982   151.3248   521.2266     0.0629     2.4117  -999.2500
  186.0000     5.6349     5.6513    12.9994   150.6657   520.8466     0.0568     2.4046  -999.2500
  186.5000     5.7197     5.7336    13.0006   146.0325   520.4665     0.0487     2.3992  -999.2500
  187.0000     5.8053     6.0300    12.9869   145.8220   504.6304     0.0526     2.4062  -999.2500
  187.5000     5.8921     6.1178    12.9884   146.9506   519.7064     0.0620     2.4148  -999.2500
  188.0000     5.9802     6.2068    12.9895   149.4066   519.3199     0.0667     2.4210  -999.2500
  188.5000     6.0262     6.2520    12.9907   150.7545   518.9335     0.0659     2.4218  -999.2500
  189.0000     6.0726     6.2976    12.9919   150.3260   518.4711     0.0612     2.4210  -999.2500
  189.5000     6.1193     6.3434    12.9930   149.6743   518.0911     0.0533     2.4133  -999.2500
  190.0000     6.0728     6.1200    12.9942   146.1393   517.7110     0.0470     2.3984  -999.2500
  190.5000     5.8678     5.7783    12.9953   141.7146   532.8819     0.0486     2.4000  -999.2500
  191.0000     5.4640     5.4951    12.9816   140.4006   532.4068     0.0627     2.4047  -999.2500
  191.5000     4.9086     5.0776    12.9681   142.7943   532.0267     0.0642     2.3999  -999.2500
  192.0000     4.5056     4.8635    12.9544   152.1940   531.6467     0.0627     2.3781  -999.2500
  192.5000     4.4750     4.6921    12.9556   155.5377   531.2666     0.0540     2.3563  -999.2500
  193.0000     4.5425     4.5910    12.9396   161.9879   530.8865     0.0508     2.3540  -999.2500
  193.5000     4.6443     4.6258    12.9283   160.8937   530.5065     0.0493     2.3455  -999.2500
  194.0000     4.8158     4.7270    12.9298   156.4711   530.1264     0.0296     2.3291  -999.2500
  194.5000     5.1035     4.8653    12.9457   152.0485   529.7463     0.0194     2.3260  -999.2500
  195.0000     5.3307     5.0437    12.9318   149.8448   529.3663     0.0414     2.3509  -999.2500
  195.5000     5.5680     5.3427    12.9333   148.7519   528.9799     0.0939     2.4102  -999.2500
  196.0000     5.8159     5.7828    12.9344   146.9920   528.5934     0.1324     2.4329  -999.2500
  196.5000     6.0749     6.0399    12.9356   142.5694   528.1311     0.1418     2.4368  -999.2500
  197.0000     6.2549     6.2220    12.9515   138.8125   527.7510     0.1135     2.4251  -999.2500
  197.5000     6.4418     6.3967    12.9527   139.2715   527.3710     0.0735     2.4017  -999.2500
  198.0000     6.5913     6.5838    12.9538   141.0973   526.9909     0.0515     2.3923  -999.2500
  198.5000     6.7310     6.6796    12.9698   143.1296   526.6108     0.0475     2.4004  -999.2500
  199.0000     6.8809     6.7283    12.9710   144.6466   526.2308     0.0601     2.4115  -999.2500
  199.5000     7.0342     6.9251    12.9724   144.8837   525.8507     0.0624     2.4228  -999.2500
  200.0000     7.0376     7.0766    12.9586   145.8790   525.3768     0.0585     2.4243  -999.2500
  200.5000     7.1475     7.1796    12.9592   146.3505   493.7115     0.0457     2.4080  -999.2500
  201.0000     7.2990     7.1801    12.9598   150.2583   492.9582     0.0379     2.3994  -999.2500
  201.5000     7.2965     7.1806    12.9604   152.5619   476.7489     0.0364     2.4002  -999.2500
  202.0000     7.0971     7.0786    12.9610   154.4074   460.7280     0.0317     2.3970  -999.2500
  202.5000     6.9031     6.9281    12.9615   155.1079   459.7863     0.0246     2.3931  -999.2500
