~VERSION INFORMATION
 VERS.                2.0:   CWLS LOG ASCII STANDARD - VERSION 2.0
 WRAP.                 NO:   ONE LINE PER DEPTH STEP
~WELL INFORMATION
#MNEM.UNIT      DATA TYPE    INFORMATION
#----------   ------------   ------------------------------
 STRT.F           16.0000:   START DEPTH
 STOP.F         2860.0000:   STOP DEPTH
 STEP.F            0.5000:   STEP LENGTH
 NULL.          -999.2500:   NO VALUE
 COMP.    FENIX & SCISSON:   COMPANY
 WELL. FENIX NPR 3 "AX" #22-21:   WELL
 FLD .  TEAPOT DOME - NPR:   FIELD
 LOC .      S21 T39N R78W:   LOCATION
 CNTY.            NATRONA:   COUNTY
 STAT.            WYOMING:   STATE
 CTRY. UNITED STATES OF AMERICA:   COUNTRY
 SRVC.      DRESSER ATLAS:   SERVICE COMPANY
 DATE.        07-AUG-1978:   LOGDATE
 API .     49025106790000:   API NUMBER
~CURVE INFORMATION
#MNEM.UNIT       API CODE    CURVE DESCRIPTION
#----------   ------------   ------------------------------
 DEPT.F                  :   
 CALD.IN     45 280 60 00:   CALIPER FROM DENSITY LOG
 GRD .GAPI   45 310 01 00:   GAMMA RAY FROM DENSITY LOG
 CORR.G/C3   45 356 01 00:   DENSITY CORRECTION
 RHOB.G/C3   45 350 01 00:   BULK DENSITY
 SPR .MV     05 010 01 00:   SPONTANEOUS POTENTIAL
 ILD .OHMM   05 120 46 00:   DEEP INDUCTION RESISTIVITY
 SN  .OHMM   05 040 00 00:   SHORT NORMAL
~PARAMETER INFORMATION
#MNEM.UNIT          VALUE    DESCRIPTION
#----------   ------------   ------------------------------
 EKB .F         4989.0000:   Kelly bushing
 EGL .F         4979.0000:   Ground level
 EDF .F            0.0000:   Drilling floor
 TD  .F         2847.0000:   Total depth
 DATE.        07-AUG-1978:   Date logged
 CLNT.            A2DTECH:   Client Code
 SL  . 880' FNL & 660' FWL:   Surface Location
 PD  .                 GL:   Permanent Datum
 DD  .F              2845:   Depth driller
 DL  .F              2847:   Depth logger
 BLI .F              2841:   Bottom log interval
 CS1 .IN            8.625:   Casing size
 CBD1.      8.625" @ 240':   Casing driller 1
 CBL1.F               240:   Casing logger 1
 BS1 .IN            7.875:   Bit size
 DFT .                KCL:   Type fluid in hole
 DFD .                9.2:   Density
 DFV .                 31:   Viscosity
 DFPH.               10.5:   pH
 MSS .           FLOWLINE:   Source of sample
 RMS .OHMM           1.25:   Rm
 MST .F                74:   Rm Meas. temp.
 RMF .OHMM            1.8:   Rmf
 MFST.F                76:   Rmf Meas. temp.
 RMC .OHMM              3:   Rmc
 MCST.F                78:   Rmc Meas. temp.
 MFSS.               MEAS:   Source Rmf.
 TCS .HRS               4:   Time Circ. stopped
 LUN .               3006:   Logging unit number
 LUL .               CASP:   Logging unit location
 ENGI.             MILLER:   Recorded By
 WITN.           MCGINLEY:   Witnessed by
 ORIG.           5" PRINT:   Origin of data
 UWI .     49025106790000:   Unique Well ID
 DICO. A2D TECHNOLOGIES, INC.:   Digitizing Company
 DAPD.                 10:   Feet Above Permanent Datum
 BSD1.F              2845:   Depth drilled with bit1
 EPD .F              4970:   Elevation Permanent Datum
 LMF .                 KB:   Log Measured From
 DMF .                 KB:   Drilling Measured From
 TLI .                240:   Top log interval
~OTHER INFORMATION
~A   DEPT     CALD         GRD      CORR       RHOB        SPR        ILD         SN   
# ...
 1472.0000     8.4000   101.7840     0.0290     2.5450    -7.3120     6.1540     9.1080
 1472.5000     8.4690   103.5760     0.0290     2.5430    -7.3120     6.1540     9.1040
 1473.0000     8.5330   106.1180     0.0290     2.5400    -7.3120     6.1540     9.1000
 1473.5000     8.5340   106.9220     0.0290     2.5380    -7.3120     6.1540     9.0970
 1474.0000     8.4950   106.8890     0.0290     2.5350    -7.3120     6.1540     9.0930
 1474.5000     8.4650   106.3850     0.0280     2.5330    -7.3120     6.1540     9.0890
 1475.0000     8.4360   105.7450     0.0300     2.5300    -7.3120     6.1540     9.0850
 1475.5000     8.4470   103.5360     0.0350     2.5280    -7.3110     6.1540     9.0820
 1476.0000     8.4600   101.2690     0.0410     2.5260    -7.3150     6.1540     9.0780
 1476.5000     8.4730   100.6280     0.0480     2.5230    -7.2860     6.1540     9.0740
 1477.0000     8.4900   100.3370     0.0590     2.5210    -7.2330     6.1540     9.0700
 1477.5000     8.4940   101.2680     0.0770     2.5180    -7.1850     6.1540     9.0670
 1478.0000     8.6540   102.1450     0.0750     2.5490    -7.1360     6.1540     9.0630
 1478.5000     9.4750   102.9950     0.0520     2.5580    -7.0860     6.1540     9.0590
 1479.0000     9.1970   103.8750     0.0300     2.5440    -7.0370     6.1540     9.0550
 1479.5000     8.4280   103.9460     0.0290     2.5340    -6.9880     6.1540     9.0520
 1480.0000     8.4140   103.7010     0.0280     2.5350    -6.9370     6.1540     9.0480
 1480.5000     8.4200   103.4970     0.0290     2.5350    -6.9150     6.1540     9.0450
 1481.0000     8.4430   103.3570     0.0290     2.5380    -6.9160     6.1530     9.0400
 1481.5000     8.4550   103.7750     0.0270     2.5360    -6.9220     6.1540     9.0370
 1482.0000     8.4710   104.9660     0.0240     2.5450    -6.8450     6.1520     9.0330
 1482.5000     8.4650   107.2530     0.0210     2.5450    -6.6260     6.2030     9.0770
 1483.0000     8.4570   109.3850     0.0180     2.5410    -6.4160     6.3330     9.1320
 1483.5000     8.4500   111.6040     0.0160     2.5390    -6.2010     6.4630     9.1890
 1484.0000     8.4430   114.1400     0.0160     2.5400    -5.9880     6.6190     9.2460
 1484.5000     8.4350   114.8710     0.0160     2.5450    -5.7730     6.5850     9.2990
 1485.0000     8.4360   113.5450     0.0150     2.5460    -5.5630     6.5430     9.3700
 1485.5000     8.4440   111.9520     0.0150     2.5470    -5.3430     6.5000     9.3660
 1486.0000     8.4510   110.3380     0.0150     2.5470    -5.1340     6.4480     9.3700
 1486.5000     8.4580   108.6530     0.0140     2.5460    -4.9640     6.3620     9.3670
 1487.0000     8.4650   107.1900     0.0140     2.5410    -5.1370     6.2750     9.3250
 1487.5000     8.4720   105.2730     0.0140     2.5400    -5.2980     6.1880     9.2840
 1488.0000     8.4750   104.1950     0.0130     2.5410    -5.4760     6.1540     9.2420
 1488.5000     8.4790   103.5790     0.0130     2.5400    -5.6440     6.1960     9.2000
 1489.0000     8.4830   103.1600     0.0130     2.5380    -5.8160     6.2320     9.1580
 1489.5000     8.4870   100.3690     0.0130     2.5360    -5.9850     6.2670     9.1160
 1490.0000     8.4900    99.2230     0.0130     2.5400    -6.1590     6.2530     9.0750
 1490.5000     8.4940   100.6520     0.0130     2.5530    -6.3250     6.2290     9.0340
 1491.0000     8.4980   101.3370     0.0130     2.5590    -6.5100     6.2060     9.0330
 1491.5000     8.5010   101.1340     0.0130     2.5540    -6.6040     6.1820     9.0320
 1492.0000     8.5050   100.8860     0.0130     2.5500    -6.7090     6.1540     9.0320
 1492.5000     8.5090   102.1000     0.0130     2.5470    -6.8000     6.1600     9.0320
 1493.0000     8.5110   105.0630     0.0130     2.5480    -6.9060     6.1660     9.0320
 1493.5000     8.4970   107.9280     0.0130     2.5490    -6.8510     6.1730     9.0320
 1494.0000     8.4860   110.7670     0.0130     2.5480    -6.7780     6.1810     9.0320
 1494.5000     8.4730   112.0110     0.0130     2.5450    -6.6990     6.1880     9.0320
 1495.0000     8.4610   109.5500     0.0130     2.5410    -6.6270     6.1950     9.0320
 1495.5000     8.4500   107.2610     0.0130     2.5380    -6.5510     6.2020     9.0320
 1496.0000     8.4370   104.9280     0.0130     2.5340    -6.5140     6.2090     9.0320
 1496.5000     8.4300   103.3450     0.0130     2.5300    -6.5970     6.2160     9.0320
 1497.0000     8.4090   102.2790     0.0130     2.5260    -6.7890     6.2230     9.0320
 1497.5000     8.3900   102.2690     0.0130     2.5260    -6.9700     6.2300     9.0320
 1498.0000     8.3720   102.3080     0.0130     2.5280    -7.1540     6.2370     9.0320
 1498.5000     8.3510   106.7020     0.0130     2.5370    -7.3400     6.2440     9.0330
 1499.0000     8.3790   112.2010     0.0130     2.5410    -7.5230     6.2510     9.0310
 1499.5000     8.4210   114.6650     0.0130     2.5430    -7.7030     6.2590     9.0500
 1500.0000     8.4670   113.2830     0.0130     2.5450    -7.8040     6.2670     9.0970
 1500.5000     8.4340   112.4250     0.0130     2.5470    -7.9050     6.2920     9.1430
 1501.0000     8.3810   111.4640     0.0120     2.5470    -7.9990     6.3240     9.1890
 1501.5000     8.3550   110.3940     0.0110     2.5470    -8.0960     6.3560     9.2350
 1502.0000     8.3740   110.2290     0.0110     2.5470    -8.1010     6.3880     9.2810
 1502.5000     8.3870   110.7200     0.0100     2.5470    -8.1030     6.4200     9.3270
 1503.0000     8.3920   111.1370     0.0090     2.5470    -8.1020     6.4520     9.3680
 1503.5000     8.3820   112.0490     0.0080     2.5470    -8.1030     6.5000     9.4360
 1504.0000     8.3740   113.1560     0.0080     2.5460    -8.1030     6.4950     9.4980
 1504.5000     8.3650   114.3290     0.0070     2.5420    -8.1030     6.4810     9.5590
 1505.0000     8.3560   114.5060     0.0060     2.5360    -8.1030     6.4680     9.6200
 1505.5000     8.3530   113.6570     0.0060     2.5310    -8.1020     6.4540     9.6820
 1506.0000     8.3530   113.9970     0.0050     2.5270    -8.1040     6.4410     9.7180
 1506.5000     8.3530   114.4180     0.0050     2.5360    -8.1050     6.4280     9.7020
 1507.0000     8.3530   114.7340     0.0060     2.5400    -8.1510     6.4150     9.6860
 1507.5000     8.3530   114.2620     0.0060     2.5390    -8.2090     6.4020     9.6710
 1508.0000     8.3530   112.2340     0.0060     2.5410    -8.2660     6.3890     9.6560
 1508.5000     8.3530   109.4800     0.0070     2.5390    -8.3240     6.3830     9.6400
 1509.0000     8.3530   109.7880     0.0070     2.5360    -8.3810     6.4250     9.6250
 1509.5000     8.3530   110.1380     0.0070     2.5320    -8.4390     6.4820     9.6100
 1510.0000     8.3530   111.0940     0.0080     2.5320    -8.5020     6.5350     9.5940
 1510.5000     8.3530   108.7370     0.0080     2.5330    -8.6420     6.5840     9.5790
 1511.0000     8.3530   108.8080     0.0080     2.5300    -8.7910     6.6340     9.5640
 1511.5000     8.3530   109.0030     0.0090     2.5300    -8.9440     6.6830     9.5480
 1512.0000     8.3530   108.5250     0.0090     2.5380    -9.0910     6.7420     9.5330
 1512.5000     8.3530   107.7270     0.0100     2.5480    -9.2430     6.7030     9.5180
 1513.0000     8.3530   108.6820     0.0100     2.5500    -9.2910     6.6540     9.5030
 1513.5000     8.3530   110.1080     0.0110     2.5510    -9.2870     6.6050     9.4870
 1514.0000     8.3530   110.7660     0.0110     2.5510    -9.2880     6.5570     9.4720
 1514.5000     8.3530   110.2730     0.0120     2.5500    -9.2890     6.5080     9.4560
 1515.0000     8.3530   109.8750     0.0130     2.5500    -9.2850     6.4590     9.4410
 1515.5000     8.3530   109.5360     0.0110     2.5490    -9.2960     6.4100     9.4260
 1516.0000     8.3530   108.9820     0.0080     2.5430    -9.2050     6.3620     9.4110
 1516.5000     8.3530   110.3910     0.0050     2.5360    -9.0420     6.3130     9.3950
 1517.0000     8.3530   112.0630     0.0010     2.5290    -8.8950     6.2670     9.3800
