~VERSION INFORMATION
 VERS.                2.0:   CWLS LOG ASCII STANDARD - VERSION 2.0
 WRAP.                 NO:   ONE LINE PER DEPTH STEP
~WELL INFORMATION
#MNEM.UNIT      DATA TYPE    INFORMATION
#----------   ------------   ------------------------------
 STRT.F          204.0000:   START DEPTH
 STOP.F         3024.0000:   STOP DEPTH
 STEP.F            0.5000:   STEP LENGTH
 NULL.          -999.2500:   NO VALUE
 COMP.    FENIX & SCISSON:   COMPANY
 WELL. FENIX NPR 3 "AX" #87-33:   WELL
 FLD .      NPR - WILDCAT:   FIELD
 LOC .      S33 T39N R78W:   LOCATION
 CNTY.            NATRONA:   COUNTY
 STAT.            WYOMING:   STATE
 CTRY. UNITED STATES OF AMERICA:   COUNTRY
 SRVC.              WELEX:   SERVICE COMPANY
 DATE.        20-JUN-1977:   LOGDATE
 API .     49025103840000:   API NUMBER
~CURVE INFORMATION
#MNEM.UNIT       API CODE    CURVE DESCRIPTION
#----------   ------------   ------------------------------
 DEPT.F                  :   
 SPR .MV     07 010 01 00:   SPONTANEOUS POTENTIAL
 ILD .OHMM   07 120 46 00:   DEEP INDUCTION RESISTIVITY
 ILM .OHMM   07 120 44 00:   INDUCTION LOG MEDIUM RESISTIVITY
 SGRD.OHMM   07 220 05 00:   SHALLOW SHORT GUARD RESISTIVITY
 CALD.IN     45 280 60 00:   CALIPER FROM DENSITY LOG
 GRD .GAPI   45 310 01 00:   GAMMA RAY FROM DENSITY LOG
 RHOB.G/C3   45 350 01 00:   BULK DENSITY
 CORR.G/C3   45 356 01 00:   DENSITY CORRECTION
~PARAMETER INFORMATION
#MNEM.UNIT          VALUE    DESCRIPTION
#----------   ------------   ------------------------------
 EKB .F         5170.0000:   Kelly bushing
 EGL .F         5160.0000:   Ground level
 TD  .F         3040.0000:   Total depth
 DATE.        20-JUN-1977:   Date logged
 CLNT.            A2DTECH:   Client Code
 SL  . 800' FSL & 100' FEL:   Surface Location
 PD  .                 GL:   Permanent Datum
 EPD .F              5160:   Elevation Permanent Datum
 LMF .                 KB:   Log Measured From
 DMF .                 KB:   Drilling Measured From
 DD  .F              3040:   Depth driller
 DL  .F              3027:   Depth logger
 BLI .F              3025:   Bottom log interval
 TLI .F               200:   Top log interval
 CS1 .IN            8.625:   Casing size
 CBD1.      8.625" @ 230':   Casing driller 1
 CBL1.F               210:   Casing logger 1
 BS1 .IN            7.875:   Bit size
 BSD1.F              3040:   Depth drilled with bit1
 DFT .                KCL:   Type fluid in hole
 DFD .                9.2:   Density
 DFV .                 38:   Viscosity
 DFPH.                7.5:   pH
 DFL .                5.4:   Fluid loss
 MSS .           FLOWLINE:   Source of sample
 RMS .OHMM            .60:   Rm
 MST .F                92:   Rm Meas. temp.
 RMF .OHMM            .29:   Rmf
 MFST.F                92:   Rmf Meas. temp.
 RMC .OHMM            .76:   Rmc
 MCST.F                92:   Rmc Meas. temp.
 MFSS.               MEAS:   Source Rmf.
 MCSS.               MEAS:   Source Rmc.
 RMB .OHMM            .49:   Rm. at BHT
 BHT .F               112:   BHT.
 TCS .HRS               2:   Time Circ. stopped
 MRT .F               112:   Maximum recorded temp.
 LUN .               8611:   Logging unit number
 LUL .           GILLETTE:   Logging unit location
 ENGI.            C. DOAK:   Recorded By
 WITN.      B. HARRINGTON:   Witnessed by
 ORIG.     2.5", 5" PRINT:   Origin of data
 UWI .     49025103840000:   Unique Well ID
 DICO. A2D TECHNOLOGIES, INC.:   Digitizing Company
~OTHER INFORMATION
~A   DEPT      SPR        ILD        ILM       SGRD         CALD       GRD        RHOB      CORR  
# ...
 1500.0000   -61.7600     6.9510     7.6880     8.0980    10.0660   100.4060     2.4890     0.0030
 1500.5000   -61.7690     6.9800     7.6670     7.9640    10.0650    98.6680     2.4890     0.0040
 1501.0000   -61.7790     7.0090     7.6460     7.8050    10.0640    99.2280     2.5010     0.0050
 1501.5000   -61.7880     7.0380     7.6230     7.7350    10.0630   100.4610     2.5090     0.0070
 1502.0000   -61.7970     7.0670     7.6000     7.6480    10.0610   101.7230     2.5160     0.0080
 1502.5000   -61.8070     7.0950     7.5830     7.5280    10.0610   101.8080     2.5200     0.0100
 1503.0000   -61.8160     7.1300     7.5580     7.5820    10.0610   100.8950     2.5260     0.0120
 1503.5000   -61.8250     7.1590     7.5280     7.8220    10.0610    99.6660     2.5320     0.0130
 1504.0000   -61.8350     7.1950     7.7290     8.0630    10.0610    98.4270     2.5400     0.0130
 1504.5000   -61.8440     7.2310     8.0480     8.3040    10.0610    97.7700     2.5450     0.0140
 1505.0000   -61.8530     7.2660     8.3660     8.6480    10.0610    97.5390     2.5450     0.0140
 1505.5000   -61.8630     7.3020     8.5440     9.2520    10.0610    97.3160     2.5400     0.0140
 1506.0000   -61.8720     7.3380     8.5130     9.2430    10.0610    97.0950     2.5360     0.0130
 1506.5000   -61.8810     7.3730     8.3870     8.7960    10.0610    96.8710     2.5320     0.0120
 1507.0000   -61.8900     7.4090     8.2610     8.3480    10.0610    96.6590     2.5280     0.0100
 1507.5000   -61.9000     7.4450     8.1360     7.9010    10.0610    97.2980     2.5250     0.0090
 1508.0000   -61.9090     7.4810     8.0630     7.3930    10.0610    98.0130     2.5210     0.0060
 1508.5000   -61.9210     7.5170     8.0190     8.3390    10.0610    98.7280     2.5150     0.0030
 1509.0000   -61.9360     7.5290     7.9740     8.9750    10.0610    99.4410     2.5090     0.0000
 1509.5000   -61.9500     7.5280     7.9290     9.3530    10.0610   100.1880     2.5030    -0.0040
 1510.0000   -61.9650     7.5280     7.8840     8.6730    10.0610   101.3140     2.4980    -0.0070
 1510.5000   -61.9790     7.5290     7.8400     8.0930    10.0610   102.5000     2.4930    -0.0100
 1511.0000   -61.9940     7.5280     7.7950     8.4080    10.0610   103.6890     2.4890    -0.0140
 1511.5000   -62.0090     7.4940     7.7500     8.7000    10.0610   104.8840     2.4850    -0.0140
 1512.0000   -62.0230     7.4240     7.7060     9.0210    10.0610   106.0900     2.4860    -0.0130
 1512.5000   -62.0380     7.3550     7.6650     8.9200    10.0610   106.6700     2.4900    -0.0120
 1513.0000   -62.0530     7.2850     7.6540     8.5970    10.0610   106.9190     2.4950    -0.0080
 1513.5000   -62.0670     7.2160     7.6430     8.2220    10.0610   106.9020     2.5050    -0.0050
 1514.0000   -62.0820     7.1470     7.6330     7.6650    10.0610   106.2000     2.5130    -0.0020
 1514.5000   -62.0960     7.0770     7.6220     7.7150    10.0610   105.4440     2.5140     0.0020
 1515.0000   -62.1110     7.0020     7.6120     7.8130    10.0610   104.6880     2.5180     0.0050
 1515.5000   -62.1260     6.9720     7.6010     7.9110    10.0610   103.9310     2.5160     0.0080
 1516.0000   -62.1400     6.9390     7.5910     8.0080    10.0610   103.3780     2.5190     0.0100
 1516.5000   -62.1550     6.9060     7.5810     8.0930    10.0610   102.8820     2.5230     0.0120
 1517.0000   -62.1700     6.8730     7.5700     7.9580    10.0610   102.3870     2.5280     0.0140
 1517.5000   -62.1840     6.8400     7.5600     7.8390    10.0610   101.9010     2.5320     0.0160
 1518.0000   -62.1990     6.8080     7.5490     7.6650    10.0610   101.2150     2.5350     0.0140
 1518.5000   -62.2140     6.7750     7.5390     7.8310    10.0610   100.4870     2.5330     0.0130
 1519.0000   -62.2280     6.7430     7.5280     8.1350    10.0610    99.7540     2.5260     0.0110
 1519.5000   -62.2430     6.7150     7.4870     8.3910    10.0600    99.0340     2.5140     0.0080
 1520.0000   -62.2570     6.6860     7.4450     8.2880    10.0590    98.9780     2.5040     0.0050
 1520.5000   -62.2730     6.6570     7.4030     8.0000    10.0580    99.9630     2.4960     0.0010
 1521.0000   -62.2860     6.6290     7.2690     7.7120    10.0570   101.1670     2.4880    -0.0020
 1521.5000   -62.3000     6.6000     7.1070     7.4250    10.0560   102.3700     2.4830    -0.0010
 1522.0000   -62.2300     6.5710     6.8770     7.1300    10.0540   103.3910     2.4850    -0.0010
 1522.5000   -62.1310     6.5440     6.9300     6.9230    10.0530   103.3540     2.4900     0.0000
 1523.0000   -62.0320     6.5150     7.0230     7.1440    10.0520   102.8090     2.4940     0.0000
 1523.5000   -61.9350     6.5480     7.1150     7.4860    10.0510   101.3740     2.5000     0.0000
 1524.0000   -61.8370     6.5810     7.2080     7.8290    10.0500    99.9490     2.5060     0.0000
 1524.5000   -61.7370     6.6140     7.3000     8.2410    10.0490    98.5300     2.5040    -0.0010
 1525.0000   -61.6440     6.6470     7.3930     8.2410    10.0470    97.1190     2.4950    -0.0020
 1525.5000   -61.5320     6.6800     7.5080     7.6250    10.0460    96.0560     2.4950    -0.0030
 1526.0000   -61.5240     6.7130     7.6240     7.2600    10.0450    95.5430     2.5060    -0.0030
 1526.5000   -61.5220     6.7530     7.7400     8.5440    10.0440    95.8480     2.5180    -0.0020
 1527.0000   -61.5240     6.8280     7.8550     8.7000    10.0430    95.9420     2.5310    -0.0010
 1527.5000   -61.5230     6.9190     7.9710     8.0930    10.0420    94.3400     2.5360     0.0000
 1528.0000   -61.5230     7.0110     8.0860     8.1510    10.0420    92.9570     2.5310    -0.0010
 1528.5000   -61.5230     7.1020     8.2020     8.2900    10.0420    92.5570     2.5230    -0.0040
 1529.0000   -61.5230     7.1940     8.3180     8.4290    10.0420    92.4600     2.5160    -0.0070
 1529.5000   -61.5230     7.2860     8.4330     8.5670    10.0420    92.8590     2.5110    -0.0050
 1530.0000   -61.5230     7.3770     8.5440     8.7000    10.0420    93.8110     2.5110    -0.0010
 1530.5000   -61.5230     7.4690     8.6040     8.8760    10.0420    95.5950     2.5200     0.0000
 1531.0000   -61.5230     7.5600     8.6610     9.1490    10.0420    96.4180     2.5240     0.0000
 1531.5000   -61.5230     7.6650     8.7180     9.5790    10.0420    96.6200     2.5260     0.0000
 1532.0000   -61.5230     7.6800     8.7740    10.4260    10.0420    95.8160     2.5210    -0.0010
 1532.5000   -61.5230     7.6980     8.8310     9.1860    10.0420    95.0000     2.5180    -0.0030
 1533.0000   -61.5230     7.7150     8.8880     9.1950    10.0420    94.1890     2.5180    -0.0050
 1533.5000   -61.5230     7.7330     8.9450     9.2150    10.0420    93.3740     2.5250    -0.0050
 1534.0000   -61.5230     7.7510     9.0210     9.2350    10.0420    92.8920     2.5340    -0.0040
 1534.5000   -61.5230     7.7680     8.9990     9.2550    10.0420    92.5860     2.5290    -0.0030
 1535.0000   -61.5230     7.7860     8.9670     9.2750    10.0420    92.2860     2.5220    -0.0020
 1535.5000   -61.5230     7.8050     8.9350     9.2950    10.0420    91.9180     2.5120    -0.0010
 1536.0000   -61.5240     7.7910     8.9030     9.3150    10.0420    91.5480     2.5040     0.0000
 1536.5000   -61.5190     7.7600     8.8710     9.3350    10.0420    91.6780     2.5100     0.0030
 1537.0000   -61.5050     7.7300     8.8380     9.3530    10.0420    91.9600     2.5190     0.0060
 1537.5000   -61.4910     7.7000     8.8060     9.2770    10.0420    93.7590     2.5210     0.0090
 1538.0000   -61.4770     7.6690     8.7740     9.2080    10.0420    95.4170     2.5250     0.0100
 1538.5000   -61.4620     7.6390     8.7420     9.1380    10.0420    95.3130     2.5310     0.0100
 1539.0000   -61.4480     7.6090     8.7090     9.0690    10.0420    95.1580     2.5290     0.0100
 1539.5000   -61.4340     7.5770     8.6870     8.9380    10.0420    95.1100     2.5220     0.0050
 1540.0000   -61.4200     7.5290     8.6700     8.6750    10.0420    96.4350     2.5150     0.0000
