~VERSION INFORMATION
 VERS.                2.0:   CWLS LOG ASCII STANDARD - VERSION 2.0
 WRAP.                 NO:   ONE LINE PER DEPTH STEP
~WELL INFORMATION
#MNEM.UNIT      DATA TYPE    INFORMATION
#----------   ------------   ------------------------------
 STRT.F           50.0000:   START DEPTH
 STOP.F         3270.0000:   STOP DEPTH
 STEP.F            0.5000:   STEP LENGTH
 NULL.          -999.2500:   NO VALUE
 COMP.   LAWRENCE ALLISON:   COMPANY
 WELL. LAWRENCE NPR 3 "AX" #12-11:   WELL
 FLD .                NPR:   FIELD
 LOC .      S11 T38N R78W:   LOCATION
 CNTY.            NATRONA:   COUNTY
 STAT.            WYOMING:   STATE
 CTRY. UNITED STATES OF AMERICA:   COUNTRY
 SRVC.      DRESSER ATLAS:   SERVICE COMPANY
 DATE.        18-JUL-1985:   LOGDATE
 API .     49025110460000:   API NUMBER
~CURVE INFORMATION
#MNEM.UNIT       API CODE    CURVE DESCRIPTION
#----------   ------------   ------------------------------
 DEPT.F                  :   
 TEND.LBS    45 635 01 00:   TENSION FROM DENSITY LOG
 RHOB.G/C3   45 350 01 00:   BULK DENSITY
 CORR.G/C3   45 356 01 00:   DENSITY CORRECTION
 NPHI.DEC    42 890 03 00:   NEUTRON POROSITY SANDSTONE
 TENR.LBS    07 635 01 00:   TENSION
 GRR .GAPI   07 310 01 00:   GAMMA RAY FROM RESISTIVITY
 RFOC.OHMM   07 220 01 00:   RESISTIVITY FOCUSED LOG RES.
 RILD.OHMM   07 120 46 00:   INDUCTION LOG DEEP RESISTIVITY
 RILM.OHMM   07 120 44 00:   INDUCTION LOG MEDIUM RESISTIVITY
 SN  .OHMM   01 040 00 00:   SHORT NORMAL
 ILD .OHMM   07 120 46 00:   INDUCTION LOG DEEP RESISTIVITY
 TENS.LBS    60 635 01 00:   TENSION FROM SONIC LOG
 DT  .US/F   60 520 00 00:   DELTA TIME
 SPR .MV     07 010 01 00:   SPONTANEOUS POTENTIAL
~PARAMETER INFORMATION
#MNEM.UNIT          VALUE    DESCRIPTION
#----------   ------------   ------------------------------
 EKB .F         5152.0000:   Kelly bushing
 EGL .F         5140.0000:   Ground level
 EDF .F            0.0000:   Drilling floor
 TD  .F         3271.0000:   Total depth
 DATE.        18-JUL-1985:   Date logged
 CLNT.            A2DTECH:   Client Code
 SL  . 1050' FNL & 150' FWL:   Surface Location
 PD  .                 GL:   Permanent Datum
 EPD .F              5140:   Elevation Permanent Datum
 LMF .                 KB:   Log Measured From
 DMF .                 KB:   Drilling Measured From
 DAPD.F                12:   Feet Above Permanent Datum
 DD  .F              3271:   Depth driller
 DL  .F              3262:   Depth logger
 BLI .F              3259:   Bottom log interval
 CS1 .IN            8.625:   Casing size
 CBD1.      8.625" @ 560':   Casing driller 1
 CBL1.F               560:   Casing logger 1
 BS1 .IN            7.875:   Bit size
 BSD1.F              3271:   Depth drilled with bit1
 DFT .            GEL/KCL:   Type fluid in hole
 DFD .                8.8:   Density
 DFV .                 40:   Viscosity
 DFPH.                  8:   pH
 DFL .                  8:   Fluid loss
 MSS .           MUD/TANK:   Source of sample
 RMS .OHMM            .31:   Rm
 MST .F                82:   Rm Meas. temp.
 RMF .OHMM            .25:   Rmf
 MFST.F                82:   Rmf Meas. temp.
 RMC .OHMM            .39:   Rmc
 MCST.F                82:   Rmc Meas. temp.
 MFSS.               MEAS:   Source Rmf.
 MCSS.               CALC:   Source Rmc.
 RMB .OHMM           .198:   Rm. at BHT
 BHT .F               128:   BHT.
 TCS .HRS               3:   Time Circ. stopped
 MRT .F               128:   Maximum recorded temp.
 LUN .            HL-6274:   Logging unit number
 LUL .           GILLETTE:   Logging unit location
 ENGI.             RAUTIO:   Recorded By
 WITN.             STRONG:   Witnessed by
 ORIG.           5" PRINT:   Origin of data
 UWI .     49025110460000:   Unique Well ID
 DICO. A2D TECHNOLOGIES, INC.:   Digitizing Company
~OTHER INFORMATION
~A   DEPT     TEND       RHOB       CORR       NPHI       TENR        GRR       RFOC       RILD       RILM           SN        ILD     TENS         DT         SPR  
# ...
 2892.0000   -65.2840     2.5400     0.0200     0.2530   -41.0570   140.1500     3.8750     3.1460     3.8240  -999.2500  -999.2500   -65.7370    94.7180    66.9970
 2892.5000   -63.7000     2.5600     0.0170     0.2530   -40.6320   122.5960     4.6100     3.5820     4.2020  -999.2500  -999.2500   -65.7370    89.6490    66.6120
 2893.0000   -62.1150     2.5720     0.0120     0.2500   -40.2080   116.9690     5.2010     4.0180     4.5530  -999.2500  -999.2500   -65.7370    84.5810    66.2310
 2893.5000   -60.5310     2.5690     0.0070     0.2410   -39.7830   112.1470     5.6300     4.4540     4.8320  -999.2500  -999.2500   -65.7370    82.0980    65.8470
 2894.0000   -58.9460     2.5640     0.0050     0.2270   -39.3580   110.9500     6.0060     4.8900     5.1110  -999.2500  -999.2500   -65.7370    80.3880    65.4580
 2894.5000   -57.3620     2.5600     0.0120     0.2230   -38.9330   109.8620     5.9960     5.3260     5.3900  -999.2500  -999.2500   -65.7370    80.0900    65.0130
 2895.0000   -55.7770     2.5550     0.0190     0.2220   -38.5090   107.7480     5.9760     5.4000     5.5600  -999.2500  -999.2500   -65.2890    80.0900    64.9600
 2895.5000   -54.1930     2.5540     0.0230     0.2300   -38.0840   107.8790     5.9560     5.5030     5.6660  -999.2500  -999.2500   -64.8360    80.4250    64.5540
 2896.0000   -52.6080     2.5540     0.0240     0.2350   -37.6590   112.1620     5.9360     5.6060     5.7730  -999.2500  -999.2500   -64.3830    80.3910    64.1470
 2896.5000   -51.0240     2.5540     0.0200     0.2320   -37.2340   115.3910     5.9150     5.7080     5.8790  -999.2500  -999.2500   -63.9310    80.2710    63.7420
 2897.0000   -49.4390     2.5540     0.0210     0.2270   -36.8100   116.9650     5.8970     5.8110     5.9860  -999.2500  -999.2500   -63.4780    80.1510    63.3380
 2897.5000   -47.8550     2.5550     0.0260     0.2210   -36.3850   114.1990     6.0060     5.8680     6.0720  -999.2500  -999.2500   -63.0250    80.0320    62.9330
 2898.0000   -46.2700     2.5480     0.0430     0.2170   -35.9600   110.6680     6.1070     5.9040     6.1100  -999.2500  -999.2500   -62.5730    79.7930    62.5120
 2898.5000   -44.6860     2.5400     0.0470     0.2160   -35.5350   103.3480     6.2950     5.9400     6.1470  -999.2500  -999.2500   -62.1200    79.4910    62.5260
 2899.0000   -43.1010     2.5390     0.0330     0.2150   -35.1110   101.2320     6.4700     5.9510     6.1740  -999.2500  -999.2500   -61.6670    78.9310    62.6960
 2899.5000   -41.5170     2.5470     0.0290     0.2140   -34.6860   101.4020     6.6450     5.8750     6.1380  -999.2500  -999.2500   -61.2150    78.2450    62.8680
 2900.0000   -39.9320     2.5530     0.0230     0.2310   -34.2610   104.9470     6.7680     5.8050     6.0870  -999.2500  -999.2500   -60.7620    77.7990    63.0130
 2900.5000   -38.3480     2.5560     0.0290     0.2330   -33.8360   111.4700     6.5650     5.7360     6.0350  -999.2500  -999.2500   -60.3090    78.1510    63.1890
 2901.0000   -36.7630     2.5630     0.0260     0.2360   -33.4120   115.9780     6.3400     5.6660     5.9840  -999.2500  -999.2500   -59.8570    78.7160    63.2250
 2901.5000   -35.1790     2.5610     0.0220     0.2360   -32.9870   119.8740     6.1150     5.5960     5.9320  -999.2500  -999.2500   -59.4040    79.7580    63.2710
 2902.0000   -33.5940     2.5540     0.0210     0.2320   -32.5620   121.1700     5.8900     5.5270     5.8460  -999.2500  -999.2500   -58.9510    80.8010    63.3160
 2902.5000   -32.0100     2.5490     0.0220     0.2270   -32.1370   118.4860     5.6840     5.4790     5.6840  -999.2500  -999.2500   -58.4980    81.4870    63.3610
 2903.0000   -30.4250     2.5490     0.0230     0.2220   -31.7130   116.8050     5.5810     5.5660     5.6840  -999.2500  -999.2500   -58.0460    81.8820    63.4060
 2903.5000   -28.8410     2.5510     0.0220     0.2170   -31.2880   115.5290     5.4790     5.6860     5.7890  -999.2500  -999.2500   -57.5930    81.4660    63.4510
 2904.0000   -27.2560     2.5520     0.0140     0.2130   -30.8630   113.7060     5.6740     5.8060     5.9330  -999.2500  -999.2500   -57.1400    80.7530    63.4970
 2904.5000   -26.7290     2.5530     0.0080     0.2110   -30.4380   110.9280     6.0430     5.9270     6.0780  -999.2500  -999.2500   -56.6880    79.5560    63.5420
 2905.0000   -28.8880     2.5530     0.0070     0.2120   -30.0140   110.4010     6.4120     6.0060     6.2310  -999.2500  -999.2500   -56.2350    78.3590    63.5830
 2905.5000   -31.0470     2.5480     0.0030     0.2160   -29.5890   110.2210     6.7800     6.0060     6.1810  -999.2500  -999.2500   -55.7770    77.8030    63.8510
 2906.0000   -33.2060     2.5400    -0.0010     0.2250   -29.1640   110.2700     7.0210     5.9510     6.0880  -999.2500  -999.2500   -56.1970    77.6700    64.2170
 2906.5000   -35.3640     2.5330     0.0190     0.2280   -28.7390   113.6010     6.5380     5.8970     5.9950  -999.2500  -999.2500   -56.6230    78.5410    64.5860
 2907.0000   -37.5230     2.5350     0.0230     0.2290   -28.3150   116.8340     6.1180     5.7250     5.9020  -999.2500  -999.2500   -57.0480    79.4130    64.9550
 2907.5000   -39.6820     2.5380     0.0230     0.2330   -27.8900   118.7400     5.6970     5.3910     5.7820  -999.2500  -999.2500   -57.4730    80.2850    65.3240
 2908.0000   -41.8410     2.5410     0.0140     0.2470   -27.4650   117.0880     5.3790     5.0450     5.3990  -999.2500  -999.2500   -57.8990    81.0710    65.6890
 2908.5000   -44.0000     2.5350     0.0040     0.2620   -27.0400   114.5580     5.4470     4.5990     4.9240  -999.2500  -999.2500   -58.3240    80.7870    66.0510
 2909.0000   -46.1580     2.5210     0.0020     0.2760   -26.6160   114.3930     5.5180     4.1360     4.3770  -999.2500  -999.2500   -58.7500    80.1890    66.4190
 2909.5000   -48.3170     2.5060     0.0030     0.2910   -26.1910   122.9490     5.5880     3.6740     3.8300  -999.2500  -999.2500   -59.1750    80.1890    66.5220
 2910.0000   -50.4760     2.4740     0.0150     0.3020   -25.7660   142.4940     5.6840     3.2110     3.2840  -999.2500  -999.2500   -59.6010    80.9860    67.2670
 2910.5000   -52.6350     2.4220     0.0330     0.2980   -16.5430   163.6060     4.8050     2.7480     2.7370  -999.2500  -999.2500   -60.0260    85.3740    68.6970
 2911.0000   -54.7930     2.3710     0.0480     0.2830   -17.9860   184.6300     3.9070     2.4420     2.4200  -999.2500  -999.2500   -60.4510    90.4890    69.5170
 2911.5000   -54.0480     2.3530     0.0590     0.2650   -19.4300   199.6910     3.0100     2.4420     2.3110  -999.2500  -999.2500   -60.8770    96.6920    70.3460
 2912.0000   -49.8220     2.3960     0.0620     0.2270   -20.8740   203.0110     2.1080     2.4420     2.5340  -999.2500  -999.2500   -61.3020   102.8950    70.9200
 2912.5000   -45.5960     2.4370     0.0040     0.2150   -22.3180   176.2540     2.0140     2.5790     2.8720  -999.2500  -999.2500   -61.7280   105.9860    70.1910
 2913.0000   -41.3710     2.4780    -0.0180     0.2090   -23.7610   140.6360     2.4500     2.7170     3.4390  -999.2500  -999.2500   -62.1530    96.5600    69.4010
 2913.5000   -37.1450     2.5270    -0.0170     0.2040   -25.2050   112.4120     3.8460     2.8550     4.0050  -999.2500  -999.2500   -62.5780    89.2960    68.6130
 2914.0000   -32.9190     2.5200    -0.0150     0.2020   -26.6490   100.5540     5.4480     3.2890     4.5720  -999.2500  -999.2500   -63.0040    81.4840    67.8170
 2914.5000   -28.6940     2.5030    -0.0130     0.2010   -28.0930    97.9520     6.8410     4.0860     5.1380  -999.2500  -999.2500   -63.4290    76.3780    67.5590
 2915.0000   -24.4680     2.4870    -0.0140     0.2010   -29.5360    95.3750     6.9570     4.8840     5.6400  -999.2500  -999.2500   -63.8550    74.7760    67.5190
 2915.5000   -20.2420     2.4800    -0.0170     0.2020   -30.9800    95.0110     6.7910     5.4450     5.9120  -999.2500  -999.2500   -64.2800    74.9100    67.2060
 2916.0000   -16.1690     2.4770    -0.0350     0.2130   -32.4240    97.3460     6.6550     6.0620     6.1840  -999.2500  -999.2500   -64.7060    75.5200    66.5660
