~VERSION INFORMATION
 VERS.                2.0:   CWLS LOG ASCII STANDARD - VERSION 2.0
 WRAP.                 NO:   ONE LINE PER DEPTH STEP
~WELL INFORMATION
#MNEM.UNIT      DATA TYPE    INFORMATION
#----------   ------------   ------------------------------
 STRT.F           57.0000:   START DEPTH
 STOP.F         5817.0000:   STOP DEPTH
 STEP.F            0.5000:   STEP LENGTH
 NULL.          -999.2500:   NO VALUE
 COMP. DEPARTMENT OF ENERGY:   COMPANY
 WELL. DEPARTMENT NPR 371 "X" #1-4:   WELL
 FLD .              NPR-3:   FIELD
 LOC .       S4 T38N R78W:   LOCATION
 CNTY.            NATRONA:   COUNTY
 STAT.            WYOMING:   STATE
 CTRY. UNITED STATES OF AMERICA:   COUNTRY
 SRVC.       SCHLUMBERGER:   SERVICE COMPANY
 DATE.        25-AUG-2002:   LOGDATE
 API .     49025230480000:   API NUMBER
~CURVE INFORMATION
#MNEM.UNIT       API CODE    CURVE DESCRIPTION
#----------   ------------   ------------------------------
 DEPT.F                  :   
 HCAL.IN     07 280 01 00:   HRLT CALIPER
 RLA1.OHMM   06 120 01 00:   HRLT RESISTIVITY 1
 RLA2.OHMM   06 120 02 00:   HRLT RESISTIVITY 2
 RLA3.OHMM   06 120 03 00:   HRLT RESISTIVITY 3
 RXOZ.OHMM   06 270 04 00:   STAN RES. MICROCFL RESISTIVITY
 TENR.LBS    06 635 01 00:   TENSION FROM RESITIVITY
 GRR .GAPI   07 310 01 00:   GAMMA RAY FROM RESISTIVITY
 SPHI.DEC    60 890 22 00:   SONIC POROSITY SANDSTONE
 DT  .US/F   60 520 00 00:   DELTA TIME
 TENS.LBS    60 635 01 00:   TENSION FROM SONIC
 RT  .OHMM   06 120 00 00:   HRLT TRUE RESISTIVITY
~PARAMETER INFORMATION
#MNEM.UNIT          VALUE    DESCRIPTION
#----------   ------------   ------------------------------
 EKB .F         5196.0000:   Kelly bushing
 EGL .F         5186.0000:   Ground level
 EDF .F         5194.0000:   Drilling floor
 TD  .F         5803.0000:   Total depth
 CLNT.            A2DTECH:   Client Code
 SL  . 794' FEL & 333' FNL:   Surface Location
 PD  .                 GL:   Permanent Datum
 EPD .F              5186:   Elevation Permanent Datum
 LMF .                 KB:   Log Measured From
 DMF .                 KB:   Drilling Measured From
 DAPD.F                10:   Feet Above Permanent Datum
 DATE.        25-AUG-2002:   Date Logged [DD-MMM-YYYY]
 DD  .F              5800:   Depth driller
 DL  .F              5803:   Depth logger
 BLI .F              5803:   Bottom log interval
 TLI .F               656:   Top log interval
 CS1 .IN            9.625:   Casing size
 CBD1.      9.625" @ 660':   Casing driller 1
 CBL1.F               656:   Casing logger 1
 BS1 .IN            8.750:   Bit size
 BSD1.F              5800:   Depth drilled with bit1
 DFT .           GEL CHEM:   Type fluid in hole
 DFD .                  9:   Density
 DFV .                 36:   Viscosity
 DFPH.                8.5:   pH
 DFL .                7.6:   Fluid loss
 MSS .           FLOWLINE:   Source of sample
 RMS .OHMM          0.846:   Rm
 MST .F                90:   Rm Meas. temp.
 RMF .OHMM          0.670:   Rmf
 MFST.F                90:   Rmf Meas. temp.
 MFSS.               MEAS:   Source Rmf.
 RMC .OHMM          1.075:   Rmc
 MCST.F                90:   Rmc Meas. temp.
 MCSS.               CALC:   Source Rmc.
 TCS .HRS            0300:   Time Circ. stopped
 TLAB.HRS            0915:   Time logger at bottom
 MRT .F               156:   Maximum recorded temp.
 LUN .               2211:   Logging unit number
 LUL .             CASPER:   Logging unit location
 ENGI.        J.L. FLORES:   Recorded By
 WITN.        STEVE HARDY:   Witnessed by
 ORIG.        2" 5" PRINT:   Origin of data
 UWI .     49025230480000:   Unique Well ID
 DICO. A2D TECHNOLOGIES, INC.:   Digitizing Company
~OTHER INFORMATION
~A   DEPT     HCAL       RLA1       RLA2       RLA3       RXOZ       TENR         GRR      SPHI         DT       TENS         RT   
# ...
 4388.0000    10.3825    11.2663    11.5727    10.9920    10.6984  2364.1787    66.7248     0.1468    72.0602  1950.0000    11.6889
 4388.5000    10.3825    15.0628    19.8620    25.8590    16.2019  2365.1738    70.3461     0.1653    74.6268  1949.6708    21.0670
 4389.0000    10.3600    35.5042    33.6197    35.8901    30.6123  2366.1687    73.7398     0.1758    75.3807  1949.3958    33.0552
 4389.5000    10.3223    31.5666    32.9285    31.2514    31.9130  2367.1638    75.3219     0.1740    74.3971  1949.0519    33.7496
 4390.0000    10.2922    37.0081    36.2808    50.0296    29.3755  2368.1587    73.0509     0.1608    73.1118  1963.9058    32.3750
 4390.5000    10.2620    68.4801    51.6488    76.3041    46.3729  2369.1538    65.7961     0.1405    70.8442  1963.5541    49.0931
 4391.0000    10.2319    90.2994    94.3440    92.6179    80.6414  2370.1489    65.5650     0.1187    67.4440  1963.2529    91.5540
 4391.5000    10.2169    38.0460    27.2556    51.7909    37.4362  2371.1438    68.0529     0.0894    64.3136  1962.9432    57.9471
 4392.0000    10.2169     9.1557     8.7719    10.6919    10.4181  2372.1389    88.2145     0.0816    61.9276  1962.5991    12.7908
 4392.5000    10.2620    10.4411    12.5099     9.6377    11.9651  2373.1340   105.6571     0.0801    63.2854  1962.3241    10.5367
 4393.0000    10.2922    14.6140    15.3099    14.5979    13.9328  2374.1289   114.2633     0.1060    66.3804  1962.0482    13.8041
 4393.5000    10.2620    29.0694    19.6706    21.5073    20.8103  2375.1240   102.2491     0.1426    71.1373  1961.7468    19.3859
 4394.0000    10.2018    34.8042    27.6654    31.2514    31.2975  2376.1191    97.4868     0.1523    72.0423  1961.4457    31.2724
 4394.5000    10.1717    37.5590    38.1079    35.8901    35.9448  2377.1140    98.3880     0.1332    70.5300  1961.0864    36.6763
 4395.0000    10.1867    33.6197    37.0692    26.2868    30.6634  2378.1091    99.5169     0.1187    66.9032  1960.8434    29.7915
 4395.5000    10.2319    23.6162    28.0706    24.0253    25.3958  2379.1042    95.2067     0.1079    65.3912  1960.5361    25.6914
 4396.0000    10.2620    22.9710    23.2694    23.2083    22.9412  2380.0991    86.5924     0.1042    65.8427  1960.2411    23.0532
 4396.5000    10.2620    23.9456    25.1247    24.5293    23.1175  2381.0942    83.4151     0.1091    66.5966  1959.9398    24.2080
 4397.0000    10.3373    23.6162    25.1325    23.0482    24.9321  2382.0894    83.4111     0.1169    67.0651  1959.6385    25.9356
 4397.5000    10.5030    21.8841    22.6450    21.8070    22.6352  2383.0842    86.3516     0.1211    67.8019  1959.3373    22.1142
 4398.0000    10.2620    22.1893    21.7234    21.9865    21.4197  2384.0793    83.4019     0.1256    68.7824  1959.0232    21.5096
 4398.5000    10.0813    26.5667    23.1314    24.6996    23.9292  2385.0745    82.4905     0.1311    69.3094  1958.7350    24.8793
 4399.0000    10.0512    27.5027    26.5907    27.4012    26.0035  2386.0693    80.4472     0.1332    69.5350  1958.4043    27.4142
 4399.5000    10.0813    26.2013    27.1567    25.9255    23.2829  2387.0645    78.7432     0.1320    69.3066  1958.1293    27.6048
 4400.0000    10.0775    22.4987    26.4165    23.0482    18.3315  2388.0596    68.6556     0.1299    68.9273  1957.8988    25.0136
 4400.5000    10.0661    18.9221    22.6733    19.5214    17.0557  2389.0544    66.1586     0.1284    68.8507  1957.8313    22.5193
 4401.0000    10.0509    15.9085    17.6538    18.5984    14.5553  2390.0496    65.0211     0.1308    69.2312  1957.8313    19.6565
 4401.5000    10.0508    13.8558    14.4305    19.3868    12.2462  2391.0447    63.2043     0.1332    69.6851  1957.8313    18.7257
 4402.0000    10.0054    13.2002    15.0501    18.5984     9.3698  2392.0396    60.7068     0.1366    70.2146  1942.7711    19.5352
 4402.5000     9.9902    12.5538    12.9169    16.0829     7.7609  2393.0347    58.6635     0.1393    70.5174  1942.7711    20.2090
 4403.0000     9.9900    10.0759    11.8847    14.5979     9.4203  2394.0298    57.7521     0.1417    70.5937  1927.7108    14.8975
 4403.5000    10.0200     9.9374    12.5678    14.9041     9.1412  2395.0247    59.7873     0.1468    71.8030  1927.7108    14.4902
 4404.0000    10.0801    11.1079    13.3824    14.9041     9.7545  2445.8794    62.0481     0.1619    73.6919  1927.7108    14.8975
 4404.5000    10.2005    11.4929    13.1947    14.3973    12.2563  2446.7844    57.9655     0.1940    77.1669  1927.7108    14.2908
 4405.0000    10.6220    12.3170    14.0563    16.3070    12.3542  2397.9382    51.3894     0.2142    81.8506  1927.7108    13.9001
 4405.5000    11.9318    13.3123    17.8104    19.5214    13.7891  2349.3179    49.3461     0.2236    82.3800  1942.7711    17.4719
 4406.0000    11.9771    15.9141    19.0972    17.7189    15.2976  2300.4717    51.3803     0.2272    82.1541  1942.7711    18.8627
 4406.5000    10.4408    14.6451    16.6207    20.9201    14.1794  2301.6033    52.9623     0.2187    81.1373  1942.7711    16.1894
 4407.0000    10.5762    19.3193    18.8415    22.5747    18.4434  2402.0107    50.0117     0.2060    79.2856  1942.7711    20.3495
 4407.5000    10.5459    21.5830    23.2184    19.7935    24.1554  2403.1414    47.7417     0.1843    75.9630  1942.7711    22.1142
 4408.0000    10.7416    16.8206    18.0791    17.2352    27.5512  2404.0466    46.0378     0.1647    73.2141  1942.7711    16.6445
 4408.5000    10.8318    15.0564    15.7339    15.6438    21.1876  2404.9751    46.5997     0.1474    71.0552  1942.7711    15.1055
 4409.0000    10.7112    14.7468    14.9829    15.7581    15.4169  2356.2192    49.3141     0.1417    70.5271  1942.7711    14.8975
 4409.5000    10.7110    15.4793    16.0727    17.1164    16.2964  2357.2361    51.5755     0.1402    70.9849  1942.7711    16.1894
 4410.0000    10.5753    16.3611    17.1144    17.2352    17.4653  2308.3901    52.7043     0.1498    72.7947  1942.7711    17.3512
 4410.5000    10.5903    16.2482    16.1593    15.5178    16.6422  2309.5208    53.1524     0.1692    75.0612  1942.7711    15.3163
 4411.0000    10.7105    15.0564    14.4891    15.0076     3.2777  2310.4480    54.2813     0.1864    77.6299  1942.7711    14.6925
 4411.5000    10.7255    16.8206    16.0858    16.3070     3.3935  2311.5574    56.9953     0.1973    79.1414  1942.7711    15.0011
 4412.0000    10.8082    20.7046    20.7143    20.2087     7.0148  2312.4617    55.6317     0.2033    78.9910  1942.7711    20.3495
 4412.5000    10.8456    18.9221    20.2455    21.0654    18.9896  2315.2605    54.7209     0.1964    78.4630  1942.7711    20.0694
 4413.0000    10.6497    17.7788    18.2430    18.8576    22.1125  2343.7781    54.7157     0.1855    76.2736  1942.7711    18.2137
 4413.5000    10.4839    21.5830    20.6151    21.9584    22.0931  2372.2959    54.9381     0.1698    74.4616  1942.7711    19.9308
 4414.0000    10.3934    25.8409    26.0611    24.8711    13.2599  2402.0110    57.1998     0.1610    73.2538  1942.7711    23.5375
 4414.5000    10.3782    23.6162    22.6476    21.3590    11.3898  2352.7209    59.2339     0.1483    70.5356  1942.7711    25.4020
 4415.0000    10.4081    19.1860    18.6053    18.8576    13.9817  2353.2971    64.2146     0.1375    69.9319  1941.0930    18.2137
 4415.5000    10.4682    17.4132    17.8843    18.2163    17.7356  2353.7583    71.1208     0.1353    70.0839  1927.7108    17.5934
 4416.0000    10.4530    19.4536    20.8469    20.3490    20.6522  2354.2290    77.3473     0.1366    70.4724  1942.7711    19.6565
 4416.5000    10.3625    23.1307    23.3057    23.8597    23.8829  2304.9297    79.1558     0.1396    70.7652  1942.7711    22.8940
 4417.0000    10.3925    20.9838    19.7269    17.7189    15.5585  2305.5059    79.1506     0.1405    70.6902  1942.7711    20.3495
 4417.5000    10.5279    14.4436    15.3597    15.6438    12.0479  2305.9702    80.5060     0.1402    70.5400  1942.7711    15.8563
 4418.0000    10.3018    17.4132    17.0225    17.1164    11.0900  2306.5435    87.5260     0.1399    70.4652  1942.7711    15.4228
