~VERSION INFORMATION
 VERS.                2.0:   CWLS LOG ASCII STANDARD - VERSION 2.0
 WRAP.                 NO:   ONE LINE PER DEPTH STEP
~WELL INFORMATION
#MNEM.UNIT      DATA TYPE    INFORMATION
#----------   ------------   ------------------------------
 STRT.F           96.5000:   START DEPTH
 STOP.F         2720.0000:   STOP DEPTH
 STEP.F            0.5000:   STEP LENGTH
 NULL.          -999.2500:   NO VALUE
 COMP.          INTEX OIL:   COMPANY
 WELL. INTEX NPR 65 "AX" #3-20:   WELL
 FLD .             TEAPOT:   FIELD
 LOC .      S20 T39N R78W:   LOCATION
 CNTY.            NATRONA:   COUNTY
 STAT.            WYOMING:   STATE
 CTRY. UNITED STATES OF AMERICA:   COUNTRY
 SRVC.       SCHLUMBERGER:   SERVICE COMPANY
 DATE.        04-MAY-1966:   LOGDATE
 API .     49025094910000:   API NUMBER
~CURVE INFORMATION
#MNEM.UNIT       API CODE    CURVE DESCRIPTION
#----------   ------------   ------------------------------
 DEPT.F                  :   
 SPR .MV     05 010 01 00:   SPONTANEOUS POTENTIAL FROM RES.
 SN  .OHMM   05 040 16 00:   SHORT NORMAL 16"
 ILD .OHMM   05 120 46 00:   INDUCTION LOG DEEP
 CALD.IN     45 280 60 00:   CALIPER FROM DENSITY LOG
 CORR.G/C3   45 356 01 00:   DENSITY CORRECTION
 GRD .GAPI   45 310 01 00:   GAMMA RAY FROM DENSITY LOG
 RHOB.G/C3   45 350 01 00:   BULK DENSITY
~PARAMETER INFORMATION
#MNEM.UNIT          VALUE    DESCRIPTION
#----------   ------------   ------------------------------
 EKB .F         5053.3000:   Kelly bushing
 EGL .F         5043.0000:   Ground level
 EDF .F            0.0000:   Drilling floor
 TD  .F         2720.0000:   Total depth
 DATE.        04-MAY-1966:   Date logged
 CLNT.            A2DTECH:   Client Code
 PD  .                 GL:   Permanent Datum
 EPD .F              5043:   Elevation Permanent Datum
 LMF .                 KB:   Log Measured From
 DMF .                 KB:   Drilling Measured From
 DAPD.F              10.3:   Feet Above Permanent Datum
 DD  .F              2720:   Depth driller
 DL  .F              2720:   Depth logger
 BLI .F              2719:   Bottom log interval
 TLI .F                97:   Top log interval
 CS1 .IN            10.75:   Casing size
 CBD1.       10.75" @ 30':   Casing driller 1
 BS1 .IN            7.875:   Bit size
 BSD1.F              2720:   Depth drilled with bit1
 DFT . GEL/Q-BROX/OIL/DAKOLITE:   Type fluid in hole
 DFD .               10.3:   Density
 DFV .                 41:   Viscosity
 DFPH.                7.2:   pH
 DFL .                8.8:   Fluid loss
 MSS .           FLOWLINE:   Source of sample
 RMS .OHMM              2:   Rm
 MST .F                61:   Rm Meas. temp.
 RMF .OHMM           1.31:   Rmf
 MFST.F                65:   Rmf Meas. temp.
 MFSS.                 FP:   Source Rmf.
 RMB .OHMM           1.15:   Rm. at BHT
 BHT .F               110:   BHT.
 TCS .HRS               2:   Time Circ. stopped
 MRT .F               110:   Maximum recorded temp.
 LUN .               4507:   Logging unit number
 LUL .               CSPR:   Logging unit location
 ENGI.            MANGOLD:   Recorded By
 WITN.             TUTTLE:   Witnessed by
 ORIG.       2", 5" PRINT:   Origin of data
 UWI .     49025094910000:   Unique Well ID
 DICO. A2D TECHNOLOGIES, INC.:   Digitizing Company
~OTHER INFORMATION
~A   DEPT      SPR         SN         ILD      CALD       CORR        GRD       RHOB   
# ...
 2644.5000   -25.7930     7.8730     5.8420     7.7900     0.0280   143.3650     2.4870
 2645.0000   -25.7890     7.9540     5.9040     7.7740     0.0300   144.0160     2.4920
 2645.5000   -25.7770     8.0360     5.9580     7.7570     0.0250   141.2910     2.4990
 2646.0000   -25.7830     8.1160     6.0040     7.7420     0.0210   140.1580     2.4950
 2646.5000   -25.8070     8.1940     6.0560     7.7250     0.0250   139.2700     2.4910
 2647.0000   -25.8010     8.2700     6.1150     7.7080     0.0310   140.2700     2.4980
 2647.5000   -25.7260     8.3480     6.1680     7.7030     0.0240   140.8120     2.4980
 2648.0000   -25.6050     8.4340     6.2090     7.7560     0.0170   140.4090     2.4990
 2648.5000   -25.4610     8.5170     6.2610     7.8130     0.0200   140.5290     2.5060
 2649.0000   -25.2600     8.5850     6.3340     7.8550     0.0220   140.7910     2.5090
 2649.5000   -25.0230     8.6530     6.3820     7.8890     0.0190   141.0450     2.5050
 2650.0000   -24.9070     8.7560     6.3370     7.8790     0.0160   141.2990     2.5000
 2650.5000   -25.0300     8.8620     6.1900     7.8650     0.0130   141.7010     2.4980
 2651.0000   -25.2840     8.8680     5.9980     7.8490     0.0100   143.9700     2.4970
 2651.5000   -25.4380     8.7070     5.8140     7.8350     0.0100   146.2780     2.4890
 2652.0000   -25.4270     8.4310     5.6440     7.8200     0.0160   149.0110     2.4870
 2652.5000   -25.3750     8.1310     5.4760     7.8050     0.0160   149.7200     2.4910
 2653.0000   -25.3780     7.8380     5.3120     7.7900     0.0150   147.5370     2.4850
 2653.5000   -25.4010     7.5620     5.1470     7.7750     0.0140   145.5640     2.4740
 2654.0000   -25.3980     7.3650     4.9690     7.7610     0.0140   144.4910     2.4680
 2654.5000   -25.4020     7.2950     4.8190     7.7440     0.0130   144.4240     2.4800
 2655.0000   -25.4460     7.2730     4.8070     7.7510     0.0130   144.1290     2.4870
 2655.5000   -25.5090     7.1880     5.0060     7.7810     0.0120   144.2470     2.4780
 2656.0000   -25.5690     7.1100     5.3570     7.8080     0.0120   144.7200     2.4710
 2656.5000   -25.6330     7.2630     5.7330     7.8360     0.0130   145.0890     2.4640
 2657.0000   -25.6950     7.7500     6.0810     7.8630     0.0190   142.1700     2.4770
 2657.5000   -25.7350     8.4210     6.4330     7.8920     0.0250   138.2690     2.4920
 2658.0000   -25.7860     9.0800     6.8040     7.8880     0.0310   136.7450     2.5070
 2658.5000   -25.9370     9.6910     7.1580     7.8820     0.0370   137.7930     2.5220
 2659.0000   -26.2030    10.3060     7.5000     7.8750     0.0420   138.3370     2.5240
 2659.5000   -26.4600    10.8710     7.8920     7.8690     0.0390   137.5950     2.5140
 2660.0000   -26.5590    11.2440     8.3170     7.8620     0.0290   136.9040     2.5070
 2660.5000   -26.4770    11.3450     8.6090     7.8550     0.0200   136.0730     2.4990
 2661.0000   -26.3290    11.2270     8.6200     7.8490     0.0180   137.4860     2.5070
 2661.5000   -26.2350    11.0150     8.4030     7.8420     0.0320   139.4030     2.5070
 2662.0000   -26.1930    10.8080     8.1400     7.8350     0.0260   141.3120     2.5060
 2662.5000   -26.0530    10.6270     7.9290     7.8290     0.0220   142.6570     2.5120
 2663.0000   -25.6710    10.4160     7.7450     7.8220     0.0290   141.3280     2.5290
 2663.5000   -25.1320    10.1500     7.5700     7.8180     0.0460   141.1760     2.5410
 2664.0000   -24.7190     9.9300     7.4420     7.8300     0.0400   142.1060     2.5340
 2664.5000   -24.6150     9.9220     7.3600     7.8410     0.0260   140.2170     2.5220
 2665.0000   -24.7170    10.1380     7.2570     7.8520     0.0300   135.9810     2.5190
 2665.5000   -24.8390    10.3850     7.0970     7.8630     0.0420   134.1260     2.5210
 2666.0000   -24.9310    10.5180     6.9660     7.8740     0.0370   133.6620     2.5070
 2666.5000   -25.0520    10.6540     7.0110     7.8850     0.0180   133.5520     2.5000
 2667.0000   -25.2340    10.9340     7.2950     7.8960     0.0270   134.4210     2.5020
 2667.5000   -25.5030    11.1760     7.7310     7.9080     0.0210   135.2160     2.5040
 2668.0000   -25.8500    11.1640     8.1480     7.9180     0.0150   131.2110     2.5080
 2668.5000   -26.1960    11.2070     8.4850     7.9320     0.0280   125.7320     2.5100
 2669.0000   -26.5050    11.8660     8.9210     7.9140     0.0180   121.7280     2.4980
 2669.5000   -26.9280    13.0440     9.8020     7.8780     0.0070   116.2740     2.4860
 2670.0000   -27.6540    14.0880    11.3740     7.8460     0.0260   108.9200     2.4980
 2670.5000   -28.8350    15.0570    13.5400     7.8140     0.0490   101.8260     2.5130
 2671.0000   -30.8690    17.0720    15.9300     7.7810     0.0580    94.6840     2.5130
 2671.5000   -34.3480    20.8440    18.2880     7.7500     0.0550    87.4260     2.5030
 2672.0000   -39.2090    25.4590    20.8290     7.7150     0.0540    80.3430     2.4930
 2672.5000   -44.3120    29.3110    24.0070     7.6960     0.0530    73.6100     2.4770
 2673.0000   -48.5190    31.7940    27.8320     7.6810     0.0530    71.1940     2.4540
 2673.5000   -51.8910    33.4670    31.6090     7.6620     0.0820    68.9320     2.4320
 2674.0000   -55.1790    34.9570    34.5370     7.6430     0.0760    66.3110     2.4020
 2674.5000   -58.4260    36.3780    36.4540     7.6250     0.0620    65.2440     2.3860
 2675.0000   -60.9170    37.7330    37.8100     7.6060     0.0470    64.1000     2.3880
 2675.5000   -62.3220    39.3120    39.1100     7.5880     0.0520    62.3550     2.3880
 2676.0000   -63.1090    41.5510    40.6090     7.5700     0.0610    59.4490     2.3950
 2676.5000   -63.7910    44.5180    42.2860     7.5500     0.0620    56.4500     2.4010
 2677.0000   -64.4250    47.5730    43.7450     7.5420     0.0630    51.0860     2.4120
 2677.5000   -64.8970    49.7050    44.2940     7.5430     0.0580    47.3420     2.4050
 2678.0000   -65.2140    50.3880    43.5760     7.5430     0.0510    46.0200     2.3790
 2678.5000   -65.4300    50.0250    42.0490     7.5430     0.0360    44.8030     2.3560
 2679.0000   -65.5700    49.4860    40.4340     7.5430     0.0230    44.9210     2.3290
 2679.5000   -65.6850    48.9990    39.3090     7.5430     0.0160    47.0190     2.3130
 2680.0000   -65.8160    48.5510    38.0870     7.5430     0.0200    49.0150     2.3170
 2680.5000   -65.9450    48.7170    36.6710     7.5430     0.0220    51.0330     2.3330
 2681.0000   -66.0090    49.0820    35.6950     7.5430     0.0220    52.7300     2.3520
 2681.5000   -65.9700    49.3270    35.4720     7.5430     0.0180    51.7890     2.3480
 2682.0000   -65.8780    49.0480    35.6210     7.5430     0.0150    52.8000     2.3310
 2682.5000   -65.8910    47.9770    35.6890     7.5430     0.0210    55.9170     2.3160
 2683.0000   -66.0950    46.8990    35.4420     7.5350     0.0290    60.3500     2.3160
 2683.5000   -66.3090    46.2180    34.7960     7.5260     0.0370    63.4790     2.3240
 2684.0000   -66.2260    45.2650    33.8190     7.5180     0.0440    65.3920     2.3330
 2684.5000   -65.8100    44.3240    32.6860     7.5090     0.0530    67.3570     2.3420
 2685.0000   -65.3500    43.8140    31.8540     7.5000     0.0560    69.2660     2.3510
 2685.5000   -65.0750    43.2230    31.9840     7.4920     0.0550    71.3410     2.3590
 2686.0000   -64.9200    43.4970    33.1060     7.4820     0.0540    72.3200     2.3690
 2686.5000   -64.6450    45.2070    34.3920     7.4740     0.0540    73.1220     2.3870
 2687.0000   -63.9960    46.9440    35.4430     7.4680     0.0480    73.7560     2.4070
 2687.5000   -62.8170    50.2410    36.4740     7.5100     0.0410    68.1750     2.4490
 2688.0000   -61.2580    56.5830    37.5900     7.5540     0.0330    65.3030     2.5260
 2688.5000   -59.7950    63.2510    38.5190     7.6000     0.0260    66.2300     2.5670
 2689.0000   -58.8020    68.1430    38.6360     7.6430     0.0180    68.7690     2.5580
 2689.5000   -58.1440    69.6440    37.5690     7.6870     0.0110    70.0700     2.5500
