~VERSION INFORMATION
 VERS.                2.0:   CWLS LOG ASCII STANDARD - VERSION 2.0
 WRAP.                 NO:   ONE LINE PER DEPTH STEP
~WELL INFORMATION
#MNEM.UNIT      DATA TYPE    INFORMATION
#----------   ------------   ------------------------------
 STRT.F            0.0000:   START DEPTH
 STOP.F         4700.0000:   STOP DEPTH
 STEP.F            0.5000:   STEP LENGTH
 NULL.          -999.2500:   NO VALUE
 COMP. LAWRENCE ALLISON & ASSOCIATES:   COMPANY
 WELL. LAWRENCE NPR 3 "X" #33-23:   WELL
 FLD .                NPR:   FIELD
 LOC .      S23 T38N R78W:   LOCATION
 CNTY.            NATRONA:   COUNTY
 STAT.            WYOMING:   STATE
 CTRY. UNITED STATES OF AMERICA:   COUNTRY
 SRVC.      DRESSER ATLAS:   SERVICE COMPANY
 DATE.        12-NOV-1984:   LOGDATE
 API .     49025109930000:   API NUMBER
~CURVE INFORMATION
#MNEM.UNIT       API CODE    CURVE DESCRIPTION
#----------   ------------   ------------------------------
 DEPT.F                  :   
 TEND.LBS    45 635 01 00:   TENSION FROM DENSITY LOG
 CALD.IN     45 280 60 00:   CALIPER FROM DENSITY LOG
 CORR.G/C3   45 356 01 00:   DENSITY CORRECTION
 DEN .G/C3   45 350 01 00:   BULK DENSITY
 CNC .DEC    42 890 03 00:   NEUTRON PORISITY SANDSTONE
 SPR .MV     07 010 01 00:   SPONTANEOUS POTENTIAL
 GRR .GAPI   07 310 01 00:   GAMMA RAY FROM RESISTIVITY
 RFOC.OHMM   07 220 01 00:   RESISTIVITY FOCUSED LOG RES.
 ILM .OHMM   07 120 44 00:   INDUCTION LOG MEDIUM RESISTIVITY
 ILD .OHMM   07 120 46 00:   INDUCTION LOG DEEP RESISTIVITY
 TENS.LBS    60 635 01 00:   TENSION FROM SONIC LOG
 DT  .US/F   60 520 00 00:   DELTA TIME
 TENR.LBS    07 635 01 00:   TENSION
~PARAMETER INFORMATION
#MNEM.UNIT          VALUE    DESCRIPTION
#----------   ------------   ------------------------------
 EKB .F         5308.0000:   Kelly bushing
 EGL .F         5296.0000:   Ground level
 EDF .F            0.0000:   Drilling floor
 EPD .F            0.0000:   Permanent datum
 TD  .F         4695.0000:   Total depth
 DATE.        12-NOV-1984:   Date logged
 CLNT.            A2DTECH:   Client Code
 SL  . 1415' FNL & 1874' FWL:   Surface Location
 PD  .                 GL:   Permanent Datum
 LMF .                 KB:   Log Measured From
 DMF .                 KB:   Drilling Measured From
 DAPD.F                12:   Feet Above Permanent Datum
 DD  .F              4695:   Depth driller
 DL  .F              4694:   Depth logger
 BLI .F              4691:   Bottom log interval
 TLI .F              1205:   Top log interval
 CS1 .IN            8.625:   Casing size
 CBD1.     8.625" @ 1206':   Casing driller 1
 CBL1.F              1205:   Casing logger 1
 BS1 .IN            7.875:   Bit size
 BSD1.F              4695:   Depth drilled with bit1
 DFT .     GFL/KCL/STAFLO:   Type fluid in hole
 DFD .                9.2:   Density
 DFV .                 45:   Viscosity
 DFPH.                  8:   pH
 DFL .                 10:   Fluid loss
 MSS .           FLOWLINE:   Source of sample
 RMS .OHMM            .51:   Rm
 MST .F                72:   Rm Meas. temp.
 RMF .OHMM            .43:   Rmf
 MFST.F                70:   Rmf Meas. temp.
 RMC .OHMM            .64:   Rmc
 MCST.F                72:   Rmc Meas. temp.
 MFSS.               MEAS:   Source Rmf.
 MCSS.               CALC:   Source Rmc.
 RMB .OHMM           .272:   Rm. at BHT
 BHT .F               135:   BHT.
 TCS .HRS               4:   Time Circ. stopped
 MRT .F               135:   Maximum recorded temp.
 LUN .               6274:   Logging unit number
 LUL .               GLTE:   Logging unit location
 ENGI.             RAUTIO:   Recorded By
 ORIG.           5" PRINT:   Origin of data
 UWI .     49025109930000:   Unique Well ID
 DICO. A2D TECHNOLOGIES, INC.:   Digitizing Company
~OTHER INFORMATION
~A    DEPT    TEND       CALD       CORR        DEN        CNC        SPR         GRR      RFOC        ILM        ILD       TENS         DT       TENR   
# ...
  364.0000   -38.7320    12.3940     0.0600     2.4010     0.2920   -52.1650    72.1190     4.9250     4.2950     5.0470   -39.1570   109.4120    -8.1710
  364.5000   -38.7320    12.3940     0.0510     2.3990     0.2990   -51.8500    71.4850     4.8790     4.3330     5.0730   -39.1570   108.9050    -8.3390
  365.0000   -38.7320    12.3940     0.0550     2.3980     0.3010   -51.9800    70.7840     4.8340     4.3720     5.1000   -39.1570   109.5780    -8.5060
  365.5000   -38.7320    12.3940     0.0620     2.4070     0.3030   -52.1070    71.0560     4.7890     4.4110     5.1260   -39.1570   110.4180    -8.6740
  366.0000   -38.7320    12.3940     0.0720     2.4150     0.3020   -52.2360    72.0460     4.8650     4.4490     5.1530   -39.1570   111.1490    -8.8410
  366.5000   -38.7320    12.3940     0.0710     2.4200     0.2880   -52.3660    72.1840     4.9890     4.4880     5.1790   -39.1570   111.0940    -9.0090
  367.0000   -38.7320    12.3940     0.0590     2.4170     0.2890   -52.4970    72.6510     5.1080     4.5320     5.2060   -39.1570   110.5440    -9.1760
  367.5000   -38.7320    12.3940     0.0480     2.4190     0.2880   -52.6480    74.5080     5.0830     4.5190     5.2320   -39.1570   109.9950    -9.3430
  368.0000   -38.7320    12.3940     0.0480     2.4210     0.2840   -52.8740    75.7000     5.0440     4.5030     5.2590   -39.1570   109.4450    -9.5110
  368.5000   -38.7320    12.3940     0.0480     2.4270     0.3000   -53.0930    74.6910     5.0050     4.4870     5.2990   -39.1570   108.9760    -9.6780
  369.0000   -38.7320    12.3940     0.0500     2.4220     0.3330   -53.3120    75.2790     4.9660     4.4710     5.2670   -39.1570   109.2850    -9.8460
  369.5000   -38.7320    12.3940     0.0500     2.4140     0.3570   -53.5320    77.2790     4.9270     4.4550     5.1990   -39.1570   109.6970   -10.0130
  370.0000   -38.7320    12.3940     0.0510     2.4080     0.3350   -53.7510    76.0340     4.8730     4.3750     5.1310   -39.1570   110.1100   -10.1810
  370.5000   -38.7320    12.3930     0.0500     2.4100     0.3170   -53.9710    72.0430     4.8340     4.2670     5.0630   -39.1570   110.5220   -10.3480
  371.0000   -38.7320    12.3900     0.0490     2.4090     0.3120   -54.1900    72.7740     4.8630     4.1620     4.9960   -39.1570   110.8200   -10.5160
  371.5000   -38.7320    12.3870     0.0470     2.4100     0.3150   -54.4100    73.7980     4.8780     4.0780     4.9230   -39.1570   110.9210   -10.6830
  372.0000   -38.7320    12.3840     0.0460     2.4120     0.3210   -54.6280    75.1710     4.7100     3.9940     4.8080   -39.1570   111.0220   -10.8500
  372.5000   -38.7320    12.3820     0.0450     2.4150     0.3280   -54.8460    78.0050     4.5620     3.9090     4.6840   -39.1570   111.1220   -11.0180
  373.0000   -38.7320    12.3790     0.0440     2.4160     0.3360   -54.9460    80.8240     4.4130     3.8250     4.5610   -39.1570   111.6670   -11.1850
  373.5000   -38.7320    12.3760     0.0440     2.4170     0.3460   -54.8390    83.5950     4.2890     3.7770     4.4090   -39.1570   112.9270   -11.3530
  374.0000   -38.7320    12.3730     0.0640     2.4190     0.3330   -54.6280    85.0380     4.3440     3.8360     4.4480   -39.1570   114.1870   -11.5200
  374.5000   -38.7320    12.3710     0.0770     2.4240     0.2920   -54.0480    82.3980     4.4010     3.8830     4.5140   -39.1570   115.2010   -11.6880
  375.0000   -38.7320    12.3680     0.0590     2.4290     0.2950   -53.4790    80.6040     4.4580     3.9300     4.5810   -39.1570   114.7990   -11.8550
  375.5000   -38.7320    12.3650     0.0360     2.4350     0.3020   -52.9110    79.5430     4.5150     3.9770     4.6480   -39.1570   114.0890   -12.0220
  376.0000   -38.7320    12.3620     0.0200     2.4430     0.3270   -52.3290    78.8400     4.5720     4.0240     4.7150   -39.1570   112.2410   -12.1900
  376.5000   -38.7320    12.3600     0.0460     2.4520     0.3240   -52.1410    77.0870     4.6220     4.0710     4.7820   -39.1570   110.3930   -12.3570
  377.0000   -38.7320    12.3570     0.0700     2.4610     0.3000   -52.0710    75.3970     4.6460     4.1180     4.8340   -39.1570   108.5740   -12.5250
  377.5000   -38.7320    12.3520     0.0660     2.4590     0.2800   -52.0150    73.7160     4.6590     4.1650     4.8550   -39.1570   108.4430   -12.6920
  378.0000   -38.7320    12.3190     0.0660     2.4410     0.2920   -51.5370    72.7460     4.6590     4.1850     4.8760   -39.1570   108.7580   -12.8600
  378.5000   -38.7320    12.2870     0.1060     2.4220     0.3030   -50.9550    74.4520     4.6940     4.2050     4.8970   -39.1570   109.0730   -13.0270
  379.0000   -38.7320    12.2510     0.1780     2.4030     0.3190   -50.4700    77.5470     4.7360     4.2250     4.9170   -39.1570   109.3780   -13.1950
  379.5000   -38.7320    12.2240     0.1660     2.3840     0.3250   -50.3040    80.1810     4.7770     4.2440     4.9380   -39.1570   109.2040   -13.3620
  380.0000   -38.7320    12.1610     0.1410     2.3690     0.3270   -50.8910    79.0170     4.7950     4.2640     4.9590   -39.1570   109.0360   -13.5290
  380.5000   -38.7320    12.1850     0.1160     2.3620     0.3230   -51.4650    76.2870     4.8030     4.2830     4.9800   -39.1570   108.8680   -13.6970
  381.0000   -38.7320    12.2560     0.1090     2.3610     0.3170   -52.0460    75.0090     4.8110     4.3310     5.0010   -39.1570   108.7750   -13.8640
  381.5000   -38.7320    12.3210     0.1060     2.3740     0.3210   -52.6390    75.9070     4.8190     4.4120     5.0770   -39.1570   108.7750   -14.0320
  382.0000   -38.7320    12.3890     0.0880     2.4050     0.3310   -53.2300    76.8360     4.8270     4.5530     5.2030   -39.1570   108.5920   -14.1990
  382.5000   -38.7320    12.3940     0.0580     2.4390     0.3250   -53.7890    76.9930     4.8340     4.7460     5.3290   -39.1570   108.1890   -14.3670
  383.0000   -38.7320    12.3950     0.0470     2.4550     0.3140   -54.2400    76.2800     5.0460     4.9390     5.4550   -39.1570   107.6810   -14.5340
  383.5000   -38.7320    12.3930     0.0690     2.4690     0.3040   -54.6740    75.5730     5.2690     5.0600     5.5810   -39.1570   107.0510   -14.7010
  384.0000   -38.7320    12.3960     0.0630     2.4770     0.2960   -55.1100    75.1130     5.4970     5.0460     5.7070   -39.1570   106.4210   -14.8690
  384.5000   -38.7320    12.3820     0.0500     2.4750     0.2980   -55.5400    75.5230     5.4870     5.0350     5.8630   -39.1570   105.7910   -15.0360
  385.0000   -38.7320    12.3550     0.0490     2.4690     0.3080   -55.1160    75.1300     5.4740     5.0230     5.8220   -39.1570   105.1610   -15.2040
  385.5000   -38.7320    12.3300     0.0690     2.4480     0.3200   -54.6270    75.1240     5.4600     5.0150     5.7560   -39.1570   104.5310   -15.3710
  386.0000   -38.7320    12.3060     0.0970     2.4210     0.3010   -54.1380    75.4250     5.4470     4.8560     5.6690   -39.1570   103.9560   -15.4690
  386.5000   -38.7320    12.2800     0.1260     2.3930     0.2960   -53.6500    75.7930     5.2780     4.7530     5.5820   -39.1570   103.7370   -15.4690
  387.0000   -38.7320    12.2550     0.1360     2.3720     0.3020   -53.1650    77.9900     5.1130     4.6500     5.4950   -39.1570   103.5540   -15.4690
  387.5000   -38.7320    12.2360     0.1330     2.3690     0.3230   -52.6810    80.2920     4.9230     4.5480     5.4160   -39.1570   104.6770   -15.4690
  388.0000   -38.7320    12.2570     0.1210     2.3820     0.2900   -52.3290    81.2500     5.0140     4.4910     5.2990   -39.1570   106.0010   -15.4690
  388.5000   -38.7320    12.2830     0.0990     2.4040     0.2710   -52.1970    80.1120     5.2140     4.5570     5.3370   -39.1570   107.3240   -15.4690
  389.0000   -38.7320    12.3100     0.0910     2.4230     0.2840   -52.3070    79.5950     5.3970     4.6350     5.3940   -39.1570   108.0580   -15.4690
  389.5000   -38.7320    12.3370     0.0970     2.4440     0.2980   -52.4260    79.4070     5.4240     4.8210     5.4510   -39.1570   108.1200   -15.4690
