~VERSION INFORMATION
 VERS.                2.0:   CWLS LOG ASCII STANDARD - VERSION 2.0
 WRAP.                 NO:   ONE LINE PER DEPTH STEP
~WELL INFORMATION
#MNEM.UNIT      DATA TYPE    INFORMATION
#----------   ------------   ------------------------------
 STRT.F          210.0000:   START DEPTH
 STOP.F         3128.0000:   STOP DEPTH
 STEP.F            0.5000:   STEP LENGTH
 NULL.          -999.2500:   NO VALUE
 COMP.    PENIX & SCISSON:   COMPANY
 WELL. FENIX NPR 3 "A" #14-27:   WELL
 FLD .                NPR:   FIELD
 LOC .      S27 T39N R78W:   LOCATION
 CNTY.            NATRONA:   COUNTY
 STAT.            WYOMING:   STATE
 CTRY. UNITED STATES OF AMERICA:   COUNTRY
 SRVC.      DRESSER ATLAS:   SERVICE COMPANY
 DATE.        31-AUG-1977:   LOGDATE
 API .     49025104280000:   API NUMBER
~CURVE INFORMATION
#MNEM.UNIT       API CODE    CURVE DESCRIPTION
#----------   ------------   ------------------------------
 DEPT.F                  :   
 GRD .GAPI   45 310 01 00:   GAMMA RAY FROM DENSITY LOG
 CALD.IN     45 280 60 00:   CALIPER FROM DENSITY LOG
 RHOB.G/C3   45 350 01 00:   BULK DENSITY
 CORR.G/C3   45 356 01 00:   DENSITY CORRECTION
 NPHI.DEC    42 890 03 00:   NEUTRON POROSITY SANDSTONE
 SPR .MV     11 010 01 00:   SPONTANEOUS POTENTIAL
 RXO .OHMM   11 220 01 00:   FLUSHED ZONE RESISTIVITY
 LLD .OHMM   11 220 10 00:   LATEROLOG LOG DEEP
 LLS .OHMM   11 220 09 00:   LATEROLOG LOG SHALLOW
 TENR.LBS    11 635 01 00:   TENSION FROM RESISTIVITY
 TEND.LBS    45 635 01 00:   TENSION FROM DENSITY LOG
~PARAMETER INFORMATION
#MNEM.UNIT          VALUE    DESCRIPTION
#----------   ------------   ------------------------------
 EKB .F         5046.0000:   Kelly bushing
 EGL .F         5036.0000:   Ground level
 TD  .F         3111.0000:   Total depth
 DATE.        31-AUG-1977:   Date logged
 CLNT.            A2DTECH:   Client Code
 SL  . 2310' FNL & 330' FWL:   Surface Location
 PD  .                 GL:   Permanent Datum
 EPD .F              5036:   Elevation Permanent Datum
 LMF .                 KB:   Log Measured From
 DMF .                 KB:   Drilling Measured From
 DAPD.F                10:   Feet Above Permanent Datum
 DD  .F              3109:   Depth driller
 DL  .F              3111:   Depth logger
 BLI .F              3109:   Bottom log interval
 TLI .F               217:   Top log interval
 CS1 .IN             8.75:   Casing size
 CBD1.       8.75" @ 215':   Casing driller 1
 CBL1.F               217:   Casing logger 1
 BS1 .IN            7.875:   Bit size
 BSD1.F              3109:   Depth drilled with bit1
 DFT .                GEL:   Type fluid in hole
 DFD .                8.8:   Density
 DFV .                 35:   Viscosity
 DFPH.                 10:   pH
 DFL .                8.8:   Fluid loss
 MSS .                PIT:   Source of sample
 RMS .OHMM            .36:   Rm
 MST .F                67:   Rm Meas. temp.
 RMF .OHMM            .24:   Rmf
 MFST.F                67:   Rmf Meas. temp.
 RMC .OHMM            .51:   Rmc
 MCST.F                67:   Rmc Meas. temp.
 MFSS.               MEAS:   Source Rmf.
 MCSS.               CALC:   Source Rmc.
 RMB .OHMM            .20:   Rm. at BHT
 BHT .F               121:   BHT.
 TCS .HRS               5:   Time Circ. stopped
 MRT .F               121:   Maximum recorded temp.
 LUN .               6080:   Logging unit number
 LUL .              WLSTN:   Logging unit location
 ENGI.               BALL:   Recorded By
 WITN.         PETTINGILL:   Witnessed by
 ORIG.      2.5" 5" PRINT:   Origin of data
 UWI .     49025104280000:   Unique Well ID
 DICO. A2D TECHNOLOGIES, INC.:   Digitizing Company
~OTHER INFORMATION
~A   DEPT      GRD         CALD     RHOB       CORR       NPHI        SPR        RXO        LLD        LLS        TENR      TEND   
# ...
 1735.0000    96.0661     9.9285     2.5411     0.0155     0.2856   -36.4771     6.6570     8.2640     7.8462    87.6662   100.6374
 1735.5000    97.2510     9.9082     2.5301     0.0135     0.2845   -36.4741     6.6572     8.2641     7.8463    87.7486    85.2966
 1736.0000    98.4358     9.8680     2.5371     0.0115     0.2833   -36.8716     6.6573     8.1146     7.8464    87.8310    97.2404
 1736.5000    99.2231     9.7881     2.5370     0.0095     0.2849   -36.8686     6.5370     8.1147     7.8466    87.9134    93.3275
 1737.0000   100.4079     9.7678     2.5351     0.0095     0.2849   -37.2661     6.5371     7.6820     7.8467    87.9958    86.3533
 1737.5000   101.1951     9.7675     2.5321     0.0090     0.2825   -37.2631     6.4190     7.5430     7.8470    88.0782    89.4304
 1738.0000   102.3800     9.7473     2.5330     0.0109     0.2817   -37.2611     6.4191     7.5431     7.8470    88.1606    97.3982
 1738.5000   103.5648     9.7667     2.5430     0.0109     0.2841   -37.2581     6.4193     7.5433     7.5658    88.2430    93.4853
 1739.0000   103.5569     9.8061     2.5529     0.0109     0.2778   -37.2571     6.4194     7.5434     7.8474    88.3254    93.5011
 1739.5000   103.5489     9.7659     2.5489     0.0109     0.2703   -37.2531     6.4195     7.5436     7.8476    88.4078    93.5642
 1740.0000   101.9507     9.7656     2.5459     0.0109     0.2671   -37.2511     6.4197     7.5437     7.7182    88.4902    65.7557
 1740.5000   100.7500     9.7652     2.5459     0.0090     0.2655   -36.8484     6.5381     7.6830     7.7057    88.5725    97.6191
 1741.0000   100.3445     9.7449     2.5509     0.0129     0.2659   -36.8464     6.5383     7.6831     7.7060    88.6549   101.6030
 1741.5000   101.1318     9.7445     2.5449     0.0070     0.2675   -36.8434     6.6589     7.6833     7.9451    88.7373   105.6500
 1742.0000   102.7142     9.7441     2.5210    -0.0010     0.2664   -36.8414     6.6590     8.1164     7.9452    88.8197    85.7857
 1742.5000   103.5014     9.7437     2.5081    -0.0129     0.2636   -36.8383     6.6592     8.1165     7.9188    88.9021   117.6570
 1743.0000   103.8911     9.7433     2.5180    -0.0089     0.2624   -36.8363     6.6593     8.1166     7.8925    88.9845   117.6727
 1743.5000   103.4856     9.7428     2.5349    -0.0010     0.2743   -36.8333     6.6595     8.1167     7.8662    89.0669   125.6958
 1744.0000   103.8752     9.7423     2.5486     0.0050     0.2791   -36.8313     6.6596     8.1168     7.8400    89.1493   109.8075
 1744.5000   105.8552     9.7420     2.5622     0.0133     0.2799   -36.8283     6.6598     7.6842     7.8140    89.2317   121.7908
 1745.0000   107.4376     9.7614     2.5747     0.0249     0.2700   -36.8262     6.7826     7.6843     7.7880    89.3141   115.1146
 1745.5000   109.4176     9.8008     2.5747     0.0209     0.2652   -36.8233     6.5396     7.6844     7.7621    89.3965   105.9735
 1746.0000   109.4097     9.8203     2.5538     0.0209     0.2649   -36.8212     6.3052     7.5455     7.7362    89.4789   102.0053
 1746.5000   109.0042     9.8597     2.5448     0.0189     0.2661   -36.8182     6.1913     7.5456     7.7105    89.5613    98.1003
 1747.0000   105.4181     9.9388     2.5358     0.0129     0.2732   -36.8152     6.0794     7.4092     7.6848    89.6436    98.1082
 1747.5000   102.2295     9.9384     2.5289     0.0070     0.2756   -36.8132     5.9696     7.4093     7.6593    89.7260    90.2272
 1748.0000    99.0409     9.9380     2.5269     0.0149     0.2744   -36.8101     5.9697     7.4095     7.6338    89.8084    82.2909
 1748.5000    98.2378     9.9376     2.5249     0.0149     0.2720   -36.8081     5.9699     7.4096     7.6084    89.8908   102.2341
 1749.0000    98.2299     9.9372     2.5199     0.0189     0.2768   -37.2051     6.0800     7.4098     7.5831    89.9732   106.2180
 1749.5000    98.2220     9.9568     2.5109     0.0169     0.2788   -37.2031     6.1922     7.4099     7.5579    90.0556    94.3610
 1750.0000    98.2058    10.0356     2.5119     0.0189     0.2784   -37.2001     6.5409     7.4101     7.5237    90.1380    86.4484
 1750.5000    98.6153     9.9964     2.5169     0.0169     0.2737   -37.1981     6.5410     7.4102     7.5237    90.2204   104.5290
 1751.0000    99.4226     9.9770     2.5219     0.0070     0.2784   -37.1950     6.5412     7.4105     7.5239    90.3028   102.8169
 1751.5000    99.8322     9.9577     2.5279     0.0050     0.2848   -37.1930     6.5413     7.4105     7.5240    90.3852   110.1921
 1752.0000    99.8442     9.9583     2.5309    -0.0009     0.2872   -36.7900     6.4232     7.4107     7.5242    90.4676   126.0812
 1752.5000    99.8561     9.9190     2.5219    -0.0049     0.2888   -36.7879     6.4232     7.5474     7.5243    90.5500   110.1122
 1753.0000    99.8680     9.8997     2.5140    -0.0088     0.2888   -36.7849     6.4234     7.5476     7.5245    90.6323   106.0801
 1753.5000    99.4822     9.9003     2.5110    -0.0088     0.2872   -36.7829     6.4236     7.5477     7.6634    90.7147   106.0561
 1754.0000    99.4941     9.8811     2.5190    -0.0010     0.2856   -36.7799     6.4238     7.6870     7.6635    90.7971   125.9135
 1754.5000    98.7104     9.8817     2.5289     0.0010     0.2773   -36.7778     6.6627     7.6871     7.6636    90.8795    98.0238
 1755.0000    99.1201     9.8823     2.5339     0.0030     0.2741   -36.7768     6.6629     7.8289     7.8051    90.9619   105.9524
 1755.5000    99.5299     9.9027     2.5319     0.0030     0.2761   -36.8301     6.5425     7.6874     7.8052    91.0443    97.9439
 1756.0000   100.3375     9.9032     2.5309     0.0070     0.2801   -36.8835     6.5427     7.6875     7.8054    91.1267   101.8962
 1756.5000    99.9516     9.9038     2.5329     0.0030     0.2801   -36.9368     6.6633     7.6877     7.8055    91.2091   101.8404
 1757.0000    99.9636     9.9243     2.5375     0.0050     0.2758   -36.9901     6.6635     7.5487     7.6644    91.2915   105.8007
 1757.5000    99.5776     9.9446     2.5409     0.0070     0.2738   -37.0434     6.6636     7.5488     7.6645    91.3739   101.7605
 1758.0000    99.5895     9.9451     2.5369     0.0109     0.2746   -37.0967     6.6637     7.5490     7.6647    91.4563   109.6811
 1758.5000   102.3869     9.9853     2.5389     0.0113     0.2750   -37.1569     6.5434     7.4125     7.6648    91.5387   101.6807
 1759.0000   103.9908     9.9928     2.5439     0.0113     0.2746   -37.1549     6.6640     7.4127     7.6650    91.6211   101.6567
 1759.5000   105.5947    10.0003     2.5469     0.0113     0.2730   -37.1529     6.6642     7.5494     7.6651    91.7034   113.5377
 1760.0000   107.1988    10.0078     2.5429     0.0133     0.2735   -37.1499     6.6643     7.6887     7.8066    91.7858    85.6638
 1760.5000   108.8030    10.0153     2.5380     0.0133     0.2742   -37.1479     6.6644     7.6888     7.9506    91.8682   105.4973
 1761.0000   111.2034    10.0228     2.5320     0.0094     0.2778   -37.1449     6.9123     8.1219     8.0973    91.9506    93.5445
 1761.5000   110.8177    10.0303     2.5310     0.0074     0.2818   -37.1429     7.0397     8.1220     8.3988    92.0330    97.4729
 1762.0000   109.6360    10.0379     2.5231     0.0054     0.2818   -37.1399     7.0399     8.1221     8.3989    92.1154   105.3855
 1762.5000   108.0561    10.0454     2.5241     0.0055     0.2806   -37.3376     7.3017     8.2720     8.3991    92.1978   105.3456
 1763.0000   106.4761    10.0501     2.5281     0.0075     0.2798   -36.9338     7.4363     8.4245     8.3992    92.2467    89.4086
 1763.5000   105.2940    10.0508     2.5341     0.0095     0.2803   -36.9328     7.5734     8.5799     8.3994    92.2918   101.2895
 1764.0000   104.5100    10.0115     2.5410     0.0135     0.2815   -36.9298     7.5735     8.7381     8.5543    92.3218    81.3682
 1764.5000   103.3278     9.9723     2.5460     0.0175     0.2838   -36.9271     7.5737     8.7382     8.5545    92.3368   105.1859
 1765.0000   102.9418     9.9529     2.5411     0.0115     0.2866   -36.9248     7.5738     8.7383     8.5546    92.3747    93.2172
