~VERSION INFORMATION
 VERS.                2.0:   CWLS LOG ASCII STANDARD - VERSION 2.0
 WRAP.                 NO:   ONE LINE PER DEPTH STEP
~WELL INFORMATION
#MNEM.UNIT      DATA TYPE    INFORMATION
#----------   ------------   ------------------------------
 STRT.F           63.5000:   START DEPTH
 STOP.F         4112.0000:   STOP DEPTH
 STEP.F            0.5000:   STEP LENGTH
 NULL.          -999.2500:   NO VALUE
 COMP. LAWRENCE-ALLISON & ASSOC:   COMPANY
 WELL. LAWRENCE "X" #34-34:   WELL
 FLD .           N.P.R.#3:   FIELD
 LOC .      S34 T39N R78W:   LOCATION
 CNTY.            NATRONA:   COUNTY
 STAT.            WYOMING:   STATE
 CTRY. UNITED STATES OF AMERICA:   COUNTRY
 SRVC.      DRESSER ATLAS:   SERVICE COMPANY
 DATE.        19-OCT-1983:   LOGDATE
 API .     49025109440000:   API NUMBER
~CURVE INFORMATION
#MNEM.UNIT       API CODE    CURVE DESCRIPTION
#----------   ------------   ------------------------------
 DEPT.F                  :   
 AC  .US/F   60 250 00 00:   ACCOUSTIC
 TENS.LBS    60 635 01 00:   TENSION FROM SONIC
 ILD .OHMM   07 120 46 00:   DEEP INDUCTION RESISTIVITY
 ILM .OHMM   07 120 44 00:   INDUCTION LOG MEDIUM RESISTIVITY
 RFOC.OHMM   07 220 04 00:   RESISTIVITY FOCUSED LOG RES.
 TENR.LBS    07 635 01 00:   TENSION FROM RESISTIVITY
 SPR .MV     07 010 01 00:   SPONTANEOUS POTENTIAL
 GRR .GAPI   07 310 01 00:   GAMMA RAY FROM RESISTIVITY
 CALD.IN     45 280 60 00:   CALIPER FROM DENSITY LOG
 RHOB.G/C3   45 350 01 00:   BULK DENSITY
 CORR.G/C3   45 356 01 00:   DENSITY CORRECTION
 TEND.LBS    45 635 01 00:   TENSION FROM DENSITY LOG
 NPHI.DEC    42 890 03 00:   NEUTRON POROSITY SANDSTONE
~PARAMETER INFORMATION
#MNEM.UNIT          VALUE    DESCRIPTION
#----------   ------------   ------------------------------
 EKB .F         5100.0000:   Kelly bushing
 EGL .F         5090.0000:   Ground level
 TD  .F         4107.0000:   Total depth
 DATE.        19-OCT-1983:   Date logged
 CLNT.            A2DTECH:   Client Code
 SL  . 1997' FNL & 1661' FWL:   Surface Location
 PD  .                 GL:   Permanent Datum
 EPD .F              5090:   Elevation Permanent Datum
 LMF .                 KB:   Log Measured From
 DMF .                 KB:   Drilling Measured From
 DAPD.F                10:   Feet Above Permanent Datum
 DD  .F              4107:   Depth driller
 DL  .F              4102:   Depth logger
 BLI .F              4100:   Bottom log interval
 CS1 .IN            9.625:   Casing size
 CBD1.      9.625" @ 695':   Casing driller 1
 CBL1.F               696:   Casing logger 1
 BS1 .IN            7.875:   Bit size
 BSD1.F              4107:   Depth drilled with bit1
 DFT .            GEL-KCL:   Type fluid in hole
 DFD .                  9:   Density
 DFV .                 43:   Viscosity
 DFPH.                  9:   pH
 DFL .                 11:   Fluid loss
 MSS .           FLOWLINE:   Source of sample
 RMS .OHMM          0.313:   Rm
 MST .F                72:   Rm Meas. temp.
 RMF .OHMM          0.265:   Rmf
 MFST.F                68:   Rmf Meas. temp.
 RMC .OHMM          0.598:   Rmc
 MCST.F                68:   Rmc Meas. temp.
 MFSS.               MEAS:   Source Rmf.
 MCSS.               MEAS:   Source Rmc.
 RMB .OHMM          0.173:   Rm. at BHT
 BHT .F               130:   BHT.
 TCS .HRS               4:   Time Circ. stopped
 MRT .F               130:   Maximum recorded temp.
 LUN .               6774:   Logging unit number
 LUL .               GLTE:   Logging unit location
 ENGI.           FAHLEING:   Recorded By
 WITN.           JENNINGS:   Witnessed by
 ORIG.           5" PRINT:   Origin of data
 UWI .     49025109440000:   Unique Well ID
 DICO. A2D TECHNOLOGIES, INC.:   Digitizing Company
~OTHER INFORMATION
~A   DEPT       AC       TENS        ILD        ILM       RFOC       TENR        SPR         GRR      CALD       RHOB       CORR       TEND       NPHI   
# ...
 1597.5000  -999.2500  -999.2500     6.2960     6.3650     6.5270   -55.9500   -68.0000   103.5630     9.1570     2.5640     0.0150    -6.8820     0.2800
 1598.0000  -999.2500  -999.2500     6.3560     6.4170     6.5900   -58.7920   -68.0200   101.4110     9.1590     2.5540     0.0080    -5.2370     0.2610
 1598.5000  -999.2500  -999.2500     6.4160     6.4690     6.6540   -61.6350   -68.1110   101.1980     9.1600     2.5440     0.0010    -3.5910     0.2520
 1599.0000  -999.2500  -999.2500     6.4760     6.5210     6.7170   -58.9390   -68.2050   100.9930     9.1620     2.5360    -0.0030    -1.9450     0.2510
 1599.5000  -999.2500  -999.2500     6.5360     6.5730     6.7750   -53.5570   -68.2980   100.7720     9.1640     2.5310    -0.0040    -0.2990     0.2500
 1600.0000  -999.2500  -999.2500     6.5960     6.6250     6.7750   -48.1740   -68.3650    99.8390     9.1650     2.5310    -0.0050     1.3470     0.2490
 1600.5000  -999.2500  -999.2500     6.6490     6.6770     6.7750   -42.3000   -68.3580    96.7220     9.1670     2.5350    -0.0050     2.9920     0.2400
 1601.0000  -999.2500  -999.2500     6.6390     6.7120     6.7750   -44.1200   -68.3510    96.8240     9.1680     2.5460     0.0070     4.6380     0.2340
 1601.5000  -999.2500  -999.2500     6.6290     6.5510     6.7750   -46.1220   -68.3450    97.4720     9.1700     2.5540     0.0310     6.2840     0.2350
 1602.0000  -999.2500  -999.2500     6.6190     6.4280     6.7750   -48.1250   -68.3390    98.9270     9.1710     2.5600     0.0480     7.9300     0.2350
 1602.5000  -999.2500  -999.2500     6.6090     6.3260     6.7750   -50.1270   -68.3330    99.6520     9.1730     2.5530     0.0510     9.5760     0.2440
 1603.0000  -999.2500  -999.2500     6.5990     6.2660     6.7750   -52.1300   -68.3260   101.5250     9.1740     2.5440     0.0430    11.2210     0.2530
 1603.5000  -999.2500  -999.2500     6.5880     6.2060     6.8390   -54.1320   -68.3200   104.7020     9.1760     2.5350     0.0350    12.8670     0.2590
 1604.0000  -999.2500  -999.2500     6.4960     6.1450     6.8210   -56.1350   -68.3140   107.0630     9.1770     2.5300     0.0360    14.5130     0.2480
 1604.5000  -999.2500  -999.2500     6.4000     6.0850     6.7720   -58.1370   -68.3080   107.3470     9.1790     2.5260     0.0440    16.1590     0.2460
 1605.0000  -999.2500  -999.2500     6.3030     6.0250     6.7230   -60.1400   -68.3010   106.7190     9.1810     2.5260     0.0490    17.8050     0.2560
 1605.5000  -999.2500  -999.2500     6.2070     5.9640     6.6760   -62.1420   -68.2950   106.1080     9.1820     2.5260     0.0260    18.0820     0.2630
 1606.0000  -999.2500  -999.2500     6.1100     5.9040     6.4830   -62.0830   -68.2890   105.4980     9.1830     2.5210     0.0030    17.3830     0.2670
 1606.5000  -999.2500  -999.2500     6.0140     5.8440     6.2900   -61.4750   -68.2820   105.5640     9.1840     2.5170    -0.0090    16.6830     0.2710
 1607.0000  -999.2500  -999.2500     5.9180     5.7840     6.0960   -60.8670   -68.2760   108.0580     9.1850     2.5220    -0.0070    15.9840     0.2720
 1607.5000  -999.2500  -999.2500     5.8210     5.7230     5.9450   -60.2600   -68.2700   109.8970     9.1860     2.5270     0.0040    15.2840     0.2660
 1608.0000  -999.2500  -999.2500     5.7280     5.6630     6.0540   -59.6520   -68.2640   110.1160     9.1870     2.5300     0.0140    14.5850     0.2640
 1608.5000  -999.2500  -999.2500     5.6890     5.6030     6.1440   -59.0440   -68.2570   110.0210     9.1880     2.5310    -0.0080    13.8850     0.2650
 1609.0000  -999.2500  -999.2500     5.6520     5.5420     6.2290   -58.4360   -68.2510   112.1100     9.1890     2.5330    -0.0210    13.1860     0.2670
 1609.5000  -999.2500  -999.2500     5.6150     5.4820     6.0050   -57.8280   -68.2450   112.9390     9.1900     2.5330     0.0030    12.4860     0.2660
 1610.0000  -999.2500  -999.2500     5.5780     5.4220     5.6740   -57.2200   -68.2380   114.3440     9.1910     2.5260     0.0140    11.7870     0.2640
 1610.5000  -999.2500  -999.2500     5.5410     5.3650     5.6830   -56.6120   -68.2320   117.1180     9.1920     2.5180     0.0180    11.0870     0.2640
 1611.0000  -999.2500  -999.2500     5.5040     5.3370     5.7020   -56.0040   -68.2260   120.1210     9.1930     2.5160     0.0210    10.3880     0.2770
 1611.5000  -999.2500  -999.2500     5.4670     5.3110     5.7200   -55.3960   -68.2200   121.0600     9.1940     2.5220     0.0360     9.6880     0.2740
 1612.0000  -999.2500  -999.2500     5.4300     5.2850     5.7390   -54.7880   -68.2130   119.6470     9.1960     2.5270     0.0330     8.9890     0.2630
 1612.5000  -999.2500  -999.2500     5.3930     5.2630     5.7570   -54.1810   -68.2070   118.9310     9.1970     2.5160    -0.0100     8.3590     0.2560
 1613.0000  -999.2500  -999.2500     5.3560     5.2520     5.7760   -53.5730   -68.2010   116.9430     9.1980     2.5050    -0.0160     7.6100     0.2570
 1613.5000  -999.2500  -999.2500     5.3160     5.2410     5.8710   -52.9650   -68.1940   113.5460     9.1990     2.5090    -0.0180     6.9290     0.2660
 1614.0000  -999.2500  -999.2500     5.2970     5.2300     6.0570   -51.9080   -68.1880   111.0710     9.2000     2.5180    -0.0070     6.2490     0.2720
 1614.5000  -999.2500  -999.2500     5.2760     5.2190     5.9650   -47.6530   -68.1820   111.4820     9.2010     2.5220     0.0060     5.5680     0.2730
 1615.0000  -999.2500  -999.2500     5.2630     5.2080     5.7900   -43.3980   -68.1750   113.9170     9.2020     2.5220     0.0110     4.8870     0.2720
 1615.5000  -999.2500  -999.2500     5.2570     5.1980     5.6150   -39.1420   -68.1700   115.1650     9.2030     2.5220     0.0150     4.2060     0.2710
 1616.0000  -999.2500  -999.2500     5.2520     5.1870     5.4660   -34.8870   -68.1640   116.0000     9.2040     2.5220     0.0160     3.5250     0.2670
 1616.5000  -999.2500  -999.2500     5.2460     5.1760     5.6030   -30.6320   -68.2540   113.9120     9.2050     2.5260     0.0160     2.8440     0.2620
 1617.0000  -999.2500  -999.2500     5.2400     5.1690     5.7220   -26.3760   -68.4160   112.1390     9.2060     2.5320     0.0150     2.1630     0.2580
 1617.5000  -999.2500  -999.2500     5.2340     5.1690     5.8900   -22.0360   -68.5790   110.3610     9.2070     2.5400     0.0140     1.4830     0.2570
 1618.0000  -999.2500  -999.2500     5.2280     5.1690     5.7950   -28.7100   -68.7420   109.8040     9.2080     2.5410     0.0130     0.8020     0.2630
 1618.5000  -999.2500  -999.2500     5.2230     5.1690     5.7280   -35.5180   -68.9180   109.7050     9.2090     2.5360     0.0270     0.1210     0.2700
 1619.0000  -999.2500  -999.2500     5.2170     5.1690     5.7280   -42.3000   -68.7080   112.3670     9.2100     2.5300     0.0340    -0.5600     0.2770
 1619.5000  -999.2500  -999.2500     5.2110     5.1690     5.7280   -42.3000   -68.5910   115.3150     9.2110     2.5300     0.0400    -1.2410     0.2830
 1620.0000  -999.2500  -999.2500     5.2050     5.1690     5.6910   -42.3000   -68.4630   118.2670     9.2120     2.5350     0.0410    -2.3170     0.2850
 1620.5000  -999.2500  -999.2500     5.2000     5.1560     5.6030   -42.3000   -68.3340   120.8910     9.2130     2.5430     0.0370    -4.8080     0.2840
 1621.0000  -999.2500  -999.2500     5.1940     5.1350     5.5160   -41.7030   -68.2060   120.0060     9.2140     2.5470     0.0320    -7.2990     0.2830
 1621.5000  -999.2500  -999.2500     5.1880     5.1140     5.4660   -40.3230   -68.0780   117.8290     9.2150     2.5440     0.0280    -9.7890     0.2800
 1622.0000  -999.2500  -999.2500     5.1820     5.0930     5.7240   -38.9430   -67.9590   116.0510     9.2170     2.5390     0.0230   -12.2800     0.2710
 1622.5000  -999.2500  -999.2500     5.1770     5.0730     6.0010   -37.5630   -68.0470   116.0980     9.2180     2.5390     0.0250   -14.7710     0.2640
 1623.0000  -999.2500  -999.2500     5.1690     5.1040     5.8930   -36.1830   -68.1530   116.1800     9.2190     2.5380     0.0280   -17.2620     0.2710
