~VERSION INFORMATION
 VERS.                2.0:   CWLS LOG ASCII STANDARD - VERSION 2.0
 WRAP.                 NO:   ONE LINE PER DEPTH STEP
~WELL INFORMATION
#MNEM.UNIT      DATA TYPE    INFORMATION
#----------   ------------   ------------------------------
 STRT.F          198.0000:   START DEPTH
 STOP.F         3140.0000:   STOP DEPTH
 STEP.F            0.5000:   STEP LENGTH
 NULL.          -999.2500:   NO VALUE
 COMP.    FENIX & SCISSON:   COMPANY
 WELL. FENIX NPR 3 "AX" #43-34:   WELL
 FLD .                NPR:   FIELD
 LOC .      S34 T39N R78W:   LOCATION
 CNTY.            NATRONA:   COUNTY
 STAT.            WYOMING:   STATE
 CTRY. UNITED STATES OF AMERICA:   COUNTRY
 SRVC.              WELEX:   SERVICE COMPANY
 DATE.        02-JUL-1977:   LOGDATE
 API .     49025103890000:   API NUMBER
~CURVE INFORMATION
#MNEM.UNIT       API CODE    CURVE DESCRIPTION
#----------   ------------   ------------------------------
 DEPT.F                  :   
 CALD.IN     45 280 60 00:   CALIPER FROM DENSITY LOG
 GRD .GAPI   45 310 01 00:   GAMMA RAY FROM DENSITY LOG
 RHOB.G/C3   45 350 01 00:   BULK DENSITY
 CORR.G/C3   45 356 01 00:   DENSITY CORRECTION
 SPR .MV     07 010 01 00:   SPONTANEOUS POTENTIAL
 SFLU.OHMM   07 220 01 00:   SPHERICALLY FOCUSED LOG UNAVERAGED RESISTIVITY
 ILD .OHMM   07 120 46 00:   DEEP INDUCTION RESISTIVITY
 ILM .OHMM   07 120 44 00:   INDUCTION LOG MEDIUM RESISTIVITY
~PARAMETER INFORMATION
#MNEM.UNIT          VALUE    DESCRIPTION
#----------   ------------   ------------------------------
 EKB .F         5118.0000:   Kelly bushing
 EGL .F         5108.0000:   Ground level
 TD  .F         3145.0000:   Total depth
 DATE.        02-JUL-1977:   Date logged
 CLNT.            A2DTECH:   Client Code
 SL  . 1650' FNL & 2310' FWL:   Surface Location
 PD  .                 GL:   Permanent Datum
 EPD .F              5108:   Elevation Permanent Datum
 LMF .                 KB:   Log Measured From
 DMF .                 KB:   Drilling Measured From
 DAPD.F                10:   Feet Above Permanent Datum
 DD  .F              3145:   Depth driller
 DL  .F              3143:   Depth logger
 BLI .F              3141:   Bottom log interval
 TLI .F               200:   Top log interval
 CS1 .IN            8.625:   Casing size
 CBD1.      8.625" @ 203':   Casing driller 1
 CBL1.F               224:   Casing logger 1
 BS1 .IN            7.875:   Bit size
 BSD1.F              3145:   Depth drilled with bit1
 DFT .            KCL/MUD:   Type fluid in hole
 DFD .                  9:   Density
 DFV .                 34:   Viscosity
 DFPH.                7.5:   pH
 DFL .                9.2:   Fluid loss
 MSS .           FLOWLINE:   Source of sample
 RMS .OHMM            .18:   Rm
 MST .F                75:   Rm Meas. temp.
 RMF .OHMM            .16:   Rmf
 MFST.F                75:   Rmf Meas. temp.
 RMC .OHMM            .30:   Rmc
 MCST.F                75:   Rmc Meas. temp.
 MFSS.               FANN:   Source Rmf.
 MCSS.                KIT:   Source Rmc.
 RMB .OHMM            .11:   Rm. at BHT
 BHT .F               118:   BHT.
 TCS .HRS            3.75:   Time Circ. stopped
 MRT .F               118:   Maximum recorded temp.
 LUN .               8766:   Logging unit number
 LUL .             CASPER:   Logging unit location
 ENGI.          T. JOYNER:   Recorded By
 WITN.     W. PETTNG/GILL:   Witnessed by
 ORIG.           5" PRINT:   Origin of data
 UWI .     49025103890000:   Unique Well ID
 DICO. A2D TECHNOLOGIES, INC.:   Digitizing Company
~OTHER INFORMATION
~A   DEPT     CALD         GRD        RHOB     CORR        SPR       SFLU        ILD        ILM   
# ...
 3114.0000     8.0516   136.4892     2.4975     0.0417   -46.5474     3.5062     2.6748     2.8264
 3114.5000     8.0516   117.9542     2.4975     0.0417   -46.5517     3.5068     2.6269     2.8055
 3115.0000     8.0516   112.0371     2.4975     0.0417   -46.5601     3.5078     2.6273     2.7848
 3115.5000     8.0516  -999.2500     2.4975     0.0416   -46.5656     3.5084     2.6278     2.7642
 3116.0000     8.0318  -999.2500     2.4975     0.0416   -46.5707     3.5739     2.5812     2.7438
 3116.5000     8.0318  -999.2500     2.4975     0.0416   -46.5749     3.5100     2.5816     2.7275
 3117.0000     8.0318  -999.2500     2.4975     0.0455   -46.5812     3.3847     2.5819     2.6787
 3117.5000     8.0121  -999.2500     2.4975     0.0415   -46.5854     3.3240     2.5355     2.6792
 3118.0000     8.0121  -999.2500     2.4975     0.0415   -46.5896     3.2053     2.4008     2.5834
 3118.5000     8.0121  -999.2500     2.4975     0.0415   -46.5940     3.2059     2.4010     2.5838
 3119.0000     7.9924  -999.2500     2.4975     0.0414   -46.6003     3.1489     2.4017     2.5376
 3119.5000     7.9924  -999.2500     2.4975     0.0414   -46.6045     3.2074     2.3582     2.4919
 3120.0000     7.9727  -999.2500     2.4975     0.0414   -46.6129     3.3279     2.3591     2.4473
 3120.5000     7.9529  -999.2500     2.4975     0.0414   -46.6171     3.3900     2.3595     2.4477
 3121.0000     7.9332  -999.2500     2.4935     0.0453   -46.6234     3.3910     2.3173     2.4039
 3121.5000     7.9349  -999.2500     2.4885     0.0453   -46.6292     3.3916     2.2755     2.4043
 3122.0000     7.9366  -999.2500     2.4836     0.0453   -46.6319     3.2705     2.1940     2.4050
 3122.5000     7.9383  -999.2500     2.4786     0.0452   -46.2400     2.9850     2.1547     2.4054
 3123.0000     7.9400  -999.2500     2.4726     0.0452   -46.2464     2.8785     2.1952     2.4061
 3123.5000     7.9417  -999.2500     2.4646     0.0452   -46.6488     2.8790     2.1956     2.4511
 3124.0000     7.9434  -999.2500     2.4616     0.0452   -46.6530     3.0424     2.1962     2.4518
 3124.5000     7.9451  -999.2500     2.4646     0.0451   -46.6572     3.3346     2.1964     2.5439
 3125.0000     7.9468  -999.2500     2.4766     0.0451   -46.6656     3.5239     2.1972     2.5917
 3125.5000     7.9485  -999.2500     2.4856     0.0451   -46.6677     3.4606     2.1976     2.6401
 3126.0000     7.9502  -999.2500     2.4955     0.0490   -46.6354     3.4615     2.3656     2.8946
 3126.5000     7.9519  -999.2500     2.4995     0.0490   -46.6032     3.5261     2.4096     2.8951
 3127.0000     7.9536  -999.2500     2.4985     0.0490   -46.5709     3.7951     2.5469     3.0598
 3127.5000     7.9553  -999.2500     2.4995     0.0490   -46.5386     4.0101     2.6423     3.0603
 3128.0000     7.9570  -999.2500     2.5055     0.0330   -46.5063     4.9967     2.8973     3.2943
 3128.5000     7.9586  -999.2500     2.5115     0.0449   -46.4741     5.3773     2.9426     3.4810
 3129.0000     7.9603  -999.2500     2.5154     0.0449   -46.4418     5.6820     3.0066     3.6793
 3129.5000     7.9620  -999.2500     2.5154     0.0449   -46.4095     4.9092     3.2365     3.7482
 3130.0000     7.9637  -999.2500     2.5134     0.0448   -46.3773     4.3199     3.4206     4.0347
 3130.5000     7.9654  -999.2500     2.5124     0.0448   -46.3450     4.3207     3.5491     4.1863
 3131.0000     7.9671  -999.2500     2.5124     0.0448   -46.3127     5.0960     3.5500     4.2646
 3131.5000     7.9688  -999.2500     2.5115     0.0448   -46.2804     5.2870     3.5507     4.5071
 3132.0000     7.9705  -999.2500     2.5065     0.0567   -46.2482     7.3527     3.4871     4.5918
 3132.5000     7.9727  -999.2500     2.5015     0.0567   -46.2159     7.3541     3.4243     4.7643
 3133.0000     7.9727  -999.2500  -999.2500     0.0566   -46.1836     6.2386     3.3630     4.8539
 3133.5000     7.9727  -999.2500  -999.2500  -999.2500   -46.1513     6.3550     3.3025     4.8548
 3134.0000  -999.2500  -999.2500  -999.2500  -999.2500   -46.1191     7.2259     3.1844     4.7674
 3134.5000  -999.2500  -999.2500  -999.2500  -999.2500   -46.0868     7.4968     3.1849     4.7687
 3135.0000  -999.2500  -999.2500  -999.2500  -999.2500   -46.0545     7.7792     3.0710     4.7696
 3135.5000  -999.2500  -999.2500  -999.2500  -999.2500   -46.0223     8.0701     3.0716     4.7705
 3136.0000  -999.2500  -999.2500  -999.2500  -999.2500   -45.9890     7.7821     3.0166     4.7713
 3136.5000  -999.2500  -999.2500  -999.2500  -999.2500   -45.9943     7.6423     3.2469     4.7726
 3137.0000  -999.2500  -999.2500  -999.2500  -999.2500   -45.9975     7.6444     3.3689     4.7744
 3137.5000  -999.2500  -999.2500  -999.2500  -999.2500   -45.6079     7.3716     3.4322     4.7753
 3138.0000  -999.2500  -999.2500  -999.2500  -999.2500   -45.6090     7.7892     3.4967     4.7766
 3138.5000  -999.2500  -999.2500  -999.2500  -999.2500   -45.6154     7.7906     3.4974     4.7775
 3139.0000  -999.2500  -999.2500  -999.2500  -999.2500   -45.6218     8.3849     3.4983  -999.2500
 3139.5000  -999.2500  -999.2500  -999.2500  -999.2500   -45.6282     8.8599  -999.2500  -999.2500
 3140.0000  -999.2500  -999.2500  -999.2500  -999.2500   -46.5644     8.8615  -999.2500  -999.2500
