~VERSION INFORMATION
 VERS.                2.0:   CWLS LOG ASCII STANDARD - VERSION 2.0
 WRAP.                 NO:   ONE LINE PER DEPTH STEP
~WELL INFORMATION
#MNEM.UNIT      DATA TYPE    INFORMATION
#----------   ------------   ------------------------------
 STRT.F         2299.0000:   START DEPTH
 STOP.F         3387.5000:   STOP DEPTH
 STEP.F            0.5000:   STEP LENGTH
 NULL.          -999.2500:   NO VALUE
 COMP. LAWRENCE ALLISON AND ASSOCIATES:   COMPANY
 WELL. 		  62-AX-3:   WELL
 FLD .                NPR:   FIELD
 LOC .       S3 T38N R78W:   LOCATION
 CNTY.            NATRONA:   COUNTY
 STAT.            WYOMING:   STATE
 CTRY. UNITED STATES OF AMERICA:   COUNTRY
 SRVC.      DRESSER ATLAS:   SERVICE COMPANY
 DATE.        14-JUN-1985:   LOGDATE
 API .     49025110330000:   API NUMBER
~CURVE INFORMATION
#MNEM.UNIT       API CODE    CURVE DESCRIPTION
#----------   ------------   ------------------------------
 DEPT.F                  :   
 NPHI.DEC    42 890 01 00:   NEUTRON POROSITY
 TEND.LBS    45 635 01 00:   TENSION
 RHOB.G/C3   45 350 01 00:   BULK DENSITY
 CORR.DEC    45 356 01 00:   CORRECTION
~PARAMETER INFORMATION
#MNEM.UNIT          VALUE    DESCRIPTION
#----------   ------------   ------------------------------
 EKB .F         5160.0000:   Kelly bushing
 EGL .F         5148.0000:   Ground level
 EDF .F            0.0000:   Drilling floor
 EPD .F         5148.0000:   Permanent datum
 TD  .F         3380.0000:   Total depth
 DATE.        14-JUN-1985:   Date logged
 CLNT.            A2DTECH:   Client Code
 PD  .                 GL:   Permanent Datum
 LMF .                 KB:   Log Measured From
 DMF .                 KB:   Drilling Measured From
 DL  .F              3380:   Depth logger
 BLI .F              3378:   Bottom log interval
 CS1 .IN            8.625:   Casing size
 CBD1.      8.625" @ 603':   Casing driller 1
 DFT .        KCL POLYMER:   Type fluid in hole
 ENGI.               MACK:   Recorded By
 WITN.             STRONG:   Witnessed by
 ORIG.       2.5"5" PRINT:   Origin of data
 UWI .     49025110330000:   Unique Well ID
 DICO. A2D TECHNOLOGIES, INC.:   Digitizing Company
 DAPD.F                12:   Feet Above Permanent Datum
 BS1 .IN            7.875:   Bit size
 DFD .                8.9:   Density
 DFV .                 46:   Viscosity
 DFPH.                8.5:   pH
 DFL .                9.6:   Fluid loss
 MSS .           FLOWLINE:   Source of sample
 RMS .OHMM           0.38:   Rm
 MST .F                74:   Rm Meas. temp.
 RMF .OHMM           0.29:   Rmf
 MFST.F                74:   Rmf Meas. temp.
 MFSS.               MEAS:   Source Rmf.
 RMC .OHMM           0.23:   Rmc
 MCST.F               120:   Rmc Meas. temp.
 MCSS.               MEAS:   Source Rmc.
 RMB .OHMM           0.23:   Rm. at BHT
 BHT .F               120:   BHT.
 TCS .                  8:   Time Circ. stopped
 MRT .                122:   Maximum recorded temp.
 LUN .            HL-6274:   Logging unit number
 LUL .               GLTE:   Logging unit location
~OTHER INFORMATION
~A     DEPTH         CORR         NPHI         RHOB         TEND
   2299.0000    -999.2500       0.3017    -999.2500    -999.2500
   2299.5000    -999.2500       0.3176    -999.2500    -999.2500
   2300.0000       0.0010       0.3229    -999.2500    -999.2500
   2300.5000       0.0040       0.3310       2.4580    -999.2500
   2301.0000       0.0060       0.3294       2.4560       0.2070
   2301.5000      -0.0010       0.3273       2.4500       0.2099
   2302.0000      -0.0060       0.3407       2.4480       0.2129
   2302.5000      -0.0170       0.3539       2.4550       0.2123
   2303.0000      -0.0110       0.3529       2.4680       0.2099
   2303.5000      -0.0040       0.3472       2.4750       0.2075
   2304.0000       0.0040       0.3410       2.4780       0.2051
   2304.5000       0.0180       0.3336       2.4610       0.2051
   2305.0000       0.0460       0.3291       2.4200       0.2094
   2305.5000       0.0750       0.3018       2.3660       0.2136
   2306.0000       0.0810       0.2969       2.3650       0.2179
   2306.5000      -0.0020       0.2915       2.4050       0.2222
   2307.0000      -0.0260       0.2948       2.4250       0.2265
   2307.5000      -0.0290       0.3078       2.4510       0.2308
   2308.0000      -0.0260       0.3333       2.4630       0.2246
   2308.5000      -0.0230       0.3387       2.4270       0.2024
   2309.0000       0.0050       0.3422       2.3930       0.1970
   2309.5000       0.0140       0.3356       2.3770       0.2025
   2310.0000       0.0000       0.3125       2.3710       0.2081
   2310.5000      -0.0010       0.2999       2.4050       0.2135
   2311.0000       0.0100       0.2994       2.4360       0.2135
   2311.5000       0.0220       0.3193       2.4560       0.2135
   2312.0000       0.0350       0.3344       2.4520       0.2135
   2312.5000       0.0250       0.3402       2.4320       0.2067
   2313.0000       0.0000       0.3248       2.4400       0.1962
   2313.5000       0.0030       0.2993       2.4490       0.1857
   2314.0000       0.0010       0.2962       2.4500       0.1752
   2314.5000       0.0290       0.2914       2.4130       0.1805
   2315.0000       0.0300       0.3223       2.3910       0.1881
   2315.5000       0.0100       0.3117       2.4010       0.1924
   2316.0000      -0.0080       0.3075       2.4340       0.1878
   2316.5000       0.0080       0.3134       2.4630       0.1837
   2317.0000       0.0140       0.3116       2.4640       0.1919
   2317.5000       0.0090       0.3107       2.4620       0.2010
   2318.0000      -0.0040       0.3109       2.4610       0.2022
   2318.5000      -0.0180       0.3155       2.4610       0.2003
   2319.0000      -0.0230       0.3310       2.4620       0.1984
   2319.5000      -0.0220       0.3461       2.4650       0.1964
   2320.0000      -0.0160       0.3263       2.4680       0.1945
   2320.5000      -0.0110       0.3143       2.4610       0.1944
   2321.0000      -0.0050       0.3122       2.4580       0.1958
   2321.5000      -0.0050       0.3469       2.4590       0.1972
   2322.0000      -0.0090       0.3541       2.4600       0.1986
   2322.5000      -0.0130       0.3499       2.4510       0.1999
   2323.0000      -0.0110       0.3517       2.4420       0.2013
   2323.5000      -0.0080       0.3385       2.4440       0.2027
   2324.0000      -0.0130       0.3138       2.4460       0.2008
   2324.5000      -0.0180       0.3042       2.4430       0.1936
   2325.0000      -0.0180       0.3042       2.4410       0.1936
   2325.5000      -0.0150       0.3159       2.4420       0.1936
   2326.0000      -0.0120       0.3243       2.4440       0.1936
   2326.5000      -0.0150       0.3279       2.4420       0.1936
   2327.0000      -0.0110       0.3355       2.4380       0.1936
   2327.5000      -0.0080       0.3415       2.4350       0.1936
   2328.0000      -0.0140       0.3499       2.4350       0.1936
   2328.5000       0.0020       0.3487       2.4390       0.1936
   2329.0000       0.0000       0.3391       2.4430       0.1936
   2329.5000       0.0130       0.3090       2.4310       0.1936
   2330.0000       0.0140       0.3103       2.4180       0.1936
   2330.5000      -0.0040       0.3158       2.4110       0.1936
   2331.0000      -0.0080       0.3228       2.4140       0.1936
   2331.5000      -0.0040       0.3463       2.4130       0.1936
   2332.0000       0.0180       0.3523       2.4080       0.1936
   2332.5000       0.0620       0.3436       2.2860       0.2428
   2333.0000       0.0960       0.3409       2.1070       0.2929
   2333.5000      -0.0040       0.3457       1.9920       0.2830
   2334.0000      -0.0410       0.3574       1.8650       0.2662
   2334.5000       0.1020       0.3497       2.0230       0.2020
   2335.0000       0.1000       0.3039       2.1490       0.1828
   2335.5000       0.0980       0.2953       2.2200       0.1816
   2336.0000       0.0940       0.2741       2.2910       0.1803
   2336.5000       0.0720       0.2677       2.3630       0.1791
   2337.0000       0.0770       0.2656       2.4060       0.1778
   2337.5000       0.0760       0.2700       2.4260       0.1766
   2338.0000       0.0520       0.2873       2.4450       0.1753
   2338.5000       0.0190       0.3027       2.4840       0.1741
   2339.0000       0.0230       0.3074       2.5140       0.1847
   2339.5000       0.0310       0.3073       2.5150       0.1990
   2340.0000       0.0430       0.3160       2.5110       0.2135
   2340.5000       0.0300       0.3285       2.4570       0.2081
   2341.0000       0.0130       0.3300       2.4230       0.2036
   2341.5000       0.0030       0.3188       2.4100       0.2036
   2342.0000       0.0010       0.3116       2.4140       0.2036
   2342.5000       0.0000       0.3199       2.4220       0.2091
   2343.0000       0.0040       0.3298       2.4210       0.2182
   2343.5000       0.0080       0.3316       2.4200       0.2234
   2344.0000       0.0110       0.3195       2.4210       0.2234
   2344.5000       0.0000       0.3105       2.4200       0.2234
   2345.0000      -0.0080       0.3129       2.4190       0.2234
   2345.5000      -0.0040       0.3181       2.4190       0.2234
   2346.0000       0.0000       0.3262       2.4230       0.2234
   2346.5000       0.0000       0.3265       2.4350       0.2234
   2347.0000      -0.0010       0.3229       2.4380       0.2234
   2347.5000      -0.0030       0.3216       2.4350       0.2234
   2348.0000       0.0020       0.3396       2.4320       0.2234
   2348.5000       0.0070       0.3618       2.4340       0.2234
   2349.0000       0.0120       0.3750       2.4380       0.2234
   2349.5000       0.0070       0.3799       2.4370       0.2234
   2350.0000      -0.0060       0.3607       2.4320       0.2234
   2350.5000      -0.0200       0.3406       2.4050       0.2234
   2351.0000      -0.0190       0.3318       2.4000       0.2234
   2351.5000      -0.0170       0.3249       2.4000       0.2234
   2352.0000      -0.0150       0.3186       2.4080       0.2234
   2352.5000      -0.0130       0.3158       2.4480       0.2234
   2353.0000      -0.0080       0.3155       2.4650       0.2168
   2353.5000      -0.0030       0.3188       2.4740       0.2077
   2354.0000      -0.0020       0.3230       2.4720       0.1986
   2354.5000      -0.0100       0.3294       2.4690       0.1895
   2355.0000      -0.0190       0.3403       2.4730       0.1879
   2355.5000      -0.0060       0.3297       2.4810       0.1997
   2356.0000       0.0160       0.3147       2.4930       0.2114
   2356.5000       0.0300       0.3069       2.5020       0.2234
   2357.0000       0.0210       0.3029       2.4960       0.2161
   2357.5000       0.0080       0.2999       2.4830       0.2086
   2358.0000       0.0020       0.2956       2.4760       0.2011
   2358.5000       0.0020       0.2883       2.4780       0.1936
   2359.0000       0.0020       0.2895       2.4840       0.1990
   2359.5000       0.0030       0.2924       2.4890       0.2043
   2360.0000       0.0010       0.2939       2.4910       0.2096
   2360.5000      -0.0040       0.2911       2.4740       0.2149
