~VERSION INFORMATION
 VERS.                2.0:   CWLS LOG ASCII STANDARD - VERSION 2.0
 WRAP.                 NO:   ONE LINE PER DEPTH STEP
~WELL INFORMATION
#MNEM.UNIT      DATA TYPE    INFORMATION
#----------   ------------   ------------------------------
 STRT.F          172.0000:   START DEPTH
 STOP.F         3376.0000:   STOP DEPTH
 STEP.F            0.5000:   STEP LENGTH
 NULL.          -999.2500:   NO VALUE
 COMP.    FENIX & SCISSON:   COMPANY
 WELL. FENIX NPR 3 "AX" #23-2:   WELL
 FLD .                NPR:   FIELD
 LOC .       S2 T38N R78W:   LOCATION
 CNTY.            NATRONA:   COUNTY
 STAT.            WYOMING:   STATE
 CTRY. UNITED STATES OF AMERICA:   COUNTRY
 SRVC.              WELEX:   SERVICE COMPANY
 DATE.        02-DEC-1980:   LOGDATE
 API .     49025108740000:   API NUMBER
~CURVE INFORMATION
#MNEM.UNIT       API CODE    CURVE DESCRIPTION
#----------   ------------   ------------------------------
 DEPT.F                  :   
 CALD.IN     45 280 60 00:   CALIPER FROM DENSITY LOG
 CORR.G/C3   45 356 01 00:   DENSITY CORRECTION
 GRD .GAPI   45 310 01 00:   GAMMA RAY FROM DENSITY LOG
 RHOB.G/C3   45 350 01 00:   BULK DENSITY
 TENR.LBS    07 635 01 00:   TENSION
 SPR .MV     07 010 01 00:   SPONTANEOUS POTENTIAL
 SGRD.OHMM   07 220 05 00:   SHALLOW GUARD
 ILD .OHMM   07 120 46 00:   INDUCTION LOG DEEP RESISTIVITY
 ILM .OHMM   07 120 44 00:   INDUCTION LOG MEDIUM RESISTIVITY
~PARAMETER INFORMATION
#MNEM.UNIT          VALUE    DESCRIPTION
#----------   ------------   ------------------------------
 EKB .F         5133.0000:   Kelly bushing
 EGL .F         5123.0000:   Ground level
 EDF .F            0.0000:   Drilling floor
 TD  .F         3375.0000:   Total depth
 DATE.        02-DEC-1980:   Date logged
 CLNT.            A2DTECH:   Client Code
 SL  . 3800' FSL & 827' FWL:   Surface Location
 PD  .                 GL:   Permanent Datum
 EPD .F              5123:   Elevation Permanent Datum
 LMF .                 KB:   Log Measured From
 DMF .                 KB:   Drilling Measured From
 DAPD.F                10:   Feet Above Permanent Datum
 DD  .F              3375:   Depth driller
 DL  .F              3373:   Depth logger
 BLI .F              3371:   Bottom log interval
 TLI .F               181:   Top log interval
 CS1 .IN            8.625:   Casing size
 CBD1.      8.625" @ 181':   Casing driller 1
 CBL1.F               181:   Casing logger 1
 BS1 .IN            7.875:   Bit size
 BSD1.F              3375:   Depth drilled with bit1
 DFT .           CHEM/GEL:   Type fluid in hole
 DFD .                8.8:   Density
 DFV .                 45:   Viscosity
 DFPH.                  9:   pH
 DFL .                 16:   Fluid loss
 MSS .           FLOWLINE:   Source of sample
 RMS .OHMM           1.25:   Rm
 MST .F                64:   Rm Meas. temp.
 RMF .OHMM           1.17:   Rmf
 MFST.F                64:   Rmf Meas. temp.
 RMC .OHMM            1.1:   Rmc
 MCST.F                64:   Rmc Meas. temp.
 MFSS.               MEAS:   Source Rmf.
 MCSS.               MEAS:   Source Rmc.
 RMB .OHMM            .67:   Rm. at BHT
 BHT .F               120:   BHT.
 TCS .HRS               2:   Time Circ. stopped
 MRT .F               120:   Maximum recorded temp.
 LUN .               1892:   Logging unit number
 LUL .             CASPER:   Logging unit location
 ENGI.  PFRIMMER/MONNAHAN:   Recorded By
 WITN.              FIVAS:   Witnessed by
 ORIG.           5" PRINT:   Origin of data
 UWI .     49025108740000:   Unique Well ID
 DICO. A2D TECHNOLOGIES, INC.:   Digitizing Company
~OTHER INFORMATION
~A   DEPT     CALD       CORR         GRD      RHOB       TENR        SPR       SGRD        ILD        ILM   
# ...
 1011.5000     9.8570     0.0140   115.9560     2.5400   427.3190   -20.1290     9.6610     8.9750     9.6610
 1012.0000     9.8600     0.0160   115.4800     2.5480   428.9740   -20.2730     9.6610     8.9750     9.6610
 1012.5000     9.8620     0.0190   115.9530     2.5530   430.6300   -20.4130     9.6610     8.9750     9.6610
 1013.0000     9.8620     0.0210   116.4580     2.5540   432.2850   -20.5570     9.6610     8.9750     9.6610
 1013.5000     9.8640     0.0220   117.0270     2.5510   433.9410   -20.7010     9.6610     8.9750     9.6610
 1014.0000     9.8650     0.0220   117.5960     2.5480   435.5970   -20.8320     9.6610     8.9750     9.6610
 1014.5000     9.8660     0.0220   118.1620     2.5450   437.2520   -21.0090     9.6610     8.9750     9.6610
 1015.0000     9.8670     0.0220   118.7320     2.5420   438.9080   -20.7770     9.6610     8.9760     9.6620
 1015.5000     9.8680     0.0220   119.0780     2.5430   440.5640   -20.2570     9.6610     8.9650     9.6510
 1016.0000     9.8690     0.0230   119.3590     2.5510   442.2190   -19.7680     9.6610     8.9300     9.6130
 1016.5000     9.8700     0.0230   119.6310     2.5590   443.8750   -19.2570     9.6600     8.8970     9.5770
 1017.0000     9.8710     0.0240   119.8400     2.5670   445.5300   -18.7820     9.6360     8.8620     9.5390
 1017.5000     9.8720     0.0240   118.6270     2.5740   447.1860   -18.2510     9.6070     8.8270     9.5020
 1018.0000     9.8730     0.0250   117.1350     2.5690   448.8420   -18.4410     9.5780     8.7930     9.4650
 1018.5000     9.8740     0.0250   115.6260     2.5630   450.4970   -18.7070     9.5490     8.7580     9.4280
 1019.0000     9.8750     0.0260   114.1440     2.5570   452.1530   -18.9970     9.5200     8.7240     9.3910
 1019.5000     9.8760     0.0270   113.4130     2.5510   453.8090   -19.2650     9.4910     8.6890     9.3540
 1020.0000     9.8770     0.0270   115.5960     2.5450   455.4640   -19.5450     9.4620     8.6550     9.3170
 1020.5000     9.8780     0.0260   116.1870     2.5430   457.1200   -19.8200     9.4330     8.6200     9.2800
 1021.0000     9.8790     0.0250   116.2020     2.5420   458.7750   -20.0950     9.4040     8.5860     9.2420
 1021.5000     9.8820     0.0250   116.2430     2.5420   460.4310   -20.2740     9.3750     8.5510     9.2050
 1022.0000     9.8850     0.0240   114.1640     2.5410   462.0870   -20.3910     9.3470     8.5170     9.1680
 1022.5000     9.8880     0.0230   112.6190     2.5410   463.7420   -20.5080     9.3120     8.4820     9.1310
 1023.0000     9.8910     0.0230   114.2810     2.5420   465.3980   -20.6240     9.3010     8.4480     9.0940
 1023.5000     9.8940     0.0220   115.8450     2.5450   467.0540   -20.7450     9.2750     8.4130     9.0570
 1024.0000     9.8970     0.0220   117.4290     2.5480   468.7090   -20.8550     9.2480     8.3790     9.0200
 1024.5000     9.9000     0.0220   118.9670     2.5480   470.3650   -20.9880     9.2210     8.3440     8.9820
 1025.0000     9.9030     0.0220   120.1570     2.5410   472.0210   -20.9370     9.1940     8.3100     8.9450
 1025.5000     9.9060     0.0230   121.9300     2.5350   473.6760   -20.8650     9.1680     8.2750     8.9080
 1026.0000     9.9090     0.0230   122.1650     2.5330   475.3320   -20.7840     9.1410     8.2400     8.8700
 1026.5000     9.9120     0.0240   120.1240     2.5390   476.9870   -20.7030     9.1150     8.2050     8.8320
 1027.0000     9.9150     0.0250   118.1110     2.5450   478.6430   -20.6520     9.0880     8.1810     8.8060
 1027.5000     9.9180     0.0250   117.6800     2.5480   480.2990   -20.3700     9.0620     8.1730     8.7980
 1028.0000     9.9210     0.0260   119.1260     2.5400   481.9540   -19.9260     9.0350     8.1650     8.7890
 1028.5000     9.9240     0.0260   120.6060     2.5330   483.6100   -19.5020     9.0080     8.1560     8.7800
 1029.0000     9.9270     0.0250   121.2460     2.5290   485.2660   -19.4610     8.9820     8.1480     8.7700
 1029.5000     9.9300     0.0250   121.6230     2.5250   486.9210   -19.5440     8.9550     8.1390     8.7610
 1030.0000     9.9330     0.0240   120.6380     2.5200   488.5770   -19.6290     8.9290     8.1300     8.7510
 1030.5000     9.9360     0.0240   118.4940     2.5170   490.2320   -19.7270     8.9020     8.1220     8.7420
 1031.0000     9.9380     0.0240   116.3650     2.5260   491.9680   -19.7560     8.8760     8.1130     8.7330
 1031.5000     9.9410     0.0230   114.5410     2.5350   491.9680   -20.1300     8.8490     8.1050     8.7230
 1032.0000     9.9580     0.0230   115.1040     2.5440   491.9680   -20.3190     8.8220     8.0960     8.7140
 1032.5000     9.9760     0.0220   117.9400     2.5440   491.9680   -20.4200     8.7960     8.0880     8.7050
 1033.0000     9.9940     0.0220   119.4410     2.5380   491.9680   -20.5070     8.7690     8.0790     8.6950
 1033.5000    10.0110     0.0220   120.1800     2.5280   491.9680   -20.6170     8.7430     8.0700     8.6860
 1034.0000    10.0290     0.0180   120.9110     2.5200   491.9680   -20.7100     8.7160     8.0620     8.6770
 1034.5000    10.0460     0.0150   121.6390     2.5130   491.9680   -20.8140     8.6900     8.0530     8.6670
 1035.0000    10.0640     0.0110   122.4070     2.5060   491.9680   -20.9110     8.6630     8.0450     8.6580
 1035.5000    10.0810     0.0070   122.1370     2.4970   491.9680   -20.9860     8.6440     8.0360     8.6490
 1036.0000    10.0330     0.0030   121.4540     2.4820   491.9680   -20.8500     8.6310     8.0280     8.6390
 1036.5000     9.9760     0.0040   120.3530     2.4740   491.9680   -20.7250     8.6190     8.0190     8.6300
 1037.0000     9.9550     0.0050   118.0290     2.4830   491.9680   -20.5900     8.6070     8.0100     8.6210
 1037.5000     9.9450     0.0060   115.7730     2.4920   491.9680   -20.4610     8.5940     8.0020     8.6110
 1038.0000     9.9350     0.0070   113.4790     2.4980   491.6910   -20.3300     8.5820     7.9930     8.6020
 1038.5000     9.9260     0.0080   113.1610     2.5030   490.7600   -20.1980     8.5700     7.9850     8.5930
 1039.0000     9.9160     0.0090   113.3160     2.5060   489.8280   -20.0670     8.5570     7.9760     8.5830
 1039.5000     9.9060     0.0100   114.5420     2.5090   488.8970   -19.9360     8.5450     7.9680     8.5740
 1040.0000     9.8970     0.0110   115.9620     2.5130   487.9660   -19.8050     8.5330     7.9590     8.5650
 1040.5000     9.8870     0.0120   117.3840     2.5130   487.0350   -19.6740     8.5200     7.9500     8.5550
 1041.0000     9.8770     0.0130   118.0590     2.5090   486.1030   -19.5440     8.5080     7.9420     8.5460
 1041.5000     9.8680     0.0140   117.7530     2.5060   485.1720   -19.4130     8.4950     7.9330     8.5370
 1042.0000     9.8580     0.0150   117.4520     2.5090   484.2410   -19.2790     8.4830     7.9250     8.5270
 1042.5000     9.8490     0.0160   117.1430     2.5140   483.3090   -19.1560     8.4710     7.9160     8.5180
 1043.0000     9.8390     0.0140   116.8340     2.5190   482.3780   -19.0020     8.4580     7.9080     8.5090
 1043.5000     9.8290     0.0130   116.5200     2.5200   481.4470   -19.1060     8.4460     7.8990     8.5000
 1044.0000     9.8200     0.0110   116.2230     2.5160   480.5150   -19.3640     8.4340     7.8890     8.4810
 1044.5000     9.8100     0.0090   117.0540     2.5120   479.5840   -19.6110     8.4210     7.8540     8.4360
 1045.0000     9.8000     0.0080   117.9790     2.5080   478.6530   -19.8600     8.4090     7.8120     8.3910
 1045.5000     9.7920     0.0080   118.9000     2.5050   477.7220   -20.1110     8.3970     7.7700     8.3460
 1046.0000     9.7800     0.0080   119.8470     2.5060   476.7900   -20.3500     8.3840     7.7280     8.3010
 1046.5000     9.7680     0.0090   120.5240     2.5100   475.8590   -20.6250     8.3720     7.6870     8.2560
 1047.0000     9.7570     0.0090   120.7210     2.5140   474.9280   -20.8260     8.3600     7.6450     8.1850
 1047.5000     9.7450     0.0100   120.8250     2.5180   473.9960   -21.3150     8.3470     7.6040     8.2050
