~VERSION INFORMATION
 VERS.                2.0:   CWLS LOG ASCII STANDARD - VERSION 2.0
 WRAP.                 NO:   ONE LINE PER DEPTH STEP
~WELL INFORMATION
#MNEM.UNIT      DATA TYPE    INFORMATION
#----------   ------------   ------------------------------
 STRT.F          740.0000:   START DEPTH
 STOP.F         2749.0000:   STOP DEPTH
 STEP.F            0.5000:   STEP LENGTH
 NULL.          -999.2500:   NO VALUE
 COMP.    FENIX & SCISSON:   COMPANY
 WELL.   FENIX SHX #11-10:   WELL
 FLD .                NPR:   FIELD
 LOC .      S10 T38N R78W:   LOCATION
 CNTY.            NATRONA:   COUNTY
 STAT.            WYOMING:   STATE
 CTRY. UNITED STATES OF AMERICA:   COUNTRY
 SRVC.              WELEX:   SERVICE COMPANY
 DATE.        09-APR-1980:   LOGDATE
 API .     49025108060000:   API NUMBER
~CURVE INFORMATION
#MNEM.UNIT       API CODE    CURVE DESCRIPTION
#----------   ------------   ------------------------------
 DEPT.F                  :   
 GRD .GAPI   45 310 01 00:   GAMMA RAY FROM DENSITY LOG
 CALD.IN     45 280 60 00:   CALIPER FROM DENSITY LOG
 TEND.LBS    45 635 01 00:   TENSION FROM DENSITY LOG
 RHOB.G/C3   45 350 01 00:   BULK DENSITY
 CORR.G/C3   45 356 01 00:   DENSITY CORRECTION
~PARAMETER INFORMATION
#MNEM.UNIT          VALUE    DESCRIPTION
#----------   ------------   ------------------------------
 EKB .F         5287.0000:   Kelly bushing
 EGL .F         5277.0000:   Ground level
 EDF .F            0.0000:   Drilling floor
 EPD .F         5277.0000:   Permanent datum
 TD  .F         2762.0000:   Total depth
 DATE.        09-APR-1980:   Date logged
 CLNT.            A2DTECH:   Client Code
 SL  . 474' FNL & 644' FWL:   Surface Location
 PD  .                 GL:   Permanent Datum
 LMF .                 KB:   Log Measured From
 DMF .                 KB:   Drilling Measured From
 DAPD.F                10:   Feet Above Permanent Datum
 DD  .F              2762:   Depth driller
 DL  .F            2751.5:   Depth logger
 BLI .F              2750:   Bottom log interval
 TLI .F               750:   Top log interval
 CS1 .IN            9.625:   Casing size
 CBD1.      9.625" @ 760':   Casing driller 1
 BS1 .IN             8.75:   Bit size
 BSD1.F              2762:   Depth drilled with bit1
 DFT .                AIR:   Type fluid in hole
 TCS .HRS               3:   Time Circ. stopped
 MRT .F               118:   Maximum recorded temp.
 ENGI.            BENTSEN:   Recorded By
 WITN.           DINSMORE:   Witnessed by
 ORIG.         2.5" PRINT:   Origin of data
 UWI .     49025108060000:   Unique Well ID
 DICO. A2D TECHNOLOGIES, INC.:   Digitizing Company
~OTHER INFORMATION
~A   DEPT       GRD      CALD       TEND       RHOB       CORR   
# ...
 1899.0000    73.4550     8.6010  1339.1610     2.5780     0.0580
 1899.5000    74.1630     8.6040  1339.2500     2.5840     0.0640
 1900.0000    74.9400     8.6080  1339.3400     2.5990     0.0690
 1900.5000    75.1540     8.6110  1339.4290     2.6050     0.0760
 1901.0000    74.6690     8.6140  1339.5179     2.5980     0.0720
 1901.5000    74.2300     8.6170  1339.6080     2.5920     0.0620
 1902.0000    74.4450     8.6210  1339.6970     2.5950     0.0590
 1902.5000    74.9400     8.6240  1339.7870     2.6020     0.0660
 1903.0000    75.4330     8.6270  1339.8760     2.6080     0.0720
 1903.5000    75.9180     8.6310  1339.9659     2.6150     0.0800
 1904.0000    76.4000     8.6340  1340.0551     2.6220     0.0850
 1904.5000    76.8870     8.6360  1340.1450     2.6210     0.0920
 1905.0000    77.4040     8.6500  1340.2340     2.6020     0.0690
 1905.5000    77.7020     8.6730  1340.3240     2.5950     0.0640
 1906.0000    77.6810     8.6950  1340.4130     2.6050     0.0680
 1906.5000    77.6550     8.7170  1340.5020     2.5880     0.0570
 1907.0000    77.7010     8.7390  1340.5920     2.5740     0.0400
 1907.5000    77.7860     8.7560  1340.6810     2.5580     0.0230
 1908.0000    79.4860     8.7380  1340.7710     2.5420     0.0140
 1908.5000    80.9300     8.7220  1340.8600     2.5380     0.0220
 1909.0000    82.3710     8.7040  1340.9500     2.5430     0.0280
 1909.5000    82.2690     8.6870  1341.0389     2.5440     0.0290
 1910.0000    82.1220     8.6700  1341.1290     2.5310     0.0120
 1910.5000    81.9790     8.6530  1341.2180     2.5000    -0.0070
 1911.0000    81.9330     8.6400  1341.3080     2.5020    -0.0100
 1911.5000    83.0400     8.6470  1341.3970     2.5150     0.0030
 1912.0000    83.9820     8.6540  1341.4860     2.5270     0.0120
 1912.5000    84.9650     8.6610  1341.5760     2.5230     0.0060
 1913.0000    85.9620     8.6670  1341.6650     2.5290     0.0090
 1913.5000    86.1420     8.6750  1341.7550     2.5400     0.0160
 1914.0000    86.3450     8.6800  1341.8440     2.5500     0.0220
 1914.5000    86.4540     8.6820  1341.9340     2.5590     0.0280
 1915.0000    86.5420     8.6850  1342.0229     2.5810     0.0460
 1915.5000    85.5240     8.6880  1342.1121     2.5970     0.0690
 1916.0000    84.5660     8.6910  1342.2020     2.6040     0.0790
 1916.5000    83.5500     8.6940  1342.2920     2.6130     0.0920
 1917.0000    82.5650     8.6960  1342.3790     2.6130     0.0770
 1917.5000    81.5820     8.6990  1342.4700     2.5950     0.0570
 1918.0000    81.0700     8.7020  1342.5620     2.5790     0.0510
 1918.5000    80.7820     8.7050  1342.6360     2.5730     0.0570
 1919.0000    80.8470     8.7070  1342.8370     2.5840     0.0600
 1919.5000    81.4930     8.7100  1343.1300     2.5790     0.0520
 1920.0000    82.1040     8.7130  1343.4070     2.5700     0.0460
 1920.5000    82.7200     8.7160  1343.6830     2.5610     0.0390
 1921.0000    83.3320     8.7180  1343.9630     2.5670     0.0420
 1921.5000    83.9760     8.7110  1344.2400     2.5790     0.0510
 1922.0000    84.2570     8.7040  1344.5179     2.5820     0.0420
 1922.5000    84.1920     8.6970  1344.7960     2.5680     0.0270
 1923.0000    84.5500     8.6900  1345.0740     2.5550     0.0150
 1923.5000    85.1460     8.6830  1345.3510     2.5700     0.0270
 1924.0000    85.7040     8.6760  1345.6290     2.5800     0.0360
 1924.5000    86.3090     8.6700  1345.9070     2.5710     0.0250
 1925.0000    86.2490     8.6630  1346.1851     2.5630     0.0150
 1925.5000    84.8890     8.6560  1346.4630     2.5560     0.0050
 1926.0000    84.9170     8.6490  1346.7400     2.5460     0.0010
 1926.5000    85.0890     8.6420  1347.0179     2.5270    -0.0040
 1927.0000    85.2990     8.6400  1347.2960     2.5070    -0.0260
 1927.5000    85.5790     8.6440  1347.5740     2.4840    -0.0460
 1928.0000    86.0180     8.6470  1347.8521     2.4720    -0.0540
 1928.5000    86.4580     8.6510  1348.1290     2.4920    -0.0320
 1929.0000    86.8990     8.6540  1348.4070     2.5170    -0.0120
 1929.5000    87.3440     8.6570  1348.6851     2.5160    -0.0040
 1930.0000    87.7800     8.6610  1348.9630     2.5140     0.0030
 1930.5000    88.2250     8.6640  1349.2400     2.5400     0.0090
 1931.0000    88.6770     8.6670  1349.5179     2.5540     0.0160
 1931.5000    88.9030     8.6700  1349.7960     2.5610     0.0230
 1932.0000    88.5680     8.6740  1350.0740     2.5690     0.0250
 1932.5000    88.2480     8.6770  1350.3521     2.5700     0.0260
 1933.0000    87.9140     8.6790  1350.6290     2.5620     0.0160
 1933.5000    87.5820     8.6790  1350.9070     2.5680     0.0280
 1934.0000    87.2530     8.6790  1351.1851     2.5860     0.0420
 1934.5000    86.9210     8.6790  1351.4630     2.5910     0.0600
 1935.0000    86.5900     8.6790  1351.7410     2.5820     0.0540
 1935.5000    86.2600     8.6790  1352.0179     2.5730     0.0460
 1936.0000    85.9290     8.6790  1352.2960     2.5640     0.0370
 1936.5000    85.5990     8.6790  1352.5740     2.5540     0.0280
 1937.0000    85.2680     8.6790  1352.8521     2.5530     0.0220
 1937.5000    84.9380     8.6790  1353.1300     2.5580     0.0290
 1938.0000    84.6080     8.6790  1353.4070     2.5670     0.0400
 1938.5000    84.2750     8.6790  1353.6851     2.5980     0.0690
 1939.0000    83.9480     8.6790  1353.9630     2.5830     0.0550
 1939.5000    83.6390     8.6790  1354.2410     2.5630     0.0430
 1940.0000    83.5360     8.6790  1354.5190     2.5570     0.0380
 1940.5000    83.4390     8.6790  1354.7960     2.5500     0.0330
 1941.0000    83.3500     8.6790  1355.0740     2.5420     0.0300
 1941.5000    83.2560     8.6790  1355.3521     2.5360     0.0150
 1942.0000    83.1640     8.6790  1355.6300     2.5280     0.0120
 1942.5000    83.0720     8.6790  1355.9080     2.5260     0.0100
 1943.0000    82.9790     8.6790  1356.1851     2.5270     0.0100
 1943.5000    82.8870     8.6790  1356.4630     2.5390     0.0210
 1944.0000    82.7950     8.6790  1356.7410     2.5510     0.0240
 1944.5000    82.7020     8.6790  1357.0190     2.5510     0.0220
 1945.0000    82.6100     8.6770  1357.2970     2.5510     0.0220
 1945.5000    82.5170     8.6750  1357.5740     2.5540     0.0280
 1946.0000    82.4240     8.6730  1357.8521     2.5590     0.0330
 1946.5000    82.3320     8.6710  1358.1300     2.5630     0.0380
 1947.0000    82.2390     8.6690  1358.4080     2.5670     0.0430
 1947.5000    82.1470     8.6660  1358.6860     2.5730     0.0490
 1948.0000    82.0540     8.6640  1358.9630     2.5680     0.0420
 1948.5000    81.9630     8.6620  1359.2410     2.5520     0.0330
 1949.0000    81.8690     8.6600  1359.5190     2.5470     0.0300
 1949.5000    81.8430     8.6580  1359.7970     2.5510     0.0340
 1950.0000    81.8440     8.6560  1360.0750     2.5600     0.0370
 1950.5000    81.8440     8.6540  1360.3521     2.5720     0.0410
 1951.0000    81.8440     8.6510  1360.6300     2.5660     0.0350
 1951.5000    81.8420     8.6490  1360.9080     2.5580     0.0290
 1952.0000    81.8450     8.6470  1361.1860     2.5570     0.0290
 1952.5000    81.8410     8.6450  1361.4640     2.5620     0.0290
 1953.0000    81.8350     8.6430  1361.7410     2.5590     0.0210
 1953.5000    81.9910     8.6410  1362.0190     2.5470     0.0100
 1954.0000    82.6370     8.6380  1362.2970     2.5350     0.0100
 1954.5000    83.2780     8.6360  1362.5750     2.5520     0.0230
 1955.0000    83.9260     8.6340  1362.8521     2.5610     0.0350
 1955.5000    84.5700     8.6320  1363.1300     2.5730     0.0480
 1956.0000    85.2410     8.6300  1363.4080     2.5840     0.0480
 1956.5000    85.8380     8.6280  1363.6860     2.5900     0.0370
 1957.0000    86.5380     8.6250  1363.9640     2.5820     0.0270
 1957.5000    85.6650     8.6230  1364.2410     2.5650     0.0160
 1958.0000    84.5930     8.6210  1364.5190     2.5600     0.0170
 1958.5000    83.6540     8.6190  1364.7970     2.5620     0.0250
 1959.0000    83.6460     8.6170  1365.0750     2.5610     0.0320
 1959.5000    83.6360     8.6150  1365.3530     2.5690     0.0390
