~VERSION INFORMATION
 VERS.                2.0:   CWLS LOG ASCII STANDARD - VERSION 2.0
 WRAP.                 NO:   ONE LINE PER DEPTH STEP
~WELL INFORMATION
#MNEM.UNIT      DATA TYPE    INFORMATION
#----------   ------------   ------------------------------
 STRT.F            0.0000:   START DEPTH
 STOP.F         3504.0000:   STOP DEPTH
 STEP.F            0.5000:   STEP LENGTH
 NULL.          -999.2500:   NO VALUE
 COMP. LAWRENCE-ALLISON AND ASSOCIATES:   COMPANY
 WELL. LAWRENCE "TX" #16-34:   WELL
 FLD .              NPR 3:   FIELD
 LOC .      S34 T39N R78W:   LOCATION
 CNTY.            NATRONA:   COUNTY
 STAT.            WYOMING:   STATE
 CTRY. UNITED STATES OF AMERICA:   COUNTRY
 SRVC.       SCHLUMBERGER:   SERVICE COMPANY
 DATE.        10-APR-1982:   LOGDATE
 API .     49025108970000:   API NUMBER
~CURVE INFORMATION
#MNEM.UNIT       API CODE    CURVE DESCRIPTION
#----------   ------------   ------------------------------
 DEPT.F                  :   
 SPR .MV     07 010 01 00:   SPONTANEOUS POTENTIAL
 ILD .OHMM   07 120 46 00:   DEEP INDUCTION RESISTIVITY
 SFLU.OHMM   07 220 01 00:   SPHERICALLY FOCUSED LOG UNAVERAGED RESISTIVITY
 TENR.LBS    07 635 01 00:   TENSION FROM RESISTIVITY
 ILM .OHMM   07 120 44 00:   INDUCTION LOG MEDIUM RESISTIVITY
 GRD .GAPI   45 310 01 00:   GAMMA RAY FROM DENSITY LOG
 CALD.IN     45 280 60 00:   CALIPER FROM DENSITY LOG
 RHOB.G/C3   45 350 01 00:   BULK DENSITY
 CORR.G/C3   45 356 01 00:   DENSITY CORRECTION
 TEND.LBS    45 635 01 00:   TENSION FROM DENSITY LOG
 NPHI.DEC    42 890 03 00:   NEUTRON POROSITY SANDSTONE
~PARAMETER INFORMATION
#MNEM.UNIT          VALUE    DESCRIPTION
#----------   ------------   ------------------------------
 EKB .F         5149.0000:   Kelly bushing
 EGL .F         5139.0000:   Ground level
 EDF .F            0.0000:   Drilling floor
 TD  .F         3500.0000:   Total depth
 DATE.        10-APR-1982:   Date logged
 CLNT.            A2DTECH:   Client Code
 SL  . 1406' FSL & 423' FWL:   Surface Location
 PD  .                 GL:   Permanent Datum
 EPD .F              5139:   Elevation Permanent Datum
 LMF .                 KB:   Log Measured From
 DMF .                 KB:   Drilling Measured From
 DAPD.F                10:   Feet Above Permanent Datum
 DD  .F              3500:   Depth driller
 DL  .F              3497:   Depth logger
 BLI .F              3491:   Bottom log interval
 TLI .F               658:   Top log interval
 CS1 .IN            9.625:   Casing size
 CBD1.      9.625" @ 632':   Casing driller 1
 CBL1.F               658:   Casing logger 1
 BS1 .IN             8.75:   Bit size
 BSD1.F              3500:   Depth drilled with bit1
 DFT .           SPUD MUD:   Type fluid in hole
 DFD .                  9:   Density
 DFV .                 44:   Viscosity
 DFPH.                 10:   pH
 DFL .                  7:   Fluid loss
 MSS .           FLOWLINE:   Source of sample
 RMS .OHMM              2:   Rm
 MST .F                53:   Rm Meas. temp.
 RMF .OHMM            1.9:   Rmf
 MFST.F                53:   Rmf Meas. temp.
 RMC .OHMM            1.5:   Rmc
 MCST.F                53:   Rmc Meas. temp.
 MFSS.               MEAS:   Source Rmf.
 MCSS.               CALC:   Source Rmc.
 RMB .OHMM              1:   Rm. at BHT
 BHT .F               106:   BHT.
 TCS .HRS            1100:   Time Circ. stopped
 TLAB.HRS            1330:   Time logger at bottom
 MRT .F               106:   Maximum recorded temp.
 LUN .               8151:   Logging unit number
 LUL .                GLT:   Logging unit location
 ENGI.            NEUFFER:   Recorded By
 WITN.           JENNINGS:   Witnessed by
 ORIG.           5" PRINT:   Origin of data
 UWI .     49025108970000:   Unique Well ID
 DICO. A2D TECHNOLOGIES, INC.:   Digitizing Company
~OTHER INFORMATION
~A    DEPT     SPR        ILD       SFLU       TENR        ILM        GRD       CALD       RHOB       CORR       TEND       NPHI   
# ...
 1952.0000    -6.6300     3.1180     4.9150  1232.8590     3.2050    93.3980    10.9330     2.0020     0.0520  1146.9250     0.5330
 1952.5000    -8.3360     3.7130     6.1420  1233.2070     3.5620   103.6860    10.5290     2.1000     0.0740  1144.6700     0.4700
 1953.0000    -9.0850     4.4750     7.3690  1233.5540     4.0020   105.5190    10.2290     2.2350     0.1680  1142.4160     0.4020
 1953.5000    -9.0900     5.2370     8.5960  1233.9010     4.4430   102.8760    10.3430     2.2750     0.1580  1140.0000     0.3780
 1954.0000    -9.0930     5.9990     9.8480  1234.2490     4.8140   100.3680    10.5430     2.2790     0.1410  1140.8831     0.3820
 1954.5000    -9.0910     6.7620     9.5540  1234.5959     4.8660    98.9760    12.2610     2.3220     0.1660  1141.8350     0.3890
 1955.0000    -9.1010     7.1990     8.2710  1234.9430     4.9180    97.5430    13.8390     2.3690     0.2130  1142.7870     0.4040
 1955.5000    -9.4040     7.4140     5.8290  1235.2910     5.6070    96.1690    15.3790     2.3920     0.2500  1143.7380     0.4180
 1956.0000    -9.7190     7.7520     6.1590  1235.6379     6.7130    98.3120    16.0000     2.3230     0.2500  1144.6899     0.4360
 1956.5000   -10.0330     7.6060     6.9520  1235.9850     7.8190   104.1660    16.0000     2.2630     0.1450  1145.6420     0.4190
 1957.0000   -10.3470     7.2620     7.7460  1236.3330     8.9250   111.4080    16.0000     2.2490     0.0690  1146.5930     0.3980
 1957.5000   -10.6610     7.0710     8.5400  1236.6801     9.3190   119.8620    13.2030     2.3150     0.0310  1147.5450     0.3750
 1958.0000   -10.9740     7.1800     8.7380  1237.0270     8.4630   128.4870     9.8750     2.3910     0.0290  1148.4969     0.3750
 1958.5000   -11.2880     7.8240     8.1560  1237.3750     7.8240   131.3050     9.9940     2.3810     0.0260  1149.4480     0.3900
 1959.0000   -11.6020     7.6180     7.6060  1237.7220     8.0430   132.6860    10.1450     2.3690     0.0110  1150.4000     0.3940
 1959.5000   -11.9160     7.1840     7.9790  1238.0690     7.4160   131.5690    10.1910     2.3940     0.0190  1151.3521     0.3850
 1960.0000   -12.2260     6.7550     8.4750  1238.4170     6.9440   128.8130    10.1430     2.4310     0.0570  1152.3030     0.3630
 1960.5000   -12.4070     6.3380     8.8180  1238.7640     6.5150   125.9880    10.0370     2.4390     0.1010  1153.2550     0.3770
 1961.0000   -12.2390     5.7220     7.8880  1239.1110     6.0860   125.3090     9.9480     2.3880     0.1210  1154.2070     0.4000
 1961.5000   -12.0850     5.7480     7.0490  1239.4590     5.7240   129.4970    10.1900     2.3180     0.0890  1155.1580     0.4240
 1962.0000   -11.9320     5.7970     6.2110  1239.8060     5.4650   137.0540    10.3270     2.2480     0.0470  1156.1100     0.4380
 1962.5000   -12.2990     5.8290     5.7750  1240.1530     5.6670   149.7180    10.1400     2.2480     0.0040  1157.0620     0.4100
 1963.0000   -13.0490     5.4770     6.6630  1240.5010     6.2240   158.1310     9.8920     2.3320    -0.0060  1158.0129     0.3900
 1963.5000   -13.7830     5.2160     7.8420  1240.8480     5.9980   168.3110     9.6980     2.4300     0.0390  1158.9650     0.3690
 1964.0000   -14.5190     4.9550     8.9820  1241.1960     5.2430   178.5100     9.6410     2.4850     0.1000  1159.9170     0.3540
 1964.5000   -15.2530     4.5880     7.8700  1241.5430     4.6310   181.6820     9.7710     2.4500     0.1500  1160.8680     0.3890
 1965.0000   -16.0200     4.7760     6.4490  1241.8900     4.8780   180.2400     9.9000     2.3440     0.1000  1161.8199     0.4180
 1965.5000   -17.6050     5.0930     5.0280  1242.2380     5.5010   179.1380     9.9990     2.2950     0.0250  1162.7720     0.4350
 1966.0000   -19.2240     5.4090     4.7610  1242.5850     6.1250   181.5310     9.8180     2.3220    -0.0090  1163.7230     0.4240
 1966.5000   -20.8400     5.7250     6.7990  1242.9320     6.7480   187.4130     9.5680     2.3900     0.0010  1164.6750     0.4100
 1967.0000   -22.4560     6.0410     8.7980  1243.2800     7.3710   192.0210     9.4480     2.4490     0.0120  1165.6270     0.3970
 1967.5000   -24.0600     6.4700    10.6980  1243.6270     7.9950   194.9930     9.4530     2.4650     0.0200  1166.5780     0.3860
 1968.0000   -25.3040     7.4960    12.5030  1243.9740     8.6180   195.7990     9.4610     2.4650     0.0210  1167.5300     0.3860
 1968.5000   -25.0190     8.5210    13.3300  1244.3220     9.2410   192.6210     9.4690     2.4610     0.0140  1168.4821     0.3810
 1969.0000   -24.6490     9.5460    14.0130  1244.6689     9.8650   184.9870     9.4760     2.4550     0.0080  1169.4330     0.3750
 1969.5000   -24.2800    10.2150    14.6960  1245.0160    10.5010   182.0780     9.4840     2.4500     0.0050  1170.3850     0.3680
 1970.0000   -23.9090    10.8970    15.1760  1245.3640    11.2020   182.8310     9.4910     2.4490     0.0040  1171.3361     0.3630
 1970.5000   -23.5380    11.2060    15.0580  1245.7111    11.5200   193.8130     9.4990     2.4480     0.0030  1172.2880     0.3690
 1971.0000   -23.1670    11.3760    14.9670  1246.0580    11.6950   204.7890     9.5070     2.4450     0.0020  1173.2400     0.3730
 1971.5000   -22.7950    11.4760    14.8770  1246.4060    11.7970   215.6870     9.5140     2.4400     0.0020  1174.1910     0.3800
 1972.0000   -22.4280    11.5760    14.7630  1246.7531    11.9000   224.6570     9.5220     2.4320     0.0020  1175.1429     0.3880
 1972.5000   -22.0980    11.6220    14.9890  1247.1000    12.0630   227.8070     9.5300     2.4240     0.0020  1176.0950     0.3960
 1973.0000   -22.0480    11.6220    15.2950  1247.4480    12.2760   227.2870     9.5370     2.4180     0.0020  1177.0460     0.4040
 1973.5000   -21.9840    11.7310    15.6000  1247.7950    12.4890   224.8360     9.5450     2.4130     0.0010  1177.9980     0.4080
 1974.0000   -21.9190    12.0290    15.9060  1248.1420    12.7020   218.9220     9.5520     2.4130     0.0010  1178.9500     0.4030
 1974.5000   -21.8540    12.3270    16.2110  1248.4900    12.9150   203.6000     9.5600     2.4170     0.0010  1179.9010     0.3860
 1975.0000   -21.7890    12.6260    16.8140  1248.8370    13.1280   188.9020     9.5680     2.4180     0.0010  1180.8530     0.3700
 1975.5000   -21.7240    13.0980    17.6200  1249.1840    13.4650   174.3310     9.5760     2.4210     0.0010  1181.8051     0.3540
 1976.0000   -21.6590    13.0770    18.4110  1249.5320    13.4430   164.2820     9.5920     2.4280     0.0040  1182.7560     0.3440
 1976.5000   -21.5940    13.0270    18.5810  1249.8790    13.3910   160.5990     9.6220     2.4350     0.0050  1183.7080     0.3340
 1977.0000   -21.5380    12.9780    18.0820  1250.2260    13.3420   158.8740     9.6450     2.4320     0.0030  1184.6600     0.3310
 1977.5000   -21.2630    12.8240    17.2750  1250.5740    13.1830   157.0730     9.6590     2.4270     0.0020  1185.6110     0.3310
 1978.0000   -20.9640    12.6760    16.2890  1250.9210    13.0310   157.0360     9.6720     2.4280     0.0010  1186.5630     0.3240
 1978.5000   -20.6610    12.5280    15.3030  1251.2679    12.8790   160.6560     9.6860     2.4360    -0.0010  1187.5150     0.3130
 1979.0000   -20.3590    12.2940    14.7630  1251.6160    12.6380   164.6400     9.7000     2.4430    -0.0030  1188.4659     0.3030
 1979.5000   -20.0570    12.0470    15.2700  1251.9630    12.3840   168.3050     9.7130     2.4390    -0.0050  1189.4180     0.3060
 1980.0000   -19.7560    11.7990    15.8900  1252.3101    12.1300   168.0920     9.7550     2.4300    -0.0070  1190.3700     0.3120
 1980.5000   -19.4540    11.5520    15.5270  1252.6580    11.8760   155.8240     9.8110     2.4330    -0.0090  1191.3210     0.3180
 1981.0000   -19.1520    11.3050    14.7900  1253.0050    11.6210   138.0860     9.7720     2.4460    -0.0070  1192.2729     0.3240
 1981.5000   -18.8500    11.0580    14.0090  1253.3521    11.3670   126.6390     9.7190     2.4600    -0.0030  1193.2250     0.3310
 1982.0000   -18.5480    10.8110    13.2290  1253.7000    11.1130   124.0740     9.6670     2.4740     0.0020  1194.1760     0.3270
