~VERSION INFORMATION
 VERS.                2.0:   CWLS LOG ASCII STANDARD - VERSION 2.0
 WRAP.                 NO:   ONE LINE PER DEPTH STEP
~WELL INFORMATION
#MNEM.UNIT      DATA TYPE    INFORMATION
#----------   ------------   ------------------------------
 STRT.F          602.0000:   START DEPTH
 STOP.F         5553.0000:   STOP DEPTH
 STEP.F            0.5000:   STEP LENGTH
 NULL.          -999.2500:   NO VALUE
 COMP.         U. S. NAVY:   COMPANY
 WELL. U. S. 1-TP-33 NPR #3-33:   WELL
 FLD . TEAPOT NAVAL RESERVE:   FIELD
 LOC .      S33 T39N R78W:   LOCATION
 CNTY.            NATRONA:   COUNTY
 STAT.            WYOMING:   STATE
 CTRY. UNITED STATES OF AMERICA:   COUNTRY
 SRVC.       SCHLUMBERGER:   SERVICE COMPANY
 DATE.        24-JUN-1952:   LOGDATE
 API .     49025065260000:   API NUMBER
~CURVE INFORMATION
#MNEM.UNIT       API CODE    CURVE DESCRIPTION
#----------   ------------   ------------------------------
 DEPT.F                  :   
 SPR .MV     01 010 01 00:   SPONTANEOUS POTENTIAL FROM RES.
 ASN .OHMM   01 041 16 00:   AMPLIFIED SHORT NORMAL 16"
 LAT .OHMM   01 070 08 00:   LATERAL 8'
 LN  .OHMM   01 060 64 00:   LONG NORMAL 64"
~PARAMETER INFORMATION
#MNEM.UNIT          VALUE    DESCRIPTION
#----------   ------------   ------------------------------
 EKB .F         5160.0000:   Kelly bushing
 EGL .F         5147.0000:   Ground level
 TD  .F         5553.0000:   Total depth
 CLNT.            A2DTECH:   Client Code
 DATE.        24-JUN-1952:   Date Logged [DD-MMM-YYYY]
 DD  .F              5549:   Depth driller
 DL  .F              5553:   Depth logger
 BLI .F              5553:   Bottom log interval
 TLI .F               602:   Top log interval
 CBL1.F               602:   Casing logger 1
 BSD1.F              5549:   Depth drilled with bit1
 DFT .           GYP BASE:   Type fluid in hole
 DFD .                9.8:   Density
 DFV .                 44:   Viscosity
 MSS .           FLOWLINE:   Source of sample
 RMS .OHMM            1.4:   Rm
 MST .F                60:   Rm Meas. temp.
 RMB .OHMM           0.48:   Rm. at BHT
 BHT .F               175:   BHT.
 TCS .HRS             1.5:   Time Circ. stopped
 MRT .F               175:   Maximum recorded temp.
 LUN .                563:   Logging unit number
 ENGI.             SANDER:   Recorded By
 WITN.            GRIBBIN:   Witnessed by
 ORIG.      1" 2.5" PRINT:   Origin of data
 UWI .     49025065260000:   Unique Well ID
 DICO. A2D TECHNOLOGIES, INC.:   Digitizing Company
~OTHER INFORMATION
~A  DEPTH      SPR        ASN        LAT         LN
# ...
 5201.0000   -35.1677    18.7341    88.7501    39.1874
 5201.5000   -34.9674    17.8920    85.9329    38.5998
 5202.0000   -34.9618    17.0508    82.5212    37.7403
 5202.5000   -35.2386    16.3623    80.2986    36.8582
 5203.0000   -35.1935    15.6627    78.1421    35.5557
 5203.5000   -34.9448    15.1019    76.0598    34.7161
 5204.0000   -34.6571    14.5634    73.9666    34.2708
 5204.5000   -34.5919    14.1188    73.2110    33.6916
 5205.0000   -34.3636    13.5580    70.3939    33.2709
 5205.5000   -34.3580    13.3057    67.5767    32.8530
 5206.0000   -34.3524    13.1644    62.8303    32.6917
 5206.5000   -34.3467    13.0591    60.0462    32.4207
 5207.0000   -34.4334    13.0594    57.2621    32.4408
 5207.5000   -34.6185    13.0597    53.0852    32.5648
 5208.0000   -34.6119    13.0600    47.4022    32.5648
 5208.5000   -34.6063    13.0603    41.0261    32.5648
 5209.0000   -34.8828    13.0606    36.9237    32.5390
 5209.5000   -34.8771    13.0608    33.1614    32.4207
 5210.0000   -34.8715    13.0611    30.1002    32.3919
 5210.5000   -34.8658    12.9450    28.5101    32.2767
 5211.0000   -34.8602    12.7228    26.8481    32.2767
 5211.5000   -34.7031    12.3787    25.2212    32.2767
 5212.0000   -34.5668    12.0234    23.9600    32.1326
 5212.5000   -34.5611    11.7432    22.8026    31.9525
 5213.0000   -34.5544    11.4630    21.8331    31.7003
 5213.5000   -34.5488    11.1826    21.0640    31.4121
 5214.0000   -34.8263    11.0411    20.2416    31.2276
 5214.5000   -34.8198    10.8997    19.2301    31.1239
 5215.0000   -34.8142    10.8417    18.1683    31.1671
 5215.5000   -34.8086    10.8420    17.1152    31.4567
 5216.0000   -35.0859    10.9812    16.3391    31.7464
 5216.5000   -35.0796    11.1203    15.5266    32.0840
 5217.0000   -35.0740    11.3984    14.8611    32.3750
 5217.5000   -35.0685    11.9542    14.4276    32.7593
 5218.0000   -35.0629    12.3711    14.0775    33.2448
 5218.5000   -35.0573    12.7881    13.6423    33.8240
 5219.0000   -35.0517    13.3439    13.2711    34.6566
 5219.5000   -35.0461    13.7609    13.1904    35.8710
 5220.0000   -35.0406    14.7334    13.5344    37.2341
 5220.5000   -35.0350    15.7059    14.4005    38.8534
 5221.0000   -35.3116    16.6784    15.4814    40.0118
 5221.5000   -35.3060    18.2064    17.2849    41.6644
 5222.0000   -35.3003    20.2900    21.8515    43.1759
 5222.5000   -35.2947    21.6792    26.8113    44.8480
 5223.0000   -35.2890    23.4850    31.0102    47.3957
 5223.5000   -35.2834    25.0131    35.9315    54.7759
 5224.0000   -35.3118    26.9578    42.4192    64.8415
 5224.5000   -35.5546    35.7081    51.1614    73.4870
 5225.0000   -35.5486    40.0139    59.1121    82.1326
 5225.5000   -35.8518    44.1293    63.1818    92.2190
 5226.0000   -36.1618    50.0720    66.0545   100.8646
 5226.5000   -36.4450    54.2636    66.0537   106.6282
 5227.0000   -37.0097    58.4579    68.9266   112.3919
 5227.5000   -37.2935    61.1264    68.9259   116.7147
 5228.0000   -37.5761    62.6802    68.9252   122.4784
 5228.5000   -37.8593    64.0992    70.3614   128.2421
 5229.0000   -38.3258    65.2939    71.7974   129.6830
 5229.5000   -38.7072    65.2942    71.7966   131.1239
 5230.0000   -38.9909    65.2944    73.2328   129.6830
 5230.5000   -39.4364    64.9906    74.6688   126.8012
 5231.0000   -39.5567    63.9061    74.6680   122.4784
 5231.5000   -39.8399    63.9064    74.6673   118.1556
 5232.0000   -39.7016    62.5177    74.6666   113.8329
 5232.5000   -39.6959    61.1291    74.6659   110.9510
 5233.0000   -39.4081    59.2968    74.6652   116.7147
 5233.5000   -38.9615    57.8808    74.6644   123.9250
 5234.0000   -38.5505    56.4638    74.6637   129.7170
 5234.5000   -37.9795    55.5747    74.6630   134.0397
 5235.0000   -37.6918    55.5750    70.3519   136.9357
 5235.5000   -37.6862    55.5753    64.6041   139.9563
 5236.0000   -37.3985    55.5756    58.8563   145.6860
 5236.5000   -37.3929    56.9647    54.5452   150.1277
 5237.0000   -37.6702    59.0209    45.2616   157.3747
 5237.5000   -37.9460    60.4389    42.1637   164.6218
 5238.0000   -38.2226    63.2443    41.6915   173.1819
 5238.5000   -38.2170    66.0498    43.8989   182.3049
 5239.0000   -38.4935    70.2441    48.4547   196.7848
 5239.5000   -38.4880    73.8549    55.3091   213.0615
 5240.0000   -38.7645    77.8001    64.6965   235.3506
 5240.5000   -38.7589    81.9670    80.1612   252.4150
 5241.0000   -39.0357    86.1339    90.2664   266.0198
 5241.5000   -39.3122    88.9120   100.6785   281.6076
 5242.0000   -39.8707    93.0789   121.8031   288.3192
 5242.5000   -40.4294    97.2459   144.5091   291.8201
 5243.0000   -40.7076   100.0239   154.1753   291.8272
 5243.5000   -40.9992   102.8020   166.2337   291.8343
 5244.0000   -41.5711   105.5800   180.1640   292.5968
 5244.5000   -42.7074   108.3581   189.7603   294.6826
 5245.0000   -43.8436   108.3584   199.8658   296.1060
 5245.5000   -44.3458   109.7475   209.1007   298.9457
 5246.0000   -44.0164   109.7478   222.0987   298.9525
 5246.5000   -43.1099   108.3592   233.0552   298.9594
 5247.0000   -41.7347   106.9706   240.2928   298.9662
 5247.5000   -41.1582   105.5819   248.9588   297.5567
 5248.0000   -40.9317   104.1933   256.1937   293.2200
 5248.5000   -40.9260   102.8047   263.4315   290.1068
 5249.0000   -40.9204   101.4161   272.0979   283.9819
 5249.5000   -40.6326   100.0275   281.4705   274.8307
 5250.0000   -40.6270   100.0278   293.7570   262.1841
 5250.5000   -40.5503    97.2503   311.1094   252.5589
 5251.0000   -40.4736    95.8617   328.4680   244.6357
 5251.5000   -40.3969    94.3909   346.4946   233.6912
 5252.0000   -40.2320    92.9721   372.3283   219.7181
 5252.5000   -39.9451    88.7783   404.4929   202.7278
 5253.0000   -39.7636    84.5846   445.9105   192.8196
 5253.5000   -39.4787    80.1963   474.3970   184.3279
 5254.0000   -39.1937    75.7532   504.2327   174.4197
 5254.5000   -38.7978    68.9761   557.3512   163.0951
 5255.0000   -38.5110    61.9717   612.4610   148.9377
 5255.5000   -37.9419    54.9728   640.5724   143.1848
 5256.0000   -37.3729    49.9729   689.5748   140.2644
 5256.5000   -37.0863    49.8435   703.9420   137.3442
 5257.0000   -36.6376    49.3885   703.9411   134.0463
 5257.5000   -36.3527    45.4744   703.9404   129.6152
 5258.0000   -36.0677    42.4946   689.5718   125.7507
 5258.5000   -35.9388    41.5448   689.5711   121.4141
 5259.0000   -35.7799    40.8383   649.9954   117.0774
 5259.5000   -35.4950    41.0825   592.2067   111.2333
 5260.0000   -35.3605    41.8199   534.3965   107.9701
 5260.5000   -35.2072    43.3326   430.9475   104.4047
 5261.0000   -34.9223    45.0299   431.5537   103.7464
 5261.5000   -34.9194    45.9249   435.0706   103.7464
 5262.0000   -34.9166    46.6230   440.8502   103.7464
 5262.5000   -34.9138    46.9514   447.2856   105.1873
 5263.0000   -34.9110    46.8127   455.2847   106.0434
 5263.5000   -34.9081    46.7631   458.9350   108.0692
 5264.0000   -34.9053    46.6744   456.8441   108.0692
 5264.5000   -34.9025    46.5358   432.9871   108.0692
 5265.0000   -34.8997    46.5361   396.1879   105.1873
 5265.5000   -34.8969    46.3975   368.0720   103.7464
 5266.0000   -35.4849    46.1997   344.2802   100.8646
 5266.5000   -36.1758    45.9814   323.5325    97.9827
 5267.0000   -36.5812    45.7797   307.6347    95.1009
 5267.5000   -36.5784    45.3616   296.2760    92.2190
 5268.0000   -36.4138    45.0155   287.6051    89.3372
 5268.5000   -36.2906    44.5955   275.7635    86.4553
 5269.0000   -36.2878    44.0364   267.1421    86.4553
 5269.5000   -36.1177    43.4050   257.0839    83.5735
 5270.0000   -35.9994    42.2795   241.2786    82.1326
 5270.5000   -35.7145    40.8682   224.0365    80.6916
 5271.0000   -35.1474    39.1118   209.6680    80.6916
 5271.5000   -34.8625    36.6172   195.2995    80.6916
 5272.0000   -34.5775    35.4619   179.4941    79.2507
 5272.5000   -34.5747    34.8737   169.4360    77.8098
 5273.0000   -34.5719    34.7350   160.8145    74.9280
 5273.5000   -34.2870    34.5964   145.0092    74.9280
