~VERSION INFORMATION
 VERS.                2.0:   CWLS LOG ASCII STANDARD - VERSION 2.0
 WRAP.                 NO:   ONE LINE PER DEPTH STEP
~WELL INFORMATION
#MNEM.UNIT      DATA TYPE    INFORMATION
#----------   ------------   ------------------------------
 STRT.F          203.5000:   START DEPTH
 STOP.F         3126.0000:   STOP DEPTH
 STEP.F            0.5000:   STEP LENGTH
 NULL.          -999.2500:   NO VALUE
 COMP.    FENIX & SCISSON:   COMPANY
 WELL. FENIX NPR 3 "AX" #88-33:   WELL
 FLD .        TEAPOT DOME:   FIELD
 LOC .      S33 T39N R78W:   LOCATION
 CNTY.            NATRONA:   COUNTY
 STAT.            WYOMING:   STATE
 CTRY. UNITED STATES OF AMERICA:   COUNTRY
 SRVC.       SCHLUMBERGER:   SERVICE COMPANY
 DATE.        23-JAN-1978:   LOGDATE
 API .     49025105610000:   API NUMBER
~CURVE INFORMATION
#MNEM.UNIT       API CODE    CURVE DESCRIPTION
#----------   ------------   ------------------------------
 DEPT.F                  :   
 CALD.IN     45 280 60 00:   CALIPER FROM DENSITY LOG
 GRD .GAPI   45 310 01 00:   GAMMA RAY FROM DENSITY LOG
 RHOB.G/C3   45 350 01 00:   BULK DENSITY
 CORR.G/C3   45 356 01 00:   DENSITY CORRECTION
 SPR .MV     05 010 01 00:   SPONTANEOUS POTENTIAL
 SN  .OHMM   05 040 16 00:   SHORT NORMAL 16"
 ILD .OHMM   05 120 46 00:   DEEP INDUCTION RESISTIVITY
~PARAMETER INFORMATION
#MNEM.UNIT          VALUE    DESCRIPTION
#----------   ------------   ------------------------------
 EKB .F         5174.0000:   Kelly bushing
 EGL .F         5164.0000:   Ground level
 EDF .F            0.0000:   Drilling floor
 TD  .F         3115.0000:   Total depth
 DATE.        23-JAN-1978:   Date logged
 CLNT.            A2DTECH:   Client Code
 PD  .                 GL:   Permanent Datum
 EPD .F              5164:   Elevation Permanent Datum
 LMF .                 KB:   Log Measured From
 DMF .                 KB:   Drilling Measured From
 DD  .F              3115:   Depth driller
 DL  .F              3115:   Depth logger
 BLI .F              3115:   Bottom log interval
 TLI .F               210:   Top log interval
 CS1 .IN            8.625:   Casing size
 CBD1.      9.625" @ 219':   Casing driller 1
 CBL1.F               219:   Casing logger 1
 BS1 .IN            7.875:   Bit size
 BSD1.F              3115:   Depth drilled with bit1
 DFT .                GEL:   Type fluid in hole
 DFD .                8.9:   Density
 DFV .                 36:   Viscosity
 DFPH.                 10:   pH
 DFL .                7.8:   Fluid loss
 MSS .           FLOWLINE:   Source of sample
 RMS .OHMM            2.2:   Rm
 MST .F                62:   Rm Meas. temp.
 RMF .OHMM           1.94:   Rmf
 MFST.F                54:   Rmf Meas. temp.
 RMC .OHMM            3.4:   Rmc
 MCST.F                54:   Rmc Meas. temp.
 MFSS.               MEAS:   Source Rmf.
 MCSS.               MEAS:   Source Rmc.
 RMB .OHMM            1.1:   Rm. at BHT
 BHT .F               114:   BHT.
 TCS .HRS             4.5:   Time Circ. stopped
 MRT .F               114:   Maximum recorded temp.
 LUN .               2958:   Logging unit number
 LUL .             CASPER:   Logging unit location
 ENGI.           REYNOLDS:   Recorded By
 WITN.           MCGINLEY:   Witnessed by
 ORIG.           5" PRINT:   Origin of data
 UWI .     49025105610000:   Unique Well ID
 DICO. A2D TECHNOLOGIES, INC.:   Digitizing Company
 DAPD.F              5164:   Feet Above Permanent Datum
 SL  . 100' FSL & 550' FEL:   Surface Location
~OTHER INFORMATION
~A   DEPT     CALD        GRD       RHOB       CORR        SPR         SN        ILD   
# ...
  795.0000    10.8415   112.8711     2.4482     0.1698   -43.3661     6.0159     6.4812
  795.5000    10.8416   109.1078     2.4472     0.1797   -43.1729     6.0099     6.4796
  796.0000    10.8416   112.8713     2.4502     0.1897   -42.3822     6.0038     6.4779
  796.5000    10.8416   113.3612     2.4592     0.1937   -41.9898     5.9978     6.4766
  797.0000    10.8416   107.9202     2.4701     0.1937   -41.9957     5.9918     6.4750
  797.5000    10.8416   104.1576     2.4701     0.1957   -42.0016     5.9857     6.5335
  798.0000    10.8417   101.3852     2.4661     0.1996   -42.2067     5.9797     6.4717
  798.5000    10.8417   100.8886     2.4522     0.2036   -42.6110     5.9737     6.5302
  799.0000    10.8615   101.6811     2.4482     0.2076   -41.6210     5.9677     6.4691
  799.5000    10.8616   102.2762     2.4512     0.2175   -41.4265     5.9617     6.5269
  800.0000    10.8616   100.5950     2.4602     0.2175   -41.2335     5.9557     6.4652
  800.5000    10.8616   102.1792     2.4620     0.2157   -41.6360     5.9497     6.5028
  801.0000    10.8616   105.1497     2.4671     0.2076   -41.6400     5.9475     6.5222
  801.5000    10.8616   103.7636     2.4681     0.1996   -41.6440     5.9469     6.4619
  802.0000    10.8616   103.3676     2.4671     0.1757   -42.2456     5.9453     6.5191
  802.5000    10.8617   102.7735     2.4581     0.1697   -42.6480     5.9516     6.5176
  803.0000    10.8617   100.1990     2.4552     0.1677   -43.4488     5.9580     6.5167
  803.5000    10.8617   101.5853     2.4502     0.1657   -43.4529     5.9643     6.5146
  804.0000    10.8617   103.1698     2.4472     0.1637   -43.4569     5.9707     6.5131
  804.5000    10.8617   103.7640     2.4432     0.1637   -43.4609     5.9771     6.5116
  805.0000    10.8617   104.5563     2.4402     0.1657   -43.4650     5.9835     6.5100
  805.5000    10.8618   104.7545     2.4312     0.1677   -43.4690     5.9897     6.5088
  806.0000    10.8618   104.1604     2.4252     0.1697   -43.4730     5.9889     6.6290
  806.5000    10.8618   104.3585     2.4232     0.1757   -43.2779     5.9328     6.5058
  807.0000    10.8618   106.1413     2.4153     0.1776   -42.8835     5.9407     6.5043
  807.5000    10.8618   106.5375     2.4063     0.1796   -42.4892     5.9485     6.5028
  808.0000    10.8618   108.3204     2.3764     0.2155   -42.4932     5.9564     6.5616
  808.5000    10.8619   108.3206     2.3585     0.2414   -42.4964     5.9643     6.5601
  809.0000    10.8619   107.3303     2.3455     0.3609   -42.5005     5.9721     6.5585
  809.5000    10.8619   103.7647     2.3335     0.3350   -42.7045     5.9789     6.6179
  810.0000    10.8619   103.1705     2.3365     0.1896   -42.7077     5.9780     6.6778
  810.5000    10.8421   103.9630     2.4202     0.1716   -42.1142     5.9916     6.6769
  811.0000    10.8421   103.9631     2.4481     0.1677   -41.5206     6.0052     6.6747
  811.5000    10.8422   103.9631     2.4680     0.1677   -41.9230     6.1405     6.6735
  812.0000    10.8422   105.5481     2.4790     0.1637   -42.1263     6.3116     6.6719
  812.5000    10.8422   106.7369     2.4790     0.1617   -42.1303     6.3054     6.6707
  813.0000    10.8422   105.7465     2.4780     0.1617   -42.3335     6.2993     6.8557
  813.5000    10.8422   104.7560     2.4770     0.1617   -42.3376     6.2932     6.7288
  814.0000    10.8422   104.2598     2.4760     0.1617   -42.3416     6.2870     6.7273
  814.5000    10.8423   108.9169     2.4740     0.1617   -42.3456     6.2809     6.7257
  815.0000    10.8423   108.5208     2.4730     0.1617   -42.5472     6.2748     6.7241
  815.5000    10.8423   107.3321     2.4719     0.1617   -42.7521     6.2687     6.7226
  816.0000    10.8423   104.7564     2.4709     0.1616   -42.9553     6.2626     6.6592
  816.5000    10.8423   102.9732     2.4699     0.1616   -43.1585     6.2565     6.7197
  817.0000    10.8423   102.5769     2.4699     0.1616   -43.7601     6.2504     6.7182
  817.5000    10.8423   103.5677     2.4719     0.1616   -43.9625     6.2443     6.6548
  818.0000    10.8424   106.3421     2.4819     0.1616   -43.7674     6.1796     6.7150
  818.5000    10.8424   107.3330     2.4869     0.1616   -43.5722     6.1632     6.6517
  819.0000    10.8424   107.7295     2.4869     0.1537   -42.9787     6.1469     6.6502
  819.5000    10.8424   109.1168     2.4839     0.1477   -42.5843     6.1307     6.7103
  820.0000    10.8424   111.2969     2.4759     0.1457   -42.3892     5.9500     6.5859
  820.5000    10.8424   104.1627     2.4689     0.1457   -42.1940     5.9486     6.5844
  821.0000    10.8425   104.3610     2.4599     0.1457   -41.9989     5.9473     6.5828
  821.5000    10.8425   104.9556     2.4549     0.1477   -42.0029     5.9459     6.5813
  822.0000    10.8425   105.3521     2.4569     0.1596   -42.0069     5.9445     6.5798
  822.5000    10.8623   105.5504     2.4619     0.1676   -42.0109     5.9431     6.6393
  823.0000    10.8624   105.5505     2.4719     0.1696   -42.0150     5.9417     6.5767
  823.5000    10.8624   103.9650     2.4729     0.1716   -42.2182     5.9954     6.5751
  824.0000    10.8624   101.1902     2.4729     0.1736   -42.8198     6.1055     6.5736
  824.5000    10.8624    97.8206     2.4729     0.1716   -42.8238     6.0481     6.5721
  825.0000    10.8624   100.5955     2.4728     0.1716   -42.8279     5.9912     6.6316
  825.5000    10.8624   102.1813     2.4728     0.1735   -42.8311     5.9898     6.6300
  826.0000    10.8624   106.1458     2.4718     0.1755   -42.6359     5.9334     6.7522
  826.5000    10.8625   107.8299     2.4688     0.1755   -42.6400     5.9870     6.7506
  827.0000    10.8625   103.3708     2.4677     0.1755   -42.6440     5.9856     6.7490
  827.5000    10.8625   102.3797     2.4687     0.1715   -42.8472     5.9842     6.8104
  828.0000    10.8625   101.7850     2.4707     0.1596   -43.2496     6.0382     6.8721
  828.5000    10.8625   101.1903     2.4717     0.1516   -43.2537     6.1495     6.8072
  829.0000    10.8625   101.1904     2.4727     0.1436   -43.2577     6.0916     6.9326
  829.5000    10.8626   100.3974     2.4688     0.1416   -43.2617     6.1466     7.0604
  830.0000    10.8626   100.0009     2.4628     0.1476   -42.8674     6.4345     6.9941
  830.5000    10.8626   100.3974     2.4588     0.1496   -42.6722     6.3745     7.4595
  831.0000    10.8626   100.3974     2.4608     0.1536   -42.6763     6.4321     7.5281
  831.5000    10.8626   100.3974     2.4618     0.1615   -43.2779     6.4312     8.1029
  832.0000    10.8627   100.1991     2.4658     0.1675   -43.4811     6.7324     8.1010
  832.5000    10.8627    98.0181     2.4688     0.1695   -43.4851     7.1136     9.1332
  833.0000    10.8627    97.0267     2.4718     0.1755   -43.2900     7.5860     9.5630
  833.5000    10.8627    96.2335     2.4728     0.1775   -43.0940     8.0156    10.1065
  834.0000    10.8627    95.0437     2.4728     0.1815   -42.3013     8.3148    10.5821
  834.5000    10.8627    94.0521     2.4727     0.1894   -42.3053     8.5464    10.7771
  835.0000    10.8628    95.0435     2.4767     0.1894   -42.3093     8.7840    10.8746
  835.5000    10.8628    95.0434     2.4897     0.1970   -42.3134     8.8633    10.8721
  836.0000    10.8628    94.6467     2.4976     0.1635   -42.1182     8.9433    10.8695
  836.5000    10.8628    89.4906     2.5066     0.1555   -42.3214     8.9412    10.8670
  837.0000    10.8628    89.2921     2.5116     0.1456   -42.5247     8.9391    10.7645
  837.5000    10.8628    88.8952     2.5126     0.1336   -43.3255     8.9370    10.8619
  838.0000    10.8430    90.6799     2.5106     0.1236   -43.9271     8.9350    10.8599
  838.5000    10.8629    91.2747     2.4946     0.1256   -44.1303     9.0156    11.0595
  839.0000    10.8629    92.2661     2.4886     0.1256   -44.3335     9.0135    11.1596
  839.5000    10.8629    92.6626     2.4847     0.1256   -44.3375     9.0949    11.3651
  840.0000    10.8431    92.8608     2.4847     0.1236   -44.3416     9.0928    11.4680
