~VERSION INFORMATION
 VERS.                2.0:   CWLS LOG ASCII STANDARD - VERSION 2.0
 WRAP.                 NO:   ONE LINE PER DEPTH STEP
~WELL INFORMATION
#MNEM.UNIT      DATA TYPE    INFORMATION
#----------   ------------   ------------------------------
 STRT.F          240.0000:   START DEPTH
 STOP.F         2876.0000:   STOP DEPTH
 STEP.F            0.5000:   STEP LENGTH
 NULL.          -999.2500:   NO VALUE
 COMP.    FENIX & SCISSON:   COMPANY
 WELL. FENIX & SCISSON "A" #23-21:   WELL
 FLD .               NPR3:   FIELD
 LOC .      S21 T39N R78W:   LOCATION
 CNTY.            NATRONA:   COUNTY
 STAT.            WYOMING:   STATE
 CTRY. UNITED STATES OF AMERICA:   COUNTRY
 SRVC.              WELEX:   SERVICE COMPANY
 DATE.        05-MAR-1977:   LOGDATE
 API .     49025103030000:   API NUMBER
~CURVE INFORMATION
#MNEM.UNIT       API CODE    CURVE DESCRIPTION
#----------   ------------   ------------------------------
 DEPT.F                  :   
 GRD .GAPI   45 310 01 00:   GAMMA RAY FROM DENSITY LOG
 CALD.IN     45 280 60 00:   CALIPER FROM DENSITY LOG
 CORR.G/C3   45 356 01 00:   DENSITY CORRECTION
 RHOB.G/C3   45 350 01 00:   BULK DENSITY
 SPR .MV     07 010 01 00:   SPONTANEOUS POTENTIAL
 ILD .OHMM   07 120 46 00:   DEEP INDUCTION RESISTIVITY
 ILM .OHMM   07 120 44 00:   INDUCTION LOG MEDIUM RESISTIVITY
 SGRD.OHMM   07 220 05 00:   SHALLOW SHORT GUARD RESISTIVITY
~PARAMETER INFORMATION
#MNEM.UNIT          VALUE    DESCRIPTION
#----------   ------------   ------------------------------
 EKB .F         4986.0000:   Kelly bushing
 EGL .F         4976.0000:   Ground level
 TD  .F         2885.0000:   Total depth
 CLNT.            A2DTECH:   Client Code
 SL  . 990' FWL & 1650' FNL:   Surface Location
 DATE.        05-MAR-1977:   Date Logged [DD-MMM-YYYY]
 DD  .F              2885:   Depth driller
 DL  .F              2882:   Depth logger
 BLI .F              2876:   Bottom log interval
 TLI .F               238:   Top log interval
 CS1 .IN            8.625:   Casing size
 CBD1.      8.625" @ 251':   Casing driller 1
 CBL1.IN              251:   Casing logger 1
 BS1 .IN            7.875:   Bit size
 BSD1.F              2885:   Depth drilled with bit1
 DFT .                KCL:   Type fluid in hole
 DFD .                9.5:   Density
 TCS .HRS               3:   Time Circ. stopped
 MRT .F                78:   Maximum recorded temp.
 ENGI.          D. LAWSON:   Recorded By
 WITN.            K. JAPP:   Witnessed by
 ORIG.         2.5" PRINT:   Origin of data
 UWI .     49025103030000:   Unique Well ID
 DICO. A2D TECHNOLOGIES,INC.:   Digitizing Company
 PD  .                 GL:   Permanent Datum
 EPD .               4976:   Elevation Permanent Datum
 LMF .                 KB:   Log Measured From
 DMF .                 KB:   Drilling Measured From
 DAPD.                 10:   Feet Above Permanent Datum
 DFL .                8.8:   Fluid loss
 MSS .           FLOWLINE:   Source of sample
 RMS .OHMM            .40:   Rm
 MST .F                58:   Rm Meas. temp.
 RMF .OHMM            .37:   Rmf
 MFST.F                58:   Rmf Meas. temp.
 MFSS.OHMM            .67:   Source Rmf.
 MCST.F                58:   Rmc Meas. temp.
 MCSS.               MEAS:   Source Rmc.
 RMB .OHMM            .30:   Rm. at BHT
 BHT .F                78:   BHT.
~OTHER INFORMATION
~A   DEPT       GRD        CALD      CORR        RHOB      SPR        ILD        ILM       SGRD   
# ...
  928.5000   113.3857     8.3360     0.0252     2.5129   -42.8994     6.9448    10.3182    12.1088
  929.0000   112.0851     8.3368     0.0253     2.5031   -42.8994     6.9629    10.3182    11.9188
  929.5000   110.5645     8.3375     0.0254     2.4903   -42.8994     7.0592    10.3182    11.7768
  930.0000   111.2619     8.3382     0.0255     2.4823   -42.8994     7.2396    10.3182    11.9622
  930.5000   113.6123     8.3390     0.0225     2.4856   -42.8994     7.3567    10.3182    12.2741
  931.0000   115.3762     8.3397     0.0226     2.4883   -42.8994     7.5621    10.3182    12.4661
  931.5000   116.2603     8.3404     0.0197     2.4901   -42.8994     7.6667    10.3182    12.6602
  932.0000   116.8512     8.3412     0.0198     2.4934   -42.6035     7.7728    10.3526    13.1720
  932.5000   117.4421     8.3419     0.0198     2.4990   -42.6035     7.8803    10.4615    13.3539
  933.0000   118.6195     8.3426     0.0199     2.5002   -42.6035     7.9764    10.6067    13.7053
  933.5000   118.9171     8.3434     0.0170     2.4880   -42.6035     7.9889    10.6067    13.9165
  934.0000   118.3350     8.3441     0.0171     2.4854   -42.3077     8.0883    10.4615    14.7061
  934.5000   117.1664     8.3448     0.0171     2.4872   -42.3077     8.0991    10.3182    14.8879
  935.0000   116.2910     8.3456     0.0172     2.4899   -42.3077     8.2017    10.1490    14.0472
  935.5000   117.4684     8.3463     0.0173     2.4803   -42.3077     8.0816     9.8739    13.3091
  936.0000   118.6458     8.3470     0.0174     2.4635   -42.3077     7.7556     9.7396    12.7679
  936.5000   118.9434     8.3478     0.0204     2.4564   -42.3077     7.6508     9.4755    12.4193
  937.0000   118.3613     8.3485     0.0205     2.4482   -42.3077     7.4391     9.2406    12.0946
  937.5000   117.4859     8.3493     0.0236     2.4605   -42.3077     7.2470     9.0933    11.9277
  938.0000   116.9038     8.3673     0.0296     2.4736   -42.3077     7.1450     8.8662    11.7631
  938.5000   116.9081     8.3801     0.0297     2.4848   -41.7160     6.9520     8.8662    11.4293
  939.0000   116.6187     8.3809     0.0328     2.4919   -41.4201     6.8596     8.8662    11.4523
  939.5000   116.9169     8.4110     0.0418     2.4964   -41.1243     6.8601     8.8662    11.9244
  940.0000   117.2145     8.4413     0.0449     2.4914   -41.1243     6.9558     8.8662    11.7490
  940.5000   117.5121     8.4715     0.0510     2.4829   -40.8284     7.0529     8.8662    11.2811
  941.0000   118.3963     8.5016     0.0570     2.4712   -40.5325     7.2506     8.8662    11.4469
  941.5000   119.2804     8.5318     0.0691     2.4461   -40.5325     7.3517     8.8662    11.9211
  942.0000   120.1646     8.5619     0.0811     2.4199   -40.2367     7.4543     8.8662    11.9203
  942.5000   119.5824     8.5626     0.0902     2.3905   -39.9408     7.5583     8.7448    11.7557
  943.0000   118.4138     8.5928     0.0993     2.3559   -39.3491     7.6638     8.6031    11.7549
  943.5000   116.6586     8.6229     0.1053     2.3161   -39.0533     7.6643     8.2657    11.7612
  944.0000   113.7305     8.6531     0.1144     2.2839   -38.5799     7.6648     8.0417    11.9372
  944.5000   110.5090     8.6832     0.1174     2.2696   -37.6948     7.3791     7.8315    12.5939
  945.0000   110.8067     8.7428     0.1055     2.2902   -37.2288     6.9453     7.7172    11.9044
  945.5000   111.3976     8.8612     0.1086     2.3044   -36.6864     6.4845     7.6185    11.1049
  946.0000   110.5222     9.0678     0.1147     2.2977   -36.3905     6.1861     8.0749    10.2286
  946.5000   109.3535     9.2450     0.1177     2.2694   -36.0947     6.2946     8.7562     9.6749
  947.0000   110.5309     9.3045     0.1148     2.2475   -35.7988     6.9196     8.9893     9.2870
  947.5000   112.2948     9.2759     0.1119     2.2399   -35.5030     6.9630     8.9852     9.4179
  948.0000   113.7655     9.2471     0.1090     2.2453   -35.5030     6.8681     8.7448     9.6828
  948.5000   115.2361     9.2773     0.1031     2.2488   -35.5030     6.8193     8.6250    10.0884
  949.0000   117.0000     9.4545     0.0972     2.2518   -35.7988     6.7271     8.5053    10.0877
  949.5000   117.8842     9.6023     0.0912     2.2642   -35.7988     6.6362     8.3904    10.2275
  950.0000   117.0088     9.5148     0.0883     2.2802   -36.0947     6.5917     8.3904    10.2268
  950.5000   116.4267     9.4567     0.0824     2.2817   -36.2401     6.5921     8.3904    10.0856
  951.0000   116.7302     9.4575     0.0765     2.2742   -36.3905     6.5925     8.6250     9.8098
  951.5000   117.6172     9.4582     0.0705     2.2643   -36.6864     6.5930     8.9893     9.8091
  952.0000   118.3065     9.4589     0.0465     2.2534   -37.1203     6.6850     9.2406     9.8084
  952.5000   119.0845     9.3126     0.0227     2.2793   -37.5740     6.7280     9.2406     9.8078
  953.0000   119.8625     9.0301     0.0048     2.3356   -37.7071     6.8211     9.4990     9.9437
  953.5000   120.6406     9.2258    -0.0011     2.3916   -38.4270     6.9155     9.7646    10.0814
  954.0000   121.4186     9.3442    -0.0069     2.4444   -38.8857     7.0660     9.9001    10.0807
  954.5000   121.5373     9.4920    -0.0068     2.4563   -39.4749     7.2069    10.3182    10.5070
  955.0000   118.4311     9.3457    -0.0067     2.4627   -40.0641     7.3066    10.4615    10.8009
  955.5000   117.0572     8.8464    -0.0037     2.4677   -40.7741     7.4682    10.7540    11.4145
  956.0000   117.0616     8.6707     0.0085     2.4722   -41.2427     7.6145    10.6067    12.0628
  956.5000   116.6369     8.6420     0.0144     2.4788   -41.5360     7.6781    10.6067    12.2300
  957.0000   114.9102     8.6428     0.0145     2.4857   -42.0118     7.6786    10.7540    12.0612
  957.5000   113.1109     8.6435     0.0146     2.4876   -42.0118     7.6397    10.9033    11.8947
  958.0000   113.7048     8.6442     0.0147     2.4799   -42.3077     7.4333    11.2081    11.7305
  958.5000   114.2987     8.6450     0.0147     2.4694   -42.3077     7.2680    11.3637    12.5695
  959.0000   114.8925     8.6457     0.0148     2.4652   -42.0118     7.2686    11.3827    12.5686
  959.5000   115.4863     8.6464     0.0149     2.4781   -42.0118     7.2691    10.4615    11.7281
  960.0000   116.5298     8.6472     0.0150     2.4867   -42.3077     7.2696     9.7646    11.2507
  960.5000   116.9419     8.6479     0.0150     2.4891   -42.3077     7.2701     9.2406    11.8898
  961.0000   115.7389     8.6486     0.0151     2.4891   -42.3077     7.3026     9.1141    12.3926
  961.5000   114.7268     8.6494     0.0150     2.4877   -42.3077     7.4036     9.2406    12.5643
  962.0000   113.5523     8.6207     0.0123     2.4850   -42.3077     7.4749     9.6309    12.9157
  962.5000   112.8421     8.6211     0.0123     2.4826   -42.3077     7.6098     9.7646    13.2770
  963.0000   112.2571     8.6213     0.0127     2.4832   -42.3077     7.6850     9.7646    13.2761
  963.5000   111.8489     8.6215     0.0155     2.4860   -42.6035     7.6855     9.7646    12.9130
  964.0000   112.1475     8.6217     0.0156     2.4905   -42.6035     7.6860     9.7646    12.5599
  964.5000   113.9114     8.6219     0.0156     2.4965   -42.6035     7.6866     9.7646    12.9113
  965.0000   115.6753     8.6221     0.0160     2.5025   -42.6775     7.6871     9.7646    13.4573
  965.5000   117.4392     8.6224     0.0221     2.5094   -42.8994     7.6876     9.7646    13.4757
  966.0000   117.7478     8.6226     0.0251     2.5144   -42.8994     7.6881     9.7646    12.9086
  966.5000   116.8607     8.6228     0.0249     2.5169   -42.8994     7.6887     9.7646    12.5556
  967.0000   118.3321     8.6230     0.0210     2.5062   -42.8994     7.6892     9.7646    12.7296
  967.5000   120.3893     8.6232     0.0098     2.4853   -42.8994     7.5628     9.7646    12.5538
  968.0000   122.4464     8.6234     0.0038     2.4591   -42.8994     7.3584     9.6309    11.8774
  968.5000   123.9171     8.6236     0.0013     2.4492   -42.8994     7.2590     9.4990    11.7135
