~VERSION INFORMATION
 VERS.                2.0:   CWLS LOG ASCII STANDARD - VERSION 2.0
 WRAP.                 NO:   ONE LINE PER DEPTH STEP
~WELL INFORMATION
#MNEM.UNIT      DATA TYPE    INFORMATION
#----------   ------------   ------------------------------
 STRT.F          210.0000:   START DEPTH
 STOP.F         3128.0000:   STOP DEPTH
 STEP.F            0.5000:   STEP LENGTH
 NULL.          -999.2500:   NO VALUE
 COMP.    PENIX & SCISSON:   COMPANY
 WELL. FENIX NPR 3 "A" #14-27:   WELL
 FLD .                NPR:   FIELD
 LOC .      S27 T39N R78W:   LOCATION
 CNTY.            NATRONA:   COUNTY
 STAT.            WYOMING:   STATE
 CTRY. UNITED STATES OF AMERICA:   COUNTRY
 SRVC.      DRESSER ATLAS:   SERVICE COMPANY
 DATE.        31-AUG-1977:   LOGDATE
 API .     49025104280000:   API NUMBER
~CURVE INFORMATION
#MNEM.UNIT       API CODE    CURVE DESCRIPTION
#----------   ------------   ------------------------------
 DEPT.F                  :   
 GRD .GAPI   45 310 01 00:   GAMMA RAY FROM DENSITY LOG
 CALD.IN     45 280 60 00:   CALIPER FROM DENSITY LOG
 RHOB.G/C3   45 350 01 00:   BULK DENSITY
 CORR.G/C3   45 356 01 00:   DENSITY CORRECTION
 NPHI.DEC    42 890 03 00:   NEUTRON POROSITY SANDSTONE
 SPR .MV     11 010 01 00:   SPONTANEOUS POTENTIAL
 RXO .OHMM   11 220 01 00:   FLUSHED ZONE RESISTIVITY
 LLD .OHMM   11 220 10 00:   LATEROLOG LOG DEEP
 LLS .OHMM   11 220 09 00:   LATEROLOG LOG SHALLOW
 TENR.LBS    11 635 01 00:   TENSION FROM RESISTIVITY
 TEND.LBS    45 635 01 00:   TENSION FROM DENSITY LOG
~PARAMETER INFORMATION
#MNEM.UNIT          VALUE    DESCRIPTION
#----------   ------------   ------------------------------
 EKB .F         5046.0000:   Kelly bushing
 EGL .F         5036.0000:   Ground level
 TD  .F         3111.0000:   Total depth
 DATE.        31-AUG-1977:   Date logged
 CLNT.            A2DTECH:   Client Code
 SL  . 2310' FNL & 330' FWL:   Surface Location
 PD  .                 GL:   Permanent Datum
 EPD .F              5036:   Elevation Permanent Datum
 LMF .                 KB:   Log Measured From
 DMF .                 KB:   Drilling Measured From
 DAPD.F                10:   Feet Above Permanent Datum
 DD  .F              3109:   Depth driller
 DL  .F              3111:   Depth logger
 BLI .F              3109:   Bottom log interval
 TLI .F               217:   Top log interval
 CS1 .IN             8.75:   Casing size
 CBD1.       8.75" @ 215':   Casing driller 1
 CBL1.F               217:   Casing logger 1
 BS1 .IN            7.875:   Bit size
 BSD1.F              3109:   Depth drilled with bit1
 DFT .                GEL:   Type fluid in hole
 DFD .                8.8:   Density
 DFV .                 35:   Viscosity
 DFPH.                 10:   pH
 DFL .                8.8:   Fluid loss
 MSS .                PIT:   Source of sample
 RMS .OHMM            .36:   Rm
 MST .F                67:   Rm Meas. temp.
 RMF .OHMM            .24:   Rmf
 MFST.F                67:   Rmf Meas. temp.
 RMC .OHMM            .51:   Rmc
 MCST.F                67:   Rmc Meas. temp.
 MFSS.               MEAS:   Source Rmf.
 MCSS.               CALC:   Source Rmc.
 RMB .OHMM            .20:   Rm. at BHT
 BHT .F               121:   BHT.
 TCS .HRS               5:   Time Circ. stopped
 MRT .F               121:   Maximum recorded temp.
 LUN .               6080:   Logging unit number
 LUL .              WLSTN:   Logging unit location
 ENGI.               BALL:   Recorded By
 WITN.         PETTINGILL:   Witnessed by
 ORIG.      2.5" 5" PRINT:   Origin of data
 UWI .     49025104280000:   Unique Well ID
 DICO. A2D TECHNOLOGIES, INC.:   Digitizing Company
~OTHER INFORMATION
~A   DEPT      GRD         CALD     RHOB       CORR       NPHI        SPR        RXO        LLD        LLS        TENR      TEND   
# ...
 1369.0000    83.4083     9.5950     2.5370     0.0036     0.2646   -36.3972     7.3398     9.4474     8.6492    89.4089   110.1573
 1369.5000    83.0161     9.5984     2.5490     0.0116     0.2634   -36.8003     7.3377     9.6196     8.6468    89.3269    98.1449
 1370.0000    84.2199     9.6019     2.5450     0.0136     0.2666   -36.8042     7.3363     9.6178     8.6451    89.2450   117.9866
 1370.5000    86.2216     9.6053     2.5370     0.0116     0.2677   -36.8068     7.0721     9.4412     8.6427    89.1630   117.9270
 1371.0000    88.2234     9.6087     2.5331     0.0057     0.2693   -36.8107     6.8168     9.1010     8.6411    89.0811   109.9545
 1371.5000    89.0283     9.6122     2.5202    -0.0003     0.2705   -36.6141     6.6922     8.9339     8.6386    88.9992   101.8986
 1372.0000    88.2371     9.6156     2.5063    -0.0042     0.2725   -36.6167     6.6903     8.9330     8.4809    88.9172    77.9573
 1372.5000    87.0470     9.6191     2.5003    -0.0062     0.2729   -36.6193     6.6884     8.7681     8.1747    88.8353    85.8463
 1373.0000    87.0538     9.6225     2.4944    -0.0082     0.2729   -35.8224     6.8109     8.7665     8.0254    88.7533   113.6724
 1373.5000    88.6567     9.6259     2.4914    -0.0081     0.2741   -35.4246     6.9344     8.6055     8.0231    88.6714    89.7073
 1374.0000    90.2596     9.6294     2.4994    -0.0081     0.2741   -35.4285     6.9331     8.6039     8.0216    88.5895    89.6595
 1374.5000    91.8626     9.6328     2.4984    -0.0091     0.2733   -35.4311     7.1880     8.6023     8.0193    88.5075   101.5288
 1375.0000    92.2685     9.6359     2.4914    -0.0101     0.2725   -36.2359     7.1873     8.6006     8.0178    88.4256    89.5522
 1375.5000    92.6744     9.6362     2.4934    -0.0100     0.2760   -36.6388     7.0547     8.5982     8.0155    88.3437    93.4489
 1376.0000    93.4793     9.6166     2.4964    -0.0100     0.2736   -37.0431     6.8006     8.5958     8.0140    88.2617    93.4012
 1376.5000    93.8853     9.5970     2.5004    -0.0100     0.2717   -37.0457     6.6764     8.5934     8.0118    88.1798    85.3691
 1377.0000    94.2912     9.5974     2.5014    -0.0120     0.2768   -37.0496     6.5525     8.5917     8.0102    88.0978    93.2939
 1377.5000    93.8991     9.6175     2.5044    -0.0080     0.2792   -36.6518     6.5519     8.4339     8.0080    88.0159    89.2301
 1378.0000    92.7088     9.6361     2.5213     0.0000     0.2804   -36.6557     6.4322     8.4323     8.0072    87.9340    89.1824
 1378.5000    91.9176     9.6547     2.5333     0.0020     0.2804   -36.2580     6.3141     8.4300     8.1516    87.8520    93.0911
 1379.0000    91.1264     9.6733     2.5402     0.0040     0.2811   -36.2619     6.3129     8.4284     8.1508    87.7701   101.0039
 1379.5000    90.7342     9.6918     2.5353     0.0041     0.2796   -36.2645     6.3111     8.2736     8.2978    87.6882   100.9323
 1380.0000    91.9383     9.7192     2.5254     0.0001     0.2776   -36.2684     6.3099     8.2720     8.4490    87.6062   112.8135
 1380.5000    91.1470     9.7194     2.5264     0.0001     0.2704   -36.6713     6.3081     8.2697     8.4466    87.5243    96.8328
 1381.0000    90.3557     9.7197     2.5254     0.0001     0.2629   -36.6752     6.3063     8.7328     8.4450    87.4423    92.8048
 1381.5000    90.3626     9.7200     2.5184     0.0022     0.2593   -36.6791     6.3051     8.7320     8.4427    87.3604    92.7332
 1382.0000    90.3695     9.7401     2.5234     0.0081     0.2585   -36.6817     6.5376     8.7287     8.4403    87.2785    80.7447
 1382.5000    89.5782     9.7580     2.5254     0.0102     0.2589   -36.6856     6.5364     8.7270     8.4387    87.1965    92.6139
 1383.0000    88.7882     9.7758     2.5244     0.0122     0.2613   -36.6882     6.5345     8.7254     8.2845    87.1146    96.5465
 1383.5000    89.5932     9.7936     2.5225     0.0102     0.2649   -37.0924     6.5333     8.7238     8.1324    87.0326    96.4749
 1384.0000    90.3969     9.8114     2.5175     0.0062     0.2649   -37.0950     6.4133     8.7213     7.9831    86.9507    96.4153
 1384.5000    93.5966     9.8292     2.5165     0.0083     0.2633   -37.0976     6.2961     8.7188     7.9816    86.8688    84.4148
 1385.0000    91.2089     9.8470     2.5295     0.0162     0.2609   -37.1015     6.2943     8.7172     7.8343    86.7868    92.3276
 1385.5000    90.0198     9.8624     2.5503     0.0222     0.2625   -36.3048     6.0676     8.5571     7.8330    86.7049    84.2955
 1386.0000    89.2284     9.8228     2.5543     0.0222     0.2641   -36.3088     5.8484     8.4006     7.8321    86.6230    92.1845
 1386.5000    90.4326     9.8232     2.5444     0.0183     0.2637   -35.9112     5.7416     8.3991     7.8306    86.5410    96.1170
 1387.0000    91.6355     9.8036     2.5345     0.0123     0.2609   -35.9138     5.7405     8.2448     7.8284    86.4591    84.1285
 1387.5000    94.0371     9.7440     2.5186     0.0064     0.2601   -35.9177     5.9521     8.2432     7.8262    86.3771   103.9583
 1388.0000    93.6449     9.6645     2.5166     0.0064     0.2593   -36.3205     6.0606     8.5458     7.9681    86.2952    99.9184
 1388.5000    93.2527     9.6249     2.5176     0.0064     0.2605   -37.1247     6.1705     8.5450     7.9666    86.2133    91.8982
 1389.0000    92.8618     9.6254     2.5186     0.0065     0.2644   -36.7272     6.1687     8.5434     7.9643    86.1313    91.8505
 1389.5000    92.4696     9.6456     2.5186     0.0065     0.2720   -37.1312     6.1675     8.5410     7.9628    86.0494    95.7592
 1390.0000    92.8756     9.6460     2.5196     0.0025     0.2783   -37.1338     6.0543     8.3841     7.8166    85.9675    99.6798
 1390.5000    93.2817     9.6463     2.5206     0.0026     0.2747   -36.7376     5.9436     8.3819     7.8145    85.7990    95.6399
 1391.0000    94.0869     9.6466     2.5187     0.0026     0.2708   -36.3400     5.9419     8.2300     7.6716    85.8697    87.6316
 1391.5000    93.6946     9.6470     2.5167     0.0026     0.2672   -36.3439     5.9397     8.2277     7.6695    85.9403    87.5601
 1392.0000    92.1049     9.6473     2.5217     0.0026     0.2660   -36.3465     6.3889     8.2254     7.6680    85.9587    91.4926
 1392.5000    91.7126     9.6676     2.5296     0.0026     0.2723   -36.3505     6.3877     8.2238     7.6672    86.0394    87.4408
 1393.0000    90.9211     9.6679     2.5296     0.0027     0.2731   -36.3531     6.2704     8.2223     7.6643    86.1201   103.3141
 1393.5000    89.7305     9.6683     2.5277     0.0027     0.2731   -36.3570     6.2692     8.2192     7.6636    86.2007    99.2623
 1394.0000    88.5398     9.6686     2.5416     0.0027     0.2711   -36.3596     6.2674     8.2176     7.6614    86.2814   111.1554
 1394.5000    86.5507     9.6689     2.5426     0.0027     0.2703   -36.3635     6.2662     8.2153     7.6600    86.3621   111.0838
 1395.0000    86.5575     9.6493     2.5456     0.0067     0.2703   -36.3661     6.2644     8.2138     7.6578    86.4428    87.1545
 1395.5000    86.1652     9.6497     2.5506     0.0068     0.2727   -36.3700     6.2632     8.2114     7.6564    86.5234    87.0829
 1396.0000    86.5712     9.6701     2.5347     0.0068     0.2794   -36.7726     6.2614     8.2099     7.6535    86.6041    91.0035
 1396.5000    87.3764     9.6356     2.5387     0.0068     0.2814   -36.7765     6.9842     8.2076     7.6513    86.6848    90.9439
 1397.0000    88.1817     9.6306     2.5437     0.0068     0.2834   -36.7804     7.9346     8.2052     7.6499    86.7655   106.8172
 1397.5000    88.9869     9.6310     2.5477     0.0068     0.2830   -37.3831     8.6904     8.3549     7.6477    86.8461    90.8246
 1398.0000    89.3930     9.6313     2.5427     0.0049     0.2794   -37.3870     8.6887     8.3525     7.6463    86.9268   102.7058
 1398.5000    90.1983     9.6315     2.5487     0.0049     0.2735   -36.9895     6.4856     8.3503     7.6441    87.0075   102.6461
 1399.0000    90.6044     9.6319     2.5546     0.0109     0.2699   -36.9934     6.3671     8.3494     7.6427    87.0882    94.6379
