~VERSION INFORMATION
 VERS.                2.0:   CWLS LOG ASCII STANDARD - VERSION 2.0
 WRAP.                 NO:   ONE LINE PER DEPTH STEP
~WELL INFORMATION
#MNEM.UNIT      DATA TYPE    INFORMATION
#----------   ------------   ------------------------------
 STRT.F            9.5000:   START DEPTH
 STOP.F         3154.0000:   STOP DEPTH
 STEP.F            0.5000:   STEP LENGTH
 NULL.          -999.2500:   NO VALUE
 COMP. LAWRENCE ALISON AND ASSOCIATES:   COMPANY
 WELL. LAWRENCE "X" #86-3:   WELL
 FLD .          N.P.R. #3:   FIELD
 LOC .       S3 T38N R78W:   LOCATION
 CNTY.            NATRONA:   COUNTY
 STAT.            WYOMING:   STATE
 CTRY. UNITED STATES OF AMERICA:   COUNTRY
 SRVC.       DRESSER ALAS:   SERVICE COMPANY
 DATE.        13-JUN-1986:   LOGDATE
 API .     49025110920000:   API NUMBER
~CURVE INFORMATION
#MNEM.UNIT       API CODE    CURVE DESCRIPTION
#----------   ------------   ------------------------------
 DEPT.F                  :   
 CALD.IN     45 280 60 00:   CALIPER FROM DENSITY LOG
 RHOB.G/C3   45 350 01 00:   BULK DENSITY
 CORR.G/C3   45 356 01 00:   DENSITY CORRECTION
 CNC .DEC    42 890 03 00:   NEUTRON PORISITY LIMESTONE
 SPR .MV     07 010 01 00:   SPONTANEOUS POTENTIAL
 GRR .GAPI   07 310 01 00:   GAMMA RAY FROM RESISTIVITY
 RFOC.OHMM   07 220 04 00:   RESISTIVITY FOCUSED LOG RES.
 ILD .OHMM   07 120 46 00:   DEEP INDUCTION RESISTIVITY
 ILM .OHMM   07 120 44 00:   INDUCTION LOG MEDIUM RESISTIVITY
 TENR.LBS    07 635 01 00:   TENSION FROM RESISTIVITY
~PARAMETER INFORMATION
#MNEM.UNIT          VALUE    DESCRIPTION
#----------   ------------   ------------------------------
 EKB .F         5153.0000:   Kelly bushing
 EGL .F         5142.0000:   Ground level
 EDF .F         5151.0000:   Drilling floor
 TD  .F         3151.0000:   Total depth
 DATE.        13-JUN-1986:   Date logged
 CLNT.            A2DTECH:   Client Code
 SL  . 1450' FSL & 144' FEL:   Surface Location
 PD  .                 GL:   Permanent Datum
 EPD .F              5142:   Elevation Permanent Datum
 LMF .                 KB:   Log Measured From
 DMF .                 KB:   Drilling Measured From
 DAPD.F                11:   Feet Above Permanent Datum
 DD  .F              3151:   Depth driller
 DL  .F              3151:   Depth logger
 BLI .F              3146:   Bottom log interval
 TLI .F                11:   Top log interval
 CS1 .IN            8.625:   Casing size
 CBD1.      8.625" @ 584':   Casing driller 1
 CBL1.F               592:   Casing logger 1
 BS1 .IN            7.875:   Bit size
 BSD1.F              3151:   Depth drilled with bit1
 DFT .            KCL-GEL:   Type fluid in hole
 DFD .                8.8:   Density
 DFV .                 35:   Viscosity
 DFPH.                8.5:   pH
 DFL .               15.5:   Fluid loss
 MSS .           FLOWLINE:   Source of sample
 RMS .OHMM           0.49:   Rm
 MST .F                80:   Rm Meas. temp.
 RMF .OHMM           0.38:   Rmf
 MFST.F                80:   Rmf Meas. temp.
 RMC .OHMM           0.61:   Rmc
 MCST.F                80:   Rmc Meas. temp.
 MFSS.               MEAS:   Source Rmf.
 MCSS.               CALC:   Source Rmc.
 RMB .OHMM           0.37:   Rm. at BHT
 BHT .F               112:   BHT.
 TCS .HRS            0.37:   Time Circ. stopped
 MRT .F               112:   Maximum recorded temp.
 LUN .            HL-6274:   Logging unit number
 LUL .           GILLETTE:   Logging unit location
 WITN.             STRONG:   Witnessed by
 ORIG.           5" PRINT:   Origin of data
 UWI .     49025110920000:   Unique Well ID
 DICO. A2D TECHNOLOGIES, INC.:   Digitizing Company
~OTHER INFORMATION
~A    DEPT    CALD       RHOB       CORR        CNC        SPR        GRR       RFOC        ILD        ILM       TENR   
# ...
 1617.5000  -999.2500  -999.2500  -999.2500  -999.2500   -98.0534    93.7396     6.8799     7.2476     6.3297   -69.9974
 1618.0000  -999.2500  -999.2500  -999.2500  -999.2500   -98.0008    92.5298     6.8154     7.2231     6.3874   -69.7527
 1618.5000  -999.2500  -999.2500  -999.2500  -999.2500   -97.9439    90.1171     6.9845     7.2044     6.3865   -69.4591
 1619.0000  -999.2500  -999.2500  -999.2500  -999.2500   -97.9471    89.3082     6.9835     7.2702     6.3854   -69.2144
 1619.5000  -999.2500  -999.2500  -999.2500  -999.2500   -97.9510    89.3011     7.0475     7.2021     6.3846   -68.9698
 1620.0000  -999.2500  -999.2500  -999.2500  -999.2500   -98.5564    92.1008     7.0465     7.2681     6.3835   -68.7251
 1620.5000  -999.2500  -999.2500  -999.2500  -999.2500   -98.9605    96.5045     7.3113     7.4720     6.4421   -68.4804
 1621.0000  -999.2500  -999.2500  -999.2500  -999.2500   -99.1649    98.5010     7.3102     7.6816     6.5011   -68.2358
 1621.5000  -999.2500  -999.2500  -999.2500  -999.2500   -99.3709    96.4892     7.4692     7.7520     6.6835   -67.9912
 1622.0000  -999.2500  -999.2500  -999.2500  -999.2500   -99.3749    92.0714     7.5339     7.7508     6.6825   -67.7465
 1622.5000  -999.2500  -999.2500  -999.2500  -999.2500   -98.3764    89.6571     7.5372     7.7497     6.6199   -67.5019
 1623.0000  -999.2500  -999.2500  -999.2500  -999.2500   -97.7781    93.6614     7.5361     7.7987     6.5581   -67.2573
 1623.5000  -999.2500  -999.2500  -999.2500  -999.2500   -97.7828    97.8635     7.3284     7.6585     6.4365   -67.0126
 1624.0000  -999.2500  -999.2500  -999.2500  -999.2500   -97.7867    98.6613     6.9953     7.5208     6.3172   -66.7681
 1624.5000  -999.2500  -999.2500  -999.2500  -999.2500   -97.7899    99.0554     6.9297     7.4529     6.2584   -66.5235
 1625.0000  -999.2500  -999.2500  -999.2500  -999.2500   -97.9951    98.0445     6.9713     7.2534     6.0858   -66.2300
 1625.5000  -999.2500  -999.2500  -999.2500  -999.2500   -97.9998    97.6365     6.7793     6.9920     5.9180   -65.9853
 1626.0000  -999.2500  -999.2500  -999.2500  -999.2500   -98.6045    95.4241     6.7159     6.9269     5.9170   -65.7407
 1626.5000  -999.2500  -999.2500  -999.2500  -999.2500   -98.8081    94.6165     6.6531     6.9257     5.9165   -65.4961
 1627.0000  -999.2500  -999.2500  -999.2500  -999.2500   -98.8121    95.8126     6.7140     6.9248     5.9157   -65.2516
 1627.5000  -999.2500  -999.2500  -999.2500  -999.2500   -99.0181    95.8057     6.7755     6.9240     5.9149   -65.0071
 1628.0000  -999.2500  -999.2500  -999.2500  -999.2500   -99.0205    94.9953     6.9011     7.0519     5.9142   -64.7625
 1628.5000  -999.2500  -999.2500  -999.2500  -999.2500   -98.0531    96.1914     6.9001     7.1834     6.3677   -64.5179
 1629.0000  -999.2500  -999.2500  -999.2500  -999.2500   -97.8253    99.3927     7.0934     7.3846     6.3082   -64.2734
 1629.5000  -999.2500  -999.2500  -999.2500  -999.2500   -97.8300    96.5785     7.2921     7.5914     6.2492   -64.0288
 1630.0000  -999.2500  -999.2500  -999.2500  -999.2500   -98.0337    90.7549     7.2350     7.6615     6.1908   -63.7844
 1630.5000  -999.2500  -999.2500  -999.2500  -999.2500   -98.0392    89.9472     7.1556     7.3074     6.1325   -63.5399
 1631.0000  -999.2500  -999.2500  -999.2500  -999.2500   -98.0442    89.1366     6.9591     7.3064     6.1316   -73.3074
 1631.5000  -999.2500  -999.2500  -999.2500  -999.2500   -98.0470    89.5307     6.8939     7.3054     6.1307   -73.0627
 1632.0000  -999.2500  -999.2500  -999.2500  -999.2500   -98.0481    90.3229     6.9571     7.3044     6.1299   -72.8181
 1632.5000  -999.2500  -999.2500  -999.2500  -999.2500   -98.0520    91.1237     7.0860     7.2416     6.1860   -62.5131
 1633.0000  -999.2500  -999.2500  -999.2500  -999.2500   -98.0552    93.1192     7.1509     7.2404     6.2429   -72.3288
 1633.5000  -999.2500  -999.2500  -999.2500  -999.2500   -98.0599    97.1229     7.0840     7.2396     6.2420   -62.0241
 1634.0000  -999.2500  -999.2500  -999.2500  -999.2500   -98.0662    99.1213     7.0830     7.2383     6.2411   -61.7797
 1634.5000  -999.2500  -999.2500  -999.2500  -999.2500   -98.6715    99.1144     7.0167     7.2375     6.2403   -71.5951
 1635.0000  -999.2500  -999.2500  -999.2500  -999.2500   -98.8784    95.8946     7.0157     7.2362     6.2394   -71.3504
 1635.5000  -999.2500  -999.2500  -999.2500  -999.2500   -98.8800    94.2861     7.0147     7.2354     6.4138   -50.9866
 1636.0000  -999.2500  -999.2500  -999.2500  -999.2500   -98.0833    92.2736     7.0789     7.3019     6.4132   -50.7423
 1636.5000  -999.2500  -999.2500  -999.2500  -999.2500   -97.6861    88.6568     7.2771     7.5758     6.4123   -60.5574
 1637.0000  -999.2500  -999.2500  -999.2500  -999.2500   -97.4895    85.0398     7.2761     7.5749     6.4114   -60.4596
 1637.5000  -999.2500  -999.2500  -999.2500  -999.2500   -97.4935    83.8295     7.3427     7.6443     6.4103   -60.0197
 1638.0000  -999.2500  -999.2500  -999.2500  -999.2500   -97.4974    84.6246     7.2068     7.5027     6.4094   -59.7753
 1638.5000  -999.2500  -999.2500  -999.2500  -999.2500   -97.3008    86.2220     7.1393     7.4201     6.4086   -69.5895
 1639.0000  -999.2500  -999.2500  -999.2500  -999.2500   -97.7058    90.2261     7.3393     7.4378     6.4077   -69.3449
 1639.5000  -999.2500  -999.2500  -999.2500  -999.2500   -97.7097    94.6313     7.2706     7.4556     6.4068   -69.1004
 1640.0000  -999.2500  -999.2500  -999.2500  -999.2500   -97.7137   101.0382     7.1363     7.4734     6.5255   -68.8559
 1640.5000  -999.2500  -999.2500  -999.2500  -999.2500   -98.1187   102.8381     7.2685     7.5666     6.6466   -58.5534
 1641.0000  -999.2500  -999.2500  -999.2500  -999.2500   -97.9221    99.0229     7.4720     7.7076     6.7079   -58.3091
 1641.5000  -999.2500  -999.2500  -999.2500  -999.2500   -97.9261    91.7955     7.6105     7.7784     6.7067   -58.0647
 1642.0000  -999.2500  -999.2500  -999.2500  -999.2500   -98.1306    83.3631     7.6094     7.9962     6.7059   -57.8203
 1642.5000  -999.2500  -999.2500  -999.2500  -999.2500   -97.7334    80.1469     7.7504     8.1436     6.7048   -77.6909
 1643.0000  -999.2500  -999.2500  -999.2500  -999.2500   -97.3369    83.7501     7.7493     8.1431     6.6418   -67.3891
 1643.5000  -999.2500  -999.2500  -999.2500  -999.2500   -96.9397    90.1614     7.7482     8.1419     6.5190   -77.1527
 1644.0000  -999.2500  -999.2500  -999.2500  -999.2500   -96.7431    92.9625     7.8191     7.9916     6.3389   -97.0221
 1644.5000  -999.2500  -999.2500  -999.2500  -999.2500   -96.7470    94.9613     7.5336     7.6285     6.3387   -66.6067
 1645.0000  -999.2500  -999.2500  -999.2500  -999.2500   -97.1513    93.7508     7.1258     7.5575     6.3376   -66.3623
 1645.5000  -999.2500  -999.2500  -999.2500  -999.2500   -97.6923    91.3369     7.1247     7.3487     6.3365   -66.1178
 1646.0000  -999.2500  -999.2500  -999.2500  -999.2500   -97.7617    90.5275     7.0581     7.3481     6.2775   -65.8734
 1646.5000  -999.2500  -999.2500  -999.2500  -999.2500   -98.1668    91.3228     7.1227     7.4147     6.0480   -55.5726
 1647.0000  -999.2500  -999.2500  -999.2500  -999.2500   -98.1707    92.1182     6.9911     7.2107     6.0472   -65.3845
 1647.5000  -999.2500  -999.2500  -999.2500  -999.2500   -98.1747    92.5124     6.9257     7.0773     6.0465   -65.1401
 1648.0000  -999.2500  -999.2500  -999.2500  -999.2500   -98.1786    92.1042     6.9247     7.0763     6.0456   -64.8957
 1648.5000  -999.2500  -999.2500  -999.2500  -999.2500   -98.1834    98.1137     6.7968     7.0753     6.0449   -64.6513
 1649.0000  -999.2500  -999.2500  -999.2500  -999.2500   -98.1849    99.3103     6.8590     7.0743     6.0442   -64.4069
 1649.5000  -999.2500  -999.2500  -999.2500  -999.2500   -97.6027    98.5010     6.9215     7.2055     6.0432   -64.1625
 1650.0000  -999.2500  -999.2500  -999.2500  -999.2500   -97.1930    96.4880     6.9857     7.3391     6.0490   -63.8693
 1650.5000  -999.2500  -999.2500  -999.2500  -999.2500   -97.1953    91.6665     7.1143     7.3381     6.0548   -63.6249
