~VERSION INFORMATION
 VERS.                2.0:   CWLS LOG ASCII STANDARD - VERSION 2.0
 WRAP.                 NO:   ONE LINE PER DEPTH STEP
~WELL INFORMATION
#MNEM.UNIT      DATA TYPE    INFORMATION
#----------   ------------   ------------------------------
 STRT.F            0.0000:   START DEPTH
 STOP.F         3358.0000:   STOP DEPTH
 STEP.F            0.5000:   STEP LENGTH
 NULL.          -999.2500:   NO VALUE
 COMP. LAWRENCE ALLISON & ASSOC.:   COMPANY
 WELL. LAWRENCE NPR 3 "X" #14-11:   WELL
 FLD .                NPR:   FIELD
 LOC .      S11 T38N R78W:   LOCATION
 CNTY.            NATRONA:   COUNTY
 STAT.            WYOMING:   STATE
 CTRY. UNITED STATES OF AMERICA:   COUNTRY
 SRVC.      DRESSER ATLAS:   SERVICE COMPANY
 DATE.        25-SEP-1985:   LOGDATE
 API .     49025110470000:   API NUMBER
~CURVE INFORMATION
#MNEM.UNIT       API CODE    CURVE DESCRIPTION
#----------   ------------   ------------------------------
 DEPT.F                  :   
 TENR.LBS    07 635 01 00:   TENSION
 SPR .MV     07 010 01 00:   SPONTANEOUS POTENTIAL
 SFL .OHMM   07 220 01 00:   SHALLOW FOCUSED LOG RESISTIVITY
 ILD .OHMM   07 120 46 00:   DEEP INDUCTION RESISTIVITY
 ILM .OHMM   07 120 44 00:   INDUCTION LOG MEDIUM RESISTIVITY
 TENS.LBS    60 635 01 00:   TENSION FROM SONIC LOG
 DT  .US/F   60 520 00 00:   DELTA TIME
 TEND.LBS    45 635 01 00:   TENSION FROM DENSITY LOG
 RHOB.G/C3   45 350 01 00:   BULK DENSITY
 CORR.G/C3   45 356 01 00:   DENSITY CORRECTION
 NPHI.DEC    42 890 01 00:   NEUTRON POROSITY LIMESTONE
 GRR .GAPI   07 310 01 00:   GAMMA RAY FROM RESISTIVITY
~PARAMETER INFORMATION
#MNEM.UNIT          VALUE    DESCRIPTION
#----------   ------------   ------------------------------
 EKB .F         5184.0000:   Kelly bushing
 EGL .F         5173.0000:   Ground level
 EDF .F            0.0000:   Drilling floor
 TD  .F         3353.0000:   Total depth
 DATE.        25-SEP-1985:   Date logged
 CLNT.            A2DTECH:   Client Code
 SL  . 473' FWL & 2360' FNL:   Surface Location
 PD  .                 GL:   Permanent Datum
 EPD .F              5173:   Elevation Permanent Datum
 LMF .                 KB:   Log Measured From
 DMF .                 KB:   Drilling Measured From
 DAPD.F                11:   Feet Above Permanent Datum
 DD  .F              3353:   Depth driller
 DL  .F              3346:   Depth logger
 BLI .F              3344:   Bottom log interval
 CS1 .IN            8.625:   Casing size
 CBD1.      8.625" @ 586':   Casing driller 1
 CBL1.F               585:   Casing logger 1
 BS1 .IN            7.875:   Bit size
 BSD1.F              3353:   Depth drilled with bit1
 DFT .     GEL/KCL/STAFLO:   Type fluid in hole
 DFD .                8.9:   Density
 DFV .                 39:   Viscosity
 DFPH.                  8:   pH
 DFL .                8.9:   Fluid loss
 MSS .           FLOWLINE:   Source of sample
 RMS .OHMM            .45:   Rm
 MST .F                80:   Rm Meas. temp.
 RMF .OHMM            .33:   Rmf
 MFST.F                80:   Rmf Meas. temp.
 RMC .OHMM            .56:   Rmc
 MCST.F                80:   Rmc Meas. temp.
 MFSS.               CALC:   Source Rmf.
 MCSS.               CALC:   Source Rmc.
 RMB .OHMM            .27:   Rm. at BHT
 BHT .F               130:   BHT.
 TCS .HRS               3:   Time Circ. stopped
 MRT .F               135:   Maximum recorded temp.
 LUN .               6274:   Logging unit number
 LUL .               GLTE:   Logging unit location
 ENGI.               MACK:   Recorded By
 WITN.             STRONG:   Witnessed by
 ORIG.           5" PRINT:   Origin of data
 UWI .     49025110470000:   Unique Well ID
 DICO. A2D TECHNOLOGIES, INC.:   Digitizing Company
~OTHER INFORMATION
~A    DEPT    TENR        SPR        SFL        ILD        ILM       TENS         DT       TEND       RHOB       CORR       NPHI         GRR  
# ...
  952.0000  -100.8950   -57.2830     7.1730     7.5750     7.4370  -999.2500  -999.2500  -999.2500  -999.2500  -999.2500  -999.2500    43.1640
  952.5000  -100.8950   -57.5770     7.0680     7.5150     7.3780  -999.2500  -999.2500  -999.2500  -999.2500  -999.2500  -999.2500    43.5580
  953.0000  -100.8950   -57.8530     6.9810     7.3440     7.2110  -999.2500  -999.2500  -999.2500  -999.2500  -999.2500  -999.2500    43.7320
  953.5000  -100.8950   -58.0860     6.8940     7.1770     7.0460  -999.2500  -999.2500  -999.2500  -999.2500  -999.2500  -999.2500    43.3090
  954.0000  -100.8950   -57.7010     6.7900     7.0430     6.9150  -999.2500  -999.2500  -999.2500  -999.2500  -999.2500  -999.2500    42.9970
  954.5000  -100.8950   -57.2980     6.7900     7.1570     7.0210  -999.2500  -999.2500  -999.2500  -999.2500  -999.2500  -999.2500    42.5810
  955.0000  -100.8950   -56.8740     6.7900     7.4430     7.2870  -999.2500  -999.2500  -999.2500  -999.2500  -999.2500  -999.2500    41.0660
  955.5000  -100.8950   -56.4580     7.1790     7.7290     7.5520  -999.2500  -999.2500  -999.2500  -999.2500  -999.2500  -999.2500    40.1430
  956.0000  -100.8950   -56.1550     7.6670     8.0150     7.8180  -999.2500  -999.2500  -999.2500  -999.2500  -999.2500  -999.2500    41.2350
  956.5000  -100.8950   -56.1570     8.1540     8.3010     8.0830  -999.2500  -999.2500  -999.2500  -999.2500  -999.2500  -999.2500    43.3560
  957.0000  -100.8950   -56.1500     8.1730     8.5860     8.3490  -999.2500  -999.2500  -999.2500  -999.2500  -999.2500  -999.2500    45.6280
  957.5000  -100.8950   -56.1540     8.2040     8.8720     8.6140  -999.2500  -999.2500  -999.2500  -999.2500  -999.2500  -999.2500    47.6480
  958.0000  -100.8950   -56.1520     8.2360     9.1010     8.9360  -999.2500  -999.2500  -999.2500  -999.2500  -999.2500  -999.2500    47.2730
  958.5000  -100.8950   -56.1520     8.2670     9.1010     8.9360  -999.2500  -999.2500  -999.2500  -999.2500  -999.2500  -999.2500    46.7900
  959.0000  -100.8950   -56.1510     8.3050     9.1010     8.9360  -999.2500  -999.2500  -999.2500  -999.2500  -999.2500  -999.2500    46.2190
  959.5000  -100.8430   -56.1510     8.2670     9.1010     8.9360  -999.2500  -999.2500  -999.2500  -999.2500  -999.2500  -999.2500    44.9060
  960.0000  -100.7140   -56.1510     8.1540     9.1010     8.9360  -999.2500  -999.2500  -999.2500  -999.2500  -999.2500  -999.2500    43.5790
  960.5000  -100.5860   -56.1510     8.1540     9.0860     8.7740  -999.2500  -999.2500  -999.2500  -999.2500  -999.2500  -999.2500    42.7870
  961.0000  -100.4570   -56.1510     8.1540     9.0740     8.7740  -999.2500  -999.2500  -999.2500  -999.2500  -999.2500  -999.2500    43.6860
  961.5000  -100.3280   -56.1510     8.3050     9.0610     8.7740  -999.2500  -999.2500  -999.2500  -999.2500  -999.2500  -999.2500    42.4670
  962.0000  -100.1990   -56.1510     8.3050     9.0480     8.7740  -999.2500  -999.2500  -999.2500  -999.2500  -999.2500  -999.2500    40.8840
  962.5000  -100.0710   -56.1510     8.3620     9.0360     8.7740  -999.2500  -999.2500  -999.2500  -999.2500  -999.2500  -999.2500    41.8400
  963.0000   -99.9420   -56.1520     8.4100     9.0230     8.7740  -999.2500  -999.2500  -999.2500  -999.2500  -999.2500  -999.2500    43.0450
  963.5000   -99.8130   -56.1510     8.4580     9.0110     8.7740  -999.2500  -999.2500  -999.2500  -999.2500  -999.2500  -999.2500    44.3370
  964.0000   -99.6840   -56.1520     8.6140     8.9980     8.7740  -999.2500  -999.2500  -999.2500  -999.2500  -999.2500  -999.2500    43.2600
  964.5000   -99.5560   -56.1530     8.6140     8.9860     8.7740  -999.2500  -999.2500  -999.2500  -999.2500  -999.2500  -999.2500    43.4500
  965.0000   -99.4270   -56.1490     8.4860     8.9730     8.7730  -999.2500  -999.2500  -999.2500  -999.2500  -999.2500  -999.2500    44.5000
  965.5000   -99.2980   -56.1590     8.3590     8.9610     8.7730  -999.2500  -999.2500  -999.2500  -999.2500  -999.2500  -999.2500    45.4210
  966.0000   -99.1690   -56.1330     8.2310     8.9480     8.7710  -999.2500  -999.2500  -999.2500  -999.2500  -999.2500  -999.2500    45.0880
  966.5000   -99.0400   -56.3420     8.1540     8.9360     8.7780  -999.2500  -999.2500  -999.2500  -999.2500  -999.2500  -999.2500    45.4090
  967.0000   -98.9120   -56.7700     8.1540     8.8770     8.7200  -999.2500  -999.2500  -999.2500  -999.2500  -999.2500  -999.2500    46.3030
  967.5000   -98.7830   -57.1460     8.1540     8.7780     8.6200  -999.2500  -999.2500  -999.2500  -999.2500  -999.2500  -999.2500    46.5110
  968.0000   -98.6540   -57.5770     8.0760     8.6790     8.5210  -999.2500  -999.2500  -999.2500  -999.2500  -999.2500  -999.2500    46.1650
  968.5000   -98.5250   -57.6680     7.9990     8.5810     8.4250  -999.2500  -999.2500  -999.2500  -999.2500  -999.2500  -999.2500    45.9330
  969.0000   -98.3970   -57.4710     7.9210     8.4820     8.3280  -999.2500  -999.2500  -999.2500  -999.2500  -999.2500  -999.2500    46.7410
  969.5000   -98.2680   -57.3170     7.8440     8.3840     8.2310  -999.2500  -999.2500  -999.2500  -999.2500  -999.2500  -999.2500    47.6510
  970.0000   -98.1390   -57.1410     7.7660     8.3050     8.1540  -999.2500  -999.2500  -999.2500  -999.2500  -999.2500  -999.2500    46.2070
  970.5000   -98.0100   -57.0070     7.6890     8.2120     8.0630  -999.2500  -999.2500  -999.2500  -999.2500  -999.2500  -999.2500    44.6950
  971.0000   -97.8820   -56.7520     7.6110     8.1350     7.9870  -999.2500  -999.2500  -999.2500  -999.2500  -999.2500  -999.2500    43.0690
  971.5000   -97.7530   -56.5220     7.5340     8.0580     7.9110  -999.2500  -999.2500  -999.2500  -999.2500  -999.2500  -999.2500    41.4620
  972.0000   -97.6240   -56.4880     7.4410     7.9810     7.8360  -999.2500  -999.2500  -999.2500  -999.2500  -999.2500  -999.2500    41.2880
  972.5000   -97.4950   -56.3630     7.4340     7.9030     7.7600  -999.2500  -999.2500  -999.2500  -999.2500  -999.2500  -999.2500    42.0090
  973.0000   -97.3670   -56.2850     7.4180     7.8260     7.6840  -999.2500  -999.2500  -999.2500  -999.2500  -999.2500  -999.2500    42.6330
  973.5000   -97.2380   -56.1630     7.4020     7.7490     7.6080  -999.2500  -999.2500  -999.2500  -999.2500  -999.2500  -999.2500    43.3580
  974.0000   -97.1090   -56.4160     7.3860     7.7180     7.5780  -999.2500  -999.2500  -999.2500  -999.2500  -999.2500  -999.2500    43.8800
  974.5000   -96.9800   -56.5950     7.3700     7.7340     7.5940  -999.2500  -999.2500  -999.2500  -999.2500  -999.2500  -999.2500    45.2480
  975.0000   -96.8520   -56.9490     7.3540     7.7750     7.6340  -999.2500  -999.2500  -999.2500  -999.2500  -999.2500  -999.2500    47.2030
  975.5000   -96.7230   -57.2710     7.3390     7.8150     7.6730  -999.2500  -999.2500  -999.2500  -999.2500  -999.2500  -999.2500    48.3340
  976.0000   -96.5940   -57.6040     7.3230     7.8550     7.7120  -999.2500  -999.2500  -999.2500  -999.2500  -999.2500  -999.2500    45.8620
  976.5000   -96.4650   -57.9540     7.3070     7.8960     7.7520  -999.2500  -999.2500  -999.2500  -999.2500  -999.2500  -999.2500    44.3280
  977.0000   -96.3360   -58.1560     7.3640     7.9360     7.7920  -999.2500  -999.2500  -999.2500  -999.2500  -999.2500  -999.2500    43.7820
  977.5000   -96.2080   -58.0350     7.4200     7.9770     7.8320  -999.2500  -999.2500  -999.2500  -999.2500  -999.2500  -999.2500    43.1860
  978.0000   -96.0790   -57.6650     7.4760     8.0170     7.8720  -999.2500  -999.2500  -999.2500  -999.2500  -999.2500  -999.2500    42.7580
  978.5000   -95.9500   -57.2880     7.5330     8.0580     7.9110  -999.2500  -999.2500  -999.2500  -999.2500  -999.2500  -999.2500    42.2810
  979.0000   -95.8210   -56.8980     7.5780     8.0980     7.9510  -999.2500  -999.2500  -999.2500  -999.2500  -999.2500  -999.2500    43.1040
  979.5000   -95.6930   -56.5250     7.6250     8.1380     7.9910  -999.2500  -999.2500  -999.2500  -999.2500  -999.2500  -999.2500    45.5370
