~VERSION INFORMATION
 VERS.                2.0:   CWLS LOG ASCII STANDARD - VERSION 2.0
 WRAP.                 NO:   ONE LINE PER DEPTH STEP
~WELL INFORMATION
#MNEM.UNIT      DATA TYPE    INFORMATION
#----------   ------------   ------------------------------
 STRT.F          450.0000:   START DEPTH
 STOP.F         3070.0000:   STOP DEPTH
 STEP.F            0.5000:   STEP LENGTH
 NULL.          -999.2500:   NO VALUE
 COMP. LAWRENCE ALLISON & ASSOCIATES:   COMPANY
 WELL. LAWRENCE "X" #86-28:   WELL
 FLD .             NPR #3:   FIELD
 LOC .      S28 T39N R78W:   LOCATION
 CNTY.            NATRONA:   COUNTY
 STAT.            WYOMING:   STATE
 CTRY. UNITED STATES OF AMERICA:   COUNTRY
 SRVC.      WESTERN ATLAS:   SERVICE COMPANY
 DATE.        03-JAN-1988:   LOGDATE
 API .     49025111920000:   API NUMBER
~CURVE INFORMATION
#MNEM.UNIT       API CODE    CURVE DESCRIPTION
#----------   ------------   ------------------------------
 DEPT.F                  :   
 TEND.LBS    45 635 01 00:   TENSION FROM DENSITY LOG
 CALD.IN     45 280 60 00:   CALIPER FROM DENSITY LOG
 NPHI.DEC    42 890 03 00:   NEUTRON POROSITY SANDSTONE
 DEN .G/C3   45 350 01 00:   BULK DENSITY
 CORR.G/C3   45 356 01 00:   DENSITY CORRECTION
 TENR.LBS    07 635 01 00:   TENSION FROM RESISTIVITY
 RFOC.OHMM   07 220 04 00:   RESISTIVITY FOCUSED LOG RES.
 RILD.OHMM   07 120 46 00:   DEEP INDUCTION RESISTIVITY
 RILM.OHMM   07 120 44 00:   INDUCTION LOG MEDIUM RESISTIVITY
 SPR .MV     07 010 01 00:   SPONTANEOUS POTENTIAL
 GRR .GAPI   07 310 01 00:   GAMMA RAY FROM RESISTIVITY
~PARAMETER INFORMATION
#MNEM.UNIT          VALUE    DESCRIPTION
#----------   ------------   ------------------------------
 EKB .F         5072.0000:   Kelly bushing
 EGL .F         5061.0000:   Ground level
 EDF .F         5071.0000:   Drilling floor
 TD  .F         3062.0000:   Total depth
 DATE.        03-JAN-1988:   Date logged
 CLNT.            A2DTECH:   Client Code
 SL  . 1721' FSL & 556' FEL:   Surface Location
 PD  .                 GL:   Permanent Datum
 DD  .F              3060:   Depth driller
 DL  .F              3062:   Depth logger
 BLI .F              3060:   Bottom log interval
 CS1 .IN            8.625:   Casing size
 CBD1.      8.625" @ 480':   Casing driller 1
 CBL1.F               480:   Casing logger 1
 BS1 .IN            7.875:   Bit size
 DFT .        KCL-POLYMER:   Type fluid in hole
 DFD .                8.9:   Density
 DFV .                 36:   Viscosity
 DFPH.                9.5:   pH
 DFL .                8.4:   Fluid loss
 MSS .               TANK:   Source of sample
 RMS .OHMM           0.45:   Rm
 MST .F                80:   Rm Meas. temp.
 RMF .OHMM           0.41:   Rmf
 MFST.F                60:   Rmf Meas. temp.
 RMC .OHMM           0.65:   Rmc
 MCST.F                60:   Rmc Meas. temp.
 MFSS.               MEAS:   Source Rmf.
 RMB .OHMM           0.31:   Rm. at BHT
 BHT .F               110:   BHT.
 TCS .HRS               4:   Time Circ. stopped
 MRT .F               110:   Maximum recorded temp.
 LUN .            HL 6343:   Logging unit number
 LUL .               CODY:   Logging unit location
 ENGI.               RALL:   Recorded By
 WITN.              FIVRS:   Witnessed by
 ORIG.     2.5", 5" PRINT:   Origin of data
 UWI .     49025111920000:   Unique Well ID
 DICO. A2D TECHNOLOGIES, INC.:   Digitizing Company
 DAPD.                 11:   Feet Above Permanent Datum
 BSD1.               3060:   Depth drilled with bit1
 MCSS.               CALC:   Source Rmc.
 EPD .               5061:   Elevation Permanent Datum
 LMF .                 KB:   Log Measured From
 DMF .                 KB:   Drilling Measured From
 TLI .                480:   Top log interval
~OTHER INFORMATION
~A   DEPT     TEND       CALD       NPHI        DEN       CORR       TENR       RFOC       RILD       RILM        SPR         GRR  
# ...
 2188.5000   -18.1450     8.6470     0.3080     2.4810     0.0140   -64.3190     7.1760     4.9110     5.4700   -21.8370   119.1300
 2189.0000   -18.1450     8.6490     0.3020     2.4830     0.0010   -62.3730     7.1760     4.9330     5.4190   -22.2680   116.2840
 2189.5000   -18.1450     8.6500     0.2960     2.4890     0.0060   -62.3730     7.0430     4.9550     5.3310   -22.5260   115.5230
 2190.0000   -18.1450     8.6520     0.2960     2.4940     0.0110   -62.3730     6.4860     4.9820     5.2430   -22.6210   115.9200
 2190.5000   -18.1450     8.6530     0.2970     2.4990     0.0160   -62.3730     5.9320     4.9530     5.1550   -22.7630   120.9640
 2191.0000   -18.1450     8.6550     0.3020     2.4980     0.0180   -62.1740     5.5940     4.8850     5.0760   -23.0020   126.3240
 2191.5000   -18.1450     8.6560     0.3080     2.4970     0.0220   -61.3570     5.5740     4.8170     5.0760   -23.2410   129.9120
 2192.0000   -18.1450     8.6580     0.3160     2.4970     0.0240   -60.5410     5.7850     4.7540     5.0760   -23.2860   130.3990
 2192.5000   -18.1450     8.6520     0.3300     2.4960     0.0270   -59.7250     5.9530     4.7980     5.1530   -23.2880   129.2180
 2193.0000   -18.1450     8.6410     0.3420     2.4950     0.0350   -58.9090     6.1210     4.8880     5.4240   -23.2850   127.4230
 2193.5000   -18.1450     8.6310     0.3420     2.4950     0.0310   -58.0930     6.4110     4.9790     5.6950   -23.2290   125.6440
 2194.0000   -18.1450     8.6200     0.3420     2.4940     0.0190   -57.2760     6.9680     5.0760     5.9650   -22.9820   123.8720
 2194.5000   -18.1450     8.6100     0.3290     2.4930     0.0090   -56.4600     7.5260     5.3590     6.2360   -22.7400   122.1030
 2195.0000   -18.1450     8.6000     0.3150     2.4850     0.0000   -55.6440     8.1050     5.6620     6.5070   -22.4990   120.3400
 2195.5000   -18.1450     8.5890     0.3130     2.4770    -0.0120   -54.8280     8.4520     5.9650     6.7840   -22.2570   118.9800
 2196.0000   -18.1450     8.5790     0.3150     2.4690    -0.0100   -54.0120     8.8170     6.2690     6.9240   -22.0160   119.1350
 2196.5000   -18.1450     8.5690     0.3170     2.4640     0.0040   -53.1960     8.8170     6.5720     7.0680   -21.7740   120.2320
 2197.0000   -18.1450     8.5580     0.3190     2.4590     0.0170   -52.3790     8.7390     6.8750     7.2110   -21.7030   122.1140
 2197.5000   -18.1450     8.5480     0.3200     2.4540     0.0200   -54.6370     8.5490     7.1110     7.3550   -21.7510   124.2240
 2198.0000   -18.1450     8.5400     0.3200     2.4560     0.0200   -57.5760     8.3590     7.1200     7.5200   -21.7990   127.0750
 2198.5000   -18.1450     8.5390     0.3190     2.4620     0.0240   -60.5150     8.1050     7.1280     7.4540   -21.8480   126.5530
 2199.0000   -18.1450     8.5390     0.3130     2.4680     0.0170   -63.4550     8.5160     7.1370     7.4890   -21.8870   119.8410
 2199.5000   -18.1450     8.5390     0.3110     2.4750     0.0040   -66.3940     9.3270     7.1450     7.5120   -21.9390   113.2640
 2200.0000   -18.1450     8.5390     0.3010     2.4740     0.0050   -69.3330     9.1580     7.1540     7.5360   -21.9900   109.1890
 2200.5000   -18.1450     8.5390     0.2860     2.4690     0.0120   -72.5150     8.9140     7.1620     7.5590   -22.0450   111.9380
 2201.0000   -18.1450     8.5390     0.2890     2.4690     0.0190   -74.1450     8.6540     7.1710     7.5820   -22.1930   115.6730
 2201.5000   -18.1450     8.5390     0.2930     2.4730     0.0260   -75.9220     8.7400     7.1820     7.6060   -22.6060   119.3930
 2202.0000   -18.1450     8.5390     0.2960     2.4710     0.0270   -77.6980     8.8170     7.1990     7.6290   -23.0040   123.1430
 2202.5000   -18.1450     8.5390     0.2990     2.4570    -0.0060   -79.4750     8.8170     7.2160     7.6530   -23.4070   126.9100
 2203.0000   -18.1450     8.5390     0.3090     2.4440    -0.0140   -81.2510     8.8170     7.2330     7.7340   -23.4370   129.7630
 2203.5000   -18.1450     8.5390     0.3210     2.4430    -0.0100   -79.7250     8.7350     7.2490     7.7340   -23.3590   132.0170
 2204.0000   -18.1450     8.5390     0.3290     2.4460    -0.0060   -65.6740     9.1510     7.2660     7.7340   -23.2580   133.3930
 2204.5000   -18.1450     8.5390     0.3240     2.4490    -0.0030   -52.2310     9.6830     7.2830     7.7340   -22.7820   132.0310
 2205.0000   -18.1450     8.5390     0.3170     2.4510     0.0020   -54.1550     9.6570     7.3000     7.6990   -22.4030   129.6450
 2205.5000   -18.1450     8.5390     0.3080     2.4460     0.0020   -56.4280     9.5990     7.3120     7.6450   -22.0310   128.6500
 2206.0000   -18.1450     8.5390     0.3000     2.4360    -0.0080   -58.7010     9.2480     7.2260     7.5900   -21.6590   129.5770
 2206.5000   -18.1450     8.5390     0.2980     2.4230    -0.0170   -60.9740     8.7210     7.1580     7.5360   -21.4170   131.4700
 2207.0000   -18.1450     8.5390     0.2970     2.4200    -0.0270   -63.2470     8.1810     7.0900     7.4500   -21.3060   133.4910
 2207.5000   -18.1450     8.5390     0.3030     2.4250    -0.0330   -65.5200     8.1050     7.0220     7.3810   -21.1950   134.4540
 2208.0000   -18.1450     8.5390     0.3070     2.4390    -0.0260   -67.7930     8.4610     6.9780     7.3810   -21.0840   133.0180
 2208.5000   -18.1450     8.5390     0.3050     2.4480    -0.0140   -70.0660     8.7350     6.9900     7.4500   -20.9730   124.9670
 2209.0000   -18.1450     8.5390     0.3040     2.4390    -0.0030   -72.3390     8.8440     7.0010     7.5670   -20.8620   115.1790
 2209.5000   -18.1450     8.5390     0.3060     2.4290     0.0080   -74.6120     8.9690     7.0120     7.6270   -20.7530   105.6470
 2210.0000   -18.1450     8.5390     0.3060     2.4220     0.0020   -76.8850     9.1410     7.0220     7.6620   -20.6950   103.6710
 2210.5000   -18.1450     8.5390     0.3040     2.4260    -0.0100   -79.1580     9.2400     7.0330     7.6620   -20.8620   103.0410
 2211.0000   -18.1450     8.5390     0.3010     2.4330    -0.0180   -81.4310     9.0510     7.0430     7.6620   -21.0230   103.9690
 2211.5000   -18.1450     8.5390     0.2980     2.4420    -0.0060   -81.9660     8.8250     7.1360     7.6620   -21.1840   105.1110
 2212.0000   -18.1450     8.5390     0.2960     2.4570     0.0130   -80.4650     8.5730     7.2440     7.6620   -21.2700   107.0300
 2212.5000   -18.1450     8.5390     0.2930     2.4780     0.0330   -78.9650     8.9090     7.3530     7.6620   -21.2710   106.9470
 2213.0000   -18.1450     8.5390     0.2890     2.4720     0.0240   -77.4640     9.5920     7.4610     7.7090   -21.4020   104.1130
 2213.5000   -18.1450     8.5390     0.2830     2.4610     0.0080   -75.9630    10.0520     7.5700     7.8590   -21.6570   103.2740
 2214.0000   -18.1450     8.5390     0.2890     2.4490     0.0030   -74.4630     9.9970     7.6620     8.0090   -21.9120   103.6310
 2214.5000   -18.1450     8.5390     0.3030     2.4380     0.0170   -72.9620     9.9560     7.7090     8.1010   -22.1690   106.3660
 2215.0000   -18.1450     8.5360     0.3250     2.4260     0.0160   -71.4620     9.9150     7.7580     8.0580   -22.4350   111.2810
 2215.5000   -18.1450     8.5320     0.3460     2.4150     0.0040   -69.9610     9.8740     7.8070     8.0240   -22.2700   121.1240
 2216.0000   -18.1450     8.5280     0.3390     2.4150    -0.0040   -68.4600     9.5370     7.8070     7.9900   -22.0080   131.0750
 2216.5000   -18.1450     8.5240     0.3340     2.4220    -0.0020   -66.9600     8.9840     7.7200     7.9550   -21.7410   135.1430
 2217.0000   -18.1450     8.5200     0.3280     2.4300    -0.0010   -65.4590     9.3920     7.6480     7.9210   -21.4760   127.8920
 2217.5000   -18.1450     8.5170     0.3220     2.4310    -0.0010   -63.9590     9.8840     7.5760     7.8860   -21.2120   124.3850
 2218.0000   -18.1450     8.5130     0.3160     2.4340    -0.0050   -62.4580    10.2420     7.5030     7.8520   -21.0730   124.7030
 2218.5000   -18.1450     8.5090     0.3130     2.4360    -0.0060   -60.9570     9.8430     7.4310     7.8180   -20.8990   125.2010
