~VERSION INFORMATION
 VERS.                2.0:   CWLS LOG ASCII STANDARD - VERSION 2.0
 WRAP.                 NO:   ONE LINE PER DEPTH STEP
~WELL INFORMATION
#MNEM.UNIT      DATA TYPE    INFORMATION
#----------   ------------   ------------------------------
 STRT.F           60.0000:   START DEPTH
 STOP.F         5768.0000:   STOP DEPTH
 STEP.F            0.5000:   STEP LENGTH
 NULL.          -999.2500:   NO VALUE
 COMP.              RMOTC:   COMPANY
 WELL. RMOTC NPR-3 61 "X" #2-15:   WELL
 FLD .            N P R-3:   FIELD
 LOC .      S15 T38N R78W:   LOCATION
 CNTY.            NATRONA:   COUNTY
 STAT.            WYOMING:   STATE
 CTRY. UNITED STATES OF AMERICA:   COUNTRY
 SRVC.       SCHLUMBERGER:   SERVICE COMPANY
 DATE.        07-JAN-2002:   LOGDATE
 API .     49025230310000:   API NUMBER
~CURVE INFORMATION
#MNEM.UNIT       API CODE    CURVE DESCRIPTION
#----------   ------------   ------------------------------
 DEPT.F                  :   
 CALD.IN     45 280 60 00:   CALIPER FROM DENSITY LOG
 TEND.LBS    45 635 01 00:   TENSION FROM DENSITY LOG
 PEFZ.B/E    45 358 01 00:   HILT PHOTOELECTRIC FACTOR
 RHOZ.G/C3   45 350 01 00:   HILT BULK DENSITY
 NPOR.DEC    42 890 03 00:   ALPHA PROCESSED NEUTRON POROSITY
 HDRA.G/C3   45 356 01 00:   DELTA RHO HIP TOOL
 GRS .GAPI   60 310 01 00:   GAMMA RAY FROM SONIC LOG
 DTSM.US/F   61 523 00 00:   SHEAR-WAVE INTERVAL TRANSIT TIME DELTA-T
 GRR .GAPI   07 310 01 00:   GAMMA RAY FROM RESISTIVITY
 TENR.LBS    01 635 01 00:   TENSION FROM RES.
 SPR .MV     07 010 01 00:   SPONTANEOUS POTENTIAL
 HLLD.OHMM   11 220 10 00:   LATEROLOG DEEP RES.
 HLLS.OHMM   11 220 09 00:   LATEROLOG SHALLOW RES.
 HRLD.OHMM   11 220 10 00:   HIGH RESOLUTION DEEP RESISTIVITY
~PARAMETER INFORMATION
#MNEM.UNIT          VALUE    DESCRIPTION
#----------   ------------   ------------------------------
 EKB .F         5244.0000:   Kelly bushing
 EGL .F         5227.0000:   Ground level
 EDF .F         5243.0000:   Drilling floor
 EPD .F            0.0000:   Permanent datum
 TD  .F         5756.0000:   Total depth
 DATE.        07-JAN-2002:   Date logged
 CLNT.            A2DTECH:   Client Code
 SL  . 189' FNL & 1895' FEL:   Surface Location
 PD  .                 GL:   Permanent Datum
 DD  .F              5750:   Depth driller
 DL  .F              5756:   Depth logger
 BLI .F              5748:   Bottom log interval
 CS1 .IN             3054:   Casing size
 CBD1.     9.625" @ 3052':   Casing driller 1
 CBL1.F              3054:   Casing logger 1
 BS1 .IN            8.750:   Bit size
 DFT .             3% KCL:   Type fluid in hole
 DFD .                9.3:   Density
 DFV .                 42:   Viscosity
 DFPH.                  8:   pH
 DFL .                 28:   Fluid loss
 MSS .           FLOWLINE:   Source of sample
 RMS .OHMM          0.413:   Rm
 MST .F                74:   Rm Meas. temp.
 RMF .OHMM          0.305:   Rmf
 MFST.F                74:   Rmf Meas. temp.
 RMC .OHMM          0.637:   Rmc
 MCST.F                74:   Rmc Meas. temp.
 MFSS.               CALC:   Source Rmf.
 RMB .OHMM          0.187:   Rm. at BHT
 BHT .F               172:   BHT.
 TCS .HRS            0800:   Time Circ. stopped
 MRT .F               172:   Maximum recorded temp.
 LUN .               2211:   Logging unit number
 LUL .             CASPER:   Logging unit location
 ENGI.        J.L. FLORES:   Recorded By
 WITN.      MARK MILLIKEN:   Witnessed by
 ORIG.           5" PRINT:   Origin of data
 UWI .     49025230310000:   Unique Well ID
 DICO. A2D TECHNOLOGIES, INC.:   Digitizing Company
 DAPD.                 17:   Feet Above Permanent Datum
 BSD1.               5750:   Depth drilled with bit1
 MCSS.               CALC:   Source Rmc.
 LMF .                 KB:   Log Measured From
 DMF .                 KB:   Drilling Measured From
 TLI .               3054:   Top log interval
~OTHER INFORMATION
~A   DEPT     CALD       TEND       PEFZ       RHOZ       NPOR       HDRA        GRS       DTSM         GRR      TENR        SPR       HLLD       HLLS       HRLD   
# ...
 3931.0000    11.9320  2355.8650     2.5220     2.4360     0.3390    -0.0040    83.6970  -999.2500    91.1340  2376.1919   -45.6220     3.0430     3.1750     2.9950
 3931.5000    11.9800  2355.8650     2.4800     2.4310     0.3370    -0.0050    86.7820  -999.2500    88.6920  2373.3860   -45.8690     2.9360     3.0390     2.8870
 3932.0000    12.0280  2355.8650     2.4540     2.4270     0.3540    -0.0050    87.0690   165.6350    86.7550  2379.2781   -46.2610     2.8300     2.9010     2.7790
 3932.5000    12.0740  2355.8650     2.4280     2.4250     0.3800    -0.0020    86.6900   161.0660    85.4020  2393.2471   -46.6410     2.6980     2.8150     2.6710
 3933.0000    12.1000  2355.8650     2.4600     2.4240     0.3780     0.0010    86.8390   161.2270    86.5520  2393.2471   -47.0990     2.6670     2.7990     2.6020
 3933.5000    12.1290  2355.8650     2.6340     2.3900     0.3750     0.0270    89.6780   161.4800    90.9490  2373.9160   -47.3390     2.6740     2.9300     2.6020
 3934.0000    12.1620  2355.8650     2.8410     2.3750     0.3640     0.0600    89.6870   161.5740    96.1840  2353.5249   -46.8170     3.0240     3.0670     2.9840
 3934.5000    12.1790  2367.4351     3.0430     2.4010     0.3720     0.0930    88.9680   158.5640    98.3800  2353.5249   -46.2230     3.1810     3.1520     2.9940
 3935.0000    12.0790  2382.4060     3.0420     2.4560     0.3520     0.1060    87.5380   155.6370    99.3210  2374.4700   -45.7690     3.6830     4.2480     3.5380
 3935.5000    11.9710  2397.3760     2.9560     2.5030     0.2880     0.0800    88.3670   152.7100    99.1170  2410.7251   -45.4200     5.6610     5.1190     5.6610
 3936.0000    11.9460  2412.3459     2.8750     2.5030     0.2710     0.0280    90.8460   150.4060   100.7670  2432.9690   -45.8130     5.3980     5.6110     5.0680
 3936.5000    11.9390  2403.6980     2.8640     2.5070     0.2810     0.0120    92.8670   151.1900   103.2100  2432.9690   -50.2110     5.2130     5.4570     4.8650
 3937.0000    11.9250  2388.7280     2.8560     2.5140     0.2910     0.0010    91.5410   152.5140   103.8100  2410.4980   -54.4320     5.2610     5.4570     5.0460
 3937.5000    11.9120  2373.7571     2.8120     2.5210     0.2950     0.0000    90.4910   153.8390    99.8140  2353.5249   -54.5330     5.9310     6.0050     5.5700
 3938.0000    11.9090  2358.7871     2.7640     2.5190     0.2830    -0.0010    91.3770   155.1630    95.3940  2365.9880   -50.7930     6.7350     6.5530     6.3240
 3938.5000    11.9440  2360.5891     2.7340     2.5150     0.2780    -0.0030    93.8600   156.4970    94.5840  2378.4509   -47.9050     6.7350     6.1920     6.9220
 3939.0000    11.9770  2366.4600     2.7590     2.5060     0.2930    -0.0040    91.8730   155.6620    96.6390  2393.2471   -46.3970     5.7430     5.7440     5.5900
 3939.5000    12.0100  2372.3311     2.7740     2.4980     0.3130    -0.0030    90.9500   156.6530    99.5480  2381.9810   -45.6860     4.7580     5.2130     4.5040
 3940.0000    12.0460  2375.7461     2.7400     2.4920     0.3090    -0.0030    90.0180   157.4960   100.6100  2354.7891   -45.1830     4.3820     5.2480     4.4220
 3940.5000    12.0730  2375.7461     2.7340     2.4920     0.3050    -0.0030    88.6710   158.3380   102.6140  2313.8030   -45.0480     4.6650     5.4440     5.6720
 3941.0000    12.0990  2357.3760     2.7330     2.4870     0.3150     0.0020    86.0780   159.0360   103.8790  2333.6641   -44.9500     4.9350     5.6400     6.4710
 3941.5000    12.1190  2364.0291     2.7580     2.4820     0.3290     0.0080    84.1990   159.4550   103.4810  2333.6641   -47.1330     5.2030     5.8720     7.0500
 3942.0000    12.2060  2370.6831     2.8170     2.4860     0.3010     0.0180    90.3310   159.3400   103.1000  2333.6641   -50.8930     5.4640     5.9260     6.6670
 3942.5000    13.0240  2375.7461     2.8780     2.5060     0.2960     0.0440    97.7190   159.2250   105.0540  2347.7881   -54.8580     5.7250     5.5300     6.2060
 3943.0000    12.9370  2372.8979     2.9380     2.5150     0.2980     0.0520   103.4380   159.1100   107.8810  2369.9441   -53.9680     5.7160     5.0580     5.7650
 3943.5000    12.9670  2366.4590     2.8220     2.5060     0.3170     0.0320   101.2430   159.2960   111.8710  2392.1001   -51.9390     5.5560     5.0530     5.6450
 3944.0000    12.8260  2360.0210     2.6950     2.4960     0.3170     0.0100    97.4250   160.0330   111.9080  2413.1079   -49.5940     5.3970     5.4190     5.5580
 3944.5000    12.5740  2353.5820     2.6570     2.4940     0.3180     0.0010    94.1480   160.7710   109.0300  2397.1699   -47.6080     5.2610     5.7650     5.5980
 3945.0000    12.3160  2347.1431     2.6750     2.4840     0.3250     0.0020    95.7920   161.5080   106.6090  2378.4761   -45.3340     5.2250     5.8000     5.5370
 3945.5000    12.1760  2340.7041     2.7170     2.4700     0.3300     0.0060   102.3030   162.2450   106.2910  2359.7820   -34.7190     5.1910     5.8410     5.3580
 3946.0000    12.0700  2335.9839     2.7570     2.4620     0.3220     0.0060   109.7480   162.6430   112.8560  2353.5249   -25.8800     5.1190     5.8720     5.3580
 3946.5000    12.0430  2339.5000     2.7740     2.4610     0.3140     0.0040   119.9730   164.3280   123.0630  2385.4619   -16.0440     5.0330     5.3250     5.3580
 3947.0000    12.0420  2344.7529     2.8000     2.4660     0.3200     0.0010   125.8240   166.1420   133.1680  2413.1079   -31.6130     4.8900     4.8120     4.7890
 3947.5000    12.0420  2350.0049     2.8250     2.4710     0.3300    -0.0020   134.2930   166.4410   143.3740  2399.7019   -48.9760     4.3500     4.4390     4.2580
 3948.0000    12.0400  2355.2581     2.8500     2.4740     0.3200    -0.0020   146.7470   166.0420   153.3780  2387.2390   -51.6140     3.7850     4.2170     3.7270
 3948.5000    12.0680  2355.8650     2.7880     2.4980     0.3040    -0.0010  -999.2500   165.6430   163.6340  2373.3860   -51.7000     3.7460     4.1480     3.5760
 3949.0000    12.1990  2355.8650     2.7150     2.5200     0.3030     0.0000  -999.2500   165.2440   173.5280  2373.3860   -50.3870     4.0830     4.1780     3.9620
 3949.5000    12.1370  2355.8650     2.6430     2.5220     0.3010     0.0010  -999.2500   165.4020   183.9110  2373.3860   -43.5540     4.0950     4.2050     3.8410
 3950.0000    12.0640  2355.8650     2.6530     2.5110     0.2990    -0.0040  -999.2500   165.7910   189.0960  2373.3860   -37.4480     3.9120     4.2240     3.6830
 3950.5000    12.0210  2348.5769     2.7230     2.4800     0.2950    -0.0090  -999.2500   166.1420   187.8150  2359.4839   -31.3050     3.7640     4.1590     3.6360
 3951.0000    11.9480  2341.9490     2.7810     2.4750     0.2880    -0.0020  -999.2500   167.3830   184.4090  2339.6230    23.8820     3.6940     4.0280     3.5900
 3951.5000    11.9840  2335.9839     2.9170     2.4760     0.2910     0.0100  -999.2500   168.7640   181.1100  2333.6641    27.7870     3.6160     3.9260     3.5450
 3952.0000    12.7660  2363.3201     2.9980     2.4740     0.2980     0.0280  -999.2500   170.1460   180.1200  2380.4800    21.7070     3.6010     3.9670     3.5000
 3952.5000    12.3180  2375.7461     3.0920     2.4660     0.3060     0.0480  -999.2500   171.5270   180.7230  2386.1541    -4.8240     3.5830     3.9990     3.4260
 3953.0000    12.1780  2364.8110     3.1860     2.4660     0.3060     0.0640  -999.2500   172.3160   195.9840  2373.3860   -46.1650     3.4580     3.7820     3.3680
 3953.5000    12.2450  2355.8650     3.1540     2.4690     0.3080     0.0630  -999.2500   172.4850   213.0020  2373.3860   -53.8700     3.3610     3.6830     3.3100
 3954.0000    12.1290  2355.8650     3.0790     2.4700     0.3110     0.0440  -999.2500   172.6540   256.0240  2385.5239   -52.8090     3.4640     3.6830     3.2700
 3954.5000    12.2270  2355.8650     3.0130     2.4730     0.3210     0.0220  -999.2500   173.4870   294.5210  2393.2471   -50.4360     3.6700     3.8180     3.4500
 3955.0000    12.2240  2355.8650     3.0120     2.4830     0.3300     0.0220  -999.2500   174.3320   300.0000  2393.2471   -48.9760     3.8730     4.2240     3.5440
