~VERSION INFORMATION
 VERS.                2.0:   CWLS LOG ASCII STANDARD - VERSION 2.0
 WRAP.                 NO:   ONE LINE PER DEPTH STEP
~WELL INFORMATION
#MNEM.UNIT      DATA TYPE    INFORMATION
#----------   ------------   ------------------------------
 STRT.F          250.5000:   START DEPTH
 STOP.F         2849.5000:   STOP DEPTH
 STEP.F            0.5000:   STEP LENGTH
 NULL.          -999.2500:   NO VALUE
 COMP. FENIX & SCISSON U.S. NAVY:   COMPANY
 WELL.   FENIX "A" #25-21:   WELL
 FLD .           N P R #3:   FIELD
 LOC .      S21 T39N R78W:   LOCATION
 CNTY.            NATRONA:   COUNTY
 STAT.            WYOMING:   STATE
 CTRY. UNITED STATES OF AMERICA:   COUNTRY
 SRVC.       SCHLUMBERGER:   SERVICE COMPANY
 DATE.        14-MAR-1977:   LOGDATE
 API .     49025103140000:   API NUMBER
~CURVE INFORMATION
#MNEM.UNIT       API CODE    CURVE DESCRIPTION
#----------   ------------   ------------------------------
 DEPT.F                  :   
 CALD.IN     45 280 60 00:   CALIPER FROM DENSITY LOG
 GRD .GAPI   45 310 01 00:   GAMMA RAY FROM DENSITY LOG
 RHOB.G/C3   45 350 01 00:   BULK DENSITY
 CORR.G/C3   45 356 01 00:   DENSITY CORRECTION
 SPR .MV     07 010 01 00:   SPONTANEOUS POTENTIAL
 LL8 .OHMM   07 220 08 00:   LATEROLOG-8 RES.
 ILM .OHMM   07 120 44 00:   INDUCTION LOG MEDIUM RESISTIVITY
 ILD .OHMM   07 120 46 00:   DEEP INDUCTION RESISTIVITY
~PARAMETER INFORMATION
#MNEM.UNIT          VALUE    DESCRIPTION
#----------   ------------   ------------------------------
 EKB .F         4963.0000:   Kelly bushing
 EGL .F         4953.0000:   Ground level
 EDF .F            0.0000:   Drilling floor
 TD  .F         2848.0000:   Total depth
 DATE.        14-MAR-1977:   Date logged
 CLNT.            A2DTECH:   Client Code
 SL  . 990' FWL & 2310' FSL:   Surface Location
 PD  .                 GL:   Permanent Datum
 DD  .F              2847:   Depth driller
 DL  .F              2848:   Depth logger
 BLI .F              2842:   Bottom log interval
 CS1 .IN            8.625:   Casing size
 CBD1.      8.625" @ 259':   Casing driller 1
 CBL1.F               261:   Casing logger 1
 BS1 .IN            7.875:   Bit size
 DFT .                KCL:   Type fluid in hole
 DFD .                9.2:   Density
 DFV .                 37:   Viscosity
 DFPH.                8.5:   pH
 DFL .                8.6:   Fluid loss
 MSS .           FLOWLINE:   Source of sample
 RMS .OHMM          0.226:   Rm
 MST .F                72:   Rm Meas. temp.
 RMF .OHMM          0.190:   Rmf
 MFST.F                72:   Rmf Meas. temp.
 MFSS.               MEAS:   Source Rmf.
 RMB .OHMM           .139:   Rm. at BHT
 BHT .F               117:   BHT.
 TCS .HRS            1800:   Time Circ. stopped
 MRT .F               117:   Maximum recorded temp.
 LUN .               5642:   Logging unit number
 LUL .               CSPR:   Logging unit location
 ENGI.         JIM MARTIN:   Recorded By
 WITN.               JAPP:   Witnessed by
 ORIG.           5" PRINT:   Origin of data
 UWI .     49025103140000:   Unique Well ID
 DICO. A2D TECHNOLOGIES, INC.:   Digitizing Company
 DAPD.                 10:   Feet Above Permanent Datum
 BSD1.               2847:   Depth drilled with bit1
 EPD .               4953:   Elevation Permanent Datum
 LMF .                 KB:   Log Measured From
 DMF .                 KB:   Drilling Measured From
 TLI .                261:   Top log interval
 TLAB.               2400:   Time logger at bottom
~OTHER INFORMATION
~A   DEPT     CALD         GRD      RHOB       CORR        SPR        LL8        ILM        ILD   
# ...
 2113.5000     9.9820   134.8240     2.5040     0.0180   -60.2240     4.9780     5.4640     5.0270
 2114.0000     9.9960   128.8250     2.5020     0.0050   -60.1810     5.0440     5.5720     5.1300
 2114.5000    10.0090   126.9640     2.5000     0.0100   -60.1380     5.1720     5.6810     5.2330
 2115.0000    10.0230   125.6290     2.5020     0.0180   -60.0950     5.2190     5.8170     5.3360
 2115.5000    10.0370   122.6570     2.5140     0.0240   -60.0520     5.2680     5.7330     5.4150
 2116.0000    10.0440   119.7500     2.5070     0.0180   -60.0090     5.2500     5.6180     5.4150
 2116.5000    10.0610   118.4580     2.4990     0.0180   -59.9670     5.2330     5.6180     5.4150
 2117.0000    10.0950   120.0220     2.5090     0.0290   -59.9240     5.2190     5.6700     5.4150
 2117.5000    10.1300   124.9230     2.5020     0.0370   -60.0310     5.2190     5.7250     5.4150
 2118.0000    10.1650   131.1500     2.4880     0.0250   -60.2870     5.0080     5.7750     5.1840
 2118.5000    10.2010   129.3430     2.4690     0.0370   -60.5430     4.7360     5.7210     4.9600
 2119.0000    10.2250   126.3920     2.4750     0.0620   -60.8000     4.4640     5.5750     4.7360
 2119.5000    10.2740   126.2810     2.4640     0.0900   -61.0570     4.1920     5.1530     4.5120
 2120.0000    10.3210   134.0160     2.4410     0.0620   -61.2820     3.9210     4.7310     4.2880
 2120.5000    10.3690   138.3720     2.4190     0.1050   -61.2260     3.7480     4.3080     4.0640
 2121.0000    10.4170   137.0600     2.3980     0.0450   -61.1670     3.7030     4.0990     3.8790
 2121.5000    10.4650   133.7200     2.4280     0.0060   -61.1100     3.6600     4.0550     3.8370
 2122.0000    10.5120   130.0460     2.5020     0.0140   -61.0530     3.6160     4.0110     3.7960
 2122.5000    10.5600   132.2600     2.4840     0.0150   -60.9960     3.5720     3.9670     3.7540
 2123.0000    10.6090   136.0350     2.4760     0.0250   -60.9390     3.5460     3.9230     3.7120
 2123.5000    10.6520   136.0870     2.4980     0.0420   -60.8820     3.4860     3.8880     3.6700
 2124.0000    10.9560   134.4680     2.4810     0.0370   -60.8250     3.4500     3.8310     3.6320
 2124.5000    11.6570   129.0730     2.5040     0.0490   -60.7670     3.7350     3.7480     3.5790
 2125.0000    11.1970   123.7880     2.5330     0.0630   -60.7070     4.0180     3.7890     3.6200
 2125.5000    10.7270   119.5350     2.5760     0.0970   -60.7410     4.3020     3.8580     3.7210
 2126.0000    11.0280   122.4930     2.5420     0.1210   -60.8080     3.8160     3.9270     3.7820
 2126.5000    11.1330   123.3780     2.4600     0.0220   -60.8750     3.2950     3.9970     3.8710
 2127.0000    10.6550   122.4240     2.4630     0.0010   -60.9430     3.2950     4.1570     3.9620
 2127.5000    10.4910   121.4910     2.4860     0.0080   -61.0100     3.8270     4.3190     4.0520
 2128.0000    10.4830   121.4770     2.5110     0.0670   -61.0780     4.2730     4.4800     4.3020
 2128.5000    10.6280   124.9430     2.5160     0.1590   -61.1450     4.5060     4.5460     4.2200
 2129.0000    10.7860   128.4380     2.4950     0.1920   -61.2140     4.1410     4.2730     3.9870
 2129.5000    11.1330   131.9190     2.4680     0.2230   -61.2820     3.7940     4.0420     3.7550
 2130.0000    11.8330   134.4250     2.4010     0.2490   -61.0530     3.0810     3.8110     3.5220
 2130.5000    11.4670   136.0570     2.2970     0.1350   -60.7920     2.7230     3.5800     3.2900
 2131.0000    10.6980   137.6290     2.3610     0.0390   -60.5310     2.6420     3.3490     3.0570
 2131.5000    10.6310   138.8980     2.4180     0.0390   -60.3000     2.8910     3.1820     2.9570
 2132.0000    10.6740   138.8330     2.4920     0.1950   -60.3150     3.4910     3.1180     2.9220
 2132.5000    11.9600   138.6830     2.4690     0.1570   -60.3870     3.8530     3.0330     2.8870
 2133.0000    11.6400   138.5580     2.4240     0.0660   -60.4570     2.6180     3.0050     2.8180
 2133.5000    10.6920   138.5720     2.5290     0.1270   -60.5260     2.9030     3.0880     2.8850
 2134.0000    10.8150   138.9480     2.5230     0.1120   -60.5960     3.4180     3.1960     3.0040
 2134.5000    10.8600   140.9720     2.5130     0.0820   -60.6650     3.3570     3.3040     3.1230
 2135.0000    10.3270   139.4810     2.5110     0.0490   -60.7350     3.2050     3.4120     3.1860
 2135.5000    10.1750   132.2370     2.5200     0.0400   -60.8040     3.3180     3.5570     3.2650
 2136.0000    10.0980   124.3700     2.5640     0.0440   -60.8740     3.5500     3.8310     3.5010
 2136.5000    10.0360   116.1670     2.5560     0.0380   -60.9430     3.7820     4.1040     3.7480
 2137.0000    10.0060   113.5200     2.5390     0.0260   -61.0140     4.0140     4.3780     3.9950
 2137.5000     9.9880   117.5940     2.5420     0.0160   -61.0830     4.8770     4.6510     4.2420
 2138.0000     9.9480   122.5320     2.5240     0.0270   -60.8230     6.1030     4.9390     4.4890
 2138.5000     9.9220   125.8360     2.5350     0.0530   -60.5250     5.8640     5.1240     4.7370
 2139.0000     9.8950   126.9520     2.5400     0.0790   -60.2280     5.5440     5.0670     4.8490
 2139.5000     9.8680   123.9890     2.5230     0.1210   -59.9300     5.2240     4.9610     4.6080
 2140.0000     9.8410   115.6230     2.4760     0.0770   -59.6310     4.6670     4.8490     4.3820
 2140.5000     9.8130   111.2210     2.4840     0.0110   -59.3210     3.9600     4.8490     4.6240
 2141.0000     9.7860   110.0270     2.5250     0.0230   -59.2820     4.7580     5.2190     4.9510
 2141.5000     9.7590   111.5480     2.5530     0.0320   -59.2390     5.3040     5.5670     5.3650
 2142.0000     9.7310   112.7350     2.5440     0.0210   -59.1950     4.8460     5.3630     5.1290
 2142.5000     9.6930   111.1280     2.5670     0.0290   -59.1500     4.6310     5.1720     4.8790
 2143.0000     9.6700   112.3250     2.5510     0.0180   -59.1040     5.1240     5.2740     5.1110
 2143.5000     9.6530   112.4840     2.5620     0.0190   -58.9890     4.9760     5.3230     5.2680
 2144.0000     9.6370   107.4620     2.5710     0.0300   -58.8790     4.8050     5.3590     5.0490
 2144.5000     9.6210   102.5200     2.5650     0.0200   -58.7700     4.9390     5.1860     4.9850
 2145.0000     9.6060    97.6270     2.5630     0.0060   -58.8500     4.6390     5.0460     4.9540
 2145.5000     9.5900    92.7350     2.5790     0.0020   -59.1190     4.1090     4.8940     4.6740
 2146.0000     9.5750    87.0230     2.5860     0.0200   -59.3880     3.9970     4.9610     4.7620
 2146.5000     9.5590    96.4010     2.5610     0.0240   -59.6580    10.6980     5.0910     4.8850
 2147.0000     9.5430   111.4500     2.5310     0.0070   -59.8990     8.7040     5.2210     5.0090
 2147.5000     9.5290   118.3840     2.5180    -0.0030   -59.9030     6.2160     5.3510     5.1320
 2148.0000     9.5300   117.9440     2.5280     0.0040   -59.8970     6.0110     5.4650     5.2550
 2148.5000     9.5350   116.3000     2.5430    -0.0010   -59.4850     5.7840     5.5810     5.3290
 2149.0000     9.5350   115.7280     2.5630     0.0050   -59.0220     5.5580     5.7380     5.4650
 2149.5000     9.5350   114.3500     2.5750     0.0140   -58.5590     5.3320     5.9760     5.6890
 2150.0000     9.5350   110.3570     2.5650     0.0090   -58.0960     5.2190     6.2140     5.8640
 2150.5000     9.5350   106.3510     2.5530     0.0010   -57.6290     5.7750     6.4520     6.0380
 2151.0000     9.5350   102.3440     2.5550     0.0080   -57.1520     5.8120     6.5690     6.1790
 2151.5000     9.5350    98.9750     2.5720     0.0180   -57.2610     5.8540     6.5690     6.2410
 2152.0000     9.5350   102.4980     2.5640     0.0100   -57.4120     5.8950     6.5690     6.3030
 2152.5000     9.5350   101.7620     2.5490     0.0040   -57.5630     5.9360     6.5690     6.3660
 2153.0000     9.5350   100.1700     2.5470     0.0120   -57.7110     5.9770     6.5690     6.4280
 2153.5000     9.5350   100.7780     2.5470     0.0060   -57.8610     6.0180     6.5690     6.4900
