~VERSION INFORMATION
 VERS.                2.0:   CWLS LOG ASCII STANDARD - VERSION 2.0
 WRAP.                 NO:   ONE LINE PER DEPTH STEP
~WELL INFORMATION
#MNEM.UNIT      DATA TYPE    INFORMATION
#----------   ------------   ------------------------------
 STRT.F           42.0000:   START DEPTH
 STOP.F         2778.0000:   STOP DEPTH
 STEP.F            0.5000:   STEP LENGTH
 NULL.          -999.2500:   NO VALUE
 COMP.    FENIX & SCISSON:   COMPANY
 WELL. FENIX & SCISSON SHX #56-23:   WELL
 FLD .        TEAPOT DOME:   FIELD
 LOC .      S23 T38N R78W:   LOCATION
 CNTY.            NATRONA:   COUNTY
 STAT.            WYOMING:   STATE
 CTRY. UNITED STATES OF AMERICA:   COUNTRY
 SRVC.           BIRDWELL:   SERVICE COMPANY
 DATE.        29-AUG-1979:   LOGDATE
 API .     49025107920000:   API NUMBER
~CURVE INFORMATION
#MNEM.UNIT       API CODE    CURVE DESCRIPTION
#----------   ------------   ------------------------------
 DEPT.F                  :   
 GRD .GAPI   45 310 01 00:   GAMMA RAY FROM DENSITY LOG
 CALD.IN     45 280 60 00:   CALIPER FROM DENSITY LOG
 RHOB.G/C3   45 350 01 00:   BULK DENSITY
 CORR.G/C3   45 356 01 00:   DENSITY CORRECTION
 ILD .OHMM   07 120 46 00:   DEEP INDUCTION RESISTIVITY
 SFL .OHMM   07 220 01 00:   SHALLOW FOCUSED LOG RESISTIVITY
 SPR .MV     07 010 01 00:   SPONTANEOUS POTENTIAL
~PARAMETER INFORMATION
#MNEM.UNIT          VALUE    DESCRIPTION
#----------   ------------   ------------------------------
 EKB .F         5361.0000:   Kelly bushing
 EGL .F         5351.0000:   Ground level
 EDF .F         5360.0000:   Drilling floor
 TD  .F         1465.0000:   Total depth
 DATE.        29-AUG-1979:   Date logged
 CLNT.            A2DTECH:   Client Code
 PD  .                 GL:   Permanent Datum
 EPD .F              5351:   Elevation Permanent Datum
 LMF .                 KB:   Log Measured From
 DMF .                 KB:   Drilling Measured From
 DAPD.F                 9:   Feet Above Permanent Datum
 DD  .F              1465:   Depth driller
 DL  .F              1462:   Depth logger
 BLI .F              1457:   Bottom log interval
 TLI .F                40:   Top log interval
 CBD1.F                40:   Casing driller 1
 CBL1.F                40:   Casing logger 1
 BS1 .IN            12.25:   Bit size
 BSD1.F              1465:   Depth drilled with bit1
 DFT .            GEL/MUD:   Type fluid in hole
 DFD .                9.5:   Density
 DFV .                 40:   Viscosity
 DFPH.                9.0:   pH
 DFL .                 40:   Fluid loss
 MSS .            MUD PIT:   Source of sample
 RMS .OHMM            2.6:   Rm
 MST .F                68:   Rm Meas. temp.
 RMF .OHMM            1.8:   Rmf
 MFST.F                78:   Rmf Meas. temp.
 RMC .OHMM            2.8:   Rmc
 MCST.F                76:   Rmc Meas. temp.
 MFSS.               MEAS:   Source Rmf.
 MCSS.               MEAS:   Source Rmc.
 RMB .OHMM           1.96:   Rm. at BHT
 BHT .F                90:   BHT.
 TCS .HRS               5:   Time Circ. stopped
 MRT .F                90:   Maximum recorded temp.
 LUN .               2959:   Logging unit number
 LUL .             CASPER:   Logging unit location
 ENGI.         B. ROLLINS:   Recorded By
 WITN.              AMEND:   Witnessed by
 ORIG.           5" PRINT:   Origin of data
 UWI .     49025107920000:   Unique Well ID
 DICO. A2D TECHNOLOGIES, INC.:   Digitizing Company
~OTHER INFORMATION
~A   DEPT       GRD      CALD       RHOB         CORR      ILD        SFL         SPR  
# ...
 1407.0000    85.7610    13.8560     2.4930     0.2190     9.9360     9.1630   -52.2030
 1407.5000    85.1780    13.7180     2.4910     0.2160     9.9800     9.1880   -52.1560
 1408.0000    82.1060    13.7110     2.4880     0.2120    10.0240     9.1880   -52.0070
 1408.5000    79.1840    13.6970     2.4870     0.2080    10.0680     9.1880   -51.8110
 1409.0000    77.3020    13.6720     2.4870     0.2040    10.0940     9.1690   -51.8900
 1409.5000    77.8880    13.6940     2.4880     0.2040    10.0940     9.1200   -52.1440
 1410.0000    77.8960    13.6320     2.4910     0.2050    10.0590     9.0700   -52.3910
 1410.5000    76.0350    13.5390     2.4930     0.2080     9.9620     9.0210   -52.6270
 1411.0000    74.2960    12.8410     2.4920     0.2120     9.8650     8.9720   -52.9120
 1411.5000    73.5120    12.7670     2.4810     0.2160     9.7690     8.9230   -52.7720
 1412.0000    73.4660    12.8510     2.4680     0.2210     9.6720     8.8740   -52.2400
 1412.5000    73.4200    13.0610     2.4540     0.2250     9.5750     8.7880   -51.7120
 1413.0000    73.7900    13.4590     2.4470     0.2350     9.4780     8.6660   -51.3810
 1413.5000    75.1200    13.8660     2.4630     0.2530     9.3810     8.5450   -51.6280
 1414.0000    77.1000    14.2790     2.5120     0.2470     9.2840     8.4230   -51.8610
 1414.5000    77.9830    14.6240     2.5050     0.2360     9.1870     8.3010   -52.1190
 1415.0000    76.3520    14.7890     2.4950     0.2350     9.0900     8.1800   -52.3480
 1415.5000    72.1410    14.9110     2.4860     0.2360     8.9940     8.0580   -52.6140
 1416.0000    69.5370    14.9790     2.4750     0.2380     8.8970     7.9370   -52.3230
 1416.5000    69.7560    15.0090     2.4570     0.2260     8.8000     7.8150   -51.7860
 1417.0000    72.5120    15.0570     2.3160     0.2070     8.7030     7.6940   -51.4090
 1417.5000    73.4510    14.8150     2.1940     0.1960     8.6060     7.5720   -51.4100
 1418.0000    72.7530    14.4580     2.0710     0.2020     8.5090     7.4510   -51.4440
 1418.5000    71.6410    14.1070     1.9320     0.2350     8.4120     7.3290   -51.5010
 1419.0000    74.7600    13.7630     1.9970     0.3030     8.3150     7.2070   -51.5470
 1419.5000    78.7290    13.4090     2.0310     0.3100     8.2190     7.0860   -51.5970
 1420.0000    81.5310    13.0530     2.1380     0.3180     8.1220     6.9640   -51.6470
 1420.5000    85.5790    12.6990     2.2930     0.3120     8.0320     6.9300   -51.6930
 1421.0000    86.5350    12.6170     2.4470     0.4520     7.9590     6.9540   -51.7460
 1421.5000    85.9330    12.6120     2.5860     0.4450     7.8860     6.9810   -51.7940
 1422.0000    83.6440    12.7020     2.7110     0.4890     7.8130     7.0090   -51.7730
 1422.5000    82.5220    12.9080     2.6750     0.4720     7.7400     7.0360   -51.4440
 1423.0000    86.4460    13.0980     2.6020     0.3980     7.6670     7.0610   -51.1250
 1423.5000    90.5850    13.2960     2.5190     0.3280     7.5940     7.0230   -50.7690
 1424.0000    95.0030    13.4740     2.5080     0.2620     7.5210     6.9620   -50.6000
 1424.5000    96.1120    13.5530     2.4930     0.2380     7.4480     6.9020   -50.8240
 1425.0000    95.7480    13.5590     2.4870     0.2220     7.3740     6.8410   -51.0260
 1425.5000    89.8300    13.5590     2.4830     0.2240     7.3010     6.7810   -51.2410
 1426.0000    84.2070    13.5580     2.4830     0.2250     7.2280     6.7210   -51.4450
 1426.5000    90.4960    13.5590     2.4880     0.2330     7.1550     6.6600   -51.6880
 1427.0000    94.3380    13.5590     2.5030     0.2390     7.0820     6.6000   -51.6810
 1427.5000    94.4200    13.5590     2.5160     0.2460     7.0090     6.5400   -51.2730
 1428.0000    94.4810    13.5610     2.5310     0.2480     6.9360     6.4790   -50.9130
 1428.5000    94.4980    13.5380     2.5340     0.2440     6.8630     6.4190   -50.5180
 1429.0000    93.0460    13.4870     2.5230     0.2400     6.7900     6.3590   -50.1480
 1429.5000    91.4020    13.4400     2.5140     0.2350     6.7170     6.2980   -49.8450
 1430.0000    89.5100    13.3910     2.5050     0.2340     6.6440     6.2380   -50.2020
 1430.5000    87.7740    13.3430     2.4950     0.2380     6.5710     6.1780   -50.5530
 1431.0000    86.5710    13.2950     2.4890     0.2420     6.4970     6.1170   -50.8950
 1431.5000    88.7600    13.2800     2.4870     0.2430     6.4280     6.0570   -51.3120
 1432.0000    91.6100    13.2920     2.4920     0.2400     6.4280     5.9960   -51.0200
 1432.5000    94.7080    13.3160     2.4920     0.2280     6.4280     5.9620   -50.5860
 1433.0000    95.3580    13.3360     2.4790     0.2190     6.4280     6.1030   -50.8140
 1433.5000    94.4480    13.3590     2.4750     0.2180     6.5500     6.2410   -51.2520
 1434.0000    92.3710    13.3630     2.4850     0.2180     6.6980     6.3790   -51.4040
 1434.5000    90.4800    13.3450     2.4930     0.2200     6.8460     6.5170   -51.1470
 1435.0000    88.5630    13.3130     2.4940     0.2240     6.9950     6.6550   -50.7960
 1435.5000    86.9570    13.2850     2.4990     0.2290     7.1440     6.7930   -50.5680
 1436.0000    86.5330    13.2550     2.5190     0.2330     7.2930     6.9310   -50.7650
 1436.5000    86.5200    13.2420     2.5360     0.2380     7.4410     7.0690   -51.1150
 1437.0000    86.9380    13.2390     2.5550     0.2400     7.5900     7.2070   -51.4360
 1437.5000    88.1970    13.2840     2.5720     0.2350     7.7390     7.3450   -51.7560
 1438.0000    87.6830    13.4130     2.5690     0.2310     7.8880     7.4710   -51.8350
 1438.5000    84.9760    13.5130     2.5580     0.2270     8.0550     7.4710   -51.4670
 1439.0000    86.1810    13.5190     2.5470     0.2240     8.0550     7.4710   -51.0520
 1439.5000    84.9040    13.5250     2.5360     0.2230     7.8820     7.4450   -50.6340
 1440.0000    82.5800    13.5290     2.5250     0.2220     7.8480     7.4210   -50.6380
 1440.5000    82.1380    13.5360     2.5140     0.2180     7.8130     7.3970   -50.9180
 1441.0000    82.5330    13.5410     2.5050     0.2120     7.7780     7.3720   -51.3160
 1441.5000    84.3340    13.5460     2.5030     0.2110     7.7440     7.3480   -51.0920
 1442.0000    85.2850    13.5520     2.5090     0.2150     7.7090     7.3240   -50.8620
 1442.5000    83.0870    13.5570     2.5160     0.2190     7.6750     7.2990   -50.6910
 1443.0000    83.3210    13.5630     2.5210     0.2210     7.6400     7.2750   -50.6210
 1443.5000    86.5710    13.5680     2.5200     0.2200     7.6060     7.2510   -50.9800
 1444.0000    90.9020    13.5740     2.5140     0.2190     7.5710     7.2260   -51.3810
 1444.5000    89.9490    13.5790     2.5070     0.2180     7.5370     7.2020   -51.7690
 1445.0000    86.1140    13.5850     2.5020     0.2170     7.5020     7.1950   -52.1690
 1445.5000    87.0720    13.5900     2.5010     0.2160     7.4710     6.9620   -52.1970
 1446.0000    89.8730    13.5960     2.5060     0.2160     7.2410     6.7680   -52.2020
 1446.5000    86.7880    13.6010     2.5120     0.2210     7.0340     6.5740   -52.1950
 1447.0000    85.1770    13.6070     2.5260     0.2290     6.8270     6.3800   -52.2070
 1447.5000    87.8450    13.6120     2.5270     0.2280     6.6200     6.1860   -52.2990
 1448.0000    88.2110    13.6180     2.5170     0.2260     6.4130     5.9620   -52.4330
 1448.5000    90.1770    13.6230     2.5080     0.2220     6.2060     5.8510   -52.5560
 1449.0000    95.2890    13.6290     2.5020     0.2180     5.9620     5.4170   -52.5360
 1449.5000    95.1140    13.6340     2.4980     0.2140     5.6020     4.9980   -51.9680
 1450.0000    92.4290    13.6390     2.4980     0.2110     5.1630     4.5800   -51.5140
 1450.5000    90.4910    13.6390     2.4630     0.2080     4.7250     4.1610   -51.0030
 1451.0000    91.2270    13.6270     2.4680     0.2110     4.2870     3.7430   -50.6160
 1451.5000    91.8470    13.5770     2.4770     0.2120     3.8490     3.3240   -50.6010
 1452.0000   163.9440    13.5280     2.4420     0.2130     3.4110     2.9060   -50.4960
