~VERSION INFORMATION
 VERS.                2.0:   CWLS LOG ASCII STANDARD - VERSION 2.0
 WRAP.                 NO:   ONE LINE PER DEPTH STEP
~WELL INFORMATION
#MNEM.UNIT      DATA TYPE    INFORMATION
#----------   ------------   ------------------------------
 STRT.F            0.0000:   START DEPTH
 STOP.F         5670.0000:   STOP DEPTH
 STEP.F            0.5000:   STEP LENGTH
 NULL.          -999.2500:   NO VALUE
 COMP.          INTEX OIL:   COMPANY
 WELL.    INTEX TP #71-15:   WELL
 FLD .             TEAPOT:   FIELD
 LOC .      S15 T38N R78W:   LOCATION
 CNTY.            NATRONA:   COUNTY
 STAT.            WYOMING:   STATE
 CTRY. UNITED STATES OF AMERICA:   COUNTRY
 SRVC.       SCHLUMBERGER:   SERVICE COMPANY
 DATE.        05-AUG-1966:   LOGDATE
 API .     49025097110000:   API NUMBER
~CURVE INFORMATION
#MNEM.UNIT       API CODE    CURVE DESCRIPTION
#----------   ------------   ------------------------------
 DEPT.F                  :   
 GRD .GAPI   45 310 01 00:   GAMMA RAY FROM DENSITY LOG
 CALD.IN     45 280 60 00:   CALIPER FROM DENSITY LOG
 CORR.G/C3   45 356 01 00:   DENSITY CORRECTION
 RHOB.G/C3   45 350 01 00:   BULK DENSITY
 SPR .MV     05 010 01 00:   SPONTANEOUS POTENTIAL FROM RES.
 ASN .OHMM   05 041 16 00:   AMPLIFIED SHORT NORMAL 16"
 ILD .OHMM   05 120 46 00:   INDUCTION LOG DEEP RESISTIVITY
~PARAMETER INFORMATION
#MNEM.UNIT          VALUE    DESCRIPTION
#----------   ------------   ------------------------------
 EKB .F         5247.5500:   Kelly bushing
 EGL .F         5236.1000:   Ground level
 EDF .F            0.0000:   Drilling floor
 EPD .F         5236.1000:   Permanent datum
 TD  .F         5670.0000:   Total depth
 CLNT.            A2DTECH:   Client Code
 SL  . 610' FNL & 710' FEL:   Surface Location
 PD  .                 GL:   Permanent Datum
 LMF .                 KB:   Log Measured From
 DMF .                 KB:   Drilling Measured From
 DAPD.F             11.45:   Feet Above Permanent Datum
 DATE.        05-AUG-1966:   Date Logged [DD-MMM-YYYY]
 DD  .F              5665:   Depth driller
 DL  .F              5670:   Depth logger
 BLI .F              5669:   Bottom log interval
 TLI .F              5551:   Top log interval
 CS1 .IN            10.75:   Casing size
 CBD1.    10.75" @ 567.9':   Casing driller 1
 CBL1.F               569:   Casing logger 1
 BS1 .IN           8.9375:   Bit size
 BSD1.F              5665:   Depth drilled with bit1
 DFT .            DEXTRID:   Type fluid in hole
 DFD .                9.4:   Density
 DFV .                 59:   Viscosity
 DFPH.                7.5:   pH
 DFL .                8.2:   Fluid loss
 MSS .           FLOWLINE:   Source of sample
 RMS .OHMM           1.80:   Rm
 MST .F                72:   Rm Meas. temp.
 RMF .OHMM           1.00:   Rmf
 MFST.F                82:   Rmf Meas. temp.
 MFSS.               MEAS:   Source Rmf.
 BHT .F               163:   BHT.
 TCS .HRS               3:   Time Circ. stopped
 MRT .F               163:   Maximum recorded temp.
 LUN .               4507:   Logging unit number
 LUL .               CSPR:   Logging unit location
 ENGI.            MANGOLD:   Recorded By
 ORIG.      2.5" 5" PRINT:   Origin of data
 UWI .     49025097110000:   Unique Well ID
 DICO. A2D TECHNOLOGIES, INC.:   Digitizing Company
~OTHER INFORMATION
~A    DEPT      GRD      CALD       CORR       RHOB        SPR        ASN        ILD   
# ...
 4459.0000    57.5667    10.6445     0.0186     2.6716   -44.9043    25.0301    21.8180
 4459.5000    67.9004    10.6446     0.0292     2.6584   -44.9036    24.8842    21.4463
 4460.0000    79.5814    10.6448     0.0396     2.6365   -45.0523    24.8879    20.9205
 4460.5000    83.6277    10.6449     0.0393     2.6116   -45.3504    24.8924    20.8522
 4461.0000    86.3267    10.6451     0.0249     2.5862   -45.4993    25.0455    21.6002
 4461.5000    87.6784    10.6452     0.0255     2.5929   -45.9468    25.1986    22.6465
 4462.0000    84.5391    10.6752     0.0329     2.5977   -46.2451    25.5012    23.8419
 4462.5000    76.0106    10.6853     0.0339     2.5923   -46.3940    25.8785    25.0374
 4463.0000    72.8713    10.7054     0.0177     2.5823   -46.5426    26.1811    25.7105
 4463.5000    73.3249    10.7179     0.0103     2.5768   -46.6913    26.4836    26.0851
 4464.0000    73.8198    10.7490     0.0173     2.5799   -46.6906    26.9375    25.9253
 4464.5000    75.8272    10.7655     0.0223     2.5903   -46.5402    27.2495    25.3420
 4465.0000    79.5853    10.7955     0.0211     2.6098   -46.2405    27.6912    25.0446
 4465.5000    83.4278    10.7957     0.0166     2.6173   -46.0903    27.9182    24.8225
 4466.0000    85.1468    10.8257     0.0120     2.6233   -46.0896    27.4743    24.2270
 4466.5000    86.5192    10.8258     0.0098     2.6235   -45.9394    27.0295    23.1836
 4467.0000    88.0538    10.8260     0.0124     2.6218   -45.6397    26.3605    21.9911
 4467.5000    89.8960    10.8261     0.0181     2.6293   -45.4895    25.5420    20.9216
 4468.0000    91.0837    10.8263     0.0212     2.6443   -45.3393    24.8730    20.2775
 4468.5000    91.3338    10.8264     0.0257     2.6550   -45.3384    24.6524    20.4286
 4469.0000    86.2055    10.8266     0.0287     2.6624   -45.3377    24.7316    20.9524
 4469.5000    82.8099    10.7969     0.0213     2.6638   -45.4866    24.8847    21.7001
 4470.0000    81.9170    10.7970     0.0140     2.6427   -45.4857    25.1126    22.6717
 4470.5000    76.9812    10.7972     0.0199     2.6310   -45.7840    25.4899    23.6433
 4471.0000    74.2910    10.7973     0.0319     2.6429   -46.0822    25.8672    24.4019
 4471.5000    69.8044    10.7975     0.0378     2.6601   -46.2309    26.3940    24.9306
 4472.0000    65.7669    10.7976     0.0290     2.6704   -46.3797    26.6966    25.1405
 4472.5000    62.6276    10.7978     0.0124     2.6677   -46.5284    26.7750    25.3659
 4473.0000    61.7335    10.7979     0.0005     2.6546   -46.3781    26.5553    25.3673
 4473.5000    61.2889    10.7981    -0.0020     2.6455   -46.2279    26.4094    25.0702
 4474.0000    63.5389    10.7982     0.0121     2.6386   -46.2271    26.1880    24.1762
 4474.5000    68.5551    10.7984     0.0159     2.6371   -46.0770    25.8935    23.2749
 4475.0000    71.2579    10.8085     0.0082     2.6389   -46.0762    25.5982    22.5867
 4475.5000    72.0851    10.8285     0.0071     2.6461   -46.0755    25.3029    22.3148
 4476.0000    67.7360    10.8287     0.0190     2.6521   -45.7758    25.0076    22.2416
 4476.5000    65.8064    10.8288     0.0220     2.6552   -45.6254    25.0112    22.2434
 4477.0000    66.8279    10.8290     0.0147     2.6537   -45.4752    24.9401    22.3195
 4477.5000    68.0283    10.8291     0.0220     2.6477   -45.4745    24.9446    22.3956
 4478.0000    70.3383    10.8464     0.0259     2.6462   -45.3243    24.9482    22.3970
 4478.5000    73.0982    10.8593     0.0184     2.6508   -45.3236    25.0266    22.5568
 4479.0000    74.3623    10.8893     0.0125     2.6553   -45.1734    25.0302    22.6988
 4479.5000    73.7092    10.9193     0.0164     2.6583   -45.0232    25.1086    22.7002
 4480.0000    70.0308    10.9493     0.0269     2.6658   -45.0224    25.1221    22.4778
 4480.5000    66.4118    10.9494     0.0328     2.6748   -45.0215    25.0411    22.2553
 4481.0000    63.1535    10.9496     0.0210     2.6626   -44.8713    24.8875    21.9583
 4481.5000    61.8106    10.9497     0.0142     2.6599   -44.8706    24.5261    21.6612
 4482.0000    63.1623    10.9200     0.0241     2.6644   -44.8699    24.3055    21.2835
 4482.5000    67.2086    10.8903     0.0271     2.6659   -44.8692    24.0849    20.9178
 4483.0000    72.1531    10.8905     0.0197     2.6603   -45.0181    23.8634    20.3955
 4483.5000    78.4449    10.8906     0.0079     2.6407   -45.0172    23.8680    20.6341
 4484.0000    82.9404    10.8609    -0.0069     2.6361   -45.1738    23.9463    21.2212
 4484.5000    84.2921    10.8909    -0.0098     2.6467   -45.4642    24.0601    21.6704
 4485.0000    82.9491    10.8910    -0.0017     2.6559   -45.4633    24.1779    21.8957
 4485.5000    75.2938    10.8912     0.0133     2.6629   -45.6122    24.3450    22.1956
 4486.0000    74.4250    10.8882     0.0238     2.6653   -45.6113    24.5597    22.4956
 4486.5000    76.3847    10.8616     0.0323     2.6661   -45.4611    24.7875    22.9448
 4487.0000    78.0266    10.8706     0.0369     2.6561   -45.4604    25.0154    23.2532
 4487.5000    74.6842    10.8918     0.0399     2.6347   -45.4596    25.1685    23.6197
 4488.0000    65.7838    10.8919     0.0410     2.6392   -45.6084    25.3216    23.9196
 4488.5000    60.9739    10.8921     0.0376     2.6407   -45.6076    25.3999    24.2196
 4489.0000    63.6737    10.8922     0.0313     2.6258   -45.6067    25.4783    24.4449
 4489.5000    61.5332    10.9222     0.0214     2.6169   -45.7557    25.6315    24.5956
 4490.0000    59.2509    10.9224     0.0138     2.6094   -45.7548    25.7107    24.7463
 4490.5000    59.1763    10.9225     0.0186     2.6169   -45.7541    25.7143    24.6731
 4491.0000    61.4677    10.9227     0.0289     2.6289   -45.7533    25.7179    24.5257
 4491.5000    64.2674    10.9293     0.0301     2.6349   -45.7526    25.7216    24.5271
 4492.0000    66.8452    10.9529     0.0237     2.6289   -45.7519    25.7252    24.4536
 4492.5000    67.7478    10.9530     0.0163     2.6215   -45.7511    25.5793    24.2311
 4493.0000    68.2013    10.9532     0.0104     2.6216   -45.7502    25.4335    23.9344
 4493.5000    68.2056    10.9533     0.0101     2.6298   -45.7495    25.2799    23.7120
 4494.0000    68.2100    10.9534     0.0194     2.6382   -45.7488    25.0680    23.4853
 4494.5000    67.3162    10.9536     0.0328     2.6365   -45.8977    24.8474    23.1056
 4495.0000    66.4224    10.9537     0.0284     2.6429   -46.0465    24.5521    22.7462
 4495.5000    65.0795    10.9539     0.0255     2.6515   -46.0456    24.2567    22.1509
 4496.0000    62.3893    10.9540     0.0241     2.6481   -46.0448    23.9614    21.2569
 4496.5000    58.3275    10.9542     0.0348     2.6333   -46.1936    23.5166    20.4374
 4497.0000    54.1710    10.9543     0.0420     2.6094   -46.1927    22.7035    19.2448
 4497.5000    50.7258    10.9545     0.0359     2.6017   -46.3416    21.8548    17.5299
 4498.0000    51.6978    10.9546     0.0347     2.5948   -46.3407    21.0060    16.5918
 4498.5000    52.6204    10.9548     0.0454     2.5864   -46.3400    19.6866    15.2943
 4499.0000    52.2078    10.9549     0.0466     2.5764   -46.4889    19.0201    14.6241
 4499.5000    48.2398    10.9551     0.0463     2.5650   -46.4880    18.4282    13.8793
 4500.0000    47.1550    10.9552     0.0452     2.5501   -46.6368    17.6122    12.8358
 4500.5000    48.4022    11.0148     0.0345     2.4978   -46.4238    16.5689    12.0004
 4501.0000    49.9934    11.0445     0.0142     2.5055   -46.4195    15.7494    11.0761
 4501.5000    54.3089    11.0443     0.0298     2.5348   -46.7127    15.0046    10.0166
 4502.0000    59.1491    11.0740     0.0336     2.5518   -46.8572    14.1852     9.2008
 4502.5000    63.2333    11.0739     0.0182     2.5577   -47.0016    13.4404     8.3104
 4503.0000    64.2935    11.0737     0.0243     2.5518   -47.1461    12.3971     7.6439
 4503.5000    54.8226    11.0736     0.0307     2.5384   -47.5870    11.6523     7.0520
 4504.0000    46.7431    11.0734     0.0264     2.5070   -47.8814    10.6090     6.4601
