~VERSION INFORMATION
 VERS.                2.0:   CWLS LOG ASCII STANDARD - VERSION 2.0
 WRAP.                 NO:   ONE LINE PER DEPTH STEP
~WELL INFORMATION
#MNEM.UNIT      DATA TYPE    INFORMATION
#----------   ------------   ------------------------------
 STRT.F            0.0000:   START DEPTH
 STOP.F         4044.0000:   STOP DEPTH
 STEP.F            0.5000:   STEP LENGTH
 NULL.          -999.2500:   NO VALUE
 COMP. LAWRENCE-ALLISON & ASSOC.:   COMPANY
 WELL. LAWRENCE "X" #24-34:   WELL
 FLD .           N P R #3:   FIELD
 LOC .      S34 T39N R78W:   LOCATION
 CNTY.            NATRONA:   COUNTY
 STAT.            WYOMING:   STATE
 CTRY. UNITED STATES OF AMERICA:   COUNTRY
 SRVC.      DRESSER ATLAS:   SERVICE COMPANY
 DATE.        29-MAR-1984:   LOGDATE
 API .     49025109660000:   API NUMBER
~CURVE INFORMATION
#MNEM.UNIT       API CODE    CURVE DESCRIPTION
#----------   ------------   ------------------------------
 DEPT.F                  :   
 DT  .US/F   60 520 00 00:   DELTA TIME
 TENS.LBS    60 635 01 00:   TENSION FROM SONIC
 GRR .GAPI   07 310 01 00:   GAMMA RAY FROM RESISTIVITY
 SPR .MV     07 010 01 00:   SPONTANEOUS POTENTIAL
 CALR.IN     07 280 01 00:   CALIPER FROM RESISTIVITY
 TENR.LBS    07 635 01 00:   TENSION FROM RESISTIVITY
 RSFL.OHMM   07 221 01 00:   AMPPLIFIED SHALLOW FOCUSED LOG RESISTIVITY
 RILD.OHMM   07 120 46 00:   DEEP INDUCTION RESISTIVITY
 RILM.OHMM   07 120 44 00:   INDUCTION LOG MEDIUM RESISTIVITY
 RHOB.G/C3   45 350 01 00:   BULK DENSITY
 DRHO.G/C3   45 356 01 00:   DENSITY CORRECTION
 TEND.LBS    45 635 01 00:   TENSION FROM DENSITY LOG
 NPHI.DEC    42 890 03 00:   NEUTRON POROSITY SANDSTONE
~PARAMETER INFORMATION
#MNEM.UNIT          VALUE    DESCRIPTION
#----------   ------------   ------------------------------
 EKB .F         5101.0000:   Kelly bushing
 EGL .F         5089.0000:   Ground level
 EDF .F         5100.0000:   Drilling floor
 TD  .F         4050.0000:   Total depth
 DATE.        29-MAR-1984:   Date logged
 CLNT.            A2DTECH:   Client Code
 SL  . 2415' FNL & 839' FWL:   Surface Location
 PD  .                 GL:   Permanent Datum
 EPD .F              5089:   Elevation Permanent Datum
 LMF .                 KB:   Log Measured From
 DMF .                 KB:   Drilling Measured From
 DD  .F              4050:   Depth driller
 DL  .F              4043:   Depth logger
 BLI .F              4041:   Bottom log interval
 CS1 .IN            8.625:   Casing size
 CBD1.       8.625 @ 673':   Casing driller 1
 CBL1.F               671:   Casing logger 1
 BS1 .IN            7.875:   Bit size
 DFT .            GEL-KCL:   Type fluid in hole
 DFD .                8.9:   Density
 DFV .                 45:   Viscosity
 DFPH.                  8:   pH
 DFL .               12.8:   Fluid loss
 MSS .           MUD TANK:   Source of sample
 RMS .OHMM           0.46:   Rm
 MST .F                71:   Rm Meas. temp.
 RMF .OHMM           0.31:   Rmf
 MFST.F                71:   Rmf Meas. temp.
 RMC .OHMM           0.55:   Rmc
 MCST.F                71:   Rmc Meas. temp.
 MFSS.               MEAS:   Source Rmf.
 RMB .OHMM           0.25:   Rm. at BHT
 BHT .F               139:   BHT.
 TCS .HRS               4:   Time Circ. stopped
 MRT .F               139:   Maximum recorded temp.
 LUN .               6302:   Logging unit number
 LUL .               CODY:   Logging unit location
 ENGI.              GETTY:   Recorded By
 WITN.           JENNINGS:   Witnessed by
 ORIG.           5" PRINT:   Origin of data
 UWI .     49025109660000:   Unique Well ID
 DICO. A2D TECHNOLOGIES, INC.:   Digitizing Company
 DAPD.                 12:   Feet Above Permanent Datum
 BSD1.               4050:   Depth drilled with bit1
 MCSS.               MEAS:   Source Rmc.
~OTHER INFORMATION
~A  DEPTH       DT       TENS        GRR        SPR       CALR       TENR       RSFL       RILD       RILM       RHOB       DRHO       TEND       NPHI
# ...
 2470.0000    78.9750  -153.9430   100.0530   -20.9070     8.5000  -173.6560    10.1200     9.5690     9.4780     2.5200     0.0670  -160.8140     0.1700
 2470.5000    78.7770  -153.9430   101.3170   -21.1700     8.5140  -174.7830    10.0860     9.5690     9.4740     2.5260     0.0740  -165.0110     0.1740
 2471.0000    78.8540  -153.9430    99.4260   -21.4350     8.5290  -175.9090    10.0430     9.5690     9.7990     2.5310     0.0740  -180.7490     0.1780
 2471.5000    78.9390  -153.9430    96.1620   -21.6930     8.5440  -177.0360    10.0260     9.7520    10.1210     2.5370     0.0700  -196.4860     0.1790
 2472.0000    79.0240  -153.9430    90.1790   -21.6700     8.5480  -178.1630    10.7330    10.1980    10.4420     2.5380     0.0660  -191.3250     0.1770
 2472.5000    78.9280  -153.9430    83.9640   -21.6280     8.5460  -179.2900    11.2140    10.6440    10.7640     2.5360     0.0670  -178.5380     0.1760
 2473.0000    78.4910  -153.9430    84.0640   -21.5870     8.5430  -180.4160    11.2140    11.0900    11.0850     2.5350     0.0680  -170.8620     0.1750
 2473.5000    78.0530  -153.9430    85.6070   -21.5460     8.5400  -181.5430    11.9190    11.5360    11.4070     2.5410     0.0810  -172.4110     0.1710
 2474.0000    77.5960  -153.9430    85.1820   -21.5050     8.5370  -182.6700    12.8330    11.8600    11.8600     2.5480     0.1100  -173.9610     0.1650
 2474.5000    77.1250  -153.9430    84.4500   -21.4650     8.5350  -183.7960    14.0290    12.0520    11.7100     2.5550     0.1060  -175.5110     0.1590
 2475.0000    76.6530  -153.9430    83.8480   -21.4240     8.5320  -183.5980    13.4290    12.0830    11.4910     2.5620     0.1000  -177.0610     0.1540
 2475.5000    75.9070  -153.9430    84.7190   -21.3830     8.5440  -182.8100    12.5610    12.0150    11.2710     2.5670     0.0950  -178.6110     0.1560
 2476.0000    75.1610  -153.9430    85.5750   -21.3430     8.5910  -182.0210    11.9350    11.9400    11.0510     2.5610     0.1000  -180.1610     0.1650
 2476.5000    74.8330  -153.9430    86.4220   -21.3020     8.6370  -181.2320    11.8230    11.8650    10.8030     2.5500     0.1060  -185.6910     0.1740
 2477.0000    75.3720  -153.9430    87.2730   -21.2610     8.6830  -180.4430    11.7420    11.7890    10.9240     2.5400     0.0910  -192.0840     0.1830
 2477.5000    76.3610  -153.9430    88.4710   -21.2210     8.7290  -179.6550    11.6920    11.7140    11.0540     2.5290     0.0740  -198.4770     0.1850
 2478.0000    77.3500  -153.9430    90.3000   -21.1800     8.7520  -178.8660    11.6410    11.6390    11.1780     2.5210     0.0610  -197.1120     0.1800
 2478.5000    78.2710  -153.9430    92.1140   -21.1390     8.7750  -178.0770    11.7790    11.5630    11.3630     2.5190     0.0670  -191.6320     0.1780
 2479.0000    78.4200  -153.9430    93.9640   -21.1040     8.7970  -177.2890    12.0190    11.5320    11.5480     2.5180     0.0720  -186.1520     0.1800
 2479.5000    78.5590  -153.9430    93.3050   -21.1860     8.8140  -176.5000    12.2590    11.9310    11.7330     2.5170     0.0780  -180.6720     0.1830
 2480.0000    78.8780  -153.9430    90.7860   -21.2720     8.8230  -175.7110    12.4990    12.2180    11.9180     2.5140     0.0800  -175.1920     0.1860
 2480.5000    79.1690  -153.9430    83.3670   -21.3560     8.8320  -174.9220    12.7790    12.5050    12.1030     2.5070     0.0750  -170.7380     0.1890
 2481.0000    79.0620  -153.9430    80.6070   -21.4410     8.8410  -174.1340    12.6540    12.7790    12.2880     2.4990     0.0700  -174.6720     0.1930
 2481.5000    78.9540  -153.9430    80.3070   -21.5260     8.8490  -174.0120    12.5430    12.7940    12.4260     2.4920     0.0640  -178.6060     0.1940
 2482.0000    78.8470  -153.9430    80.0660   -21.6120     8.8350  -174.0120    13.3210    12.8250    12.4680     2.4960     0.0570  -182.5410     0.1890
 2482.5000    78.5740  -153.9430    79.8130   -21.6950     8.8180  -174.0120    13.7700    12.8570    12.5180     2.5100     0.0510  -186.4750     0.1810
 2483.0000    77.9680  -153.9430    79.5670   -21.6190     8.8020  -174.0120    13.3410    12.8990    12.5430     2.5250     0.0450  -190.5650     0.1740
 2483.5000    76.9170  -153.9430    79.6980   -21.5310     8.7850  -174.0120    13.0060    12.7730    12.3390     2.5280     0.0360  -189.4970     0.1790
 2484.0000    76.1580  -153.9430    80.5470   -21.4440     8.7690  -174.0120    12.6700    12.5910    12.1510     2.5160     0.0260  -188.3850     0.1860
 2484.5000    75.6470  -153.9430    81.4490   -21.3570     8.7520  -174.0120    12.3110    12.4090    11.9640     2.4990     0.0180  -187.2730     0.1920
 2485.0000    76.3270  -153.9430    83.7470   -21.2690     8.7350  -174.0120    12.5430    12.2270    11.7770     2.4930     0.0240  -186.1620     0.1930
 2485.5000    77.3200  -153.9430    86.0760   -21.1810     8.7190  -174.0120    12.4510    12.0460    11.5890     2.4960     0.0310  -185.0500     0.1910
 2486.0000    78.3130  -153.9430    86.5600   -21.1060     8.7020  -174.0120    12.3280    11.8640    11.4020     2.5000     0.0370  -183.9380     0.1880
 2486.5000    79.0990  -153.9430    84.6150   -21.2120     8.6920  -174.0120    12.2040    11.7500    11.2150     2.5040     0.0370  -182.8260     0.1860
 2487.0000    79.1810  -153.9430    82.6950   -21.3220     8.7020  -174.0120    12.0810    11.8440    11.0280     2.5070     0.0230  -181.7140     0.1880
 2487.5000    79.0930  -153.9430    80.6830   -21.4300     8.7120  -174.0120    11.9570    11.9240    10.8400     2.5110     0.0120  -180.6020     0.1920
 2488.0000    78.7070  -153.9430    80.4400   -21.5380     8.7220  -174.0120    11.8600    12.0050    10.8030     2.5200     0.0280  -179.4900     0.1840
 2488.5000    78.4730  -153.9430    80.8970   -21.6460     8.7320  -174.0120    11.9710    12.0830    11.0670     2.5300     0.0450  -178.3780     0.1760
 2489.0000    78.4730  -153.9430    81.4160   -21.7540     8.7420  -174.0120    11.9710    12.1510    11.2840     2.5390     0.0620  -177.2670     0.1750
 2489.5000    78.7640  -153.9430    82.8980   -21.8620     8.7490  -174.0120    11.9710    12.2600    11.5020     2.5360     0.0760  -176.1550     0.1770
 2490.0000    79.0420  -153.9430    83.7700   -21.9700     8.7380  -174.0120    12.1830    12.3680    11.7200     2.5340     0.0680  -175.0430     0.1780
 2490.5000    79.1700  -153.9430    81.1450   -22.0830     8.7280  -174.0120    12.5430    12.6180    12.0050     2.5340     0.0590  -173.9310     0.1790
 2491.0000    79.2420  -153.9430    79.9780   -21.9210     8.7180  -174.0120    14.2400    12.9000    12.3890     2.5380     0.0490  -172.8190     0.1780
 2491.5000    78.9010  -153.9430    80.0080   -21.6290     8.7080  -174.0120    15.8240    13.1810    12.6600     2.5460     0.0400  -171.7070     0.1730
 2492.0000    78.1920  -153.9430    80.8670   -21.3350     8.6980  -174.0120    15.9870    13.2650    12.3610     2.5540     0.0300  -170.5950     0.1660
 2492.5000    76.7560  -153.9430    84.1040   -21.0410     8.6950  -174.0120    14.1790    13.1420    12.0870     2.5590     0.0210  -173.0880     0.1580
 2493.0000    75.3200  -153.9430    85.8420   -20.7460     8.7200  -174.0120    12.7930    12.9220    11.8130     2.5380     0.0120  -176.8310     0.1630
 2493.5000    74.1900  -153.9430    83.5150   -20.4520     8.7440  -174.0120    12.2390    12.6190    11.5390     2.5220     0.0170  -180.5730     0.1680
 2494.0000    74.8560  -153.9430    81.7050   -20.1580     8.7680  -174.0120    11.9840    12.3160    11.2650     2.5120     0.0320  -184.3150     0.1730
 2494.5000    75.9900  -153.9430    80.7080   -19.8900     8.7920  -174.0120    11.7300    12.0120    10.9910     2.5080     0.0380  -188.0580     0.1730
 2495.0000    77.0580  -153.9430    82.2240   -19.6810     8.8160  -174.0120    11.4750    11.7090    10.7170     2.5030     0.0380  -191.8000     0.1740
 2495.5000    77.8090  -153.9430    85.2650   -19.4440     8.8400  -174.0120    11.3190    11.4050    10.5050     2.4990     0.0360  -195.5430     0.1760
