~VERSION INFORMATION
 VERS.                2.0:   CWLS LOG ASCII STANDARD - VERSION 2.0
 WRAP.                 NO:   ONE LINE PER DEPTH STEP
~WELL INFORMATION
#MNEM.UNIT      DATA TYPE    INFORMATION
#----------   ------------   ------------------------------
 STRT.F          224.0000:   START DEPTH
 STOP.F         2912.0000:   STOP DEPTH
 STEP.F            0.5000:   STEP LENGTH
 NULL.          -999.2500:   NO VALUE
 COMP.    FENIX & SCISSON:   COMPANY
 WELL. FENIX & SCISSON NPR 34 "A" #3-21:   WELL
 FLD .             NPR #3:   FIELD
 LOC .      S21 T39N R78W:   LOCATION
 CNTY.            NATRONA:   COUNTY
 STAT.            WYOMING:   STATE
 CTRY. UNITED STATES OF AMERICA:   COUNTRY
 SRVC.              WELEX:   SERVICE COMPANY
 DATE.        15-JUL-1977:   LOGDATE
 API .     49025103970000:   API NUMBER
~CURVE INFORMATION
#MNEM.UNIT       API CODE    CURVE DESCRIPTION
#----------   ------------   ------------------------------
 DEPT.F                  :   
 CALD.IN     45 280 60 00:   CALIPER FROM DENSITY LOG
 CORR.G/C3   45 356 01 00:   DENSITY CORRECTION
 RHOB.G/C3   45 350 01 00:   BULK DENSITY
 GRD .GAPI   45 310 01 00:   GAMMA RAY FROM DENSITY LOG
 SPR .MV     07 010 01 00:   SPONTANEOUS POTENTIAL
 ILD .OHMM   07 120 46 00:   DEEP INDUCTION RESISTIVITY
 ILM .OHMM   07 120 44 00:   INDUCTION LOG MEDIUM RESISTIVITY
 SGRD.OHMM   07 220 05 00:   SHALLOW SHORT GUARD RESISTIVITY
~PARAMETER INFORMATION
#MNEM.UNIT          VALUE    DESCRIPTION
#----------   ------------   ------------------------------
 EKB .F         4921.0000:   Kelly bushing
 EGL .F         4911.0000:   Ground level
 TD  .F         2914.0000:   Total depth
 CLNT.            A2DTECH:   Client Code
 SL  . 2310' FNL & 1650' FWL:   Surface Location
 DATE.        15-JUL-1977:   Date Logged [DD-MMM-YYYY]
 DD  .F              2900:   Depth driller
 DL  .F              2914:   Depth logger
 BLI .F              2912:   Bottom log interval
 TLI .F               218:   Top log interval
 CS1 .              8.625:   Casing size
 CBD1.      8.625" @ 230':   Casing driller 1
 CBL1.IN              226:   Casing logger 1
 BS1 .IN            7.875:   Bit size
 BSD1.F              2900:   Depth drilled with bit1
 DFT .                KCL:   Type fluid in hole
 DFD .                8.9:   Density
 DFV .               1.42:   Viscosity
 DFPH.                7.5:   pH
 DFL .               19.6:   Fluid loss
 MSS .            MUD PIT:   Source of sample
 RMS .OHMM           3.75:   Rm
 MST .F                83:   Rm Meas. temp.
 RMF .OHMM           3.40:   Rmf
 MFST.F                83:   Rmf Meas. temp.
 MFSS.           MEASURED:   Source Rmf.
 RMC .OHMM            9.0:   Rmc
 MCST.F                83:   Rmc Meas. temp.
 MCSS.           MEASURED:   Source Rmc.
 RMB .OHMM           2.80:   Rm. at BHT
 BHT .F               111:   BHT.
 TCS .HRS               3:   Time Circ. stopped
 MRT .F               111:   Maximum recorded temp.
 LUN .               8766:   Logging unit number
 LUL .             CASPER:   Logging unit location
 ENGI.          T. JOYNER:   Recorded By
 WITN.     MR. PETTINGILL:   Witnessed by
 ORIG.           5" PRINT:   Origin of data
 UWI .     49025103970000:   Unique Well ID
 DICO. A2D TECHNOLOGIES, INC.:   Digitizing Company
 PD  .                 GL:   Permanent Datum
 EPD .F              4911:   Elevation Permanent Datum
 LMF .                 KB:   Log Measured From
 DMF .                 KB:   Drilling Measured From
 DAPD.F                10:   Feet Above Permanent Datum
~OTHER INFORMATION
~A   DEPT      CALD        CORR       RHOB       GRD       SPR        ILD        ILM       SGRD   
# ...
 2856.5000     7.9489     0.0878     2.4902   115.8737   -49.1222     5.1748     5.8828     6.3749
 2857.0000     7.9511     0.0819     2.4791   119.1635   -49.2668     4.9992     5.8435     6.2015
 2857.5000     7.9534     0.0805     2.4702   121.8588   -49.2623     4.8295     5.7822     6.0748
 2858.0000     7.9402     0.0835     2.4621   122.1716   -49.4069     4.7965     5.5454     6.0338
 2858.5000     7.9281     0.0896     2.4555   119.2258   -49.5514     4.7309     5.3086     6.0774
 2859.0000     7.9149     0.0957     2.4623   118.9442   -49.5469     4.6985     5.0394     6.0787
 2859.5000     7.8873     0.0957     2.4691   121.9420   -49.6915     4.6989     4.9360     6.0376
 2860.0000     7.8747     0.0928     2.4639   123.4486   -49.9851     4.6669     4.8348     5.9970
 2860.5000     7.8477     0.0869     2.4618   124.9553   -50.1297     4.6030     4.8348     5.9568
 2861.0000     7.8500     0.0825     2.4656   126.1648   -50.2742     4.4777     4.8348     5.9583
 2861.5000     7.8368     0.0781     2.4791   127.9686   -50.4188     4.4164     4.8683     5.9522
 2862.0000     7.8396     0.0737     2.4926   130.0697   -50.5633     4.4167     4.9020     5.8281
 2862.5000     7.8716     0.0692     2.4972   127.7130   -50.4708     4.4529     4.9360     5.6300
 2863.0000     7.9184     0.0648     2.4995   128.3282   -50.3784     4.5414     4.9703     5.5917
 2863.5000     7.9504     0.0649     2.5019   130.4292   -50.4982     4.5417     4.9703     5.5538
 2864.0000     7.9676     0.0635     2.5049   131.6387   -50.4859     4.5420     4.9020     5.4779
 2864.5000     7.9698     0.0591     2.5035   131.6595   -50.4716     4.4799     4.8683     5.2910
 2865.0000     7.9566     0.0561     2.4999   131.6803   -50.6117     4.3278     4.7356     5.1809
 2865.5000     7.9445     0.0502     2.4955   131.7010   -50.7460     4.2100     4.6062     5.1125
 2866.0000     7.9319     0.0473     2.4926   132.6134   -50.8832     4.1237     4.4809     5.0778
 2866.5000     7.9341     0.0429     2.4919   133.5257   -51.1694     4.0955     4.3890     5.0786
 2867.0000     7.9512     0.0430     2.4935   135.0324   -51.3095     4.0959     4.3288     5.0793
 2867.5000     7.9683     0.0430     2.4980   136.8362   -51.4467     4.0962     4.3288     5.0449
 2868.0000     7.9854     0.0431     2.5011   138.9372   -51.2829     4.1535     4.3890     5.0456
 2868.5000     8.0323     0.0417     2.5019   140.7411   -51.1220     4.2117     4.4501     5.0463
 2869.0000     8.0494     0.0358     2.4983   142.2477   -51.1102     4.2120     4.4501     5.0821
 2869.5000     8.0517     0.0344     2.4916   141.9713   -50.9494     4.1544     4.4194     5.0127
 2870.0000     8.0390     0.0284     2.4861   140.2091   -50.9375     4.1241     4.3588     4.8423
 2870.5000     8.0365     0.0240     2.4788   138.7440   -50.9257     4.0660     4.1818     4.7102
 2871.0000     8.0137     0.0226     2.4738   137.8722   -50.9138     3.9536     4.0960     4.6457
 2871.5000     8.0160     0.0212     2.4740   138.7855   -51.3491     3.8509     4.0960     4.6789
 2872.0000     8.0028     0.0228     2.4731   140.5894   -51.3373     3.7983     4.1530     4.6470
 2872.5000     8.0056     0.0243     2.4674   142.6904   -51.4774     3.7723     4.2108     4.4892
 2873.0000     8.0078     0.0259     2.4725   145.0886   -51.4626     3.8518     4.2108     4.3972
 2873.5000     8.0100     0.0290     2.4773   144.2178   -51.3018     3.8788     4.1244     4.3978
 2874.0000     8.0123     0.0290     2.4712   139.7810   -50.9919     3.8791     3.9843     4.3984
 2874.5000     8.0145     0.0291     2.4685   142.4764   -50.8310     3.8526     3.9026     4.3990
 2875.0000     8.0167     0.0277     2.4671   142.9414   -50.8192     3.8262     3.9026     4.4303
 2875.5000     8.0190     0.0248     2.4605   137.4642   -50.8073     3.8001     3.9296     4.5557
 2876.0000     8.0212     0.0189     2.4509   142.5891   -50.6465     3.8534     3.9843     4.5881
 2876.5000     8.0234     0.0100     2.4405   144.1503   -50.4856     3.8536     3.9843     4.5570
 2877.0000     8.0257     0.0011     2.4413   142.0148   -50.4738     3.8009     3.9296     4.5260
 2877.5000     8.0279     0.0041     2.4466   139.6276   -50.4619     3.7750     3.8477     4.2821
 2878.0000     8.0302     0.0132     2.4549   144.7004   -50.4501     3.7226     3.7938     4.1654
 2878.5000     8.0170     0.0192     2.4617   138.1833   -50.5873     3.6428     3.6927     4.0518
 2879.0000     8.0043     0.0253     2.4656   142.9599   -50.7245     3.4955     3.6170     3.9688
 2879.5000     7.9917     0.0299     2.4694   142.2119   -51.0259     3.3338     3.5184     3.9693
 2880.0000     7.9945     0.0329     2.4739   138.5480   -51.2970     3.1985     3.4225     3.9699
 2880.5000     8.0116     0.0345     2.4733   138.8660   -51.2846     3.1330     3.3292     3.9428
 2881.0000     8.0287     0.0316     2.4741   141.8585   -51.1237     3.0901     3.2835     3.9435
 2881.5000     8.0458     0.0287     2.4645   143.0628   -51.1095     3.0479     3.2609     3.9440
 2882.0000     8.0480     0.0242     2.4541   139.5227   -51.2496     3.0481     3.2384     3.9445
 2882.5000     8.0503     0.0228     2.4534   141.9209   -51.3868     3.0694     3.2384     3.9451
 2883.0000     8.0525     0.0259     2.4558   144.3191   -51.6701     3.1340     3.2609     3.9456
 2883.5000     8.0548     0.0290     2.4618   145.2314   -51.6583     3.2000     3.3062     3.8917
 2884.0000     8.0566     0.0305     2.4679   143.1719   -51.6464     3.2002     3.3062     3.7594
 2884.5000     8.0291     0.0306     2.4739   139.3294   -51.4856     3.2004     3.2161     3.6569
 2885.0000     8.0161     0.0307     2.4785   137.2648   -51.1757     3.1786     3.1284     3.6321
 2885.5000     8.0036     0.0308     2.4808   143.2343   -51.0148     3.0920     3.0855     3.6326
 2886.0000     7.9910     0.0293     2.4779   145.3353   -50.8539     3.0287     3.0855     3.6331
 2886.5000     7.9934     0.0264     2.4631   144.4646   -50.6931     3.0289     3.0855     3.6589
 2887.0000     7.9956     0.0235     2.4512   142.1079   -50.6812     3.0291     3.1069     3.6849
 2887.5000     8.0127     0.0206     2.4446   140.9348   -50.9675     3.0965     3.1284     3.7111
 2888.0000     8.0150     0.0207     2.4394   143.0410   -51.2537     3.1799     3.1720     3.7117
 2888.5000     8.0321     0.0207     2.4365   144.5477   -51.3909     3.2022     3.2161     3.7123
 2889.0000     8.0343     0.0208     2.4336   145.4600   -51.5310     3.2025     3.2384     3.6361
 2889.5000     8.0366     0.0224     2.4314   144.8864   -51.6683     3.1587     3.2161     3.5369
 2890.0000     8.0388     0.0240     2.4293   144.6048   -51.6535     3.0940     3.1472     3.4405
 2890.5000     8.0256     0.0255     2.4279   143.8885   -51.6416     3.0097     3.0818     3.3468
 2891.0000     8.0284     0.0271     2.4280   144.5578   -51.3317     2.9480     3.0643     3.3011
 2891.5000     8.0152     0.0317     2.4295   145.5093   -51.0218     2.8877     3.0643     3.2786
 2892.0000     8.0025     0.0332     2.4338   145.9137   -50.7119     2.8679     3.0643     3.2791
 2892.5000     8.0053     0.0363     2.4394   146.5577   -50.4020     2.9283     3.0643     3.3486
 2893.0000     8.0076     0.0394     2.4462   148.6875   -50.3902     2.9489     3.0643     3.3724
 2893.5000     8.0247     0.0409     2.4530   150.8462   -50.3784     2.9902     3.0432     3.4201
 2894.0000     8.0269     0.0410     2.4576   152.6300   -50.6647     2.9493     3.0014     3.4205
 2894.5000     8.0292     0.0396     2.4606   150.8574   -50.9511     2.9288     2.9602     3.4210
 2895.0000     8.0314     0.0382     2.4562   143.5364   -51.2371     2.8679     2.8995     3.4197
 2895.5000     8.0182     0.0337     2.4489   128.1431   -51.3743     2.7886     2.8204     3.3049
 2896.0000     8.0361     0.0338     2.4452    94.3249   -51.2131     2.7115     2.7436     3.1720
 2896.5000     8.0383     0.0414     2.4490    14.1471   -51.0521     2.6229     2.6688     3.0868
