~VERSION INFORMATION
 VERS.                2.0:   CWLS LOG ASCII STANDARD - VERSION 2.0
 WRAP.                 NO:   ONE LINE PER DEPTH STEP
~WELL INFORMATION
#MNEM.UNIT      DATA TYPE    INFORMATION
#----------   ------------   ------------------------------
 STRT.F          148.0000:   START DEPTH
 STOP.F         3394.0000:   STOP DEPTH
 STEP.F            0.5000:   STEP LENGTH
 NULL.          -999.2500:   NO VALUE
 COMP.    FENIX & SCISSON:   COMPANY
 WELL.  FENIX "AX" #28-10:   WELL
 FLD .        TEAPOT DOME:   FIELD
 LOC .      S10 T38N R78W:   LOCATION
 CNTY.            NATRONA:   COUNTY
 STAT.            WYOMING:   STATE
 CTRY. UNITED STATES OF AMERICA:   COUNTRY
 SRVC.       SCHLUMBERGER:   SERVICE COMPANY
 DATE.        03-MAR-1981:   LOGDATE
 API .     49025108680000:   API NUMBER
~CURVE INFORMATION
#MNEM.UNIT       API CODE    CURVE DESCRIPTION
#----------   ------------   ------------------------------
 DEPT.F                  :   
 SFL .OHMM   07 220 01 00:   SHALLOW FOCUSED LOG RESISTIVITY
 ILD .OHMM   07 120 46 00:   INDUCTION LOG DEEP RESISTIVITY
 ILM .OHMM   07 120 44 00:   INDUCTION LOG MEDIUM RESISTIVITY
 TENR.LBS    07 635 01 00:   TENSION
 SPR .MV     07 010 01 00:   SPONTANEOUS POTENTIAL
 CALD.IN     45 280 60 00:   CALIPER FROM DENSITY LOG
 GRD .GAPI   45 310 01 00:   GAMMA RAY FROM DENSITY LOG
 TEND.LBS    45 635 01 00:   TENSION FROM DENSITY LOG
 CORR.G/C3   45 356 01 00:   DENSITY CORRECTION
 RHOB.G/C3   45 350 01 00:   BULK DENSITY
~PARAMETER INFORMATION
#MNEM.UNIT          VALUE    DESCRIPTION
#----------   ------------   ------------------------------
 EKB .F         5241.0000:   Kelly bushing
 EGL .F         5231.0000:   Ground level
 EDF .F            0.0000:   Drilling floor
 TD  .F         3381.0000:   Total depth
 DATE.        03-MAR-1981:   Date logged
 CLNT.            A2DTECH:   Client Code
 SL  . 640' FSL & 720' FWL:   Surface Location
 PD  .                 GL:   Permanent Datum
 EPD .F              5231:   Elevation Permanent Datum
 LMF .                 KB:   Log Measured From
 DMF .                 KB:   Drilling Measured From
 DAPD.F                10:   Feet Above Permanent Datum
 DD  .F              3361:   Depth driller
 DL  .F              3381:   Depth logger
 BLI .F              3375:   Bottom log interval
 TLI .F               233:   Top log interval
 CS1 .IN            8.625:   Casing size
 CBD1.      8.625" @ 224':   Casing driller 1
 CBL1.F               233:   Casing logger 1
 BS1 .IN            7.875:   Bit size
 BSD1.F              3361:   Depth drilled with bit1
 DFT .           CHEM/GEL:   Type fluid in hole
 DFD .                  9:   Density
 DFV .                 40:   Viscosity
 DFPH.                8.5:   pH
 DFL .                 11:   Fluid loss
 MSS .           MUD/TANK:   Source of sample
 RMS .OHMM           2.52:   Rm
 MST .F                66:   Rm Meas. temp.
 RMF .OHMM            1.8:   Rmf
 MFST.F                67:   Rmf Meas. temp.
 MFSS.               MEAS:   Source Rmf.
 RMB .OHMM           1.47:   Rm. at BHT
 BHT .F               118:   BHT.
 TCS .HRS            0500:   Time Circ. stopped
 TLAB.HRS            0830:   Time logger at bottom
 MRT .F               118:   Maximum recorded temp.
 LUN .               8035:   Logging unit number
 LUL .               CSPR:   Logging unit location
 ENGI.            BEATTLE:   Recorded By
 WITN.              FIVAS:   Witnessed by
 ORIG.           5" PRINT:   Origin of data
 UWI .     49025108680000:   Unique Well ID
 DICO. A2D TECHNOLOGIES, INC.:   Digitizing Company
~OTHER INFORMATION
~A   DEPT      SFL        ILD        ILM       TENR        SPR         CALD       GRD      TEND       CORR       RHOB   
# ...
 1655.5000    10.2530     8.8610     9.1630   453.9060   -21.7030     8.4590   108.9100   518.2960     0.0110     2.5330
 1656.0000    10.3500     8.8840     9.0950   454.0700   -21.6860     8.4600   109.1590   519.7250     0.0270     2.5410
 1656.5000    10.4460     8.9070     9.0260   454.2340   -21.6730     8.4610   109.4020   521.1530     0.0430     2.5570
 1657.0000    10.4840     8.9310     8.8590   454.3980   -21.9200     8.4620   109.6390   522.5820     0.0570     2.5620
 1657.5000    10.3220     8.9550     8.8410   454.5620   -22.1560     8.4640   110.8820   524.0100     0.0530     2.5570
 1658.0000    10.1870     8.9790     8.8260   454.7260   -22.4490     8.4650   112.3140   525.4390     0.0370     2.5450
 1658.5000    10.0520     9.0030     8.8120   454.8900   -22.5490     8.4660   113.6210   526.8670     0.0320     2.5420
 1659.0000     9.9170     9.0280     8.7970   455.0540   -22.6620     8.4680   111.5970   528.2960     0.0420     2.5520
 1659.5000     9.7820     9.0520     8.7820   455.2180   -22.7610     8.4690   109.3470   529.7250     0.0510     2.5610
 1660.0000     9.6890     9.0760     8.7680   455.3820   -22.8680     8.4700   108.5380   531.1530     0.0550     2.5540
 1660.5000     9.6250     9.1000     8.7530   455.5460   -22.9720     8.4710   109.1600   532.1290     0.0390     2.5370
 1661.0000     9.5480     9.1240     8.7380   455.7100   -23.0770     8.4730   108.1130   532.2270     0.0260     2.5250
 1661.5000     9.6740     9.1480     8.7240   455.8740   -23.1820     8.4740   106.1200   532.3350     0.0180     2.5310
 1662.0000     9.9890     9.1730     8.7090   456.0380   -23.2870     8.4750   105.5210   532.4430     0.0190     2.5420
 1662.5000    10.3040     9.1970     8.6930   456.2020   -23.3910     8.4770   105.6520   532.5500     0.0410     2.5530
 1663.0000    10.6820     9.2210     8.6960   456.3660   -23.4960     8.4780   105.9360   532.6580     0.0630     2.5640
 1663.5000    10.6180     9.2450     8.7180   456.5300   -23.6010     8.4790   105.8780   532.7660     0.0770     2.5670
 1664.0000    10.4560     9.2690     8.7370   456.6940   -23.6830     8.4800   105.6140   532.8740     0.0730     2.5650
 1664.5000    10.2940     9.2930     8.7570   456.8580   -23.6830     8.4820   100.3110   532.9810     0.0700     2.5630
 1665.0000    10.0990     9.3160     8.7760   457.0220   -23.6840     8.4830    99.7290   533.0890     0.0670     2.5610
 1665.5000    10.1760     9.3400     8.7960   457.1860   -23.6870     8.4840    99.8400   533.1970     0.0590     2.5520
 1666.0000    10.2720     9.3690     8.8150   457.3170   -23.6810     8.4860   101.2990   533.3050     0.0470     2.5430
 1666.5000    10.3690     9.3200     8.8340   457.3170   -23.6720     8.4870   101.8240   533.4130     0.0400     2.5380
 1667.0000    10.4840     9.2600     8.8570   457.3170   -23.4250     8.4880   101.3280   533.5200     0.0410     2.5430
 1667.5000    10.4450     9.1990     8.7900   457.3170   -23.1850     8.4890   101.9310   533.6280     0.0390     2.5470
 1668.0000    10.3970     9.1380     8.7070   457.3170   -22.9030     8.4910   103.3990   533.7360     0.0320     2.5510
 1668.5000    10.3480     9.0770     8.6230   457.3170   -22.8740     8.4920   104.9540   533.8440     0.0260     2.5500
 1669.0000    10.2900     9.0160     8.5390   457.3170   -22.8320     8.4930   107.6170   533.9510     0.0210     2.5470
 1669.5000    10.2140     8.9540     8.4550   457.3170   -22.3790     8.4950   110.3430   534.0590     0.0140     2.5440
 1670.0000    10.0990     8.8930     8.3710   457.3170   -21.9910     8.4960   112.3350   534.1670     0.0200     2.5420
 1670.5000     9.9610     8.8320     8.2870   457.3170   -21.5750     8.4970   113.7450   534.2750     0.0260     2.5540
 1671.0000     9.7890     8.7710     8.2030   457.3170   -21.1760     8.4980   113.6900   534.3820     0.0430     2.5670
 1671.5000     9.6160     8.7090     8.1190   457.3170   -20.7650     8.5000   113.5860   534.4900     0.0640     2.5790
 1672.0000     9.5480     8.6480     8.0350   457.3170   -20.4320     8.5010   113.4300   534.5980     0.0860     2.5880
 1672.5000     9.4610     8.5870     7.9180   457.3170   -20.2470     8.5020   113.2970   534.7060     0.1020     2.5820
 1673.0000     9.2460     8.5260     8.0670   457.3170   -20.0590     8.5040   113.2090   534.8130     0.1030     2.5730
 1673.5000     9.0310     8.4640     8.0440   457.3170   -20.0390     8.5050   112.2100   534.9210     0.0980     2.5480
 1674.0000     8.8590     8.4030     7.9860   457.3170   -20.0340     8.5060   110.9530   535.0290     0.0780     2.5220
 1674.5000     8.9940     8.3420     7.9280   457.3170   -19.8840     8.5070   109.4220   535.1370     0.0530     2.5140
 1675.0000     9.1970     8.2810     7.8700   457.3170   -19.6720     8.5090   110.2280   535.2440     0.0570     2.5160
 1675.5000     9.1970     8.2200     7.8120   457.3170   -19.4790     8.5100   112.4390   535.3520     0.0680     2.5430
 1676.0000     9.2590     8.2200     7.7540   457.3170   -19.2500     8.5100   114.8190   535.4600     0.0620     2.5440
 1676.5000     9.3210     8.1790     7.6960   457.3170   -19.2320     8.5100   114.1200   535.5680     0.0380     2.5290
 1677.0000     9.3700     8.1290     7.6240   457.3170   -19.2280     8.5100   113.0700   535.6750     0.0180     2.5190
 1677.5000     9.2510     8.0790     7.6280   457.3170   -19.2330     8.5100   111.8780   535.7830     0.0320     2.5270
 1678.0000     8.9520     8.0280     7.6260   457.3170   -19.2300     8.5100   111.1380   535.8910     0.0580     2.5450
 1678.5000     8.6530     7.9780     7.6260   457.3170   -19.2310     8.5100   110.8180   535.9990     0.0830     2.5630
 1679.0000     8.5330     7.9180     7.6260   457.3170   -19.2310     8.5100   110.8610   536.1060     0.0890     2.5560
 1679.5000     8.5630     7.9740     7.6260   457.3170   -19.2310     8.5100   110.1660   536.2140     0.0780     2.5390
 1680.0000     8.5990     8.0430     7.6260   457.3170   -19.2310     8.5100   109.3330   536.3220     0.0660     2.5220
 1680.5000     8.6360     8.1130     7.6270   457.3170   -19.2310     8.5100   108.5790   536.4300     0.0550     2.5100
 1681.0000     8.6720     8.1830     7.6270   457.3170   -19.2310     8.5100   109.4770   536.5380     0.0540     2.5100
 1681.5000     8.7790     8.2530     7.6650   457.3170   -19.2310     8.5100   110.4200   536.6450     0.0580     2.5190
 1682.0000     8.9900     8.3230     7.7130   457.3170   -19.2300     8.5100   111.5630   536.7530     0.0620     2.5300
 1682.5000     9.2010     8.3930     7.7620   457.3170   -19.2340     8.5100   111.6070   536.8610     0.0740     2.5380
 1683.0000     9.3700     8.4630     7.8100   457.3170   -19.1930     8.5100   110.2610   536.9690     0.0890     2.5420
 1683.5000     9.2960     8.5330     7.8580   457.3170   -19.1180     8.5100   108.9030   537.0760     0.1110     2.5660
 1684.0000     9.1970     8.4940     7.9060   457.3170   -19.0490     8.5100   108.8490   537.1840     0.1050     2.5780
 1684.5000     9.3160     8.4540     7.9540   457.3170   -18.9800     8.5100   109.6810   537.2920     0.0860     2.5740
 1685.0000     9.6140     8.4140     8.0030   457.3170   -18.9090     8.5100   110.1630   537.4000     0.0660     2.5720
 1685.5000     9.9120     8.3750     8.0510   457.3170   -18.8400     8.5060   109.7840   537.5070     0.0730     2.5800
 1686.0000     9.7280     8.3750     8.0990   457.3170   -18.7700     8.4960   108.5830   537.6150     0.0820     2.5860
 1686.5000     9.3300     8.4070     8.1470   457.3170   -18.7000     8.4860   106.4330   537.7230     0.0910     2.5760
 1687.0000     9.1970     8.4890     8.1960   457.3170   -18.6320     8.4760   105.0400   537.8310     0.0760     2.5650
 1687.5000     9.4400     8.5700     8.2440   457.3170   -18.5580     8.4660   106.4610   537.9380     0.0650     2.5540
 1688.0000     9.7430     8.6520     8.2920   457.3170   -18.4930     8.4560   107.7610   538.0460     0.0500     2.5450
 1688.5000    10.0470     8.7330     8.3400   457.3170   -18.4330     8.4460   108.1340   538.1540     0.0500     2.5440
