~VERSION INFORMATION
 VERS.                2.0:   CWLS LOG ASCII STANDARD - VERSION 2.0
 WRAP.                 NO:   ONE LINE PER DEPTH STEP
~WELL INFORMATION
#MNEM.UNIT      DATA TYPE    INFORMATION
#----------   ------------   ------------------------------
 STRT.F         2185.0000:   START DEPTH
 STOP.F         5688.0000:   STOP DEPTH
 STEP.F            0.5000:   STEP LENGTH
 NULL.          -999.2500:   NO VALUE
 COMP.       FLUOR DANIEL:   COMPANY
 WELL.   FLUOR "X" #53-10:   WELL
 FLD .           N.P.R #3:   FIELD
 LOC .      S10 T38N R78W:   LOCATION
 CNTY.            NATRONA:   COUNTY
 STAT.            WYOMING:   STATE
 CTRY. UNITED STATES OF AMERICA:   COUNTRY
 SRVC.      WESTERN ATLAS:   SERVICE COMPANY
 DATE.        23-MAR-1997:   LOGDATE
 API .     49025228470000:   API NUMBER
~CURVE INFORMATION
#MNEM.UNIT       API CODE    CURVE DESCRIPTION
#----------   ------------   ------------------------------
 DEPT.F                  :   
 CNC .DEC    42 890 03 00:   NEUTRON POROSITY SANDSTONE
 TEND.LBS    45 635 01 00:   TENSION FORM DENSITY LOG
 GRD .GAPI   45 310 01 00:   GAMMA RAY FROM DENSITY LOG
 CALD.IN     45 280 60 00:   CALIPER FROM DENSITY LOG
 ZDEN.G/C3   45 350 01 00:   BULK DENSITY
 ZCOR.G/C3   45 356 01 00:   DENSITY CORRECTION
 PE  .B/E    45 358 01 00:   PHOTOELECTRIC FACTOR
 R4SL.OHMM   07 000 00 00:   RESISTIVITY DEL 4
 R2SL.OHMM   07 000 00 00:   RESISTIVITY DEL 2
~PARAMETER INFORMATION
#MNEM.UNIT          VALUE    DESCRIPTION
#----------   ------------   ------------------------------
 EKB .F         5182.0000:   Kelly bushing
 EGL .F         5172.0000:   Ground level
 EDF .F         5181.0000:   Drilling floor
 EPD .F         5172.0000:   Permanent datum
 TD  .F         5690.0000:   Total depth
 CLNT.            A2DTECH:   Client Code
 SL  . 1183' FNL & 2118' FEL:   Surface Location
 PD  .                 GL:   Permanent Datum
 LMF .                 KB:   Log Measured From
 DMF .                 KB:   Drilling Measured From
 DAPD.F                10:   Feet Above Permanent Datum
 DATE.        23-MAR-1997:   Date Logged [DD-MMM-YYYY]
 DD  .F              5690:   Depth driller
 DL  .F              5688:   Depth logger
 BLI .F              5648:   Bottom log interval
 TLI .F              2200:   Top log interval
 CS1 .IN            9.625:   Casing size
 CBD1.      9.625" @ 446':   Casing driller 1
 CBL1.F               452:   Casing logger 1
 BS1 .IN             8.75:   Bit size
 BSD1.F              5690:   Depth drilled with bit1
 DFT .           GEL CHEM:   Type fluid in hole
 DFD .                9.8:   Density
 DFV .                 66:   Viscosity
 DFPH.                8.5:   pH
 DFL .                8.4:   Fluid loss
 MSS .              CIRC.:   Source of sample
 RMS .OHMM            1.1:   Rm
 MST .F                73:   Rm Meas. temp.
 RMF .OHMM           0.87:   Rmf
 MFST.F                73:   Rmf Meas. temp.
 MFSS.               CALC:   Source Rmf.
 RMC .OHMM           1.35:   Rmc
 MCST.F                73:   Rmc Meas. temp.
 MCSS.               CALC:   Source Rmc.
 RMB .OHMM           0.46:   Rm. at BHT
 BHT .F               174:   BHT.
 TCS .HRS               5:   Time Circ. stopped
 MRT .F               174:   Maximum recorded temp.
 LUN .            HL 6530:   Logging unit number
 LUL .          CASPER WY:   Logging unit location
 ENGI.           BROWNLOW:   Recorded By
 WITN.              HARDY:   Witnessed by
 ORIG.     2.5", 5" PRINT:   Origin of data
 UWI .     49025228470000:   Unique Well ID
 DICO. A2D TECHNOLOGIES, INC.:   Digitizing Company
~OTHER INFORMATION
~A  DEPTH      CNC       TEND        GRD       CALD       ZDEN       ZCOR         PE       R4SL       R2SL
# ...
 4922.5000     0.2043   -33.5821    98.4164     9.1474     2.6341     0.1067     3.4535  -999.2500  -999.2500
 4923.0000     0.2001   -24.8707    98.7330     9.1326     2.6479     0.0934     3.5586  -999.2500  -999.2500
 4923.5000     0.1935   -11.1940    97.5068     9.0727     2.6679     0.0844     3.8288  -999.2500  -999.2500
 4924.0000     0.1730    -3.7313    94.6728     8.9976     2.6961     0.0769     4.0390  -999.2500  -999.2500
 4924.5000     0.1420    -3.7313    89.4296     8.9074     2.7118     0.0693     4.2192  -999.2500  -999.2500
 4925.0000     0.1293    -3.7313    81.9029     8.8625     2.7171     0.0588     3.9489  -999.2500  -999.2500
 4925.5000     0.1188    -3.7313    75.5829     8.8630     2.7185     0.0468     3.6937  -999.2500  -999.2500
 4926.0000     0.1140   -11.1940    71.9778     8.8635     2.7185     0.0392     3.5733  -999.2500  -999.2500
 4926.5000     0.1116   -11.1940    69.5793     8.8639     2.7178     0.0407     3.6486  -999.2500  -999.2500
 4927.0000     0.1098   -11.1940    68.6892     8.8795     2.7125     0.0511     3.7108  -999.2500  -999.2500
 4927.5000     0.1083    -3.7313    68.0970     8.8799     2.7043     0.0541     3.7688  -999.2500  -999.2500
 4928.0000     0.1104    -3.7313    67.2105     8.8804     2.6878     0.0540     3.8288  -999.2500  -999.2500
 4928.5000     0.1159   -11.1940    69.0353     8.8781     2.6728     0.0525     3.8589  -999.2500  -999.2500
 4929.0000     0.1213   -11.1940    72.0667     8.8661     2.6698     0.0479     3.7237  -999.2500  -999.2500
 4929.5000     0.1250    -3.7313    74.4947     8.8818     2.6713     0.0387     3.6637  -999.2500  -999.2500
 4930.0000     0.1276    -3.7313    75.7164     8.9276     2.6728     0.0325     3.6336  -999.2500  -999.2500
 4930.5000     0.1370    -3.7313    75.7315     8.9582     2.6727     0.0583     3.6336  -999.2500  -999.2500
 4931.0000     0.1445   -11.1940    77.2578     8.9738     2.6729     0.0747     3.6336  -999.2500  -999.2500
 4931.5000     0.1473   -11.1940    80.8925     8.9893     2.6809     0.0567     3.6787  -999.2500  -999.2500
 4932.0000     0.1533   -11.1940    83.9239     8.9898     2.6914     0.0297     3.7237  -999.2500  -999.2500
 4932.5000     0.1635   -11.1940    85.4471     8.9902     2.7004     0.0147     3.7688  -999.2500  -999.2500
 4933.0000     0.1681   -18.6567    89.0818     8.9907     2.7078     0.0131     3.8607  -999.2500  -999.2500
 4933.5000     0.1732   -18.6567    93.9231     9.0062     2.7116     0.0161     3.9530  -999.2500  -999.2500
 4934.0000     0.1847   -33.5821   100.8761     9.0520     2.7138     0.0190     4.0240  -999.2500  -999.2500
 4934.5000     0.1828   -33.5821   106.9241     9.0826     2.7145     0.0205     4.0090  -999.2500  -999.2500
 4935.0000     0.1730   -18.6567   110.5588     9.0811     2.7100     0.0204     4.0090  -999.2500  -999.2500
 4935.5000     0.1543   -11.1940   110.5736     9.0684     2.7063     0.0219     4.0090  -999.2500  -999.2500
 4936.0000     0.1392   -11.1940   109.0801     9.0537     2.7085     0.0219     3.9489  -999.2500  -999.2500
 4936.5000     0.1278   -11.1940   104.5281     9.0241     2.7122     0.0218     3.8288  -999.2500  -999.2500
 4937.0000     0.1196    -3.7313    98.7431     9.0245     2.7137     0.0233     3.6036  -999.2500  -999.2500
 4937.5000     0.1169    11.1940    92.6377     9.0401     2.7062     0.0278     3.5135  -999.2500  -999.2500
 4938.0000     0.1179    11.1940    86.2170     9.0556     2.7002     0.0337     3.4809  -999.2500  -999.2500
 4938.5000     0.1206    11.1940    85.6248     9.0712     2.6964     0.0351     3.5285  -999.2500  -999.2500
 4939.0000     0.1206    12.4428    85.3379     9.0716     2.6934     0.0336     3.5736  -999.2500  -999.2500
 4939.5000     0.1203    11.1940    84.7494     9.0721     2.6927     0.0275     3.6503  -999.2500  -999.2500
 4940.0000     0.1222   -11.1940    83.8630     9.0574     2.6942     0.0260     3.7878  -999.2500  -999.2500
 4940.5000     0.1288   -11.1940    85.3861     9.0276     2.6986     0.0259     3.8288  -999.2500  -999.2500
 4941.0000     0.1300     4.9552    87.8142     9.0130     2.7024     0.0274     3.8288  -999.2500  -999.2500
 4941.5000     0.1276    26.1194    90.2422     9.0134     2.7046     0.0259     3.7988  -999.2500  -999.2500
 4942.0000     0.1261    41.0448    92.6703     9.0338     2.7053     0.0258     3.7087  -999.2500  -999.2500
 4942.5000     0.1300    26.1194    94.1934     9.0749     2.7023     0.0228     3.6937  -999.2500  -999.2500
 4943.0000     0.1366    11.1940    95.7165     9.0753     2.6933     0.0167     3.7087  -999.2500  -999.2500
 4943.5000     0.1396   -11.1940    93.8950     9.0757     2.6866     0.0122     3.7688  -999.2500  -999.2500
 4944.0000     0.1409   -33.5821    93.0312     9.0762     2.6873     0.0077     3.8288  -999.2500  -999.2500
 4944.5000     0.1409   -33.5821    95.4630     9.0766     2.6903     0.0061     3.8438  -999.2500  -999.2500
 4945.0000     0.1415   -41.0448    96.6845     9.0771     2.6903     0.0181     3.7988  -999.2500  -999.2500
 4945.5000     0.1422   -41.0448    95.7943     9.0775     2.6894     0.0288     3.7538  -999.2500  -999.2500
 4946.0000     0.1440   -41.0448    91.8875     9.0780     2.6872     0.0377     3.7387  -999.2500  -999.2500
 4946.5000     0.1502   -25.4925    95.5223     9.0633     2.6925     0.0449     3.7688  -999.2500  -999.2500
 4947.0000     0.1643   -11.1940   100.6653     9.0638     2.6999     0.0463     3.8438  -999.2500  -999.2500
 4947.5000     0.1789    11.1940   106.1100     9.0642     2.7037     0.0493     3.9189  -999.2500  -999.2500
 4948.0000     0.1892    18.6567   111.2530     9.0344     2.7052     0.0432     3.9940  -999.2500  -999.2500
 4948.5000     0.1895    18.6567   113.9827     9.0332     2.7066     0.0372     4.0691  -999.2500  -999.2500
 4949.0000     0.1872    26.1194   114.9025     9.0202     2.7059     0.0327     4.0841  -999.2500  -999.2500
 4949.5000     0.1696    18.6567   114.6157     9.0208     2.7073     0.0326     3.9489  -999.2500  -999.2500
 4950.0000     0.1446    11.1940   111.3122     9.0514     2.7096     0.0431     3.6937  -999.2500  -999.2500
 4950.5000     0.1263    18.6567   100.3898     9.0670     2.7126     0.0445     3.3934  -999.2500  -999.2500
 4951.0000     0.1111    26.1194    91.9094     9.0523     2.7163     0.0430     3.2282  -999.2500  -999.2500
 4951.5000     0.1060    33.5821    87.5888     9.0226     2.7164     0.0324     3.2132  -999.2500  -999.2500
 4952.0000     0.1018    33.5821    82.7431     9.0230     2.7110     0.0294     3.2282  -999.2500  -999.2500
 4952.5000     0.0988    33.5821    80.3506     9.0234     2.7103     0.0324     3.2432  -999.2500  -999.2500
 4953.0000     0.0952    26.1194    77.9582     9.0239     2.7140     0.0338     3.2883  -999.2500  -999.2500
 4953.5000     0.0922    18.6567    76.4707     9.0394     2.7218     0.0368     3.3934  -999.2500  -999.2500
 4954.0000     0.0892    26.7164    76.1847     9.0701     2.7188     0.0362     3.4685  -999.2500  -999.2500
 4954.5000     0.0858    18.0253    76.2107     9.0554     2.7098     0.0232     3.5285  -999.2500  -999.2500
 4955.0000     0.0828     4.4917    75.9298     9.0408     2.7037     0.0112     3.6347  -999.2500  -999.2500
 4955.5000     0.0794     4.5653    75.0457     9.0434     2.7082     0.0021     3.7541  -999.2500  -999.2500
 4956.0000     0.0753    12.1016    71.7483     9.0417     2.7157    -0.0024     3.7839  -999.2500  -999.2500
 4956.5000     0.0741    12.1752    66.9425     9.0573     2.7284     0.0080     3.7835  -999.2500  -999.2500
 4957.0000     0.0756    19.7114    63.0418     9.0578     2.7287     0.0110     3.7832  -999.2500  -999.2500
 4957.5000     0.0810    19.7850    60.3477     9.0582     2.7187     0.0139     3.7829  -999.2500  -999.2500
 4958.0000     0.0985    19.8586    60.6702     9.0587     2.6976     0.0268     3.7826  -999.2500  -999.2500
 4958.5000     0.1231    19.9322    68.5341     9.0431     2.6870     0.0192     3.7524  -999.2500  -999.2500
