~VERSION INFORMATION
 VERS.                2.0:   CWLS LOG ASCII STANDARD - VERSION 2.0
 WRAP.                 NO:   ONE LINE PER DEPTH STEP
~WELL INFORMATION
#MNEM.UNIT      DATA TYPE    INFORMATION
#----------   ------------   ------------------------------
 STRT.F           36.0000:   START DEPTH
 STOP.F         4960.0000:   STOP DEPTH
 STEP.F            0.5000:   STEP LENGTH
 NULL.          -999.2500:   NO VALUE
 COMP.   TESORO PETROLEUM:   COMPANY
 WELL. TESORO NPR 3 "DX" #55-23:   WELL
 FLD .        TEAPOT DOME:   FIELD
 LOC .      S23 T38N R78W:   LOCATION
 CNTY.            NATRONA:   COUNTY
 STAT.            WYOMING:   STATE
 CTRY. UNITED STATES OF AMERICA:   COUNTRY
 SRVC.           BIRDWELL:   SERVICE COMPANY
 DATE.        17-AUG-1975:   LOGDATE
 API .     49025102510000:   API NUMBER
~CURVE INFORMATION
#MNEM.UNIT       API CODE    CURVE DESCRIPTION
#----------   ------------   ------------------------------
 DEPT.F                  :   
 TEND.LBS    45 635 01 00:   TENSION FROM DENSITY LOG
 CALD.IN     45 280 60 00:   CALIPER FROM DENSITY LOG
 CORR.G/C3   45 356 01 00:   DENSITY CORRECTION
 GRD .GAPI   45 310 01 00:   GAMMA RAY FROM DENSITY LOG
 RHOB.G/C3   45 350 01 00:   BULK DENSITY
 SPR .MV     07 010 01 00:   SPONTANEOUS POTENTIAL
 ILM .OHMM   07 120 44 00:   INDUCTION LOG MEDIUM RESISTIVITY
 ILD .OHMM   07 120 46 00:   DEEP INDUCTION RESISTIVITY
 SFL .OHMM   07 220 01 00:   SHALLOW FOCUSED LOG RESISTIVITY
~PARAMETER INFORMATION
#MNEM.UNIT          VALUE    DESCRIPTION
#----------   ------------   ------------------------------
 EKB .F         5371.0000:   Kelly bushing
 EGL .F         5360.0000:   Ground level
 EDF .F            0.0000:   Drilling floor
 TD  .F         4955.0000:   Total depth
 DATE.        17-AUG-1975:   Date logged
 CLNT.            A2DTECH:   Client Code
 SL  . 1980' FSL & 2030' FEL:   Surface Location
 PD  .                 GL:   Permanent Datum
 DD  .F              4955:   Depth driller
 DL  .F              4945:   Depth logger
 BLI .F              4943:   Bottom log interval
 CS1 .IN            8.625:   Casing size
 CBD1.     8.625" @ 1450':   Casing driller 1
 CBL1.F              1457:   Casing logger 1
 BS1 .IN            7.875:   Bit size
 DFT .            KCL/GEL:   Type fluid in hole
 DFD .                9.5:   Density
 DFV .                 53:   Viscosity
 DFPH.                8.5:   pH
 DFL .                7.4:   Fluid loss
 MSS .           FLOWLINE:   Source of sample
 RMS .OHMM            1.2:   Rm
 MST .F                72:   Rm Meas. temp.
 RMF .OHMM            .94:   Rmf
 MFST.F                74:   Rmf Meas. temp.
 MFSS.               MEAS:   Source Rmf.
 RMB .OHMM            .71:   Rm. at BHT
 BHT .F               121:   BHT.
 TCS .HRS               4:   Time Circ. stopped
 MRT .F               121:   Maximum recorded temp.
 LUN .               6078:   Logging unit number
 LUL .              GLTTE:   Logging unit location
 ENGI.      NORDEN/SUTTON:   Recorded By
 WITN.          UNDERWOOD:   Witnessed by
 ORIG.           5" PRINT:   Origin of data
 UWI .     49025102510000:   Unique Well ID
 DICO. A2D TECHNOLOGIES, INC.:   Digitizing Company
 DAPD.F                11:   Feet Above Permanent Datum
 BSD1.F              5360:   Depth drilled with bit1
 EPD .F              5360:   Elevation Permanent Datum
 LMF .                 KB:   Log Measured From
 DMF .                 KB:   Drilling Measured From
 TLI .F              1457:   Top log interval
~OTHER INFORMATION
~A   DEPT     TEND       CALD       CORR        GRD       RHOB        SPR        ILM        ILD          SFL 
# ...
 2846.5000  3693.3521     7.8130     0.0530    56.4520     2.5370   -32.8690     7.9690     8.3430     9.8950
 2847.0000  3677.7830     7.8140     0.0580    55.2650     2.5360   -32.7880     7.7930     8.2010     9.9390
 2847.5000  3662.6750     7.8140     0.0630    55.2130     2.5340   -32.7110     7.6040     8.0600     9.8500
 2848.0000  3667.9390     7.8140     0.0680    55.8690     2.5300   -32.6360     7.4160     7.9180     9.7580
 2848.5000  3674.2639     7.8140     0.0700    56.5170     2.5270   -32.5600     7.2690     7.7520     8.2260
 2849.0000  3680.5891     7.8140     0.0710    56.9360     2.5280   -32.4850     7.3460     7.8070     7.8960
 2849.5000  3665.4700     7.8140     0.0730    56.5170     2.5300   -32.4100     7.4100     7.8730     8.2530
 2850.0000  3640.0979     7.8140     0.0670    56.3640     2.5310   -32.4080     7.4730     7.9390     9.0200
 2850.5000  3633.5330     7.8140     0.0590    56.9690     2.5330   -32.4820     7.5410     8.0050     9.8480
 2851.0000  3667.5979     7.8140     0.0510    56.4380     2.5410   -32.5560     7.5120     8.0710     9.5790
 2851.5000  3667.0659     7.8140     0.0460    55.8150     2.5490   -32.6300     7.4720     8.1370     9.2870
 2852.0000  3639.1941     7.8140     0.0430    55.5230     2.5510   -32.7050     7.6020     8.2020     8.9960
 2852.5000  3632.4270     7.8140     0.0460    55.8720     2.5540   -32.7790     7.7710     8.2680     8.7380
 2853.0000  3656.0110     7.8140     0.0500    56.2120     2.5560   -32.8540     7.9690     8.2940     9.1450
 2853.5000  3679.5950     7.8140     0.0530    56.4080     2.5530   -32.9280     7.9240     8.3200     9.6530
 2854.0000  3644.4819     7.8140     0.0490    56.2620     2.5350   -32.9680     7.8690     8.3450    10.0310
 2854.5000  3639.9199     7.8140     0.0390    55.5710     2.5170   -32.9680     7.8140     8.2530     9.8020
 2855.0000  3673.9851     7.8140     0.0460    54.8940     2.5110   -32.9690     7.7590     8.1670     9.3160
 2855.5000  3669.9270     7.8140     0.0540    54.6530     2.5040   -32.9650     7.7040     8.0810     8.8180
 2856.0000  3652.8940     7.8140     0.0620    54.4720     2.4850   -32.7760     7.6490     7.9940     8.8180
 2856.5000  3652.2029     7.8140     0.0630    54.2890     2.4540   -32.5720     7.5930     7.9080     8.9500
 2857.0000  3675.7871     7.8140     0.0650    54.4390     2.4610   -32.3830     7.5380     7.8220     9.0910
 2857.5000  3699.3701     7.8140     0.0660    54.8580     2.4910   -32.1450     7.4720     7.7520     9.2330
 2858.0000  3673.1870     7.8140     0.0500    55.1220     2.5300   -31.8740     7.5490     7.8480     8.9650
 2858.5000  3674.4509     7.8140     0.0350    54.6210     2.5420   -31.5990     7.6440     7.9270     8.6310
 2859.0000  3691.4839     7.8140     0.0290    54.7500     2.5450   -31.3290     7.7390     8.0060     8.5780
 2859.5000  3687.3679     7.8140     0.0240    55.0080     2.5470   -31.0660     7.7950     8.0860     8.9440
 2860.0000  3642.7151     7.8150     0.0230    55.9350     2.5440   -30.8760     7.8560     8.1650     9.2350
 2860.5000  3656.0750     7.8170     0.0210    56.6290     2.5420   -31.0580     7.9010     8.2450     9.4920
 2861.0000  3669.7009     7.8180     0.0200    56.3420     2.5420   -31.2360     7.9470     8.3240     9.5210
 2861.5000  3682.6350     7.8200     0.0190    56.0340     2.5410   -31.4180     7.9930     8.4040     9.5610
 2862.0000  3658.7710     7.8220     0.0200    56.0010     2.5410   -31.6010     8.0390     8.4830     9.6010
 2862.5000  3651.9270     7.8230     0.0210    56.7360     2.5400   -31.7700     8.0850     8.5630     9.6410
 2863.0000  3683.3721     7.8250     0.0220    57.1090     2.5400   -31.7140     8.1310     8.5780     9.6810
 2863.5000  3714.8169     7.8270     0.0230    56.7210     2.5400   -31.6430     8.1760     8.5780     9.7210
 2864.0000  3682.6350     7.8280     0.0250    56.3520     2.5420   -31.5730     8.1930     8.5780     9.7610
 2864.5000  3667.7251     7.8300     0.0260    56.1170     2.5440   -31.5020     8.1930     8.5780     9.8010
 2865.0000  3652.3950     7.8320     0.0270    55.9610     2.5440   -31.4320     8.1930     8.5640     9.8410
 2865.5000  3637.0659     7.8330     0.0260    55.7890     2.5440   -31.3620     8.1850     8.5160     9.8810
 2866.0000  3622.7539     7.8380     0.0240    55.2380     2.5430   -31.2920     8.1190     8.4680     9.9390
 2866.5000  3662.6750     7.8440     0.0220    54.6950     2.5420   -31.2220     8.0540     8.4200     9.7620
 2867.0000  3656.5801     7.8490     0.0200    54.2380     2.5390   -31.1510     7.9880     8.3720     9.4390
 2867.5000  3649.7671     7.8540     0.0180    54.6400     2.5360   -31.0810     7.9220     8.3240     9.1170
 2868.0000  3642.7151     7.8600     0.0170    55.0320     2.5350   -31.0100     7.8560     8.2760     8.7940
 2868.5000  3649.7581     7.8650     0.0180    55.6200     2.5360   -30.8440     7.7890     8.2280     8.5780
 2869.0000  3657.0569     7.8700     0.0180    56.3610     2.5360   -30.5900     7.7520     8.1800     8.6580
 2869.5000  3659.3101     7.8760     0.0190    56.5690     2.5370   -30.7950     7.8210     8.1170     9.3250
 2870.0000  3644.7109     7.8810     0.0190    56.1250     2.5380   -31.0420     7.8760     8.1680     9.9390
 2870.5000  3647.6160     7.8870     0.0200    56.7940     2.5380   -31.3250     7.9310     8.2700    10.0310
 2871.0000  3653.2930     7.8920     0.0210    57.4510     2.5380   -30.9700     7.9850     8.3730     9.6770
 2871.5000  3658.9709     7.8970     0.0210    58.1060     2.5370   -30.5940     8.0400     8.4750     9.3190
 2872.0000  3659.2910     7.9030     0.0220    58.7800     2.5370   -30.7680     8.0950     8.5780     9.3190
 2872.5000  3649.5581     7.9080     0.0220    58.7720     2.5360   -30.9550     8.1500     8.6800     9.7370
 2873.0000  3639.8250     7.9140     0.0230    57.9970     2.5350   -31.0010     8.2170     8.7830    10.1640
 2873.5000  3630.0920     7.9150     0.0230    57.2610     2.5340   -31.0280     8.3330     8.8860    10.4230
 2874.0000  3625.0410     7.9160     0.0240    57.6920     2.5320   -31.0550     8.4490     8.9820    10.4970
 2874.5000  3634.3311     7.9160     0.0240    57.8210     2.5290   -31.0820     8.5760     8.9820    10.4560
 2875.0000  3642.7151     7.9170     0.0250    57.2620     2.5290   -31.1090     8.5620     8.9820    10.4020
 2875.5000  3665.1499     7.9180     0.0250    56.7090     2.5300   -31.1360     8.5430     8.9800    10.3480
 2876.0000  3680.3621     7.9190     0.0260    57.1610     2.5300   -31.1630     8.5250     8.9580    10.3110
 2876.5000  3664.6399     7.9200     0.0260    58.2750     2.5260   -31.1900     8.5060     8.9370    10.4200
 2877.0000  3648.9180     7.9210     0.0260    59.1710     2.5230   -31.2170     8.4880     8.9150    10.5020
 2877.5000  3660.3931     7.9220     0.0260    59.7080     2.5170   -31.2450     8.4690     8.8940    10.6000
 2878.0000  3675.9929     7.9230     0.0270    58.8040     2.5120   -31.2720     8.4510     8.8730    10.4050
 2878.5000  3648.1221     7.9240     0.0270    57.3570     2.5080   -31.2990     8.4230     8.8510    10.1620
 2879.0000  3622.7539     7.9250     0.0310    56.9420     2.5070   -31.3260     8.4440     8.8300    10.0310
 2879.5000  3656.1680     7.9250     0.0350    56.8360     2.5070   -31.3530     8.4930     8.8180    10.3120
 2880.0000  3679.5300     7.9260     0.0390    57.4480     2.5090   -31.3620     8.5410     8.8710    10.6370
 2880.5000  3656.8201     7.9270     0.0430    57.9020     2.5120   -31.2970     8.5900     8.9200    10.8050
 2881.0000  3653.2749     7.9280     0.0470    57.1620     2.5150   -31.2330     8.6390     8.9690    10.8300
 2881.5000  3681.1470     7.9290     0.0420    56.4330     2.5140   -31.1760     8.6880     9.0190    10.8560
 2882.0000  3697.8840     7.9300     0.0300    55.7100     2.5110   -31.2280     8.7360     9.0680    10.8820
 2882.5000  3677.4451     7.9310     0.0260    55.7410     2.5020   -31.2880     8.7850     9.1170    10.9070
