~VERSION INFORMATION
 VERS.                2.0:   CWLS LOG ASCII STANDARD - VERSION 2.0
 WRAP.                 NO:   ONE LINE PER DEPTH STEP
~WELL INFORMATION
#MNEM.UNIT      DATA TYPE    INFORMATION
#----------   ------------   ------------------------------
 STRT.F          794.0000:   START DEPTH
 STOP.F         2828.0000:   STOP DEPTH
 STEP.F            0.5000:   STEP LENGTH
 NULL.          -999.2500:   NO VALUE
 COMP.           U S NAVY:   COMPANY
 WELL. U S NAVY NPR 3 "A" #10-33:   WELL
 FLD .        TEAPOT DOME:   FIELD
 LOC .      S33 T39N R78W:   LOCATION
 CNTY.            NATRONA:   COUNTY
 STAT.            WYOMING:   STATE
 CTRY. UNITED STATES OF AMERICA:   COUNTRY
 SRVC.         MCCULLOUGH:   SERVICE COMPANY
 DATE.        25-JUL-1968:   LOGDATE
 API .     49025102180000:   API NUMBER
~CURVE INFORMATION
#MNEM.UNIT       API CODE    CURVE DESCRIPTION
#----------   ------------   ------------------------------
 DEPT.F                  :   
 GRN .GAPI   35 310 01 00:   GAMMA RAY
 NEUT.NAPI   35 330 01 00:   NEUTRON
 TEMP.DEG    99 000 00 00:   TEMPERATURE AT TOOL
~PARAMETER INFORMATION
#MNEM.UNIT          VALUE    DESCRIPTION
#----------   ------------   ------------------------------
 EKB .F            0.0000:   Kelly bushing
 EGL .F            0.0000:   Ground level
 EDF .F            0.0000:   Drilling floor
 EPD .F            0.0000:   Permanent datum
 TD  .F         2829.0000:   Total depth
 DATE.        25-JUL-1968:   Date logged
 CLNT.            A2DTECH:   Client Code
 DL  .F              2829:   Depth logger
 BLI .F              2825:   Bottom log interval
 TLI .F               800:   Top log interval
 DFT .                DRY:   Type fluid in hole
 TCS .HRS               2:   Time Circ. stopped
 ENGI.           KIMBERRY:   Recorded By
 ORIG.        2" 5" PRINT:   Origin of data
 UWI .     49025102180000:   Unique Well ID
 DICO. A2D TECHNOLOGIES, INC.:   Digitizing Company
~OTHER INFORMATION
~A   DEPT       GRN      NEUT       TEMP   
  794.0000    62.5890  -999.2500  -999.2500
  794.5000    63.5170   486.0030  -999.2500
  795.0000    63.8580   482.0050  -999.2500
  795.5000    64.1490   464.3470  -999.2500
  796.0000    63.2900   472.1530  -999.2500
  796.5000    63.5660   475.9660  -999.2500
  797.0000    64.2910   478.3690  -999.2500
  797.5000    61.2810   472.5200  -999.2500
  798.0000    60.1720   494.2500  -999.2500
  798.5000    61.0760   494.7400  -999.2500
  799.0000    61.8410   503.6360  -999.2500
  799.5000    62.3950   514.6640  -999.2500
  800.0000    62.4520   525.2510  -999.2500
  800.5000    62.5000   533.3890  -999.2500
  801.0000    62.5210   524.7380  -999.2500
  801.5000    62.2630   540.4230  -999.2500
  802.0000    62.1930   515.7960  -999.2500
  802.5000    63.2120   522.3490  -999.2500
  803.0000    63.3090   529.4760  -999.2500
  803.5000    63.3840   528.4200  -999.2500
  804.0000    63.7100   507.8360  -999.2500
  804.5000    63.4990   494.6280  -999.2500
  805.0000    63.5580   487.3040  -999.2500
  805.5000    64.0720   475.2110  -999.2500
  806.0000    64.4660   462.8960  -999.2500
  806.5000    64.9200   456.7090  -999.2500
  807.0000    65.3350   463.4440  -999.2500
  807.5000    64.1460   472.7210  -999.2500
  808.0000    63.5680   470.2570  -999.2500
  808.5000    63.4460   468.1650  -999.2500
  809.0000    63.9760   468.7960  -999.2500
  809.5000    64.6730   476.6950  -999.2500
  810.0000    65.0830   491.6850  -999.2500
  810.5000    63.4490   468.2290  -999.2500
  811.0000    64.6820   470.6410  -999.2500
  811.5000    65.0740   480.7210  -999.2500
  812.0000    64.9490   481.8410  -999.2500
  812.5000    64.6120   485.3560  -999.2500
  813.0000    60.8080   484.2150  -999.2500
  813.5000    59.8900   487.8340  -999.2500
  814.0000    59.4070   482.3020  -999.2500
  814.5000    58.1640   489.7830  -999.2500
  815.0000    57.9080   493.0060  -999.2500
  815.5000    60.4000   495.2650  -999.2500
  816.0000    60.8410   494.8060  -999.2500
  816.5000    58.8640   498.8410  -999.2500
  817.0000    58.7730   505.4820  -999.2500
  817.5000    59.0080   503.9330  -999.2500
  818.0000    58.0680   485.6710  -999.2500
  818.5000    58.7650   481.3090  -999.2500
  819.0000    59.6020   473.5260  -999.2500
  819.5000    59.0530   475.3580  -999.2500
  820.0000    59.8500   471.1140  -999.2500
  820.5000    60.8550   493.2720  -999.2500
  821.0000    58.9010   486.7360  -999.2500
  821.5000    58.0810   482.0860  -999.2500
  822.0000    58.7690   498.2580  -999.2500
  822.5000    61.5520   494.9950  -999.2500
  823.0000    63.1810   491.7750  -999.2500
  823.5000    61.6820   489.0170  -999.2500
  824.0000    61.7680   486.3750  -999.2500
  824.5000    61.0530   486.1330  -999.2500
  825.0000    62.1170   480.8430  -999.2500
  825.5000    63.5000   476.0910  -999.2500
  826.0000    66.1690   460.3220  -999.2500
  826.5000    64.7830   471.7020  -999.2500
  827.0000    63.8950   462.9120  -999.2500
  827.5000    64.7150   466.8230  -999.2500
  828.0000    62.6400   464.2540  -999.2500
  828.5000    64.9620   471.8860  -999.2500
  829.0000    67.4850   483.6550  -999.2500
  829.5000    69.7740   495.6720  -999.2500
  830.0000    70.4880   487.1050  -999.2500
  830.5000    73.0680   504.0570  -999.2500
  831.0000    74.5020   489.9560  -999.2500
  831.5000    74.5250   488.9080  -999.2500
  832.0000    73.1740   472.4450  -999.2500
  832.5000    68.6570   459.5490  -999.2500
  833.0000    67.6530   463.0770  -999.2500
  833.5000    66.8730   472.8170  -999.2500
  834.0000    65.1930   482.9230  -999.2500
  834.5000    63.5010   495.1590  -999.2500
  835.0000    63.8780   507.4970  -999.2500
  835.5000    65.0950   517.8180  -999.2500
  836.0000    68.4560   499.9770  -999.2500
  836.5000    69.0180   509.6220  -999.2500
  837.0000    68.7420   524.2170  -999.2500
  837.5000    69.0830   525.9090  -999.2500
  838.0000    69.3520   531.6450  -999.2500
  838.5000    68.9740   534.2370  -999.2500
  839.0000    68.7310   507.4110  -999.2500
  839.5000    69.0570   500.1480  -999.2500
  840.0000    68.2160   489.8870  -999.2500
  840.5000    68.1460   490.9750  -999.2500
  841.0000    69.0830   492.9180  -999.2500
  841.5000    68.9240   504.7800  -999.2500
  842.0000    68.2670   512.3600  -999.2500
  842.5000    66.9860   495.3020  -999.2500
  843.0000    66.0390   495.5780  -999.2500
  843.5000    65.3240   494.3140  -999.2500
  844.0000    66.3130   495.5700  -999.2500
  844.5000    66.8250   510.8240  -999.2500
  845.0000    67.2010   510.2130  -999.2500
  845.5000    67.7860   510.2980  -999.2500
  846.0000    68.3450   523.7190  -999.2500
  846.5000    68.1690   517.5570  -999.2500
  847.0000    67.6270   505.4030  -999.2500
  847.5000    67.3630   493.7230  -999.2500
  848.0000    68.3810   488.8890  -999.2500
  848.5000    68.0500   498.3580  -999.2500
  849.0000    67.6310   507.8310  -999.2500
  849.5000    67.3170   511.2320  -999.2500
  850.0000    67.6610   501.6900  -999.2500
  850.5000    66.3440   508.1380  -999.2500
  851.0000    64.1600   511.1270  -999.2500
  851.5000    64.0210   521.6430  -999.2500
  852.0000    62.6080   532.1470  -999.2500
  852.5000    62.7480   530.0260  -999.2500
  853.0000    63.2260   521.2690  -999.2500
  853.5000    63.5470   511.7600  -999.2500
  854.0000    63.1720   496.9900  -999.2500
  854.5000    61.4060   499.0690  -999.2500
  855.0000    61.7910   494.7610  -999.2500
  855.5000    62.0990   479.6940  -999.2500
  856.0000    61.9900   464.9770  -999.2500
  856.5000    63.2480   454.1800  -999.2500
  857.0000    64.3780   453.7670  -999.2500
  857.5000    65.3360   452.8360  -999.2500
  858.0000    66.6740   452.6060  -999.2500
  858.5000    66.5220   455.6820  -999.2500
  859.0000    66.4740   457.6580  -999.2500
  859.5000    67.4850   458.4000  -999.2500
  860.0000    67.6410   458.4890  -999.2500
  860.5000    67.9920   465.6650  -999.2500
  861.0000    67.9640   465.4440  -999.2500
  861.5000    65.6360   466.9450  -999.2500
  862.0000    64.0660   466.4920  -999.2500
  862.5000    64.7150   468.1980  -999.2500
  863.0000    65.9280   472.1670  -999.2500
  863.5000    67.1750   464.3530  -999.2500
  864.0000    68.0080   482.6320  -999.2500
  864.5000    67.8520   502.6590  -999.2500
  865.0000    67.2880   513.0740  -999.2500
  865.5000    63.7560   517.6060  -999.2500
  866.0000    63.0510   513.0500  -999.2500
  866.5000    62.2350   494.1410  -999.2500
  867.0000    62.4920   489.4760  -999.2500
  867.5000    63.9530   503.4960  -999.2500
  868.0000    65.5080   509.8740  -999.2500
  868.5000    63.5340   496.7030  -999.2500
  869.0000    61.5540   495.0450  -999.2500
  869.5000    60.7360   484.7770  -999.2500
  870.0000    61.3890   475.1230  -999.2500
  870.5000    62.2110   484.3370  -999.2500
  871.0000    61.9170   495.1360  -999.2500
  871.5000    62.3940   500.8990  -999.2500
  872.0000    62.8950   509.6300  -999.2500
  872.5000    62.2270   522.3230  -999.2500
  873.0000    63.7180   532.5350  -999.2500
  873.5000    64.9660   531.9880  -999.2500
  874.0000    64.3020   514.1140  -999.2500
  874.5000    63.5750   507.0480  -999.2500
  875.0000    63.5050   508.2990  -999.2500
  875.5000    64.4170   503.9620  -999.2500
  876.0000    64.4010   502.6940  -999.2500
  876.5000    61.4010   518.7970  -999.2500
  877.0000    61.5620   517.0850  -999.2500
  877.5000    63.3530   497.1580  -999.2500
  878.0000    63.9160   489.3750  -999.2500
  878.5000    62.4840   489.2910  -999.2500
  879.0000    60.7280   484.3840  -999.2500
  879.5000    59.8120   476.8100  -999.2500
  880.0000    61.5220   472.0250  -999.2500
  880.5000    62.1720   480.4620  -999.2500
  881.0000    62.4940   470.4670  -999.2500
  881.5000    62.4580   445.8750  -999.2500
  882.0000    62.4600   454.5460  -999.2500
  882.5000    64.3160   475.0910  -999.2500
  883.0000    65.3240   480.5030  -999.2500
  883.5000    66.3750   502.1830  -999.2500
  884.0000    66.0320   511.9080  -999.2500
  884.5000    65.1610   510.5080  -999.2500
