~VERSION INFORMATION
 VERS.                2.0:   CWLS LOG ASCII STANDARD - VERSION 2.0
 WRAP.                 NO:   ONE LINE PER DEPTH STEP
~WELL INFORMATION
#MNEM.UNIT      DATA TYPE    INFORMATION
#----------   ------------   ------------------------------
 STRT.F          520.0000:   START DEPTH
 STOP.F         3092.0000:   STOP DEPTH
 STEP.F            0.5000:   STEP LENGTH
 NULL.          -999.2500:   NO VALUE
 COMP.    FENIX & SCISSON:   COMPANY
 WELL. FENIX 87 "AX" #3-3:   WELL
 FLD .              N P R:   FIELD
 LOC .       S3 T38N R78W:   LOCATION
 CNTY.            NATRONA:   COUNTY
 STAT.            WYOMING:   STATE
 CTRY. UNITED STATES OF AMERICA:   COUNTRY
 SRVC.              WELEX:   SERVICE COMPANY
 DATE.        30-OCT-1980:   LOGDATE
 API .     49025108510000:   API NUMBER
~CURVE INFORMATION
#MNEM.UNIT       API CODE    CURVE DESCRIPTION
#----------   ------------   ------------------------------
 DEPT.F                  :   
 CALD.IN     45 280 60 00:   CALIPER FROM DENSITY LOG
 GRD .GAPI   45 310 01 00:   GAMMA RAY FROM DENSITY LOG
 RHOB.G/C3   45 350 01 00:   BULK DENSITY
 CORR.G/C3   45 356 01 00:   DENSITY CORRECTION
 SPR .MV     07 010 01 00:   SPONTANEOUS POTENTIAL
 ILD .OHMM   07 120 46 00:   DEEP INDUCTION RESISTIVITY
 ILM .OHMM   07 120 44 00:   INDUCTION LOG MEDIUM RESISTIVITY
 SGRD.OHMM   07 220 05 00:   SHALLOW SHORT GUARD RESISTIVITY
~PARAMETER INFORMATION
#MNEM.UNIT          VALUE    DESCRIPTION
#----------   ------------   ------------------------------
 EKB .F         5131.0000:   Kelly bushing
 EGL .F         5121.0000:   Ground level
 TD  .F         3095.0000:   Total depth
 DATE.        30-OCT-1980:   Date logged
 CLNT.            A2DTECH:   Client Code
 SL  . 910' FWL & 95' FEL:   Surface Location
 PD  .                 GL:   Permanent Datum
 EPD .F              5121:   Elevation Permanent Datum
 LMF .                 KB:   Log Measured From
 DMF .                 KB:   Drilling Measured From
 DD  .F              3095:   Depth driller
 DL  .F              3094:   Depth logger
 BLI .F              3092:   Bottom log interval
 TLI .F               525:   Top log interval
 CS1 .IN            9.625:   Casing size
 CBD1.      9.625" @ 525':   Casing driller 1
 CBL1.F               525:   Casing logger 1
 BS1 .IN            7.875:   Bit size
 DFT .          DISPERSED:   Type fluid in hole
 DFD .                  9:   Density
 DFV .                 40:   Viscosity
 DFPH.                 10:   pH
 DFL .                  8:   Fluid loss
 MSS .             MUDPIT:   Source of sample
 RMS .OHMM           2.40:   Rm
 MST .F                68:   Rm Meas. temp.
 MFST.F                68:   Rmf Meas. temp.
 RMC .OHMM            2.8:   Rmc
 MCST.F                68:   Rmc Meas. temp.
 MFSS.F              MEAS:   Source Rmf.
 RMB .OHMM           1.36:   Rm. at BHT
 BHT .F               120:   BHT.
 TCS .HRS             5.5:   Time Circ. stopped
 MRT .F               120:   Maximum recorded temp.
 LUN .               1891:   Logging unit number
 LUL .             CASPER:   Logging unit location
 ENGI.          PFERIMMER:   Recorded By
 WITN.              FIVAS:   Witnessed by
 ORIG.           5" PRINT:   Origin of data
 UWI .     49025108510000:   Unique Well ID
 DICO. A2D TECHNOLOGIES, INC.:   Digitizing Company
 DAPD.F                10:   Feet Above Permanent Datum
 BSD1.F              3095:   Depth drilled with bit1
 RMF .OHMM           1.92:   Rmf
 MCSS.               MEAS:   Source Rmc.
~OTHER INFORMATION
~A   DEPT     CALD        GRD       RHOB       CORR        SPR          ILD        ILM      SGRD  
  520.0000  -999.2500  -999.2500  -999.2500  -999.2500   -27.6420     4.2890     4.2100    10.9140
  520.5000  -999.2500  -999.2500  -999.2500  -999.2500   -46.4910     4.2890     4.2100    10.9140
  521.0000  -999.2500  -999.2500  -999.2500  -999.2500   -49.6060     4.2890     4.8720    10.9140
  521.5000  -999.2500  -999.2500  -999.2500  -999.2500   -51.5000     4.3020     5.5930    10.9860
  522.0000  -999.2500  -999.2500  -999.2500  -999.2500   -53.2550     3.2110     6.3340    10.9140
  522.5000  -999.2500  -999.2500  -999.2500  -999.2500   -53.3490     1.3530     6.3820    10.9140
  523.0000  -999.2500  -999.2500  -999.2500  -999.2500   -52.4730     0.5720     6.4290    10.9140
  523.5000  -999.2500  -999.2500  -999.2500  -999.2500   -51.4990     0.4370     6.4770    10.9140
  524.0000  -999.2500  -999.2500  -999.2500  -999.2500   -50.2960     0.3130     6.6850    10.9140
  524.5000  -999.2500  -999.2500  -999.2500  -999.2500   -46.4550     0.4940     7.5030    10.9110
  525.0000  -999.2500  -999.2500  -999.2500  -999.2500   -42.5260     0.6980     8.2580    10.9140
  525.5000  -999.2500  -999.2500  -999.2500  -999.2500   -38.6030     0.9020     9.0120    10.4210
  526.0000  -999.2500  -999.2500  -999.2500  -999.2500   -34.6610     1.3670     9.7660    10.4210
  526.5000  -999.2500  -999.2500  -999.2500  -999.2500   -33.3920     2.0280    10.5180    15.1560
  527.0000  -999.2500  -999.2500  -999.2500  -999.2500   -32.6380     3.7990    10.6680    17.1700
  527.5000  -999.2500  -999.2500  -999.2500  -999.2500   -31.8620     5.5630    10.2510    10.9920
  528.0000  -999.2500  -999.2500  -999.2500  -999.2500   -31.6480     7.3280     9.9530     9.4130
  528.5000  -999.2500  -999.2500  -999.2500  -999.2500   -31.5860     8.5810     9.5890    11.5200
  529.0000  -999.2500  -999.2500  -999.2500  -999.2500   -31.5230     8.5810     9.2400    13.4860
  529.5000  -999.2500  -999.2500  -999.2500  -999.2500   -31.3380     8.6530     9.3350    15.9450
  530.0000  -999.2500  -999.2500  -999.2500  -999.2500   -31.0800     8.7300     9.4370    14.8480
  530.5000  -999.2500  -999.2500  -999.2500  -999.2500   -30.8900     8.8070     9.5000    15.0850
  531.0000  -999.2500  -999.2500  -999.2500  -999.2500   -31.0060     8.9050     9.4410    12.4440
  531.5000  -999.2500  -999.2500  -999.2500  -999.2500   -31.0870     8.9050     9.2950     9.2400
  532.0000  -999.2500  -999.2500  -999.2500  -999.2500   -30.4310     8.6670     9.1480    12.8580
  532.5000  -999.2500  -999.2500  -999.2500  -999.2500   -29.6970     8.4370     9.0010    13.7520
  533.0000  -999.2500  -999.2500  -999.2500  -999.2500   -28.9830     8.2070     8.8550    12.3970
  533.5000  -999.2500  -999.2500  -999.2500  -999.2500   -28.9810     7.9780     8.7080     9.4130
  534.0000  -999.2500  -999.2500  -999.2500  -999.2500   -32.3960     7.7480     8.5620    10.1770
  534.5000  -999.2500  -999.2500  -999.2500  -999.2500   -34.1370     7.5180     8.4150    10.5180
  535.0000  -999.2500  -999.2500  -999.2500  -999.2500   -33.7490     7.2890     8.2690     9.4320
  535.5000  -999.2500  -999.2500  -999.2500  -999.2500   -33.3880     7.1320     8.1220     8.6390
  536.0000  -999.2500  -999.2500  -999.2500  -999.2500   -33.0220     7.1320     7.9750     8.5020
  536.5000  -999.2500  -999.2500  -999.2500  -999.2500   -32.6580     7.1320     7.8960     9.0970
  537.0000  -999.2500  -999.2500  -999.2500  -999.2500   -32.2960     7.1320     7.9730     9.5120
  537.5000  -999.2500  -999.2500  -999.2500  -999.2500   -31.9400     7.1320     8.1320    10.0420
  538.0000  -999.2500  -999.2500  -999.2500  -999.2500   -31.6820     7.1320     8.2970     9.7920
  538.5000  -999.2500  -999.2500  -999.2500  -999.2500   -31.6770     7.1320     8.3470     9.4450
  539.0000  -999.2500  -999.2500  -999.2500  -999.2500   -31.6760     7.1330     8.3210     9.0980
  539.5000  -999.2500  -999.2500  -999.2500  -999.2500   -31.6760     7.1340     8.1790     8.8230
  540.0000  -999.2500  -999.2500  -999.2500  -999.2500   -31.6760     7.1360     8.0380     8.8700
  540.5000  -999.2500  -999.2500  -999.2500  -999.2500   -31.6760     6.9690     7.8970     8.9470
  541.0000  -999.2500  -999.2500  -999.2500  -999.2500   -31.6760     6.8110     7.7550     9.0710
  541.5000  -999.2500  -999.2500  -999.2500  -999.2500   -31.6760     6.6520     7.6140     9.0710
  542.0000  -999.2500  -999.2500  -999.2500  -999.2500   -31.6760     6.4940     7.4720     8.7520
  542.5000  -999.2500  -999.2500  -999.2500  -999.2500   -31.6810     6.3360     7.3310     8.4910
  543.0000  -999.2500  -999.2500  -999.2500  -999.2500   -31.6840     6.2660     7.1900     8.2310
  543.5000  -999.2500  -999.2500  -999.2500  -999.2500   -31.3410     6.2660     7.0480     7.9700
  544.0000  -999.2500  -999.2500  -999.2500  -999.2500   -31.2850     6.2660     6.8730     7.8960
  544.5000  -999.2500  -999.2500  -999.2500  -999.2500   -31.2820     6.2660     7.0020     7.8230
  545.0000  -999.2500  -999.2500  -999.2500  -999.2500   -31.1700     6.2660     7.1320     7.9670
  545.5000  -999.2500  -999.2500  -999.2500  -999.2500   -31.0520     6.0890     6.9130     8.0830
  546.0000  -999.2500  -999.2500  -999.2500  -999.2500   -30.9350     5.8850     6.7080     8.1180
  546.5000  -999.2500  -999.2500  -999.2500  -999.2500   -30.8180     5.6810     6.5020     8.0730
  547.0000  -999.2500  -999.2500  -999.2500  -999.2500   -30.7020     5.4780     6.2960     7.7330
  547.5000  -999.2500  -999.2500  -999.2500  -999.2500   -30.5850     5.2740     6.0910     7.3930
  548.0000  -999.2500  -999.2500  -999.2500  -999.2500   -30.4680     5.0700     5.8850     7.0530
  548.5000  -999.2500  -999.2500  -999.2500  -999.2500   -30.3510     4.8660     5.7660     6.7130
  549.0000  -999.2500  -999.2500  -999.2500  -999.2500   -30.2340     4.7920     5.7130     6.3730
  549.5000  -999.2500  -999.2500  -999.2500  -999.2500   -30.1170     4.9380     5.8480     6.2660
  550.0000  -999.2500  -999.2500  -999.2500  -999.2500   -30.0020     5.1570     6.1370     6.4570
  550.5000  -999.2500  -999.2500  -999.2500  -999.2500   -29.9410     5.3770     6.4270     6.8480
  551.0000  -999.2500  -999.2500  -999.2500  -999.2500   -30.0060     5.5960     6.7160     7.2390
  551.5000  -999.2500  -999.2500  -999.2500  -999.2500   -30.0700     5.8160     7.0060     7.6310
  552.0000  -999.2500  -999.2500  -999.2500  -999.2500   -30.1330     6.0350     7.2950     8.0220
  552.5000  -999.2500  -999.2500  -999.2500  -999.2500   -30.1970     6.2550     7.5850     8.4130
  553.0000  -999.2500  -999.2500  -999.2500  -999.2500   -30.2600     6.4740     7.8740     8.8040
  553.5000  -999.2500  -999.2500  -999.2500  -999.2500   -30.3240     6.6940     8.1630     9.1950
  554.0000  -999.2500  -999.2500  -999.2500  -999.2500   -30.3870     6.9180     8.4530     9.5860
  554.5000  -999.2500  -999.2500  -999.2500  -999.2500   -30.4510     7.1650     8.7420     9.9770
  555.0000  -999.2500  -999.2500  -999.2500  -999.2500   -30.5020     7.4110     9.0320    10.3680
  555.5000  -999.2500  -999.2500  -999.2500  -999.2500   -30.4460     7.6090     9.4130    10.4210
  556.0000  -999.2500  -999.2500  -999.2500  -999.2500   -30.3910     7.6800     9.3110    10.2360
  556.5000  -999.2500  -999.2500  -999.2500  -999.2500   -30.3370     7.7510     9.2170    10.0920
  557.0000  -999.2500  -999.2500  -999.2500  -999.2500   -30.2820     7.7510     9.1240     9.9490
  557.5000  -999.2500  -999.2500  -999.2500  -999.2500   -30.2280     7.6800     9.0300     9.8050
  558.0000  -999.2500  -999.2500  -999.2500  -999.2500   -30.1730     7.6800     8.9360     9.6610
  558.5000  -999.2500  -999.2500  -999.2500  -999.2500   -30.1180     7.6800     8.8430     9.5430
  559.0000  -999.2500  -999.2500  -999.2500  -999.2500   -30.0640     7.6790     8.7490     9.4130
  559.5000  -999.2500  -999.2500  -999.2500  -999.2500   -30.0090     7.6870     8.6560     9.4130
  560.0000     9.5780    76.6180     2.4120     0.0450   -29.9550     7.6020     8.5620     9.4130
