~VERSION INFORMATION
 VERS.                2.0:   CWLS LOG ASCII STANDARD - VERSION 2.0
 WRAP.                 NO:   ONE LINE PER DEPTH STEP
~WELL INFORMATION
#MNEM.UNIT      DATA TYPE    INFORMATION
#----------   ------------   ------------------------------
 STRT.F            0.0000:   START DEPTH
 STOP.F         1077.0000:   STOP DEPTH
 STEP.F            0.5000:   STEP LENGTH
 NULL.          -999.2500:   NO VALUE
 COMP.         JOHN BROWN:   COMPANY
 WELL.       JOHN X #66-2:   WELL
 FLD .                NPR:   FIELD
 LOC .       S2 T38N R78W:   LOCATION
 CNTY.            NATRONA:   COUNTY
 STAT.            WYOMING:   STATE
 CTRY. UNITED STATES OF AMERICA:   COUNTRY
 SRVC.     ATLAS WIRELINE:   SERVICE COMPANY
 DATE.        04-DEC-1991:   LOGDATE
 API .     49025224820000:   API NUMBER
~CURVE INFORMATION
#MNEM.UNIT       API CODE    CURVE DESCRIPTION
#----------   ------------   ------------------------------
 DEPT.F                  :   
 TENR.LBS    07 635 01 00:   TENSION
 RILD.OHMM   07 120 46 00:   INDUCTION LOG DEEP RESISTIVITY
 RILM.OHMM   07 120 44 00:   INDUCTION LOG MEDIUM RESISTIVITY
 GRR .GAPI   07 310 01 00:   GAMMA RAY FROM RESISTIVITY
~PARAMETER INFORMATION
#MNEM.UNIT          VALUE    DESCRIPTION
#----------   ------------   ------------------------------
 EKB .F         5189.0000:   Kelly bushing
 EGL .F         5179.0000:   Ground level
 EDF .F         5188.0000:   Drilling floor
 EPD .F         5179.0000:   Permanent datum
 TD  .F         1072.0000:   Total depth
 DATE.        04-DEC-1991:   Date logged
 CLNT.            A2DTECH:   Client Code
 SL  . 1893' FSL & 1937' FEL:   Surface Location
 PD  .                 GL:   Permanent Datum
 LMF .                 KB:   Log Measured From
 DMF .                 KB:   Drilling Measured From
 DAPD.F                10:   Feet Above Permanent Datum
 DD  .F              1072:   Depth driller
 DL  .F              1073:   Depth logger
 BLI .F              1071:   Bottom log interval
 CS1 .IN            9.625:   Casing size
 CBD1.       9.625" @ 40':   Casing driller 1
 CBL1.F                50:   Casing logger 1
 BS1 .IN            7.875:   Bit size
 BSD1.F              1072:   Depth drilled with bit1
 DFT .                AIR:   Type fluid in hole
 LUN .            HL 6387:   Logging unit number
 LUL .             CASPER:   Logging unit location
 WITN.        GARY STRONG:   Witnessed by
 ORIG.         2.5" PRINT:   Origin of data
 UWI .     49025224820000:   Unique Well ID
 DICO. A2D TECHNOLOGIES, INC.:   Digitizing Company
~OTHER INFORMATION
~A    DEPT    TENR       RILD       RILM         GRR  
# ...
  292.0000   -62.9920     5.9350     6.1560   128.7970
  292.5000   -62.9920     5.7550     6.0340   131.1390
  293.0000   -62.9920     5.6730     5.9130   128.4180
  293.5000   -62.9920     5.6730     5.4710   117.8430
  294.0000   -62.9920     5.6730     5.4710   105.3760
  294.5000   -62.9920     5.6730     5.5710   100.0930
  295.0000   -62.9920     5.6730     5.6730   109.6150
  295.5000   -62.9920     5.6730     5.7340   115.9310
  296.0000   -62.9920     5.6870     5.7870   118.7510
  296.5000   -62.9920     5.7120     5.8400   118.9130
  297.0000   -62.9920     5.7370     5.8930   119.9480
  297.5000   -62.9920     5.7620     5.9460   121.6250
  298.0000   -62.9920     5.7870     5.9900   122.8660
  298.5000   -62.9920     5.8120     6.0400   123.9370
  299.0000   -62.9920     5.8370     6.0830   125.0460
  299.5000   -62.9920     5.8610     6.1260   126.1010
  300.0000   -62.9920     5.8810     6.1690   126.8080
  300.5000   -62.9920     5.8550     6.2110   125.3120
  301.0000   -62.9920     5.8330     6.1540   124.0220
  301.5000   -62.9920     5.8110     6.0970   124.0500
  302.0000   -62.9920     5.7900     6.0400   127.7930
  302.5000   -62.9920     5.7670     5.9830   131.3580
  303.0000   -62.9920     5.7440     5.9270   135.2870
  303.5000   -62.9920     5.7200     5.8700   136.1940
  304.0000   -62.9920     5.6970     5.8130   135.1590
  304.5000   -62.9920     5.5750     5.7560   134.2250
  305.0000   -62.9920     5.5800     5.6730   129.5380
  305.5000   -62.9920     5.6250     5.6860   123.6420
  306.0000   -62.9920     5.6710     5.7110   117.9060
  306.5000   -62.9920     5.7150     5.7360   117.4250
  307.0000   -62.9920     5.7760     5.7620   117.1420
  307.5000   -62.9920     5.7660     5.7870   116.7850
  308.0000   -62.9920     5.7490     5.8120   118.7120
  308.5000   -62.9920     5.7310     5.8370   123.6160
  309.0000   -62.9920     5.7140     5.8630   127.5960
  309.5000   -62.9920     5.6960     5.8910   129.1130
  310.0000   -62.9920     5.6730     5.9330   128.4490
  310.5000   -62.9920     5.6920     5.9750   127.3180
  311.0000   -62.9920     5.7230     6.0160   127.1140
  311.5000   -62.9920     5.7550     6.0580   127.4700
  312.0000   -62.9920     5.7860     6.0990   127.3170
  312.5000   -62.9920     5.8170     6.1420   122.9980
  313.0000   -62.9920     5.8490     6.1840   120.5650
  313.5000   -62.9920     5.8820     6.2120   122.0160
  314.0000   -62.9920     5.9330     6.2090   123.6510
  314.5000   -62.9920     5.9890     6.2110   125.2790
  315.0000   -62.9920     6.0440     6.2100   123.7070
  315.5000   -62.9920     6.1000     6.2110   119.9910
  316.0000   -62.9920     6.1550     6.2090   120.8370
  316.5000   -62.9920     6.2110     6.2110   124.0150
  317.0000   -62.9920     6.1190     6.1260   126.6220
  317.5000   -62.9920     6.0270     6.0420   124.9280
  318.0000   -62.9920     5.9350     5.9570   119.3470
  318.5000   -62.9920     5.8420     5.8720   115.1830
  319.0000   -62.9920     5.7500     5.7870   114.9810
  319.5000   -62.9920     5.6580     5.7020   116.6800
  320.0000   -62.9920     5.5660     5.6170   118.1110
  320.5000   -62.9920     5.4730     5.5320   119.7260
  321.0000   -62.9920     5.3720     5.4470   117.2170
  321.5000   -62.9920     5.4040     5.3720   116.3650
  322.0000   -62.9920     5.4380     5.4920   119.8790
  322.5000   -62.9920     5.4730     5.6000   123.4990
  323.0000   -62.9920     5.5070     5.7070   123.0760
  323.5000   -62.9920     5.5420     5.8150   122.3030
  324.0000   -62.9920     5.5760     5.9000   120.8940
  324.5000   -62.9920     5.6110     5.9490   117.4160
  325.0000   -62.9920     5.6450     5.9980   112.6920
  325.5000   -62.9920     5.6910     6.0470   111.9080
  326.0000   -62.9920     5.7790     6.0960   120.3480
  326.5000   -62.9920     5.8820     6.1450   125.3480
  327.0000   -62.9920     5.8790     6.2110   125.2330
  327.5000   -62.9920     5.8720     6.1940   122.8480
  328.0000   -62.9920     5.8640     6.1680   120.1970
  328.5000   -62.9920     5.8570     6.1410   119.8780
  329.0000   -62.9920     5.8500     6.1140   119.9180
  329.5000   -62.9920     5.8430     6.0870   120.0710
  330.0000   -62.9920     5.8350     6.0600   121.9600
  330.5000   -62.9920     5.8280     6.0330   123.6020
  331.0000   -62.9920     5.8210     6.0070   125.2370
  331.5000   -62.9920     5.8140     5.9840   124.5380
  332.0000   -62.9920     5.8080     5.9690   119.7210
  332.5000   -62.9920     5.8000     5.9540   116.0280
  333.0000   -62.9920     5.7900     5.9390   119.0450
  333.5000   -62.9920     5.7790     5.9240   122.6850
  334.0000   -62.9920     5.7890     5.9090   122.7050
  334.5000   -62.9920     5.6830     5.8860   118.2960
  335.0000   -62.9920     5.7280     5.8940   114.2950
  335.5000   -62.9920     5.7730     5.9420   112.8160
  336.0000   -62.9920     5.8160     5.9910   113.0510
  336.5000   -62.9920     5.8580     6.0400   117.8060
  337.0000   -62.9920     5.8980     6.0880   124.6190
  337.5000   -62.9920     5.9390     6.1370   126.0020
  338.0000   -62.9920     5.9810     6.1860   125.5080
  338.5000   -62.9920     6.0220     6.2340   125.1320
  339.0000   -62.9920     6.0640     6.2830   124.8540
  339.5000   -62.9920     6.0990     6.3250   123.8410
  340.0000   -62.9920     6.4610     6.6780   122.0010
  340.5000   -62.9920     7.0460     6.8650   120.3100
  341.0000   -62.9920     7.0350     7.0590   118.4800
  341.5000   -62.9920     7.0130     7.2530   117.6690
  342.0000   -62.9920     6.9920     7.4460   116.9940
  342.5000   -62.9920     6.9710     7.3380   116.1810
  343.0000   -62.9920     6.9490     7.2310   117.6320
  343.5000   -62.9920     6.9250     7.1240   120.4710
  344.0000   -62.9920     6.7770     7.0170   127.7400
  344.5000   -62.9920     6.6030     6.9100   131.7700
  345.0000   -62.9920     6.4290     6.8030   129.8900
  345.5000   -62.9920     6.2550     6.6960   129.0340
  346.0000   -62.9920     6.0990     6.5580   130.5600
  346.5000   -62.9920     6.2870     6.6010   132.3010
  347.0000   -62.9920     6.4580     6.6620   133.1830
  347.5000   -62.9920     6.6280     6.8070   133.7170
  348.0000   -62.9920     6.7980     6.9840   136.2040
  348.5000   -62.9920     6.9690     7.1600   141.1640
  349.0000   -62.9920     7.1390     7.3360   144.7850
  349.5000   -62.9920     7.3120     7.5130   144.8390
  350.0000   -62.9920     7.4650     7.6890   144.9840
  350.5000   -62.9920     7.6210     7.8660   144.8530
  351.0000   -62.9920     7.7760     8.0060   144.8350
  351.5000   -62.9920     7.9320     8.0910   142.1410
  352.0000   -62.9920     8.0870     8.1970   138.4730
  352.5000   -62.9920     8.3010     8.3010   135.0710
  353.0000   -62.9920     8.2440     8.1090   131.2590
  353.5000   -62.9920     7.9860     7.9210   130.1550
  354.0000   -62.9920     7.7290     7.7320   131.6500
  354.5000   -62.9920     7.4720     7.5440   134.6750
  355.0000   -62.9920     7.2140     7.3560   137.5640
  355.5000   -62.9920     6.9570     7.1670   138.6390
  356.0000   -62.9920     6.5580     6.9790   136.7320
  356.5000   -62.9920     6.5640     6.8000   133.1510
  357.0000   -62.9920     6.5780     6.8370   129.6620
  357.5000   -62.9920     6.5920     6.8710   130.9850
  358.0000   -62.9920     6.6050     6.9250   132.8820
  358.5000   -62.9920     6.6190     6.9140   134.9890
  359.0000   -62.9920     6.6330     6.8920   136.6890
  359.5000   -62.9920     6.6460     6.8700   139.2090
  360.0000   -62.9920     6.6600     6.8470   135.7530
  360.5000   -62.9920     6.6780     6.8250   128.8610
  361.0000   -62.9920     6.5700     6.8000   127.0330
  361.5000   -62.9920     6.4130     6.6440   132.9040
  362.0000   -62.9920     6.2560     6.4680   139.3200
  362.5000   -62.9920     5.9900     6.2920   146.1380
  363.0000   -62.9920     5.9960     6.0990   147.3750
  363.5000   -62.9920     6.0180     6.1230   143.2470
  364.0000   -62.9920     6.0390     6.1480   138.8750
  364.5000   -62.9920     6.0600     6.1740   134.4900
