~VERSION INFORMATION
 VERS.                2.0:   CWLS LOG ASCII STANDARD - VERSION 2.0
 WRAP.                 NO:   ONE LINE PER DEPTH STEP
~WELL INFORMATION
#MNEM.UNIT      DATA TYPE    INFORMATION
#----------   ------------   ------------------------------
 STRT.F          200.0000:   START DEPTH
 STOP.F         2968.0000:   STOP DEPTH
 STEP.F            0.5000:   STEP LENGTH
 NULL.          -999.2500:   NO VALUE
 COMP. FENIX & SCISSON U.S. NAVY:   COMPANY
 WELL.   FENIX "A" #23-28:   WELL
 FLD .              NPR 3:   FIELD
 LOC .      S28 T39N R78W:   LOCATION
 CNTY.            NATRONA:   COUNTY
 STAT.            WYOMING:   STATE
 CTRY. UNITED STATES OF AMERICA:   COUNTRY
 SRVC.       SCHLUMBERGER:   SERVICE COMPANY
 DATE.        10-JUN-1977:   LOGDATE
 API .     49025103860000:   API NUMBER
~CURVE INFORMATION
#MNEM.UNIT       API CODE    CURVE DESCRIPTION
#----------   ------------   ------------------------------
 DEPT.F                  :   
 SPR .MV     07 010 01 00:   SPONTANEOUS POTENTIAL
 RILM.OHMM   07 120 44 00:   INDUCTION LOG MEDIUM RESISTIVITY
 RILD.OHMM   07 120 46 00:   DEEP INDUCTION RESISTIVITY
 LL8 .None   99 022 08 00:   LATEROLOG
 GRD .GAPI   45 310 01 00:   GAMMA RAY FROM DENSITY LOG
 CALD.IN     45 280 60 00:   CALIPER FROM DENSITY LOG
 RHOB.G/C3   45 350 01 00:   BULK DENSITY
 DRHO.G/C3   45 356 01 00:   DENSITY CORRECTION
~PARAMETER INFORMATION
#MNEM.UNIT          VALUE    DESCRIPTION
#----------   ------------   ------------------------------
 EKB .F         5019.0000:   Kelly bushing
 EGL .F         5009.0000:   Ground level
 EDF .F            0.0000:   Drilling floor
 EPD .F         5009.0000:   Permanent datum
 TD  .F         2971.0000:   Total depth
 DATE.        10-JUN-1977:   Date logged
 CLNT.            A2DTECH:   Client Code
 SL  . 1650' FNL & 990' FWL:   Surface Location
 DAPD.F                10:   Feet Above Permanent Datum
 DD  .F              2970:   Depth driller
 DL  .F              2971:   Depth logger
 BLI .F              2905:   Bottom log interval
 TLI .F               216:   Top log interval
 CS1 .IN            8.625:   Casing size
 CBD1.      9.625" @ 216':   Casing driller 1
 CBL1.F               216:   Casing logger 1
 BS1 .IN            7.875:   Bit size
 BSD1.F              2970:   Depth drilled with bit1
 DFT .            KCL MUD:   Type fluid in hole
 DFD .                8.8:   Density
 DFV .                 32:   Viscosity
 DFPH.                8.5:   pH
 DFL .                7.4:   Fluid loss
 MSS .               CIRC:   Source of sample
 RMS .OHMM           1.87:   Rm
 MST .F                85:   Rm Meas. temp.
 RMF .OHMM           1.69:   Rmf
 MFST.F                85:   Rmf Meas. temp.
 RMC .OHMM           2.80:   Rmc
 MCST.F                85:   Rmc Meas. temp.
 MFSS.               MEAS:   Source Rmf.
 MCSS.               CALC:   Source Rmc.
 RMB .OHMM           1.43:   Rm. at BHT
 BHT .F               111:   BHT.
 TCS .HRS            1600:   Time Circ. stopped
 TLAB.HRS            0945:   Time logger at bottom
 MRT .F               111:   Maximum recorded temp.
 LUN .               7711:   Logging unit number
 LUL .               CSPR:   Logging unit location
 ENGI.             SAYLER:   Recorded By
 WITN.         HARRINGTON:   Witnessed by
 ORIG.           5" PRINT:   Origin of data
 UWI .     49025103860000:   Unique Well ID
 DICO. A2D TECHNOLOGIES, INC.:   Digitizing Company
~OTHER INFORMATION
~A  DEPTH      SPR       RILM       RILD        LL8        GRD       CALD       RHOB       DRHO
# ...
 1455.5000   -75.8790    10.1530     9.4410    10.5240   103.1480     8.4850     2.5600     0.0060
 1456.0000   -75.8570    10.3450     8.8300    10.8400   100.3490     8.4890     2.5590     0.0060
 1456.5000   -75.8360    10.5450     8.9560    10.8840    99.8560     8.4920     2.5700     0.0170
 1457.0000   -75.8140    10.5650     9.4550    10.9290   100.1020     8.4960     2.5760     0.0140
 1457.5000   -75.7930    10.5870     9.7960    10.9730   101.1140     8.4990     2.5650     0.0170
 1458.0000   -75.7710    10.6090     9.3490    11.0420   103.9250     8.5030     2.5490     0.0200
 1458.5000   -75.7500    10.6420     9.1000    10.9840   106.3260     8.5070     2.5550     0.0110
 1459.0000   -75.7280    10.5060     9.8860    10.8620   106.6400     8.5100     2.5640     0.0070
 1459.5000   -75.7070    10.1980     9.8150    10.7410   106.6150     8.5140     2.5620     0.0140
 1460.0000   -75.6850     9.8900     9.6460    10.4840   105.3580     8.5170     2.5570     0.0120
 1460.5000   -75.6640     9.4410     9.4760    10.1640   104.1720     8.5210     2.5530     0.0080
 1461.0000   -75.6420     9.6310     9.3060     9.9240   106.3720     8.5240     2.5520     0.0060
 1461.5000   -75.6210     9.9810     9.1360    10.2900   107.9670     8.5280     2.5550     0.0130
 1462.0000   -75.5990    10.4480     8.9670    10.7410   106.4470     8.5320     2.5560     0.0170
 1462.5000   -75.5780    10.3750     8.7710    10.6100   103.2930     8.5350     2.5580     0.0060
 1463.0000   -75.5560    10.2660     9.0270    10.4140   102.9440     8.5390     2.5600     0.0090
 1463.5000   -75.5350    10.1570     9.2690    10.1630   103.8500     8.5390     2.5560     0.0110
 1464.0000   -75.5130     9.9930     9.1840    10.2200   107.1390     8.5380     2.5450     0.0030
 1464.5000   -75.4960    10.0980     9.2560    10.3890   107.1280     8.5370     2.5500    -0.0040
 1465.0000   -75.4960    10.4350     9.3850    10.7590   105.5100     8.5360     2.5590     0.0000
 1465.5000   -75.4960    10.7410     9.5150    11.1290   104.2980     8.5350     2.5670     0.0040
 1466.0000   -75.4960    10.5040     9.4030    11.4990   106.1670     8.5330     2.5730     0.0080
 1466.5000   -75.4960    10.2390     9.2690    11.7770   108.8380     8.5320     2.5740     0.0120
 1467.0000   -75.4960     9.9780     9.3950    11.6130   107.6980     8.5310     2.5850     0.0120
 1467.5000   -75.4960    10.2410     9.5160    11.3510   105.1700     8.5300     2.5790     0.0090
 1468.0000   -75.4960    10.1810     9.6170    10.9110   102.6790     8.5290     2.5720     0.0060
 1468.5000   -75.4960     9.9760     9.5050    10.4660   100.5650     8.5280     2.5650     0.0070
 1469.0000   -75.4960     9.8210     9.3880    10.1630   100.3440     8.5270     2.5700     0.0100
 1469.5000   -75.4960    10.0440     9.2720    10.4480    99.5650     8.5260     2.5760     0.0130
 1470.0000   -75.4960    10.4480     9.1550    10.1630    99.2080     8.5240     2.5790     0.0120
 1470.5000   -75.4960    10.2540     9.0390    10.4480   102.7330     8.5230     2.5680     0.0090
 1471.0000   -75.4960     9.9550     8.9230    10.3330   106.0930     8.5220     2.5740     0.0060
 1471.5000   -75.4960     9.5290     8.8520    10.0600   108.5970     8.5210     2.5720     0.0030
 1472.0000   -75.4960     9.6080     8.8520     9.8860   107.2630     8.5200     2.5680     0.0060
 1472.5000   -75.4960     9.8260     8.8520    10.2490   106.0130     8.5200     2.5750     0.0170
 1473.0000   -75.4960     9.9780     8.9340    10.1830   104.7770     8.5200     2.5840     0.0190
 1473.5000   -75.4950     9.8880     8.7710    10.1180   104.8710     8.5200     2.5930     0.0240
 1474.0000   -75.4950     9.7960     8.7970    10.0700   109.6650     8.5200     2.6000     0.0280
 1474.5000   -75.4080     9.9110     8.8520    10.6420   111.5730     8.5200     2.5900     0.0160
 1475.0000   -75.2470    10.1630     8.8790    10.5650   113.1050     8.5200     2.5940     0.0130
 1475.5000   -75.1020    10.0500     8.9460    10.2840   113.2430     8.5200     2.5990     0.0190
 1476.0000   -75.1520     9.8860     9.0160    10.7410   111.3760     8.5200     2.5850     0.0170
 1476.5000   -75.2120    10.0120     9.2390    10.5720   109.4680     8.5200     2.5710     0.0130
 1477.0000   -75.2730    10.1220     9.3550    10.3520   109.0010     8.5200     2.5680     0.0090
 1477.5000   -75.3340    10.2310     9.3040    10.6810   108.6610     8.5200     2.5660     0.0110
 1478.0000   -75.3940    10.3410     9.2690    11.1270   108.5980     8.5200     2.5690     0.0160
 1478.5000   -75.4550    10.4480     9.3870    11.0660   109.6560     8.5200     2.5780     0.0200
 1479.0000   -75.5150    10.2900     9.5000    10.9440   110.7210     8.5200     2.5880     0.0210
 1479.5000   -75.5760    10.2140     9.6170    10.8220   110.4440     8.5200     2.5960     0.0180
 1480.0000   -75.6370    10.1370     9.5300    10.7000   108.2270     8.5270     2.5970     0.0150
 1480.5000   -75.6880     9.9780     9.4150    10.6420   104.7920     8.5340     2.5880     0.0140
 1481.0000   -75.5470    10.1390     9.3010    10.7400   103.4140     8.5420     2.5900     0.0170
 1481.5000   -75.4020    10.3520     9.1860    10.9400   100.3400     8.5490     2.5810     0.0110
 1482.0000   -75.2590    10.2130     9.1000    10.7980    99.3380     8.5560     2.5720     0.0050
 1482.5000   -75.1160    10.0510     9.2530    10.3520    99.0290     8.5570     2.5690     0.0150
 1483.0000   -74.9730     9.8860     9.4410    10.4790   100.1600     8.5520     2.5880     0.0140
 1483.5000   -74.9530    10.4110     9.4410    10.6820   101.3030     8.5470     2.5880     0.0100
 1484.0000   -75.0550    10.9690     9.2590    11.5270   101.6570     8.5420     2.5830     0.0070
 1484.5000   -75.1560    11.3510     9.1840    12.1070   102.7620     8.5370     2.5790     0.0040
 1485.0000   -75.2590    10.7700     9.3550    11.3120   103.9890     8.5320     2.5760     0.0060
 1485.5000   -75.2910    10.1630     9.2710    10.7410   105.5150     8.5270     2.5790     0.0100
 1486.0000   -75.2830    11.0420     9.1470    11.9960   107.1750     8.5230     2.5780     0.0070
 1486.5000   -75.2740    10.8400     9.1000    11.6840   109.2370     8.5180     2.5680     0.0030
 1487.0000   -75.2650    10.2580     9.1840    10.9280   107.2110     8.5130     2.5580    -0.0010
 1487.5000   -75.2560     9.6780     9.0480    10.1720   104.2150     8.5080     2.5510    -0.0020
 1488.0000   -75.2470     9.4450     8.8720     9.9780   101.1670     8.5030     2.5620     0.0070
 1488.5000   -75.2380     9.2890     8.6950    10.8820   101.1620     8.5040     2.5720     0.0070
 1489.0000   -75.2290     9.1330     8.5320    10.5780   103.5370     8.5350     2.5820     0.0060
 1489.5000   -75.2200     9.0160     8.5320    10.1740   104.9180     8.5560     2.5860     0.0140
 1490.0000   -75.2110     9.0160     8.5320     9.7690   106.7070     8.5760     2.5850     0.0110
 1490.5000   -75.2020     9.0720     8.5040     9.5290   108.7940     8.5970     2.5770     0.0070
 1491.0000   -75.1930     9.3490     8.4350     9.8860   109.5770     8.6170     2.5700     0.0050
 1491.5000   -75.1840     9.5290     8.3810     9.7960   108.7340     8.6370     2.5620     0.0090
 1492.0000   -75.1740     9.1000     8.4150     9.9660   109.7570     8.6580     2.5590     0.0070
 1492.5000   -75.1650     9.7660     8.4490    10.2570   113.5440     8.6780     2.5540    -0.0010
 1493.0000   -75.1560     9.5290     8.7100    10.0700   114.7000     8.6840     2.5510    -0.0050
 1493.5000   -75.1470     9.8210     9.0160    10.5340   116.0560     8.6900     2.5620     0.0060
 1494.0000   -75.1380    10.2660     8.9220    11.5950   114.7020     8.6950     2.5740     0.0030
 1494.5000   -75.1290    10.3520     8.7710    11.4320   112.9670     8.7010     2.5630    -0.0020
 1495.0000   -75.1200    10.2960     9.0360    10.8330   112.1050     8.7060     2.5520    -0.0020
 1495.5000   -75.1110     9.9540     9.2390    10.0700   109.8940     8.7120     2.5610     0.0060
