~VERSION INFORMATION
 VERS.                2.0:   CWLS LOG ASCII STANDARD - VERSION 2.0
 WRAP.                 NO:   ONE LINE PER DEPTH STEP
~WELL INFORMATION
#MNEM.UNIT      DATA TYPE    INFORMATION
#----------   ------------   ------------------------------
 STRT.F            0.5000:   START DEPTH
 STOP.F         4149.0000:   STOP DEPTH
 STEP.F            0.5000:   STEP LENGTH
 NULL.          -999.2500:   NO VALUE
 COMP. LAWRENCE ALLISON & ASSOSCIATES:   COMPANY
 WELL. LAWRENCE "X" #34-3:   WELL
 FLD .             NPR #3:   FIELD
 LOC .       S3 T38N R78W:   LOCATION
 CNTY.            NATRONA:   COUNTY
 STAT.            WYOMING:   STATE
 CTRY. UNITED STATES OF AMERICA:   COUNTRY
 SRVC.      DRESSER ATLAS:   SERVICE COMPANY
 DATE.        19-NOV-1983:   LOGDATE
 API .     49025109500000:   API NUMBER
~CURVE INFORMATION
#MNEM.UNIT       API CODE    CURVE DESCRIPTION
#----------   ------------   ------------------------------
 DEPT.F                  :   
 CALD.IN     45 280 60 00:   CALIPER FROM DENSITY LOG
 TEND.LBS    45 635 01 00:   TENSION FORM DENSITY LOG
 DEN .G/C3   45 350 01 00:   BULK DENSITY
 CNC .DEC    42 890 01 00:   NEUTRON POROSITY LIMESTONE
 CORR.G/C3   45 356 01 00:   DENSITY CORRECTION
 TENR.LBS    06 635 01 00:   TENSION FROM RESISTIVITY
 GRR .GAPI   07 310 01 00:   GAMMA RAY FROM RESISTIVITY
 RFOC.OHMM   07 220 04 00:   RESISTIVITY FOCUSED LOG RES.
 RILD.OHMM   07 120 46 00:   DEEP INDUCTION RESISTIVITY
 RILM.OHMM   07 120 44 00:   INDUCTION LOG MEDIUM RESISTIVITY
 SPR .MV     07 010 01 00:   SPONTANEOUS POTENTIAL
 TENS.LBS    60 635 01 00:   TENSION FROM SONIC
 DT  .US/F   60 520 00 00:   DELTA TIME
~PARAMETER INFORMATION
#MNEM.UNIT          VALUE    DESCRIPTION
#----------   ------------   ------------------------------
 EKB .F         5187.0000:   Kelly bushing
 EGL .F         5174.0000:   Ground level
 TD  .F         4140.0000:   Total depth
 CLNT.            A2DTECH:   Client Code
 SL  . 1621' FWL & 1958' FNL:   Surface Location
 PD  .                 GL:   Permanent Datum
 EPD .F              5174:   Elevation Permanent Datum
 LMF .                 KB:   Log Measured From
 DMF .                 KB:   Drilling Measured From
 DAPD.F                13:   Feet Above Permanent Datum
 DATE.        19-NOV-1983:   Date Logged [DD-MMM-YYYY]
 DD  .F              4136:   Depth driller
 DL  .F              4140:   Depth logger
 BLI .F              4138:   Bottom log interval
 TLI .F                 0:   Top log interval
 CS1 .IN            8.625:   Casing size
 CBD1.      8.625" @ 615':   Casing driller 1
 CBL1.F               615:   Casing logger 1
 BS1 .IN            7.875:   Bit size
 BSD1.F              4136:   Depth drilled with bit1
 DFT .            GEL-KCL:   Type fluid in hole
 DFD .                  9:   Density
 DFV .                 45:   Viscosity
 DFPH.                8.5:   pH
 DFL .                 12:   Fluid loss
 MSS .           FLOWLINE:   Source of sample
 RMS .OHMM          0.768:   Rm
 MST .F                74:   Rm Meas. temp.
 RMF .OHMM          0.576:   Rmf
 MFST.F                74:   Rmf Meas. temp.
 MFSS.               CALC:   Source Rmf.
 RMC .OHMM           0.96:   Rmc
 MCST.F                74:   Rmc Meas. temp.
 MCSS.               CALC:   Source Rmc.
 RMB .OHMM          0.418:   Rm. at BHT
 BHT .F               136:   BHT.
 TCS .HRS               4:   Time Circ. stopped
 MRT .F               136:   Maximum recorded temp.
 LUN .               6307:   Logging unit number
 LUL .               GLTE:   Logging unit location
 ENGI.           FAHLSING:   Recorded By
 WITN.           JENNINGS:   Witnessed by
 ORIG.      2.5" 5" PRINT:   Origin of data
 UWI .     49025109500000:   Unique Well ID
 DICO. A2D TECHNOLOGIES, INC.:   Digitizing Company
~OTHER INFORMATION
~A    DEPT    CALD       TEND        DEN        CNC       CORR       TENR         GRR      RFOC       RILD       RILM        SPR       TENS         DT   
# ...
  858.5000     9.8267     0.0000     2.5323     0.2415     0.0232   -46.3246    96.9805     7.4446     7.2954     7.4560   -74.5247  -999.2500  -999.2500
  859.0000     9.8273     0.0000     2.5308     0.2404     0.0293   -37.5791    97.9009     7.4409     7.2924     7.4524   -74.6933  -999.2500  -999.2500
  859.5000     9.8279     0.0000     2.5293     0.2377     0.0383   -28.8337    99.2124     7.4918     7.3424     7.3432   -74.8619  -999.2500  -999.2500
  860.0000     9.7989     0.0000     2.5249     0.2356     0.0391   -27.9503   100.1087     7.5423     7.3920     7.3397   -74.8781  -999.2500  -999.2500
  860.5000     9.7995     0.0000     2.5219     0.2347     0.0354   -19.1770   100.9929     7.5384     7.3882     7.4417   -74.8948  -999.2500  -999.2500
  861.0000     9.8001     0.0000     2.5189     0.2293     0.0384   -18.1252   100.9686     7.5353     7.4915     7.4372   -74.7579  -999.2500  -999.2500
  861.5000     9.8007     0.0000     2.5204     0.2231     0.0415   -17.1437   100.9443     7.5322     7.5038     7.4878   -74.9306  -999.2500  -999.2500
  862.0000     9.8013     0.0000     2.5264     0.2384     0.0655    -8.3851   100.0053     7.5290     7.5931     7.4832   -74.9467  -999.2500  -999.2500
  862.5000     9.7722     0.0000     2.5309     0.2432     0.0535    -7.3758    98.1517     7.5252     7.5892     7.4264   -74.9629  -999.2500  -999.2500
  863.0000     9.7729     0.0000     2.5294     0.2456     0.0386    -6.1897    95.7181     7.5221     7.5861     7.4228   -75.2839  -999.2500  -999.2500
  863.5000     9.7734     0.0000     2.5294     0.2458     0.0386    -5.2083    92.8378     7.5190     7.5829     7.4193   -75.6052  -999.2500  -999.2500
  864.0000     9.7740     0.0000     2.5399     0.2433     0.0477    -4.2268    92.1274     7.5159     7.5798     7.3105   -75.9301  -999.2500  -999.2500
  864.5000     9.7746     0.0000     2.5474     0.2432     0.0507    -3.3385    92.5665     7.4064     7.5226     7.3061   -76.2511  -999.2500  -999.2500
  865.0000     9.7752     0.0000     2.5534     0.2415     0.0478    -2.2638    93.9080     7.4033     7.5735     7.3026   -76.8770  -999.2500  -999.2500
  865.5000     9.8054     0.0000     2.5609     0.2356     0.0418    -1.2823    95.2556     7.4002     7.5702     7.2991   -78.1127  -999.2500  -999.2500
  866.0000     9.8060     0.0000     2.5594     0.2302     0.0359    -0.3106    96.3598     7.3964     7.5664     7.2956   -78.7386  -999.2500  -999.2500
  866.5000     9.8066     0.0000     2.5414     0.2314     0.0269     0.6987    96.5789     7.3934     7.5633     7.2921   -78.9072  -999.2500  -999.2500
  867.0000     9.8072     0.0000     2.5250     0.2374     0.0210     1.9077    93.5759     7.3903     7.5601     7.3934   -78.4661  -999.2500  -999.2500
  867.5000     9.8078     0.0000     2.5130     0.2416     0.0240     2.8891    92.1796     7.3873     7.5570     7.4961   -78.0289  -999.2500  -999.2500
  868.0000     9.8083     0.0000     2.5085     0.2363     0.0181     3.7267    92.3900     7.4378     7.5539     7.4916   -77.5837  -999.2500  -999.2500
  868.5000     9.8089     0.0000     2.5070     0.2339     0.0121     4.7704    95.1035     7.4340     7.5507     7.3818   -77.2950  -999.2500  -999.2500
  869.0000     9.8095     0.0000     2.5055     0.2364     0.0122     5.7454    98.7377     7.4308     7.5468     7.2736   -76.7055  -999.2500  -999.2500
  869.5000     9.8101     0.0000     2.5055     0.2412     0.0182     6.7547   102.1432     7.4271     7.5437     7.2701   -76.5038  -999.2500  -999.2500
  870.0000     9.8107     0.0000     2.5055     0.2410     0.0392     7.7967   105.0915     7.4240     7.5406     7.2149   -76.4329  -999.2500  -999.2500
  870.5000     9.8113     0.0000     2.5055     0.2355     0.0363     8.7782   103.1148     7.3682     7.4301     7.2114   -76.4497  -999.2500  -999.2500
  871.0000     9.8415     0.0000     2.5056     0.2302     0.0243     9.7826    99.5489     7.3652     7.4271     7.2161   -76.7742  -999.2500  -999.2500
  871.5000     9.8421     0.0000     2.5041     0.2253     0.0004    10.7919    98.6099     7.4148     7.4240     7.2561   -76.7903  -999.2500  -999.2500
  872.0000     9.8427     0.0000     2.5041     0.2220     0.0005    11.8012   102.0154     7.4648     7.4209     7.2518   -76.5016  -999.2500  -999.2500
  872.5000     9.8432     0.0000     2.5071     0.2242     0.0035    12.9496   105.8783     7.4616     7.4178     7.2483   -76.5178  -999.2500  -999.2500
  873.0000     9.8438     0.0000     2.5131     0.2367     0.0066    13.9311   107.6832     7.4579     7.3095     7.2448   -76.5339  -999.2500  -999.2500
  873.5000     9.8444     0.0000     2.5206     0.2455     0.0097    14.9126   104.2290     7.4548     7.3064     7.2413   -76.5503  -999.2500  -999.2500
  874.0000     9.8450     0.0000     2.5296     0.2473     0.0275    15.8941    97.0702     7.4517     7.2506     7.2378   -76.5703  -999.2500  -999.2500
  874.5000     9.8456     0.0000     2.5326     0.2413     0.0870    16.8756    95.2566     7.5028     7.1960     7.2334   -76.5865  -999.2500  -999.2500
  875.0000     9.8462     0.0000     2.5341     0.2288     0.0995    17.8571    97.0615     7.4456     7.2453     7.3348   -76.7551  -999.2500  -999.2500
  875.5000     9.8172     0.0000     2.5386     0.2217     0.0955    18.8665    98.8664     7.4425     7.2943     7.3304   -76.9237  -999.2500  -999.2500
  876.0000     9.8474     0.0000     2.5416     0.2241     0.0641    12.3015   100.2140     7.5210     7.2907     7.3802   -77.2447  -999.2500  -999.2500
  876.5000     9.8480     0.0000     2.5418     0.2376     0.0361    15.6825    99.2751     7.5430     7.3399     7.4295   -77.5658  -999.2500  -999.2500
  877.0000     9.8486     0.0000     2.5371     0.2479     0.0275    14.1305    98.3361     7.5562     7.3894     7.4251   -77.8872  -999.2500  -999.2500
  877.5000     9.8492     0.0000     2.5356     0.2535     0.0279    12.9409    98.0831     7.6453     7.3856     7.4782   -77.5981  -999.2500  -999.2500
  878.0000     9.8497     0.0000     2.5356     0.2535     0.0211     8.2183    97.7684     7.6413     7.3825     7.5246   -77.7707  -999.2500  -999.2500
  878.5000     9.8503     0.0000     2.5341     0.2535     0.0130     9.4451    96.4277     7.6382     7.3799     7.5201   -78.2442  -999.2500  -999.2500
  879.0000     9.8509     0.0000     2.5221     0.2523     0.0101     6.8853    97.3180     7.6350     7.3764     7.5164   -78.5652  -999.2500  -999.2500
  879.5000     9.8515     0.0000     2.5132     0.2464     0.0101    -4.1149    98.6656     7.6318     7.3733     7.5128   -78.6037  -999.2500  -999.2500
  880.0000     9.8521     0.0000     2.5117     0.2375     0.0102    -3.1056   100.6992     7.6279     7.4232     7.5092   -78.2927  -999.2500  -999.2500
  880.5000     9.8527     0.0000     2.5207     0.2351     0.0132    -1.9115   102.7328     7.6248     7.4733     7.5594   -77.6768  -999.2500  -999.2500
  881.0000     9.8533     0.0000     2.5312     0.2321     0.0139    -8.6939   105.4523     7.6216     7.4701     7.6098   -77.1095  -999.2500  -999.2500
  881.5000     9.8539     0.0000     2.5431     0.2274     0.0163    -7.8417   107.7146     7.6185     7.4664     7.6053   -76.8208  -999.2500  -999.2500
  882.0000     9.8544     0.0000     2.5433     0.2286     0.0283    -6.8323   104.0256     7.6153     7.4633     7.6016   -76.5321  -999.2500  -999.2500
  882.5000     9.8551     0.0000     2.5402     0.2316     0.0613   -13.7587   100.3427     7.6122     7.5145     7.5979   -76.5473  -999.2500  -999.2500
  883.0000     9.8557     0.0000     2.5402     0.2370     0.0575   -12.5318    93.4586     7.7184     7.5653     7.4866   -76.5640  -999.2500  -999.2500
  883.5000     9.8562     0.0000     2.5400     0.2418     0.0554   -11.5503    88.4038     7.7696     7.5614     7.4830   -76.5808  -999.2500  -999.2500
  884.0000     9.8568     0.0000     2.5417     0.2422     0.0546   -10.5590    89.2941     7.8780     7.6671     7.5330   -76.6008  -999.2500  -999.2500
