~VERSION INFORMATION
 VERS.                2.0:   CWLS LOG ASCII STANDARD - VERSION 2.0
 WRAP.                 NO:   ONE LINE PER DEPTH STEP
~WELL INFORMATION
#MNEM.UNIT      DATA TYPE    INFORMATION
#----------   ------------   ------------------------------
 STRT.F          199.5000:   START DEPTH
 STOP.F         2983.0000:   STOP DEPTH
 STEP.F            0.5000:   STEP LENGTH
 NULL.          -999.2500:   NO VALUE
 COMP.    FENIX & SCISSON:   COMPANY
 WELL. FENIX (UE-49) "AX" #52-29:   WELL
 FLD . U.S. NAVAL PETROLEUM RESERVE #3:   FIELD
 LOC .      S29 T39N R78W:   LOCATION
 CNTY.            NATRONA:   COUNTY
 STAT.            WYOMING:   STATE
 CTRY. UNITED STATES OF AMERICA:   COUNTRY
 SRVC.           BIRDWELL:   SERVICE COMPANY
 DATE.        07-AUG-1977:   LOGDATE
 API .     49025104090000:   API NUMBER
~CURVE INFORMATION
#MNEM.UNIT       API CODE    CURVE DESCRIPTION
#----------   ------------   ------------------------------
 DEPT.F                  :   
 GRD .GAPI   45 310 01 00:   GAMMA RAY FROM DENSITY LOG
 CALD.IN     45 280 60 00:   CALIPER FROM DENSITY LOG
 DEN .G/C3   45 350 01 00:   BULK DENSITY
 DCOR.G/C3   45 356 01 00:   DENSITY CORRECTION
 SN  .OHMM   05 040 16 00:   SHORT NORMAL 16"
 ILD .OHMM   05 120 46 00:   INDUCTION LOG DEEP RESISTIVITY
~PARAMETER INFORMATION
#MNEM.UNIT          VALUE    DESCRIPTION
#----------   ------------   ------------------------------
 EKB .F         4995.0000:   Kelly bushing
 EGL .F         4985.0000:   Ground level
 EDF .F            0.0000:   Drilling floor
 TD  .F         2973.0000:   Total depth
 DATE.         7-AUG-1977:   Date logged
 CLNT.            A2DTECH:   Client Code
 SL  . 1400' FNL & 2380' FEL:   Surface Location
 PD  .                 GL:   Permanent Datum
 EPD .F              4985:   Elevation Permanent Datum
 LMF .                 KB:   Log Measured From
 DMF .                 KB:   Drilling Measured From
 DAPD.F                10:   Feet Above Permanent Datum
 DD  .F              2972:   Depth driller
 DL  .F              2973:   Depth logger
 BLI .F              2968:   Bottom log interval
 TLI .F               216:   Top log interval
 CS1 .IN            8.625:   Casing size
 CBD1.      8.625" @ 216':   Casing driller 1
 CBL1.F               216:   Casing logger 1
 BS1 .IN            7.875:   Bit size
 BSD1.F              2972:   Depth drilled with bit1
 DFT .            GEL-KCL:   Type fluid in hole
 DFD .                8.9:   Density
 DFV .                 33:   Viscosity
 DFL .                  9:   Fluid loss
 MSS .            MUD PIT:   Source of sample
 RMS .OHMM           0.26:   Rm
 MST .F                73:   Rm Meas. temp.
 RMF .OHMM           0.26:   Rmf
 MFST.F                72:   Rmf Meas. temp.
 RMC .OHMM           0.96:   Rmc
 MCST.F                72:   Rmc Meas. temp.
 MFSS.              PRESS:   Source Rmf.
 RMB .OHMM           0.14:   Rm. at BHT
 BHT .F               130:   BHT.
 TCS .HRS               5:   Time Circ. stopped
 MRT .F               130:   Maximum recorded temp.
 LUN .               2958:   Logging unit number
 LUL .             CASPER:   Logging unit location
 ENGI.                LAW:   Recorded By
 WITN.             RHODES:   Witnessed by
 ORIG.           5" PRINT:   Origin of data
 UWI .     49025104090000:   Unique Well ID
 DICO. A2D TECHNOLOGIES, INC.:   Digitizing Company
~OTHER INFORMATION
~A   DEPT       GRD      CALD        DEN       DCOR         SN        ILD   
# ...
 1655.5000    77.4060     9.0700     2.5170     0.0320     5.8850     6.1880
 1656.0000    78.5260     9.0910     2.5140     0.0310     5.9230     6.4190
 1656.5000    84.5890     9.1220     2.5240     0.0370     5.9530     6.3040
 1657.0000    80.1210     9.1480     2.5300     0.0300     5.9840     6.1560
 1657.5000    79.2890     9.0190     2.5170     0.0230     6.0210     6.0070
 1658.0000    78.5240     8.9340     2.5070     0.0240     5.9540     5.7510
 1658.5000    78.7770     8.9330     2.5080     0.0260     5.8410     6.4280
 1659.0000    78.8530     8.9310     2.5030     0.0240     5.6920     7.1000
 1659.5000    82.3790     8.9300     2.5080     0.0190     5.2960     6.2450
 1660.0000    73.5000     8.9280     2.4960     0.0220     5.3390     6.3610
 1660.5000    75.7230     8.9270     2.4820     0.0130     5.3940     5.6860
 1661.0000    75.6310     8.9260     2.4770     0.0030     4.5660     5.2100
 1661.5000    73.7750     8.9240     2.4580     0.0060     4.0200     4.7350
 1662.0000    68.6770     8.9230     2.4370     0.0010     4.0060     4.1730
 1662.5000    69.3040     8.9210     2.4110    -0.0050     3.9930     4.3650
 1663.0000    69.9550     8.9200     2.3790    -0.0010     3.9860     4.5220
 1663.5000    65.4050     8.9180     2.3170     0.0020     4.0600     4.7010
 1664.0000    67.7140     8.9170     2.2350     0.0870     3.8350     4.0600
 1664.5000    57.1100     8.9150     2.2010     0.1510     3.6700     4.0600
 1665.0000    64.8450     8.9330     2.2740     0.0480     3.8480     4.1020
 1665.5000    63.4290     8.9590     2.3840     0.0420     4.0130     4.1350
 1666.0000    64.7460     8.9870     2.4520     0.0470     4.0970     4.0680
 1666.5000    66.1790     8.9780     2.4250     0.0570     3.1990     3.7080
 1667.0000    60.2790     8.9570     2.3830     0.0690     3.1410     3.1990
 1667.5000    56.4750     8.9350     2.3400     0.1280     3.1990     3.2390
 1668.0000    59.5890     8.9160     2.2840     0.2120     2.6150     3.2880
 1668.5000    62.5830     8.9220     2.3010     0.2540     2.9730     3.0110
 1669.0000    61.9700     8.9290     2.3420     0.2500     2.8920     3.1500
 1669.5000    64.5260     8.9360     2.4150    -0.0090     3.2550     3.6940
 1670.0000    60.6710     8.9420     2.3430    -0.0070     3.8420     3.8710
 1670.5000    68.2260     8.9490     2.2290     0.1110     3.7730     4.1170
 1671.0000    69.3670     8.9560     2.2750     0.0380     4.3360     4.7670
 1671.5000    73.7590     8.9620     2.3950     0.0010     4.9390     5.4430
 1672.0000    73.9340     8.9690     2.4550     0.0030     5.3440     5.7470
 1672.5000    71.4610     8.9750     2.5060     0.0070     5.2470     6.1480
 1673.0000    72.6420     8.9770     2.5030     0.0080     5.4330     7.0360
 1673.5000    74.6400     8.9800     2.5060     0.0070     5.6740     6.7990
 1674.0000    65.7630     8.9830     2.4980     0.0170     5.9150     6.3890
 1674.5000    68.2850     8.9850     2.5060     0.0150     6.3030     6.2450
 1675.0000    73.0300     8.9880     2.5160     0.0110     6.4190     6.4790
 1675.5000    72.2760     8.9910     2.5240     0.0150     6.3030     6.4790
 1676.0000    77.7190     8.9930     2.5280     0.0150     6.6230     7.1000
 1676.5000    78.4810     8.9960     2.5250     0.0150     7.0360     6.9730
 1677.0000    79.9710     8.9990     2.5290     0.0080     6.5520     6.8170
 1677.5000    82.6080     9.0010     2.5240     0.0100     6.2450     6.6600
 1678.0000    74.2170     9.0040     2.5170     0.0150     6.2450     6.5040
 1678.5000    76.0030     9.0070     2.5190     0.0180     6.1720     6.4240
 1679.0000    79.4980     9.0090     2.5210     0.0320     6.1460     6.3610
 1679.5000    82.6560     9.0120     2.5270     0.0400     6.0980     6.3330
 1680.0000    82.1200     9.0180     2.5210     0.0560     6.0220     6.3030
 1680.5000    83.6870     9.0370     2.5130     0.0370     5.9660     6.3530
 1681.0000    83.1030     9.0530     2.5180     0.0090     6.0040     6.4120
 1681.5000    88.0130     9.0460     2.4960     0.0110     6.0480     6.4790
 1682.0000    93.1850     9.0380     2.4930     0.0140     6.0920     6.4070
 1682.5000    79.1270     9.0240     2.4990     0.0150     6.1320     6.3510
 1683.0000    78.1690     8.9840     2.5040     0.0150     6.0460     6.2950
 1683.5000    78.1970     8.9440     2.4990     0.0180     5.9660     6.2380
 1684.0000    73.8990     8.9540     2.4930     0.0280     5.8950     6.1640
 1684.5000    73.1370     8.9500     2.4970     0.0240     5.8410     5.9370
 1685.0000    76.6440     8.9450     2.4870     0.0320     5.8040     5.5950
 1685.5000    75.5690     8.9410     2.4910     0.0390     5.8210     5.7520
 1686.0000    78.1970     8.9370     2.4910     0.0300     5.9510     6.0520
 1686.5000    82.6070     8.9080     2.4930     0.0450     6.2330     6.3520
 1687.0000    80.2170     8.8720     2.4970     0.0420     6.4190     6.6520
 1687.5000    78.3680     8.8480     2.4950     0.0830     6.1880     6.9560
 1688.0000    75.8370     8.8340     2.4920     0.1220     6.5280     7.2360
 1688.5000    77.7400     8.8200     2.4930     0.0320     6.8500     7.6920
 1689.0000    81.1490     8.7950     2.4990     0.0080     7.1720     8.1440
 1689.5000    85.3530     8.7680     2.4810     0.0080     7.5020     8.5750
 1690.0000    82.9690     8.7590     2.5010     0.0090     7.4110     8.9790
 1690.5000    85.2690     8.7620     2.5040     0.0140     7.2980     9.2620
 1691.0000    83.6960     8.7650     2.5060     0.0190     7.3520     9.1430
 1691.5000    81.7370     8.7680     2.5130     0.0180     7.4200     8.7660
 1692.0000    84.9040     8.7710     2.5130     0.0140     7.5020     9.0940
 1692.5000    94.5330     8.7740     2.5110     0.0090     7.3300     7.4410
 1693.0000    96.9200     8.7770     2.4970     0.0150     7.0360     6.7800
 1693.5000   112.5370     8.7800     2.4990     0.0230     7.0690     6.6590
 1694.0000   109.7510     8.7830     2.5040     0.0230     7.1000     6.5010
 1694.5000   104.4050     8.7860     2.4890     0.0260     6.6590     6.1320
 1695.0000    97.7260     8.7890     2.4780     0.0400     6.3610     6.2610
 1695.5000    99.0110     8.7920     2.4830     0.0500     6.4640     6.2970
 1696.0000    96.0890     8.7960     2.4700     0.0460     6.5640     6.6590
 1696.5000   101.4430     8.7800     2.4650     0.0650     6.8020     6.9710
 1697.0000   109.7980     8.7550     2.4750     0.0570     7.1620     6.7200
 1697.5000   114.1270     8.7360     2.4900     0.0280     7.5750     7.8060
 1698.0000   112.5300     8.7350     2.4870     0.0210     7.9890     8.7660
 1698.5000   116.5140     8.7340     2.4990     0.0230     8.4020     9.5510
 1699.0000   120.3050     8.7320     2.4920     0.0190     8.8540    10.4460
 1699.5000   124.0970     8.7310     2.4910     0.0150     9.1770    11.3410
 1700.0000   128.7760     8.7290     2.4730     0.0220     9.1770    11.4350
 1700.5000   123.1110     8.7280     2.4880     0.0290     9.6860    11.5700
 1701.0000   119.8520     8.7260     2.4650     0.0260     9.9920    11.9710
 1701.5000   133.7970     8.7250     2.4730     0.0240    10.0770    11.7540
 1702.0000   154.8570     8.7230     2.4640     0.0280    10.1620    12.3430
 1702.5000   146.0920     8.7220     2.4670     0.0300    10.2460    12.5910
 1703.0000   147.0200     8.7200     2.4400     0.0220    10.3390    12.7090
 1703.5000   130.1520     8.7190     2.4530     0.0300    10.3100    12.8820
 1704.0000   114.8310     8.7180     2.4450     0.0460    10.2780    12.8320
 1704.5000   108.0490     8.7200     2.4550     0.0620    10.2440    12.7860
 1705.0000   104.4720     8.7230     2.4750     0.0580    10.1170    12.5290
 1705.5000   109.3490     8.7260     2.4970     0.0380     9.9400    12.0760
 1706.0000   104.9540     8.7290     2.4980     0.0320     9.7660    11.6240
 1706.5000   107.1670     8.7310     2.5040     0.0280     9.6090    11.1960
 1707.0000   102.2290     8.7340     2.5130     0.0230     9.4520    10.9230
