~VERSION INFORMATION
 VERS.                2.0:   CWLS LOG ASCII STANDARD - VERSION 2.0
 WRAP.                 NO:   ONE LINE PER DEPTH STEP
~WELL INFORMATION
#MNEM.UNIT      DATA TYPE    INFORMATION
#----------   ------------   ------------------------------
 STRT.F            0.0000:   START DEPTH
 STOP.F         5673.0000:   STOP DEPTH
 STEP.F            0.5000:   STEP LENGTH
 NULL.          -999.2500:   NO VALUE
 COMP.       FLUOR DANIEL:   COMPANY
 WELL.   FLUOR "X" #63-10:   WELL
 FLD .             NPR #3:   FIELD
 LOC .      S10 T38N R78W:   LOCATION
 CNTY.            NATRONA:   COUNTY
 STAT.            WYOMING:   STATE
 CTRY. UNITED STATES OF AMERICA:   COUNTRY
 SRVC.      WESTERN ATLAS:   SERVICE COMPANY
 DATE.        02-MAR-1996:   LOGDATE
 API .     49025227690000:   API NUMBER
~CURVE INFORMATION
#MNEM.UNIT       API CODE    CURVE DESCRIPTION
#----------   ------------   ------------------------------
 DEPT.F                  :   
 GRD .GAPI   45 310 01 00:   GAMMA RAY FROM DENSITY LOG
 TEND.LBS    45 635 01 00:   TENSION FROM DENSITY LOG
 CALD.IN     45 280 60 00:   CALIPER FROM DENSITY LOG
 ZCOR.G/C3   45 356 01 00:   DENSITY CORRECTION
 ZDEN.G/C3   45 350 01 00:   BULK DENSITY
 CNC .DEC    42 890 03 00:   COMPENSATED NEUTRON POROSITY SANDSTONE
 SPR .MV     11 010 01 00:   SPONTANEOUS POTENTIAL FROM RESISTIVITY
 RD  .OHMM   11 220 10 00:   RESISTIVITY DEEP
 RS  .OHMM   11 220 09 00:   RESISTIVITY SHALLOW
~PARAMETER INFORMATION
#MNEM.UNIT          VALUE    DESCRIPTION
#----------   ------------   ------------------------------
 EKB .F         5196.0000:   Kelly bushing
 EGL .F         5186.0000:   Ground level
 EDF .F         5195.0000:   Drilling floor
 TD  .F         5674.0000:   Total depth
 CLNT.            A2DTECH:   Client Code
 SL  . 1688' FNL & 1730' FEL:   Surface Location
 PD  .                 GL:   Permanent Datum
 EPD .F              5186:   Elevation Permanent Datum
 LMF .                 KB:   Log Measured From
 DMF .                 KB:   Drilling Measured From
 DAPD.F                10:   Feet Above Permanent Datum
 DATE.        02-MAR-1996:   Date Logged [DD-MMM-YYYY]
 DD  .F              5674:   Depth driller
 DL  .F              5674:   Depth logger
 BLI .F              5663:   Bottom log interval
 CS1 .IN            9.625:   Casing size
 CBD1.      9.625" @ 448':   Casing driller 1
 CBL1.F               448:   Casing logger 1
 BS1 .IN             8.75:   Bit size
 BSD1.F              5674:   Depth drilled with bit1
 DFT .               CHEM:   Type fluid in hole
 DFD .                9.7:   Density
 DFV .                 53:   Viscosity
 DFPH.                9.0:   pH
 DFL .                9.2:   Fluid loss
 MSS .           FLOWLINE:   Source of sample
 RMS .OHMM          0.628:   Rm
 MST .F                71:   Rm Meas. temp.
 RMF .OHMM          0.477:   Rmf
 MFST.F                71:   Rmf Meas. temp.
 MFSS.               MEAS:   Source Rmf.
 RMC .OHMM          0.779:   Rmc
 MCST.F                71:   Rmc Meas. temp.
 MCSS.               MEAS:   Source Rmc.
 RMB .OHMM          0.251:   Rm. at BHT
 BHT .F               178:   BHT.
 TCS .F               4.5:   Time Circ. stopped
 MRT .HRS             178:   Maximum recorded temp.
 LUN .            HL-6530:   Logging unit number
 LUL .             CASPER:   Logging unit location
 ENGI.      PAT RASMUSSEN:   Recorded By
 ORIG.           5" PRINT:   Origin of data
 UWI .     49025227690000:   Unique Well ID
 WITN.         LAFRENIERE:   Witnessed by
 DICO.   A2D TECHNOLOGIES:   Digitizing Company
~OTHER INFORMATION
~A  DEPTH      GRD       TEND       CALD       ZCOR       ZDEN        CNC        SPR         RD         RS
# ...
 1825.0000   116.8675   -22.0597     9.7162     0.0521     2.5225     0.3345   -76.2683    12.0681    10.2571
 1825.5000   111.4529   -22.1310     9.7164     0.0506     2.5180     0.3351   -76.1964    12.0625    10.2571
 1826.0000   109.0475   -22.2023     9.7315     0.0445     2.5089     0.3342   -76.1248    12.0556    10.3283
 1826.5000   110.8618   -22.2736     9.7467     0.0384     2.5104     0.3315   -76.0531    12.2194    10.5449
 1827.0000   115.1320   -22.3468     9.7619     0.0353     2.5171     0.3309   -75.9815    12.7301    10.8409
 1827.5000   119.6094   -14.9423     9.7620     0.0307     2.5164     0.3309   -75.9098    12.9913    10.9920
 1828.0000   121.4223   -15.0315     9.7471     0.0247     2.5148     0.3299   -75.8382    13.2576    11.1451
 1828.5000   120.2231   -22.5766     9.7323     0.0216     2.5178     0.3290   -75.7665    13.2500    11.3005
 1829.0000   119.6264   -37.5956     9.7324     0.0275     2.5224     0.3251   -75.6948    13.2440    11.4579
 1829.5000   119.9347   -52.6158     9.7326     0.0322     2.5245     0.3242   -75.6232    13.2379    11.4579
 1830.0000   121.4464   -60.1775     9.7177     0.0364     2.5237     0.3176   -75.5514    13.2317    11.6176
 1830.5000   120.8496   -60.2428     9.7179     0.0363     2.5199     0.3149   -75.4783    13.2242    11.6983
 1831.0000   118.6744   -52.8403     9.7180     0.0287     2.5124     0.3116   -75.4063    13.2182    11.4579
 1831.5000   116.9467   -45.4556     9.7182     0.0182     2.5064     0.3085   -75.6170    13.2121    11.2950
 1832.0000   116.0487   -45.5269     9.7183     0.0166     2.5078     0.3104   -75.8574    12.8455    11.0683
 1832.5000   114.5483   -45.5982     9.7185     0.0240     2.5161     0.3185   -76.0969    12.6617    10.8409
 1833.0000   113.9516   -45.6694     9.7186     0.0299     2.5228     0.3239   -76.3361    12.6559    11.0683
 1833.5000   114.8623   -45.7407     9.7037     0.0314     2.5243     0.3272   -76.5754    12.5628    11.2225
 1834.0000   116.6751   -53.2885     9.7189     0.0313     2.5235     0.3278   -76.8146    12.6445    11.4579
 1834.5000   116.0784   -53.3750     9.7191     0.0327     2.5235     0.3224   -77.0419    12.8283    11.4579
 1835.0000   115.4816   -53.4463     9.7177     0.0341     2.5234     0.3206   -77.2073    13.1682    11.4579
 1835.5000   116.9947   -53.5176     9.7043     0.0265     2.5226     0.3197   -77.3746    13.1607    11.4579
 1836.0000   118.2038   -53.5889     9.7045     0.0220     2.5189     0.3221   -77.5420    12.9738    11.5439
 1836.5000   115.8012   -53.6622     9.7047     0.0249     2.5173     0.3235   -77.7094    12.9679    11.7795
 1837.0000   114.0011   -53.7493     9.7048     0.0368     2.5241     0.3232   -77.8768    13.3242    11.7795
 1837.5000   114.6091   -53.8206     9.7050     0.0443     2.5285     0.3229   -78.0442    13.5052    11.9437
 1838.0000   116.4220   -53.8919     9.7051     0.0352     2.5270     0.3217   -78.2118    13.6872    12.1101
 1838.5000   117.9397   -53.9632     9.7053     0.0381     2.5202     0.3211   -78.3788    13.8702    12.1942
 1839.0000   118.5432   -54.0359     9.7054     0.0470     2.5179     0.3211   -78.5476    13.7679    12.1101
 1839.5000   118.8501   -54.1236     9.7056     0.0560     2.5186     0.3211   -78.5671    13.6652    12.1101
 1840.0000   118.2519   -54.1949     9.7207     0.0559     2.5186     0.3211   -78.4915    13.4712    11.8613
 1840.5000   118.2590   -46.7745     9.7209     0.0543     2.5148     0.3211   -78.4139    13.2800    11.6104
 1841.0000   118.2660   -46.8636     9.7210     0.0497     2.5073     0.3208   -78.3366    13.0011    11.3789
 1841.5000   118.8741   -46.9357     9.7212     0.0467     2.4998     0.3202   -78.2565    12.9041    11.3789
 1842.0000   119.1809   -47.0240     9.7213     0.0436     2.4967     0.3181   -78.0506    12.8987    11.4579
 1842.5000   119.4880   -47.0953     9.7215     0.0375     2.4967     0.3169   -77.6500    13.1632    11.6176
 1843.0000   119.4949   -47.1666     9.7216     0.0313     2.4983     0.3163   -77.2510    13.6204    11.7795
 1843.5000   119.5005   -47.2379     9.7218     0.0268     2.5034     0.3223   -76.8559    13.6125    11.7795
 1844.0000   119.5062   -54.7833     9.7219     0.0253     2.5116     0.3364   -76.6343    13.5125    11.7795
 1844.5000   119.5121   -54.8721     9.7221     0.0312     2.5138     0.3441   -76.8052    13.4131    11.7795
 1845.0000   119.2163   -54.9434     9.7232     0.0262     2.5131     0.3447   -76.8395    13.5093    11.7877
 1845.5000   118.3198   -55.0147     9.7374     0.0261     2.5092     0.3438   -76.8700    13.5876    11.8613
 1846.0000   117.1206   -55.0860     9.7376     0.0261     2.5108     0.3462   -76.9007    13.5798    11.8613
 1846.5000   116.8250   -55.1573     9.7377     0.0276     2.5100     0.3486   -76.9315    13.5736    11.8613
 1847.0000   117.1333   -32.8249     9.7378     0.0291     2.5054     0.3483   -76.9622    13.4738    11.7795
 1847.5000   118.0426   -17.9307     9.7380     0.0305     2.5032     0.3480   -76.9930    13.3732    11.6983
 1848.0000   118.9519   -25.4936     9.7382     0.0320     2.5121     0.3492   -76.9589    12.9125    11.5375
 1848.5000   119.2601   -40.5126     9.7383     0.0350     2.5206     0.3513   -76.8639    12.6414    11.4579
 1849.0000   120.7718   -55.5316     9.7385     0.0379     2.5218     0.3529   -76.7683    12.3760    11.3789
 1849.5000   121.6811   -70.5531     9.7386     0.0409     2.5199     0.3546   -76.6727    12.2848    11.2141
 1850.0000   121.0843   -85.5874     9.7387     0.0469     2.5192     0.3543   -76.5771    12.2780    11.1451
 1850.5000   120.8813   -70.7110     9.7539     0.0559     2.5244     0.3519   -76.4816    12.1036    11.0683
 1851.0000   121.0843   -55.8168     9.7541     0.0573     2.5327     0.3480   -76.3859    11.8506    11.0683
 1851.5000   122.3632   -55.9059     9.7542     0.0438     2.5342     0.3405   -76.2902    12.0103    11.0683
 1852.0000   124.3976   -55.9791     9.7544     0.0318     2.5260     0.3348   -76.2030    12.3404    11.0683
 1852.5000   123.7952   -62.6889     9.7545     0.0257     2.5245     0.3291   -76.1828    12.5067    11.0683
 1853.0000   121.3855   -55.2531     9.7396     0.0302     2.5275     0.3234   -76.1634    12.5878    11.3005
 1853.5000   119.5783   -55.3428     9.7398     0.0392     2.5335     0.3191   -76.1438    12.5807    11.3789
 1854.0000   119.8795   -55.4145     9.7390     0.0481     2.5351     0.3161   -76.1241    12.6624    11.3789
 1854.5000   121.3855   -55.4862     9.7384     0.0466     2.5298     0.3140   -76.1044    12.8315    11.3789
 1855.0000   121.9880   -55.5579     9.7377     0.0406     2.5259     0.3104   -76.0847    13.0045    11.4579
 1855.5000   121.6867   -54.3705     9.7370     0.0406     2.5216     0.3074   -76.0650    12.9985    11.5375
 1856.0000   120.7831   -53.1442     9.7363     0.0465     2.5201     0.3047   -76.0453    12.9912    11.6176
 1856.5000   120.1807   -51.9178     9.7356     0.0405     2.5261     0.3060   -76.0257    12.9854    11.6176
 1857.0000   119.2771   -50.6915     9.7349     0.0285     2.5329     0.3071   -76.0060    13.1605    11.6983
 1857.5000   118.9759   -49.4651     9.7343     0.0194     2.5352     0.3077   -75.9863    13.3377    11.7795
 1858.0000   120.7831   -48.2388     9.7336     0.0164     2.5367     0.2978   -75.9666    13.5160    11.8613
 1858.5000   121.6867   -47.0125     9.7329     0.0119     2.5336     0.2952   -75.9469    13.5098    11.9437
 1859.0000   121.3855   -45.7861     9.7322     0.0133     2.5299     0.2982   -75.9273    13.5037    12.0266
 1859.5000   119.8795   -44.4283     9.7315     0.0197     2.5292     0.2985   -75.9076    13.6857    12.0266
 1860.0000   116.5663   -36.7797     9.7309     0.0253     2.5315     0.2965   -75.8879    13.8686    12.1101
 1860.5000   115.3614   -44.1461     9.7302     0.0298     2.5375     0.2942   -75.8682    14.0555    12.2789
 1861.0000   116.3033   -51.4773     9.7295     0.0342     2.5420     0.2945   -75.8485    14.0475    12.3642
