~VERSION INFORMATION
 VERS.                2.0:   CWLS LOG ASCII STANDARD - VERSION 2.0
 WRAP.                 NO:   ONE LINE PER DEPTH STEP
~WELL INFORMATION
#MNEM.UNIT      DATA TYPE    INFORMATION
#----------   ------------   ------------------------------
 STRT.F          172.0000:   START DEPTH
 STOP.F         3376.0000:   STOP DEPTH
 STEP.F            0.5000:   STEP LENGTH
 NULL.          -999.2500:   NO VALUE
 COMP.    FENIX & SCISSON:   COMPANY
 WELL. FENIX NPR 3 "AX" #23-2:   WELL
 FLD .                NPR:   FIELD
 LOC .       S2 T38N R78W:   LOCATION
 CNTY.            NATRONA:   COUNTY
 STAT.            WYOMING:   STATE
 CTRY. UNITED STATES OF AMERICA:   COUNTRY
 SRVC.              WELEX:   SERVICE COMPANY
 DATE.        02-DEC-1980:   LOGDATE
 API .     49025108740000:   API NUMBER
~CURVE INFORMATION
#MNEM.UNIT       API CODE    CURVE DESCRIPTION
#----------   ------------   ------------------------------
 DEPT.F                  :   
 CALD.IN     45 280 60 00:   CALIPER FROM DENSITY LOG
 CORR.G/C3   45 356 01 00:   DENSITY CORRECTION
 GRD .GAPI   45 310 01 00:   GAMMA RAY FROM DENSITY LOG
 RHOB.G/C3   45 350 01 00:   BULK DENSITY
 TENR.LBS    07 635 01 00:   TENSION
 SPR .MV     07 010 01 00:   SPONTANEOUS POTENTIAL
 SGRD.OHMM   07 220 05 00:   SHALLOW GUARD
 ILD .OHMM   07 120 46 00:   INDUCTION LOG DEEP RESISTIVITY
 ILM .OHMM   07 120 44 00:   INDUCTION LOG MEDIUM RESISTIVITY
~PARAMETER INFORMATION
#MNEM.UNIT          VALUE    DESCRIPTION
#----------   ------------   ------------------------------
 EKB .F         5133.0000:   Kelly bushing
 EGL .F         5123.0000:   Ground level
 EDF .F            0.0000:   Drilling floor
 TD  .F         3375.0000:   Total depth
 DATE.        02-DEC-1980:   Date logged
 CLNT.            A2DTECH:   Client Code
 SL  . 3800' FSL & 827' FWL:   Surface Location
 PD  .                 GL:   Permanent Datum
 EPD .F              5123:   Elevation Permanent Datum
 LMF .                 KB:   Log Measured From
 DMF .                 KB:   Drilling Measured From
 DAPD.F                10:   Feet Above Permanent Datum
 DD  .F              3375:   Depth driller
 DL  .F              3373:   Depth logger
 BLI .F              3371:   Bottom log interval
 TLI .F               181:   Top log interval
 CS1 .IN            8.625:   Casing size
 CBD1.      8.625" @ 181':   Casing driller 1
 CBL1.F               181:   Casing logger 1
 BS1 .IN            7.875:   Bit size
 BSD1.F              3375:   Depth drilled with bit1
 DFT .           CHEM/GEL:   Type fluid in hole
 DFD .                8.8:   Density
 DFV .                 45:   Viscosity
 DFPH.                  9:   pH
 DFL .                 16:   Fluid loss
 MSS .           FLOWLINE:   Source of sample
 RMS .OHMM           1.25:   Rm
 MST .F                64:   Rm Meas. temp.
 RMF .OHMM           1.17:   Rmf
 MFST.F                64:   Rmf Meas. temp.
 RMC .OHMM            1.1:   Rmc
 MCST.F                64:   Rmc Meas. temp.
 MFSS.               MEAS:   Source Rmf.
 MCSS.               MEAS:   Source Rmc.
 RMB .OHMM            .67:   Rm. at BHT
 BHT .F               120:   BHT.
 TCS .HRS               2:   Time Circ. stopped
 MRT .F               120:   Maximum recorded temp.
 LUN .               1892:   Logging unit number
 LUL .             CASPER:   Logging unit location
 ENGI.  PFRIMMER/MONNAHAN:   Recorded By
 WITN.              FIVAS:   Witnessed by
 ORIG.           5" PRINT:   Origin of data
 UWI .     49025108740000:   Unique Well ID
 DICO. A2D TECHNOLOGIES, INC.:   Digitizing Company
~OTHER INFORMATION
~A   DEPT     CALD       CORR         GRD      RHOB       TENR        SPR       SGRD        ILD        ILM   
# ...
  610.0000     9.8970     0.0290    89.4350     2.4770   319.4870   -23.3300    10.4420     9.6610    10.4000
  610.5000     9.9030     0.0280    90.9850     2.4820   320.2210   -23.0800    10.4640     9.6610    10.4000
  611.0000     9.9090     0.0270    91.1750     2.4860   320.9550   -22.8400    10.4870     9.6610    10.4000
  611.5000     9.9150     0.0260    91.3750     2.4910   321.6900   -22.5920    10.5100     9.6610    10.4000
  612.0000     9.9190     0.0260    91.5720     2.4930   322.4240   -22.3440    10.5330     9.6610    10.4000
  612.5000     9.9110     0.0260    91.8350     2.4970   323.1580   -22.1030    10.5560     9.6610    10.4000
  613.0000     9.9020     0.0270    89.7200     2.4990   323.8930   -21.8570    10.5780     9.6610    10.4000
  613.5000     9.8940     0.0270    87.1580     2.4980   324.6270   -21.7970    10.6010     9.6610    10.4000
  614.0000     9.8850     0.0280    84.5700     2.4870   325.3610   -21.8000    10.6240     9.6610    10.4000
  614.5000     9.8770     0.0280    82.2070     2.4760   326.0950   -21.8010    10.6470     9.6610    10.4000
  615.0000     9.8680     0.0290    81.7390     2.4730   326.8300   -21.8010    10.6690     9.6610    10.4000
  615.5000     9.8600     0.0290    81.4220     2.4750   327.5640   -21.7960    10.6920     9.6610    10.4000
  616.0000     9.8510     0.0290    83.3990     2.4780   328.2980   -21.8450    10.7170     9.6610    10.3990
  616.5000     9.8430     0.0300    85.6030     2.4720   329.0330   -21.9480    10.7340     9.6620    10.4010
  617.0000     9.8410     0.0290    87.7000     2.4620   329.7670   -22.0460    10.7570     9.6640    10.4030
  617.5000     9.8470     0.0270    85.8610     2.4510   330.5010   -22.1430    10.7900     9.6610    10.4000
  618.0000     9.8520     0.0250    85.3910     2.4560   331.3250   -22.2440    10.5930     9.5910    10.3240
  618.5000     9.8580     0.0240    87.0370     2.4620   334.7790   -22.3400    10.5300     9.5270    10.2560
  619.0000     9.8630     0.0220    88.6950     2.4580   338.7150   -22.4370    10.4580     9.4640    10.1870
  619.5000     9.8690     0.0210    90.3850     2.4490   342.6510   -22.5480    10.3850     9.4000    10.1190
  620.0000     9.8750     0.0200    92.1460     2.4390   346.5860   -22.5520    10.3130     9.3370    10.0500
  620.5000     9.8800     0.0200    91.4580     2.4490   350.5220   -22.3900    10.2410     9.2730     9.9820
  621.0000     9.8860     0.0200    90.3810     2.4520   354.4580   -22.2420    10.2100     9.2090     9.9130
  621.5000     9.8910     0.0200    89.3130     2.4470   358.3940   -22.0910    10.1720     9.1420     9.8410
  622.0000     9.8970     0.0200    88.2390     2.4550   362.3290   -21.9390    10.1210     9.2120     9.9160
  622.5000     9.9070     0.0200    88.3780     2.4670   366.2650   -21.7880    10.0700     9.2870     9.9970
  623.0000     9.9260     0.0210    89.3130     2.4660   370.2010   -21.6360    10.0240     9.3620    10.0780
  623.5000     9.9440     0.0220    90.2670     2.4600   365.9640   -21.4880    10.0900     9.4370    10.1580
  624.0000     9.9630     0.0240    90.0650     2.4570   357.7640   -21.3280    10.1520     9.5110    10.2390
  624.5000     9.9810     0.0250    88.8860     2.4600   349.5650   -21.1920    10.2130     9.5860    10.3190
  625.0000    10.0000     0.0260    87.7080     2.4620   341.3650   -21.0240    10.2750     9.6610    10.4000
  625.5000    10.0180     0.0270    86.5450     2.4640   333.1660   -21.3900    10.3360     9.8870    10.6430
  626.0000    10.0370     0.0290    84.3090     2.4580   323.9630   -21.8780    10.4000    10.1140    10.8870
  626.5000    10.0550     0.0310    81.7060     2.4490   303.9190   -22.3860    10.8080    10.3400    11.1310
  627.0000    10.0490     0.0330    79.3590     2.4430   283.8760   -22.8740    11.2330    10.5290    11.4580
  627.5000    10.0240     0.0340    77.2080     2.4380   263.8330   -23.9760    11.6150    10.9230    12.2620
  628.0000     9.9990     0.0360    75.0520     2.4210   243.7900   -25.3310    14.4010    11.3160    13.0650
  628.5000     9.9740     0.0340    72.8920     2.3930   223.7470   -26.7480    16.9280    11.7100    13.8690
  629.0000     9.9500     0.0310    70.7300     2.3640   203.7040   -27.5750    19.4560    12.1040    14.6730
  629.5000     9.8310     0.0290    68.5470     2.3450   183.6610   -27.7810    22.9630    12.4980    15.4770
  630.0000     9.6660     0.0270    66.2740     2.3380   163.6170   -28.0690    22.5170    12.9730    16.2810
  630.5000     9.5010     0.0270    66.9750     2.3420   143.5740   -28.3330    21.7890    13.0270    17.1010
  631.0000     9.3430     0.0290    68.1060     2.3530   123.5310   -28.5780    21.0610    13.1650    17.6780
  631.5000     9.2610     0.0330    69.2380     2.3650   110.4420   -28.6140    20.3330    13.3040    18.1320
  632.0000     9.2360     0.0360    70.3790     2.3840   112.9680   -28.4100    19.1000    13.4430    18.5850
  632.5000     9.2110     0.0390    70.9220     2.4060   117.7290   -27.8580    24.6160    13.5820    19.0390
  633.0000     9.1870     0.0420    70.6190     2.4430   122.4900   -27.3440    36.3940    13.7100    19.4550
  633.5000     9.1670     0.0450    70.1600     2.4820   127.2510   -26.8030    35.0180    13.7100    19.0360
  634.0000     9.1480     0.0480    70.0740     2.5220   132.0120   -26.2790    29.8300    13.5880    18.6490
  634.5000     9.1280     0.0520    71.3350     2.5610   136.7730   -25.8330    24.6430    13.3170    18.2620
  635.0000     9.1480     0.0500    72.5560     2.5130   141.5340   -25.9740    19.4550    13.0460    17.8750
  635.5000     9.1800     0.0470    73.7840     2.4510   146.2950   -26.1100    18.1510    12.7750    17.4890
  636.0000     9.2120     0.0430    75.0420     2.4100   151.0560   -26.2750    16.4830    12.5050    17.1020
  636.5000     9.2440     0.0400    77.4260     2.3920   155.8170   -26.4140    16.8530    12.2340    16.7150
  637.0000     9.2770     0.0360    81.5030     2.3760   160.5780   -26.5930    17.2390    12.0510    16.3280
  637.5000     9.3050     0.0340    81.1290     2.3740   165.3390   -26.4900    17.7430    12.0080    15.9410
  638.0000     9.3310     0.0320    80.8820     2.3640   170.6830   -26.2100    17.4190    11.9620    15.5540
  638.5000     9.3560     0.0310    80.6510     2.3510   172.4590   -25.9040    16.7600    11.9150    15.1670
  639.0000     9.3820     0.0320    80.4030     2.3610   176.2430   -25.9050    15.8870    11.8680    14.9610
  639.5000     9.4080     0.0330    80.2570     2.3780   180.0280   -26.1540    16.3390    11.8220    14.8530
  640.0000     9.4340     0.0340    81.6520     2.3890   183.8120   -26.3730    16.3320    11.7750    14.7440
  640.5000     9.4600     0.0300    83.0240     2.3850   187.5970   -26.5950    15.3120    11.7280    14.6350
  641.0000     9.4780     0.0260    84.3880     2.3760   190.7630   -26.8210    15.5850    11.6820    14.5270
  641.5000     9.4870     0.0240    84.9950     2.3660   190.7630   -27.0440    16.0630    11.6350    14.4180
  642.0000     9.4970     0.0260    84.9990     2.3560   197.1330   -27.2660    16.4830    11.5880    14.3090
  642.5000     9.5070     0.0290    85.0020     2.3680   203.9190   -27.4890    15.8870    11.5410    14.2010
  643.0000     9.5160     0.0310    85.0000     2.3850   210.7050   -27.7230    15.5970    11.4950    14.0920
  643.5000     9.5260     0.0340    85.0000     2.4020   217.4910   -27.7120    15.3120    11.4480    13.9830
  644.0000     9.5360     0.0360    85.0000     2.4110   224.2760   -27.2920    15.3120    11.4030    13.8750
  644.5000     9.5450     0.0380    85.0000     2.4190   231.0620   -26.8850    15.0120    11.3000    13.7660
  645.0000     9.5540     0.0370    85.0010     2.4180   237.8480   -26.4710    14.7240    11.2010    13.6570
  645.5000     9.5650     0.0360    85.0010     2.4120   244.6340   -26.0530    14.4890    11.1020    13.5490
  646.0000     9.5740     0.0340    84.9980     2.4150   251.4190   -25.6410    14.1590    11.0020    13.4400
