~VERSION INFORMATION
 VERS.                2.0:   CWLS LOG ASCII STANDARD - VERSION 2.0
 WRAP.                 NO:   ONE LINE PER DEPTH STEP
~WELL INFORMATION
#MNEM.UNIT      DATA TYPE    INFORMATION
#----------   ------------   ------------------------------
 STRT.F          200.0000:   START DEPTH
 STOP.F         3050.0000:   STOP DEPTH
 STEP.F            0.5000:   STEP LENGTH
 NULL.          -999.2500:   NO VALUE
 COMP.     FENIX & SISSON:   COMPANY
 WELL. FENIX & SISSON "AX" #16-28:   WELL
 FLD .              NPR 3:   FIELD
 LOC .      S28 T39N R78W:   LOCATION
 CNTY.            NATRONA:   COUNTY
 STAT.            WYOMING:   STATE
 CTRY. UNITED STATES OF AMERICA:   COUNTRY
 SRVC.      DRESSER ATLAS:   SERVICE COMPANY
 DATE.        01-JUL-1977:   LOGDATE
 API .     49025103930000:   API NUMBER
~CURVE INFORMATION
#MNEM.UNIT       API CODE    CURVE DESCRIPTION
#----------   ------------   ------------------------------
 DEPT.F                  :   
 CALD.IN     45 280 60 00:   CALIPER FROM DENSITY LOG
 GRD .GAPI   45 310 01 00:   GAMMA RAY FROM DENSITY LOG
 CORR.G/C3   45 356 01 00:   DENSITY CORRECTION
 TEND.LBS    45 635 01 00:   TENSION FROM DENSITY LOG
 SPR .MV     07 010 01 00:   SPONTANEOUS POTENTIAL
 ILD .OHMM   07 120 46 00:   DEEP INDUCTION RESISTIVITY
 ILM .OHMM   07 120 44 00:   INDUCTION LOG MEDIUM RESISTIVITY
 SFL .OHMM   07 220 01 00:   SHALLOW FOCUSED LOG RESISTIVITY
 RHOB.G/C3   45 350 01 00:   BULK DENSITY
~PARAMETER INFORMATION
#MNEM.UNIT          VALUE    DESCRIPTION
#----------   ------------   ------------------------------
 EKB .F         5067.0000:   Kelly bushing
 EGL .F         5057.0000:   Ground level
 EDF .F         5066.0000:   Drilling floor
 EPD .F            0.0000:   Permanent datum
 TD  .F         3036.0000:   Total depth
 DATE.        01-JUL-1977:   Date logged
 CLNT.            A2DTECH:   Client Code
 SL  . 1220' FSL & 330' FWL:   Surface Location
 PD  .                 GL:   Permanent Datum
 DAPD.F                10:   Feet Above Permanent Datum
 DD  .F              3034:   Depth driller
 DL  .F              3036:   Depth logger
 BLI .F              3034:   Bottom log interval
 TLI .F               214:   Top log interval
 CS1 .IN            8.625:   Casing size
 CBD1.      8.625" @ 204':   Casing driller 1
 CBL1.F               214:   Casing logger 1
 BS1 .IN            7.875:   Bit size
 BSD1.F              3034:   Depth drilled with bit1
 DFT .                KCL:   Type fluid in hole
 DFD .                  9:   Density
 DFV .                 34:   Viscosity
 DFPH.                7.2:   pH
 DFL .                8.8:   Fluid loss
 MSS .         CIRCULATED:   Source of sample
 RMS .OHMM           .112:   Rm
 MST .F                75:   Rm Meas. temp.
 RMF .OHMM           .085:   Rmf
 MFST.F                75:   Rmf Meas. temp.
 RMC .OHMM           .141:   Rmc
 MCST.F                75:   Rmc Meas. temp.
 MFSS.               MEAS:   Source Rmf.
 MCSS.               MEAS:   Source Rmc.
 RMB .OHMM           .067:   Rm. at BHT
 BHT .F               124:   BHT.
 TCS .HRS               1:   Time Circ. stopped
 MRT .F               124:   Maximum recorded temp.
 LUN .               6134:   Logging unit number
 LUL .              GLTTE:   Logging unit location
 ENGI.              GOULD:   Recorded By
 WITN.         PETTINGILL:   Witnessed by
 ORIG.       2.5"5" PRINT:   Origin of data
 UWI .     49025103930000:   Unique Well ID
 DICO. A2D TECHNOLOGIES, INC.:   Digitizing Company
~OTHER INFORMATION
~A   DEPT     CALD         GRD      CORR       TEND        SPR        ILD        ILM        SFL       RHOB   
# ...
 1696.5000     8.0430    98.9110     0.0280   -36.7060   -68.6960     5.8800     8.1370    10.9900     2.5430
 1697.0000     8.0340   100.2730     0.0260   -36.7060   -68.7020     6.0310     8.1990    11.2430     2.5390
 1697.5000     8.0260   100.7890     0.0230   -36.7060   -68.7010     6.1830     8.2600    11.0480     2.5370
 1698.0000     8.0290    96.9170     0.0210   -36.7060   -68.6970     6.3340     8.3220    10.6290     2.5370
 1698.5000     8.0340    96.8410     0.0160   -36.7060   -68.7410     6.4850     8.3810    10.2110     2.5420
 1699.0000     8.0380    97.8690     0.0060   -36.7060   -68.8420     6.6020     8.4310     9.9940     2.5320
 1699.5000     8.0430    97.9440    -0.0050   -36.7060   -68.9390     6.6020     8.4790    10.4680     2.5150
 1700.0000     8.0450    98.9150     0.0020   -36.7060   -69.0350     6.6020     8.5370    11.0380     2.5210
 1700.5000     8.0450    99.8830     0.0160   -36.7060   -69.1360     6.6020     8.4750    11.0380     2.5370
 1701.0000     8.0460    99.3940     0.0290   -36.7060   -69.2300     6.5420     8.3980    10.8550     2.5580
 1701.5000     8.0450   100.1620     0.0310   -39.1600   -69.3260     6.4810     8.1010    10.6700     2.5550
 1702.0000     8.0420   100.8130     0.0240   -44.3300   -69.4420     6.4200     7.7430    10.4860     2.5460
 1702.5000     8.0260   100.4080     0.0170   -49.4990   -69.3810     6.3590     7.3710    10.3010     2.5300
 1703.0000     8.0110    99.7740     0.0130   -54.6680   -69.0380     6.2980     7.1050    10.0770     2.5200
 1703.5000     8.0140    99.1470     0.0220   -29.7620   -68.7240     6.2370     7.3140    10.0920     2.5420
 1704.0000     8.0510    98.6300     0.0340    -4.2990   -68.3960     6.1760     7.5930    10.1210     2.5660
 1704.5000     8.0580    98.1780     0.0400   -36.7060   -68.3010     6.1150     7.8720    10.1500     2.5690
 1705.0000     8.0220    97.7430     0.0410   -28.2030   -68.3070     6.0540     8.2220    10.1790     2.5660
 1705.5000     7.9870    98.1420     0.0440   -17.6800   -68.3080     5.9930     8.2070    10.2070     2.5710
 1706.0000     7.9870    98.8190     0.0370    -6.9440   -68.3060     5.9140     8.1760    10.2360     2.5580
 1706.5000     8.0240    98.9740     0.0330   -18.0480   -68.3080     6.0220     8.1450    10.2720     2.5500
 1707.0000     8.0500    98.3230     0.0360   -29.3800   -68.3050     6.1770     8.1140    10.3250     2.5490
 1707.5000     8.0560    99.5660     0.0350   -36.7060   -68.3080     6.3320     8.0790    10.3770     2.5490
 1708.0000     8.0290   100.7040     0.0320   -36.7060   -68.3170     6.4870     8.1230    10.4290     2.5460
 1708.5000     8.0060   100.2360     0.0300   -36.7060   -68.4710     6.6420     8.1730    10.7860     2.5460
 1709.0000     8.0170    99.6050     0.0270   -36.7060   -68.6160     6.7970     8.2230    11.2940     2.5460
 1709.5000     8.0380    99.3240     0.0250   -36.7060   -68.7700     6.9760     8.2730    11.8790     2.5440
 1710.0000     8.0600   100.8450     0.0220   -36.7060   -68.9190     6.9760     8.3220    11.4640     2.5370
 1710.5000     8.0580    98.7370     0.0200   -36.7060   -69.0880     6.9760     8.3810    10.9750     2.5260
 1711.0000     8.0480    99.2150     0.0200   -36.7060   -69.3880     6.9760     8.3430    10.4850     2.5180
 1711.5000     8.0370   100.2690     0.0210   -36.7060   -69.7440     6.9760     8.2970     9.7070     2.5240
 1712.0000     8.0270   101.3100     0.0260   -36.7060   -70.0950     6.9760     8.2510     9.8010     2.5270
 1712.5000     8.0290   102.0120     0.0310   -36.7060   -70.4830     6.9760     8.2050    10.0280     2.5320
 1713.0000     8.0330    99.7230     0.0360   -33.5320   -70.6130     7.0120     8.1590    10.2570     2.5420
 1713.5000     8.0370    98.2910     0.0420   -28.6210   -70.3920     7.0580     8.1120    10.1840     2.5540
 1714.0000     8.0410    97.1000     0.0470   -23.7100   -70.2050     7.1050     7.8720    10.0600     2.5640
 1714.5000     8.0440    96.1220     0.0470   -18.8000   -69.9890     6.5650     7.3250     9.9360     2.5620
 1715.0000     8.0560    96.8400     0.0470   -13.8890   -69.9670     5.6220     6.6540     9.8120     2.5580
 1715.5000     8.0700    97.8270     0.0500    -8.9780   -70.2640     4.6790     5.7670     9.7070     2.5580
 1716.0000     8.0830    98.3170     0.0540   -18.4520   -70.5580     3.7360     4.8810     9.7070     2.5550
 1716.5000     8.0960    98.8440     0.0530   -38.0950   -70.5870     2.7930     3.9940     7.9910     2.5320
 1717.0000     8.1180    98.2900     0.0470   -18.8490   -70.3800     2.4210     3.1080     6.3030     2.4950
 1717.5000     8.1560    98.4770     0.0360   -12.1800   -70.1960     2.2350     2.6860     4.6620     2.4190
 1718.0000     8.1930    99.9190     0.0240   -39.4620   -70.0130     2.2490     3.5380     3.0960     2.3130
 1718.5000     8.2470    98.9890     0.0130   -38.5800   -69.8240     2.2940     4.2990     2.3190     2.3020
 1719.0000     8.3070    97.6720     0.0130   -26.7860   -69.6400     2.3390     5.0190     4.2490     2.2930
 1719.5000     8.3080    96.3500     0.0250   -54.1230   -69.4510     2.4720     5.6450    10.7170     2.3720
 1720.0000     8.1870    95.1090     0.0310   -32.2970   -69.2670     3.1880     6.2720    15.0810     2.4660
 1720.5000     8.1250    95.8260     0.0310   -16.1460   -69.1020     4.1310     6.8980    13.9500     2.5390
 1721.0000     8.1250    96.0450     0.0320   -13.6900   -69.0970     5.0740     7.3960    12.6640     2.5520
 1721.5000     8.1460    95.9780     0.0330   -11.2350   -69.0920     6.0170     7.8300    11.4510     2.5450
 1722.0000     8.1700    96.7160     0.0280    -8.7800   -69.0960     6.9120     8.2640    11.0380     2.5320
 1722.5000     8.1950    96.9870     0.0330   -10.3890   -69.0950     7.9320     8.6980    11.0380     2.5310
 1723.0000     8.2060    97.0340     0.0410   -24.0300   -69.0910     7.5550     8.8560    11.0380     2.5410
 1723.5000     8.1370    97.3640     0.0400   -37.6710   -69.1090     6.9760     8.8560    11.0380     2.5490
 1724.0000     8.1250    97.1470     0.0350   -51.3120   -68.9490     6.9930     9.0430    11.0380     2.5480
 1724.5000     8.1330    97.3210     0.0300   -49.3430   -68.6700     7.0100     9.3450    11.1690     2.5450
 1725.0000     8.1470    96.8550     0.0320   -37.6510   -68.4110     7.0270     9.7070    11.4880     2.5420
 1725.5000     8.1610    97.5020     0.0360   -25.9590   -68.1530     7.0440     9.5070    11.8070     2.5460
 1726.0000     8.1590    98.7240     0.0380   -14.2670   -67.8930     7.0610     9.2560    12.1250     2.5570
 1726.5000     8.1320    99.5420     0.0400    -8.6310   -67.6240     7.0770     9.0050    12.3520     2.5500
 1727.0000     8.1050    98.6190     0.0280   -18.4520   -67.5110     7.0940     8.7540    12.4280     2.5270
 1727.5000     8.0780    98.1540     0.0150   -28.2740   -67.5200     7.1160     8.6480    12.5050     2.5060
 1728.0000     8.0620    99.6220     0.0110   -28.0260   -67.5200     7.1460     8.5870    12.5810     2.5020
 1728.5000     8.0550    98.5910     0.0160     6.9440   -67.5190     7.1760     8.5260    12.6570     2.5130
 1729.0000     8.0490    97.4850     0.0210   -10.9130   -67.5150     7.2050     8.4650    12.7840     2.5220
 1729.5000     8.0420    97.2340     0.0270   -27.2820   -67.5780     7.2350     8.4040    12.6470     2.5290
 1730.0000     8.0360    98.0800     0.0320   -31.7460   -67.7650     7.2650     8.3430    12.2340     2.5350
 1730.5000     8.0290    99.1910     0.0380   -36.2100   -67.9450     7.2960     8.2820    11.8210     2.5420
 1731.0000     8.0380   100.1340     0.0440   -36.7060   -68.1290     7.3270     8.2210    11.4510     2.5490
 1731.5000     8.0620   100.6240     0.0490   -23.4380   -68.3130     7.3670     8.1600    11.5490     2.5550
 1732.0000     8.0960   100.8890     0.0490   -11.1610   -68.4950     7.3180     8.0790    11.6370     2.5620
 1732.5000     8.1320   100.1610     0.0400     1.1160   -68.6960     7.2060     8.1740    11.7260     2.5580
