~VERSION INFORMATION
 VERS.                2.0:   CWLS LOG ASCII STANDARD - VERSION 2.0
 WRAP.                 NO:   ONE LINE PER DEPTH STEP
~WELL INFORMATION
#MNEM.UNIT      DATA TYPE    INFORMATION
#----------   ------------   ------------------------------
 STRT.F           40.0000:   START DEPTH
 STOP.F         3326.0000:   STOP DEPTH
 STEP.F            0.5000:   STEP LENGTH
 NULL.          -999.2500:   NO VALUE
 COMP.    FENIX & SCISSON:   COMPANY
 WELL.  FENIX "AX" #53-15:   WELL
 FLD .              NPR-3:   FIELD
 LOC .      S15 T38N R78W:   LOCATION
 CNTY.            NATRONA:   COUNTY
 STAT.            WYOMING:   STATE
 CTRY. UNITED STATES OF AMERICA:   COUNTRY
 SRVC.              WELEX:   SERVICE COMPANY
 DATE.        02-MAR-1977:   LOGDATE
 API .     49025102640000:   API NUMBER
~CURVE INFORMATION
#MNEM.UNIT       API CODE    CURVE DESCRIPTION
#----------   ------------   ------------------------------
 DEPT.F                  :   
 CALD.IN     42 280 60 00:   CALIPER
 TEND.LBS    42 635 01 00:   TENSION FROM NEUTRON POROSITY LOG
 GRD .GAPI   42 310 30 00:   GAMMA RAY
 NPHI.DEC    42 890 03 00:   NEUTRON POROSITY SANDSTONE
 DPHI.DEC    45 890 12 00:   DENSITY POROSITY SANDSTONE
 SPR .MV     07 010 01 00:   SPONTANEOUS POTENTIAL
 ILD .OHMM   07 120 46 00:   DEEP INDUCTION RESISTIVITY
 ILM .OHMM   07 120 44 00:   INDUCTION LOG MEDIUM RESISTIVITY
 SGRD.OHMM   07 220 05 00:   SHALLOW SHORT GUARD RESISTIVITY
~PARAMETER INFORMATION
#MNEM.UNIT          VALUE    DESCRIPTION
#----------   ------------   ------------------------------
 EKB .F            0.0000:   Kelly bushing
 EGL .F         5251.0000:   Ground level
 EDF .F            0.0000:   Drilling floor
 TD  .F          750.0000:   Total depth
 DATE.        02-MAR-1977:   Date logged
 CLNT.            A2DTECH:   Client Code
 SL  . 1650' FNL & 2360' FEL:   Surface Location
 PD  .                 GL:   Permanent Datum
 EPD .F              5253:   Elevation Permanent Datum
 LMF .                 GL:   Log Measured From
 DMF .                 GL:   Drilling Measured From
 DD  .F               750:   Depth driller
 DL  .F               747:   Depth logger
 BLI .F               745:   Bottom log interval
 CS1 .IN            8.625:   Casing size
 CBD1.       8.625" @ 40':   Casing driller 1
 CBL1.F                44:   Casing logger 1
 BS1 .IN            7.875:   Bit size
 BSD1.F               750:   Depth drilled with bit1
 DFT .           CHEM-GEL:   Type fluid in hole
 MSS .           FLOWLINE:   Source of sample
 RMS .OHMM          0.425:   Rm
 MST .F                56:   Rm Meas. temp.
 RMF .OHMM          0.466:   Rmf
 MFST.F                56:   Rmf Meas. temp.
 RMC .OHMM          0.712:   Rmc
 MCST.F                56:   Rmc Meas. temp.
 MFSS.               MEAS:   Source Rmf.
 MCSS.               MEAS:   Source Rmc.
 RMB .OHMM          0.350:   Rm. at BHT
 BHT .F                68:   BHT.
 TCS .HRS               2:   Time Circ. stopped
 MRT .F                68:   Maximum recorded temp.
 LUN .               8611:   Logging unit number
 LUL .            GILLETH:   Logging unit location
 ENGI.          D. LAWSON:   Recorded By
 WITN.           S. BURKL:   Witnessed by
 ORIG.           5" PRINT:   Origin of data
 UWI .     49025102640000:   Unique Well ID
 DICO. A2D TECHNOLOGIES, INC.:   Digitizing Company
~OTHER INFORMATION
~A   DEPT     CALD       TEND         GRD        NPHI     DPHI        SPR        ILD        ILM       SGRD   
# ...
 2193.5000     8.0700   224.7750   165.2630     0.3750     0.1090  -999.2500  -999.2500  -999.2500  -999.2500
 2194.0000     8.0700   265.0020   169.9690     0.3770     0.1140  -999.2500  -999.2500  -999.2500  -999.2500
 2194.5000     8.0700   284.1160   168.0370     0.3750     0.1140  -999.2500  -999.2500  -999.2500  -999.2500
 2195.0000     8.0700   261.3390   162.3930     0.3710     0.1070  -999.2500  -999.2500  -999.2500  -999.2500
 2195.5000     8.0700   284.7150   158.3820     0.3640     0.1010  -999.2500  -999.2500  -999.2500  -999.2500
 2196.0000     8.0700   274.3660   161.9750     0.3590     0.0980  -999.2500  -999.2500  -999.2500  -999.2500
 2196.5000     8.0700   264.7350   156.9840     0.3610     0.0970  -999.2500  -999.2500  -999.2500  -999.2500
 2197.0000     8.0700   263.5720   161.4370     0.3640     0.0960  -999.2500  -999.2500  -999.2500  -999.2500
 2197.5000     8.0700   261.7740   162.4610     0.3600     0.0990  -999.2500  -999.2500  -999.2500  -999.2500
 2198.0000     8.0700   259.9760   158.9780     0.3490     0.1030  -999.2500  -999.2500  -999.2500  -999.2500
 2198.5000     8.0700   258.1780   164.3600     0.3460     0.1090  -999.2500  -999.2500  -999.2500  -999.2500
 2199.0000     8.0700   256.3790   160.1750     0.3440     0.1190  -999.2500  -999.2500  -999.2500  -999.2500
 2199.5000     8.0700   254.7450   157.6440     0.3440     0.1150  -999.2500  -999.2500  -999.2500  -999.2500
 2200.0000     8.0700   257.8350   152.4340     0.3510     0.1140  -999.2500  -999.2500  -999.2500  -999.2500
 2200.5000     8.0700   261.2960   150.7080     0.3500     0.1010  -999.2500  -999.2500  -999.2500  -999.2500
 2201.0000     8.0700   264.7570   149.3670     0.3500     0.1040  -999.2500  -999.2500  -999.2500  -999.2500
 2201.5000     8.0700   268.2170   153.7940     0.3520     0.1090  -999.2500  -999.2500  -999.2500  -999.2500
 2202.0000     8.0700   271.6780   158.8290     0.3540     0.1140  -999.2500  -999.2500  -999.2500  -999.2500
 2202.5000     8.0710   274.7250   162.2180     0.3600     0.1120  -999.2500  -999.2500  -999.2500  -999.2500
 2203.0000     8.0710   263.8760   164.4740     0.3580     0.1070  -999.2500  -999.2500  -999.2500  -999.2500
 2203.5000     8.0710   248.8310   157.7780     0.3550     0.1020  -999.2500  -999.2500  -999.2500  -999.2500
 2204.0000     8.0720   274.0060   152.6160     0.3550     0.1000  -999.2500  -999.2500  -999.2500  -999.2500
 2204.5000     8.0720   230.3530   154.0920     0.3540     0.1000  -999.2500  -999.2500  -999.2500  -999.2500
 2205.0000     8.0730   293.0400   151.8620     0.3520     0.1020  -999.2500  -999.2500  -999.2500  -999.2500
 2205.5000     8.0730   277.5220   152.2970     0.3520     0.1060  -999.2500  -999.2500  -999.2500  -999.2500
 2206.0000     8.0730   261.8540   151.5030     0.3550     0.1030  -999.2500  -999.2500  -999.2500  -999.2500
 2206.5000     8.0740   256.5750   156.4270     0.3580     0.0960  -999.2500  -999.2500  -999.2500  -999.2500
 2207.0000     8.0740   251.2960   149.6390     0.3600     0.0950  -999.2500  -999.2500  -999.2500  -999.2500
 2207.5000     8.0740   246.0170   150.8840     0.3610     0.0980  -999.2500  -999.2500  -999.2500  -999.2500
 2208.0000     8.0750   249.8770   151.4210     0.3590     0.0970  -999.2500  -999.2500  -999.2500  -999.2500
 2208.5000     8.0750   258.9960   149.2190     0.3560     0.1050  -999.2500  -999.2500  -999.2500  -999.2500
 2209.0000     8.0760   264.7350   147.5120     0.3590     0.1080  -999.2500  -999.2500  -999.2500  -999.2500
 2209.5000     8.0760   264.7350   144.8170     0.3630     0.1130  -999.2500  -999.2500  -999.2500  -999.2500
 2210.0000     8.0760   264.7350   141.4900     0.3700     0.1130  -999.2500  -999.2500  -999.2500  -999.2500
 2210.5000     8.0770   264.7350   140.8410     0.3790     0.1170  -999.2500  -999.2500  -999.2500  -999.2500
 2211.0000     8.0770   270.6090   143.7790     0.3770     0.1110  -999.2500  -999.2500  -999.2500  -999.2500
 2211.5000     8.0770   268.8510   144.2650     0.3740     0.1050  -999.2500  -999.2500  -999.2500  -999.2500
 2212.0000     8.0780   253.8060   145.7990     0.3770     0.0990  -999.2500  -999.2500  -999.2500  -999.2500
 2212.5000     8.0780   247.6100   144.3090     0.3740     0.1000  -999.2500  -999.2500  -999.2500  -999.2500
 2213.0000     8.0790   261.9380   142.8540     0.3690     0.0970  -999.2500  -999.2500  -999.2500  -999.2500
 2213.5000     8.0790   244.7550   145.1200     0.3630     0.0930  -999.2500  -999.2500  -999.2500  -999.2500
 2214.0000     8.0790   278.4550   143.5390     0.3590     0.0950  -999.2500  -999.2500  -999.2500  -999.2500
 2214.5000     8.0800   255.6020   144.4310     0.3580     0.0970  -999.2500  -999.2500  -999.2500  -999.2500
 2215.0000     8.0800   251.5480   139.3320     0.3640     0.0930  -999.2500  -999.2500  -999.2500  -999.2500
 2215.5000     8.0800   264.1360   138.0760     0.3730     0.0910  -999.2500  -999.2500  -999.2500  -999.2500
 2216.0000     8.0810   239.0610   134.4040     0.3790     0.0930  -999.2500  -999.2500  -999.2500  -999.2500
 2216.5000     8.0810   271.8280   126.2600     0.3740     0.0940  -999.2500  -999.2500  -999.2500  -999.2500
 2217.0000     8.0820   259.2910   121.1290     0.3680     0.0940  -999.2500  -999.2500  -999.2500  -999.2500
 2217.5000     8.0820   261.1390   125.6170     0.3520     0.1030  -999.2500  -999.2500  -999.2500  -999.2500
 2218.0000     8.0820   271.1690   130.9100     0.3490     0.1210  -999.2500  -999.2500  -999.2500  -999.2500
 2218.5000     8.0830   273.4090   128.9390     0.3610     0.1330  -999.2500  -999.2500  -999.2500  -999.2500
 2219.0000     8.0830   270.4590   126.2370     0.3710     0.1250  -999.2500  -999.2500  -999.2500  -999.2500
 2219.5000     8.0830   267.5090   131.2950     0.3780     0.1050  -999.2500  -999.2500  -999.2500  -999.2500
 2220.0000     8.0840   264.7350   134.4740     0.3740     0.1070  -999.2500  -999.2500  -999.2500  -999.2500
 2220.5000     8.0840   314.6850   136.7530     0.3710     0.1100  -999.2500  -999.2500  -999.2500  -999.2500
 2221.0000     8.0850   224.7750   141.2100     0.3750     0.1090  -999.2500  -999.2500  -999.2500  -999.2500
 2221.5000     8.0850   277.8220   142.5190     0.3800     0.1060  -999.2500  -999.2500  -999.2500  -999.2500
 2222.0000     8.0850   280.9190   143.6620     0.3780     0.1100  -999.2500  -999.2500  -999.2500  -999.2500
 2222.5000     8.0860   254.7450   140.2880     0.3700     0.1180  -999.2500  -999.2500  -999.2500  -999.2500
 2223.0000     8.0860   251.7230   137.1880     0.3670     0.1280  -999.2500  -999.2500  -999.2500  -999.2500
 2223.5000     8.0860   245.4550   134.4680     0.3720     0.1220  -999.2500  -999.2500  -999.2500  -999.2500
 2224.0000     8.0870   314.6850   132.4350     0.3770     0.1130  -999.2500  -999.2500  -999.2500  -999.2500
 2224.5000     8.0870   224.7750   135.3680     0.3820     0.1130  -999.2500  -999.2500  -999.2500  -999.2500
 2225.0000     8.0880   277.2230   142.4780     0.3850     0.1150  -999.2500  -999.2500  -999.2500  -999.2500
 2225.5000     8.0880   266.5730   144.1530     0.3820     0.1180  -999.2500  -999.2500  -999.2500  -999.2500
 2226.0000     8.0880   274.9540   148.1100     0.3750     0.1150  -999.2500  -999.2500  -999.2500  -999.2500
 2226.5000     8.0890   289.5100   158.4180     0.3710     0.1090  -999.2500  -999.2500  -999.2500  -999.2500
 2227.0000     8.0890   275.6910   157.0790     0.3720     0.1110  -999.2500  -999.2500  -999.2500  -999.2500
 2227.5000     8.0900   284.7150   159.1120     0.3730     0.1150  -999.2500  -999.2500  -999.2500  -999.2500
 2228.0000     8.0900   258.3420   157.5830     0.3700     0.1160  -999.2500  -999.2500  -999.2500  -999.2500
 2228.5000     8.0960   314.6850   154.8250     0.3640     0.1090  -999.2500  -999.2500  -999.2500  -999.2500
 2229.0000     8.1060   262.4520   154.4200     0.3610     0.1130  -999.2500  -999.2500  -999.2500  -999.2500
 2229.5000     8.1480   235.1650   156.4240     0.3670     0.1200  -999.2500  -999.2500  -999.2500  -999.2500
