~VERSION INFORMATION
 VERS.                2.0:   CWLS LOG ASCII STANDARD - VERSION 2.0
 WRAP.                 NO:   ONE LINE PER DEPTH STEP
~WELL INFORMATION
#MNEM.UNIT      DATA TYPE    INFORMATION
#----------   ------------   ------------------------------
 STRT.F          198.5000:   START DEPTH
 STOP.F         3172.0000:   STOP DEPTH
 STEP.F            0.5000:   STEP LENGTH
 NULL.          -999.2500:   NO VALUE
 COMP.    FENIX & SCISSON:   COMPANY
 WELL. FENIX & SCISSON AX #26-11:   WELL
 FLD .              NPR-3:   FIELD
 LOC .      S11 T38N R78W:   LOCATION
 CNTY.            NATRONA:   COUNTY
 STAT.            WYOMING:   STATE
 CTRY. UNITED STATES OF AMERICA:   COUNTRY
 SRVC.              WELEX:   SERVICE COMPANY
 DATE.        11-NOV-1977:   LOGDATE
 API .     49025104420000:   API NUMBER
~CURVE INFORMATION
#MNEM.UNIT       API CODE    CURVE DESCRIPTION
#----------   ------------   ------------------------------
 DEPT.F                  :   
 GRD .GAPI   45 310 01 00:   GAMMA RAY FROM DENSITY LOG
 CALD.IN     45 280 60 00:   CALIPER FROM DENSITY LOG
 CORR.G/C3   45 356 01 00:   DENSITY CORRECTION
 TEND.LBS    45 635 01 00:   TENSION FROM DENSITY LOG
 RHOB.G/C3   45 350 01 00:   BULK DENSITY
 SPR .MV     07 010 01 00:   SPONTANEOUS POTENTIAL
 ILD .OHMM   07 120 46 00:   DEEP INDUCTION RESISTIVITY
 ILM .OHMM   07 120 44 00:   INDUCTION LOG MEDIUM RESISTIVITY
 SGRD.OHMM   07 220 05 00:   SHALLOW SHORT GUARD RESISTIVITY
~PARAMETER INFORMATION
#MNEM.UNIT          VALUE    DESCRIPTION
#----------   ------------   ------------------------------
 EKB .F         5187.0000:   Kelly bushing
 EGL .F         5177.0000:   Ground level
 EDF .F            0.0000:   Drilling floor
 EPD .F         5177.0000:   Permanent datum
 TD  .F         3174.0000:   Total depth
 CLNT.            A2DTECH:   Client Code
 SL  . 1650' FSL & 840' FWL:   Surface Location
 PD  .                 GL:   Permanent Datum
 LMF .                 KB:   Log Measured From
 DMF .                 KB:   Drilling Measured From
 DAPD.F                10:   Feet Above Permanent Datum
 DATE.        11-NOV-1977:   Date Logged [DD-MMM-YYYY]
 DD  .F              3170:   Depth driller
 DL  .F              3174:   Depth logger
 BLI .F              3172:   Bottom log interval
 TLI .F               200:   Top log interval
 CS1 .              8.625:   Casing size
 CBD1.      8.625" @ 220':   Casing driller 1
 CBL1.IN              220:   Casing logger 1
 BS1 .IN            7.875:   Bit size
 BSD1.F              3170:   Depth drilled with bit1
 DFT .            KCL MUD:   Type fluid in hole
 DFD .                8.9:   Density
 DFV .                 37:   Viscosity
 DFPH.               11.0:   pH
 DFL .                6.4:   Fluid loss
 MSS .           FLOWLINE:   Source of sample
 RMS .OHMM           2.79:   Rm
 MST .F                50:   Rm Meas. temp.
 RMF .OHMM           2.16:   Rmf
 MFST.F                50:   Rmf Meas. temp.
 MFSS.               FANN:   Source Rmf.
 MCSS.               TEST:   Source Rmc.
 RMB .OHMM           1.22:   Rm. at BHT
 BHT .F               114:   BHT.
 TCS .HRS               3:   Time Circ. stopped
 MRT .F               114:   Maximum recorded temp.
 LUN .               8611:   Logging unit number
 LUL .             CASPER:   Logging unit location
 ENGI.            C. DOAK:   Recorded By
 WITN.         HARRINGTON:   Witnessed by
 ORIG.      2.5" 5" PRINT:   Origin of data
 UWI .     49025104420000:   Unique Well ID
 DICO. A2D TECHNOLOGIES, INC.:   Digitizing Company
~OTHER INFORMATION
~A   DEPT       GRD      CALD       CORR       TEND       RHOB        SPR        ILD        ILM       SGRD   
# ...
 2717.0000    85.1177     8.3938     0.0153  2046.4615     2.4377   -46.4915     9.3885     5.6269    12.1388
 2717.5000    85.1027     8.3932     0.0184  2046.9231     2.4421   -46.4988     9.5190     6.2443    12.8306
 2718.0000    85.0878     8.3926     0.0153  2047.3848     2.4466   -46.5061     9.7215     6.6458    15.4674
 2718.5000    82.6776     8.3920     0.0092  2047.8462     2.4525   -46.3629     9.9800     7.2114    19.8443
 2719.0000    80.2674     8.3913     0.0000  2048.3076     2.4525   -46.2196    10.3998     6.5461    20.6049
 2719.5000    77.2585     8.3907    -0.0031  2048.7693     2.4509   -46.3794    11.0651     8.5088    14.8414
 2720.0000    73.0519     8.3901     0.0000  2049.2310     2.4509   -46.5374    11.9375    31.1549    16.0468
 2720.5000    70.6417     8.3895     0.0000  2049.6924     2.4583   -47.1471    12.8786    69.8704    16.4669
 2721.0000    70.0280     8.3889    -0.0062  2050.1541     2.4702   -47.9075    14.2848   406.3049    15.4739
 2721.5000    67.6178     8.3882    -0.0092  2050.6152     2.4999   -48.5172    17.4601   996.7784    15.6906
 2722.0000    62.8124     8.3876    -0.0092  2051.0769     2.5356   -49.1270    42.1114  1974.2024    16.1321
 2722.5000    67.5879     8.3870    -0.0060  2051.5386     2.5504   -49.5861    80.9216  1766.1552    16.4716
 2723.0000    71.7645     8.3864     0.0002  2052.0002     2.5519   -49.8947    96.1212  1242.6156    15.4781
 2723.5000    75.3424     8.4168     0.0094  2052.4614     2.5444   -50.2034    33.6876   438.0545    14.4442
 2724.0000    81.9143     8.4161     0.0157  2052.9231     2.5280   -50.2308    13.7638    10.7467    12.4914
 2724.5000    87.2885     8.4155     0.0278  2053.3848     2.4892   -50.5210    12.4731     7.0034    11.5722
 2725.0000    89.6688     8.4252     0.0307  2053.8462     2.4639   -50.5283    11.7112     6.4457    11.2614
 2725.5000    92.6478     8.4453     0.0307  2023.5386     2.4460   -50.5357    10.8582     6.4448    11.8213
 2726.0000    94.4293     8.4553     0.0304  2024.0000     2.4456   -50.3924    10.1970     6.6244    13.2062
 2726.5000    98.6060     8.4750     0.0273  2024.4615     2.4564   -50.2473     9.6427     6.9515    15.1675
 2727.0000   101.5850     8.4854     0.0245  2024.9231     2.4757   -50.2565     9.3751     7.3452    16.3679
 2727.5000   104.5641     8.5160     0.0314  2025.3846     2.4935   -50.2639     9.1783     7.8151    14.1553
 2728.0000   108.7407     8.5465     0.0429  2025.8461     2.4845   -50.2712     9.1746     8.5080    14.3535
 2728.5000   111.1210     8.5771     0.0259  2026.3076     2.4711   -50.2786     9.1074     9.1170    15.0669
 2729.0000   113.5012     8.5958     0.0083  2026.7692     2.4591   -50.6073     9.1672     9.6760    13.8542
 2729.5000   111.0911     8.6382    -0.0005  2027.2308     2.4576   -51.4999     9.2272    10.0145    14.3177
 2730.0000   108.6809     8.6565    -0.0061  2027.6924     2.4606   -52.1097     9.3522    10.1528    18.6760
 2730.5000   103.8755     8.6867    -0.0025  2028.1539     2.4635   -52.8700     9.3475     7.1876    16.4899
 2731.0000   101.4653     8.6989     0.0042  2028.6154     2.4620   -53.7810     9.2150     5.4524    11.3491
 2731.5000    94.2648     8.7164     0.0129  2029.0769     2.4560   -54.6919     8.9592     8.0250    10.0205
 2732.0000   101.4354     8.7290     0.0184  2029.5385     2.4530   -55.7535     8.9556    10.0771    13.5881
 2732.5000   108.0073     8.7461     0.0215  2030.0001     2.4619   -56.3633     9.0151    11.2526    15.4984
 2733.0000   112.7828     8.7765     0.0215  2030.4614     2.4678   -57.4248     9.0106    10.0359    14.7666
 2733.5000   113.9654     8.8068     0.0215  2030.9231     2.4692   -58.1901     9.0705     8.1568    13.6553
 2734.0000   113.3516     8.8202     0.0215  2031.3846     2.4692   -58.8356     9.0659     7.8552    12.1672
 2734.5000   110.9415     8.8365     0.0260  2031.8463     2.4573   -59.8583     9.1256     9.4633    13.5929
 2735.0000   107.9325     8.8359     0.0199  2032.3077     2.4513   -60.6187     9.1851    10.1387    13.9751
 2735.5000   101.3307     8.8663     0.0153  2032.7692     2.4661   -61.6803     9.1804     8.1275    11.8376
 2736.0000    95.9266     8.8656     0.0153  2033.2307     2.4750   -62.4406     9.2415     7.3777    12.1707
 2736.5000    94.1152     8.8801     0.0201  2033.6924     2.4675   -63.3516     9.3020    10.9339    12.7756
 2737.0000   100.6871     8.8954     0.0276  2064.9231     2.4690   -64.1119     9.3630    12.2940    13.4106
 2737.5000   107.2589     8.8947     0.0206  2065.3848     2.4808   -64.5711     9.4243    13.7281    13.9800
 2738.0000   115.0284     8.8941     0.0184  2065.8462     2.5120   -65.0302     9.3544    15.8719    14.0781
 2738.5000   117.0572     8.8935     0.0215  2066.3076     2.5239   -65.3389     9.2860    17.9388    13.6002
 2739.0000   110.2081     8.8929     0.0215  2066.7693     2.5164   -65.4969     9.0911    20.3399    15.9479
 2739.5000   103.0075     8.8923     0.0215  2067.2310     2.5090   -65.6565     9.0874    16.3051    17.3299
 2740.0000   105.9865     8.8916     0.0204  2067.7844     2.4985   -65.8145     9.0836    14.3977    13.2318
 2740.5000   110.7620     8.8910     0.0153  2068.1538     2.4866   -65.8218     9.0696    15.2133    12.6943
 2741.0000   115.5374     8.9214     0.0112  2068.7061     2.4702   -65.8292     8.8271    17.3434    12.8723
 2741.5000   119.7141     8.9207     0.0031  2069.1670     2.4618   -65.8365     8.6418    18.9695    12.8732
 2742.0000   121.1298     8.9201     0.0084  2069.6277     2.4746   -65.8439     8.4604    19.4988    12.2653
 2742.5000   118.4866     8.9195     0.0219  2070.0884     2.4894   -66.0018     8.3985    11.6157    11.2012
 2743.0000   115.4776     8.9189     0.0361  2070.5493     2.4983   -66.0092     8.1654     8.6308    10.0366
 2743.5000   113.0675     8.9183     0.0399  2071.0100     2.5027   -66.1672     8.0497     7.8223    11.1353
 2744.0000   111.2561     8.8995     0.0399  2071.4707     2.5086   -66.1747     7.8262     7.4037    11.6887
 2744.5000   111.8399     8.8861     0.0429  2071.9314     2.5131   -66.1836     7.5564     7.1106    11.8522
 2745.0000   115.4178     8.8853     0.0429  2072.3921     2.5145   -66.3416     7.1425     6.7742     9.9702
 2745.5000   118.3969     8.8847     0.0429  2072.8530     2.5026   -66.3489     6.7860     6.8202     9.5652
 2746.0000   121.9747     8.8841     0.0429  2073.3137     2.4993   -66.5069     6.2577     7.1569    11.5312
 2746.5000   123.7562     8.8835     0.0416  2073.7744     2.5084   -66.5142     6.0420     7.2557    13.7099
 2747.0000   125.5376     8.8829     0.0385  2074.2354     2.5158   -66.6722     5.9152     6.3626    15.1082
 2747.5000   129.1155     8.8822     0.0293  2074.6960     2.5158   -66.8301     5.8313     4.6307    12.9253
 2748.0000   134.4897     8.8816     0.0231  2075.1567     2.5158   -66.6868     5.8290     4.0051     8.5068
 2748.5000   141.6604     8.8810     0.0155  2075.6177     2.4889   -66.3879     5.9080     3.7622     7.2556
 2749.0000   145.2383     8.8494     0.0031  2076.0784     2.4827   -65.7783     6.0297     3.7112     6.5861
 2749.5000   141.0317     8.8488     0.0092  2076.5393     2.5082   -64.6023     6.1968     4.1727     5.9372
 2750.0000   134.4299     8.8172     0.0215  2077.0000     2.5167   -63.2542     6.5933     6.6261    12.8529
 2750.5000   131.4209     8.8166     0.0291  2077.4607     2.5156   -61.9062     7.1227     7.3991    17.7176
 2751.0000   124.2203     8.7850     0.0214  2077.9216     2.5111   -59.0521     7.8344     8.7314    18.2140
 2751.5000   112.2293     8.7844     0.0153  2078.3823     2.5081   -57.8057     8.4521    13.2110    15.0044
 2752.0000   111.0168     8.7528     0.0200  2078.8430     2.4976   -56.3993     8.9306    18.7845    15.7481
 2752.5000   108.6066     8.7522     0.0245  2079.3037     2.4901   -54.9930     9.5020    23.2645    16.4296
 2753.0000   107.3940     8.7207     0.0276  2079.7644     2.4797   -53.5866     9.8333    25.7996    14.2920
