~VERSION INFORMATION
 VERS.                2.0:   CWLS LOG ASCII STANDARD - VERSION 2.0
 WRAP.                 NO:   ONE LINE PER DEPTH STEP
~WELL INFORMATION
#MNEM.UNIT      DATA TYPE    INFORMATION
#----------   ------------   ------------------------------
 STRT.F         2933.0000:   START DEPTH
 STOP.F         5494.0000:   STOP DEPTH
 STEP.F            0.5000:   STEP LENGTH
 NULL.          -999.2500:   NO VALUE
 COMP.    FENIX & SCISSON:   COMPANY
 WELL. FENIX "TPX" #56-10:   WELL
 FLD .        TEAPOT DOME:   FIELD
 LOC .      S10 T38N R78W:   LOCATION
 CNTY.            NATRONA:   COUNTY
 STAT.            WYOMING:   STATE
 CTRY. UNITED STATES OF AMERICA:   COUNTRY
 SRVC.       SCHLUMBERGER:   SERVICE COMPANY
 DATE.        22-MAY-1978:   LOGDATE
 API .     49025106100000:   API NUMBER
~CURVE INFORMATION
#MNEM.UNIT       API CODE    CURVE DESCRIPTION
#----------   ------------   ------------------------------
 DEPT.F                  :   
 NPHI.DEC    42 890 03 00:   NEUTRON POROSITY SANDSTONE
 GRD .GAPI   45 310 01 00:   GAMMA RAY FROM DENSITY LOG
 CALD.IN     45 280 60 00:   CALIPER FROM DENSITY LOG
 CORR.G/C3   45 356 01 00:   DENSITY CORRECTION
 RHOB.G/C3   45 350 01 00:   BULK DENSITY
 SPR .MV     07 010 01 00:   SPONTANEOUS POTENTIAL
 ILD .OHMM   07 120 46 00:   INDUCTION LOG DEEP RESISTIVITY
 ILM .OHMM   07 120 44 00:   INDUCTION LOG MEDIUM RESISTIVITY
 SFL .OHMM   07 220 01 00:   SHALLOW FOCUSED LOG RESISITIVITY
 DT  .US/F   60 520 00 00:   DELTA TIME
~PARAMETER INFORMATION
#MNEM.UNIT          VALUE    DESCRIPTION
#----------   ------------   ------------------------------
 EKB .F         5212.0000:   Kelly bushing
 EGL .F         5202.0000:   Ground level
 TD  .F         5500.0000:   Total depth
 CLNT.            A2DTECH:   Client Code
 SL  . 1270' FSL & 2130' FEL:   Surface Location
 PD  .                 GL:   Permanent Datum
 EPD .F              5202:   Elevation Permanent Datum
 LMF .                 KB:   Log Measured From
 DMF .                 KB:   Drilling Measured From
 DAPD.F                10:   Feet Above Permanent Datum
 DATE.        22-MAY-1978:   Date Logged [DD-MMM-YYYY]
 DD  .F              5500:   Depth driller
 DL  .F              5499:   Depth logger
 BLI .F              5497:   Bottom log interval
 TLI .F              2971:   Top log interval
 CS1 .IN            8.625:   Casing size
 CBD1.     8.625" @ 2972':   Casing driller 1
 CBL1.F              2971:   Casing logger 1
 BS1 .IN            7.875:   Bit size
 BSD1.F              5500:   Depth drilled with bit1
 DFT .                FGM:   Type fluid in hole
 DFD .                9.3:   Density
 DFV .                 57:   Viscosity
 DFPH.               10.5:   pH
 DFL .                  6:   Fluid loss
 MSS .           MUD TANK:   Source of sample
 RMS .OHMM           0.93:   Rm
 MST .F                58:   Rm Meas. temp.
 RMF .OHMM           0.71:   Rmf
 MFST.F                61:   Rmf Meas. temp.
 MFSS.               MEAS:   Source Rmf.
 RMB .OHMM           0.27:   Rm. at BHT
 BHT .F               198:   BHT.
 TCS .HRS            1500:   Time Circ. stopped
 TLAB.HRS            0100:   Time logger at bottom
 MRT .F               198:   Maximum recorded temp.
 LUN .               8039:   Logging unit number
 LUL .               CSPR:   Logging unit location
 ENGI.          CHALUPSKY:   Recorded By
 WITN.            RHOADES:   Witnessed by
 ORIG.      2.5" 5" PRINT:   Origin of data
 UWI .     49025106100000:   Unique Well ID
 DICO. A2D TECHNOLOGIES, INC.:   Digitizing Company
~OTHER INFORMATION
~A  DEPTH     NPHI        GRD       CALD       CORR       RHOB        SPR        ILD        ILM        SFL         DT
# ...
 4775.5000     0.1232    71.3960     9.9640     0.0166     2.5954   -47.4733    30.0984    28.0524    35.5619    61.2859
 4776.0000     0.1292    70.1605     9.9640     0.0151     2.5858   -47.4821    29.2521    26.5190    32.0304    60.9925
 4776.5000     0.1276    66.9449     9.9640     0.0172     2.5838   -47.3416    28.2786    24.7245    28.0597    60.4689
 4777.0000     0.1209    65.9737     9.9640     0.0187     2.6124   -46.9026    27.8831    23.6989    27.4684    60.0843
 4777.5000     0.1163    67.1413     9.9940     0.0218     2.6328   -46.3144    27.4931    24.0147    28.0330    59.5127
 4778.0000     0.1130    69.3174    10.0240     0.0264     2.6525   -46.0224    27.2973    24.4939    31.0940    59.6705
 4778.5000     0.1106    70.4850    10.0240     0.0393     2.6645   -45.7349    27.1030    24.9928    32.4007    59.8282
 4779.0000     0.1101    65.7158    10.0240     0.0521     2.6733   -45.7436    27.4762    25.6686    32.6108    59.5349
 4779.5000     0.1101    60.3441    10.0541     0.0580     2.6750   -45.7524    28.2440    26.7358    32.5952    59.0911
 4780.0000     0.1077    57.9664    10.0541     0.0550     2.6502   -45.9104    29.4390    27.6551    32.8066    58.4218
 4780.5000     0.1006    55.5887    10.0541     0.0151     2.6369   -45.7700    30.8983    28.6109    33.2453    57.6773
 4781.0000     0.0864    53.8099    10.0841     0.0121     2.6362   -45.4306    32.4299    30.0203    36.3672    57.6076
 4781.5000     0.0816    53.7533    10.0841     0.0121     2.6487   -45.0434    34.2840    31.5374    42.0536    58.2935
 4782.0000     0.0817    61.6294    10.0841     0.0151     2.6576   -45.0522    35.5070    34.1589    55.1003    59.1280
 4782.5000     0.0852    71.2278    10.0841     0.0106     2.6502   -45.3595    35.9662    35.0969    56.2395    60.0376
 4783.0000     0.0924    77.8850    10.0841     0.0076     2.6398   -45.8160    34.7306    34.1032    52.0744    60.8060
 4783.5000     0.1135    81.6111    10.0841     0.0062     2.6354   -46.1233    32.3952    33.1445    46.5788    62.2636
 4784.0000     0.1356    87.0659    10.0841     0.0166     2.6310   -46.2813    27.9957    30.6884    37.8052    64.4225
 4784.5000     0.1577    90.7629    10.0841     0.0429     2.6263   -46.1387    23.3685    27.4473    34.0509    66.2344
 4785.0000     0.1797    93.8619    10.0841     0.0808     2.6156   -45.8511    21.0536    24.0438    30.8831    67.4429
 4785.5000     0.2017    96.3641    10.0841     0.1368     2.5300   -45.8599    19.7747    21.8044    24.7204    66.7755
 4786.0000     0.2123    97.6978    10.0841     0.1341     2.3643   -45.8687    18.9642    20.0493    20.0368    64.7528
 4786.5000     0.1887    92.0611    10.0841     0.0962     2.3323   -46.0394    18.3136    18.4355    18.8398    63.2564
 4787.0000     0.1647    87.4192    10.0841     0.0282     2.3960   -46.4836    18.0575    17.6708    19.2749    61.9104
 4787.5000     0.1435    85.5042    10.0841     0.0280     2.4832   -46.7927    18.1795    17.9127    21.7729    61.4666
 4788.0000     0.1412    86.1198    10.0841     0.0431     2.5689   -46.9485    19.1019    18.4307    26.2480    61.8499
 4788.5000     0.1442    93.1341    10.0841     0.0364     2.6309   -46.5117    20.1883    19.4183    26.4213    62.5340
 4789.0000     0.1614    97.2131    10.0841     0.0120     2.6203   -46.2198    20.4438    19.4024    24.8066    63.2933
 4789.5000     0.1721    96.0330    10.0841     0.0076     2.6161   -45.6316    20.4385    18.8570    22.3431    63.9023
 4790.0000     0.1769    91.2601    10.0841     0.0061     2.6195   -45.0455    20.2930    18.4542    20.5478    63.8895
 4790.5000     0.1769    87.6848    10.0841     0.0046     2.6271   -44.9050    20.1485    18.5673    20.9701    63.2421
 4791.0000     0.1674    84.7084    10.0541     0.0046     2.6294   -44.9138    20.2858    18.8109    22.0036    62.5727
 4791.5000     0.1543    82.3307    10.0541     0.0046     2.6294   -44.7731    20.4229    19.3235    23.2488    62.2775
 4792.0000     0.1430    80.5518    10.0541     0.0031     2.6294   -44.7821    21.1387    20.1269    24.3946    61.6852
 4792.5000     0.1315    78.7730    10.0541     0.0001     2.6294   -44.3431    24.1148    21.5525    24.8961    60.7904
 4793.0000     0.1264    74.5989    10.0240     0.0001     2.6308   -44.5015    25.1216    23.0791    25.9531    60.0459
 4793.5000     0.1239    69.8036    10.0240     0.0032     2.6394   -44.9599    25.8101    24.3752    30.7282    59.1510
 4794.0000     0.1129    68.6460    10.0240     0.0104     2.6500   -45.7149    26.5319    26.1289    35.0473    58.8558
 4794.5000     0.1010    71.9796    10.0240     0.0073     2.6567   -46.3207    27.0855    27.1855    36.1470    59.4665
 4795.0000     0.1017    76.7940    10.0240     0.0045     2.6571   -46.0309    27.2259    26.7842    35.1363    60.5265
 4795.5000     0.1082    79.0180    10.0240     0.0042     2.6456   -46.0397    27.3966    26.0313    32.0895    60.9850
 4796.0000     0.1201    79.4946    10.0240     0.0011     2.6352   -46.0485    27.1843    25.2994    29.7165    61.1429
 4796.5000     0.1308    78.7186    10.0240     0.0001     2.6249   -46.3558    27.1658    24.9311    28.4908    60.6795
 4797.0000     0.1343    77.5102    10.0240     0.0000     2.6230   -46.6631    26.4051    24.9108    28.8753    60.1067
 4797.5000     0.1278    76.5569    10.0541    -0.0006     2.6263   -46.9703    26.0240    25.5896    30.9358    60.1141
 4798.0000     0.1166    77.9940    10.0541    -0.0022     2.6293   -46.9791    25.6483    24.8702    31.3570    60.4222
 4798.5000     0.1166    82.9198    10.0841    -0.0052     2.6278   -46.8348    25.6309    24.1710    29.8521    61.0311
 4799.0000     0.1190    83.7964    10.0841    -0.0059     2.6263   -46.2647    26.3334    24.1262    29.0209    61.1118
 4799.5000     0.1237    83.8177    10.0841    -0.0015     2.6278   -45.8179    27.2433    24.6382    29.2091    60.4444
 4800.0000     0.1154    74.2544    10.0841     0.0044     2.6337   -45.5224    29.3630    28.1680    32.6242    59.0232
 4800.5000     0.0987    68.2143    10.0894     0.0059     2.6446   -45.2268    30.3781    29.5519    36.0082    58.6528
 4801.0000     0.0902    64.7001    10.0958     0.0044     2.6496   -45.2299    32.3104    29.9495    39.0388    58.5113
 4801.5000     0.0854    65.3144    10.1021     0.0029     2.6550   -45.5319    35.3301    30.3524    39.0156    58.6694
 4802.0000     0.0843    65.2460    10.1085     0.0029     2.6580   -45.2364    37.8382    31.4060    38.9969    58.2256
 4802.5000     0.0852    62.7396    10.1141     0.0044     2.6595   -44.9401    38.6083    32.7218    39.5531    57.6244
 4803.0000     0.0852    59.5951    10.1141     0.0044     2.6610   -44.4960    38.2960    35.7849    47.5660    57.4133
 4803.5000     0.0790    57.2970    10.1141     0.0059     2.6690   -44.2004    36.9515    35.8130    57.0611    57.7233
 4804.0000     0.0758    55.6409    10.1441     0.0103     2.6808   -44.3526    35.2167    34.5350    62.0061    58.4073
 4804.5000     0.0782    58.7483    10.1563     0.0104     2.6779   -44.3555    33.5310    33.5762    58.2215    59.5425
 4805.0000     0.0847    66.2841    10.1877     0.0098     2.6645   -44.6570    31.2700    31.9575    47.9186    60.7529
 4805.5000     0.1084    73.7686    10.2042     0.0041     2.6571   -45.1077    29.5679    29.7786    38.8953    61.4370
 4806.0000     0.1215    80.2311    10.2042    -0.0005     2.6645   -45.2598    27.7656    27.9065    30.4943    61.7451
 4806.5000     0.1340    84.8448    10.2218     0.0008     2.6763   -45.1134    26.0731    25.5828    30.6972    61.8277
 4807.0000     0.1387    87.6240    10.2643     0.0048     2.6734   -44.9672    24.6539    23.6965    30.6815    61.9103
 4807.5000     0.1459    89.4770    10.2643     0.0073     2.6630   -44.9701    22.9915    22.1016    30.6690    62.9703
 4808.0000     0.1554    92.2646    10.2943     0.0088     2.6556   -45.2716    21.2933    20.9014    27.2445    63.7295
 4808.5000     0.1655    95.4670    10.3243     0.0102     2.6479   -45.6124    19.8575    19.7663    25.2315    64.1880
