~VERSION INFORMATION
 VERS.                2.0:   CWLS LOG ASCII STANDARD - VERSION 2.0
 WRAP.                 NO:   ONE LINE PER DEPTH STEP
~WELL INFORMATION
#MNEM.UNIT      DATA TYPE    INFORMATION
#----------   ------------   ------------------------------
 STRT.F          213.5000:   START DEPTH
 STOP.F         3198.0000:   STOP DEPTH
 STEP.F            0.5000:   STEP LENGTH
 NULL.          -999.2500:   NO VALUE
 COMP.    FENIX & SCISSON:   COMPANY
 WELL.   FENIX "AX" #14-2:   WELL
 FLD .              NPR-3:   FIELD
 LOC .       S2 T38N R78W:   LOCATION
 CNTY.            NATRONA:   COUNTY
 STAT.            WYOMING:   STATE
 CTRY. UNITED STATES OF AMERICA:   COUNTRY
 SRVC.              WELEX:   SERVICE COMPANY
 DATE.        14-MAY-1977:   LOGDATE
 API .     49025103620000:   API NUMBER
~CURVE INFORMATION
#MNEM.UNIT       API CODE    CURVE DESCRIPTION
#----------   ------------   ------------------------------
 DEPT.F                  :   
 GRD .GAPI   45 310 01 00:   GAMMA RAY FROM DENSITY LOG
 CALD.IN     45 280 60 00:   CALIPER FROM DENSITY LOG
 CORR.G/C3   45 356 01 00:   DENSITY CORRECTION
 RHOB.G/C3   45 350 01 00:   BULK DENSITY
 SPR .MV     07 010 01 00:   SPONTANEOUS POTENTIAL FROM RES.
 ILD .OHMM   07 120 46 00:   DEEP INDUCTION RESISTIVITY
 ILM .OHMM   07 120 44 00:   INDUCTION LOG MEDIUM RESISTIVITY
 SGRD.OHMM   07 220 05 00:   SHALLOW SHORT GUARD RESISTIVITY
~PARAMETER INFORMATION
#MNEM.UNIT          VALUE    DESCRIPTION
#----------   ------------   ------------------------------
 EKB .F         5119.0000:   Kelly bushing
 EGL .F         5110.0000:   Ground level
 TD  .F         3200.0000:   Total depth
 CLNT.            A2DTECH:   Client Code
 SL  . 2400' FNL & 150' FWL:   Surface Location
 PD  .                 GL:   Permanent Datum
 EPD .F              5110:   Elevation Permanent Datum
 LMF .                 KB:   Log Measured From
 DMF .                 KB:   Drilling Measured From
 DAPD.F                 9:   Feet Above Permanent Datum
 DATE.        14-MAY-1977:   Date Logged [DD-MMM-YYYY]
 DD  .F              3200:   Depth driller
 DL  .F              3199:   Depth logger
 BLI .F              3197:   Bottom log interval
 TLI .F               217:   Top log interval
 CS1 .IN            8.625:   Casing size
 BS1 .IN            7.875:   Bit size
 BSD1.F              3200:   Depth drilled with bit1
 DFT .            KCL MUD:   Type fluid in hole
 DFD .                8.8:   Density
 TCS .HRS             2.5:   Time Circ. stopped
 MRT .F               130:   Maximum recorded temp.
 ENGI.          T. JOYNER:   Recorded By
 WITN.      W. PETTINGILL:   Witnessed by
 ORIG.           5" PRINT:   Origin of data
 UWI .     49025103620000:   Unique Well ID
 DICO. A2D TECHNOLOGIES, INC.:   Digitizing Company
 DFV .                 31:   Viscosity
 DFPH.                7.5:   pH
 DFL .                6.4:   Fluid loss
 MSS .          FLOW LINE:   Source of sample
 RMS .OHMM            .13:   Rm
 MST .F               62.:   Rm Meas. temp.
 RMF .OHMM            .12:   Rmf
 MFST.F                62:   Rmf Meas. temp.
 MFSS.           FANN KIT:   Source Rmf.
 RMC .OHMM            .28:   Rmc
 MCST.F                62:   Rmc Meas. temp.
 RMB .OHMM            .06:   Rm. at BHT
 BHT .F               130:   BHT.
~OTHER INFORMATION
~A   DEPT      GRD       CALD       CORR       RHOB        SPR        ILD        ILM       SGRD   
# ...
 2400.5000   154.8769     8.1608     0.0331     2.4802   -48.8721     3.3055     4.1953     4.8423
 2401.0000   149.8121     8.1768     0.0242     2.4818   -48.8072     3.2392     4.0842     5.5102
 2401.5000   144.7384     8.1926     0.0212     2.4736   -48.7424     3.2178     4.0587     5.7868
 2402.0000   137.1834     8.1936     0.0198     2.4662   -48.6775     3.2194     4.0914     5.5568
 2402.5000   136.7105     8.2094     0.0198     2.4722   -48.6127     3.2431     4.1810     5.6402
 2403.0000   141.5155     8.2104     0.0216     2.4798   -48.5479     3.2897     4.3354     5.7633
 2403.5000   140.3120     8.2262     0.0245     2.4858   -48.4830     3.3372     4.6263     5.9299
 2404.0000   136.2191     8.2272     0.0290     2.4821   -48.4182     3.4086     4.8162     6.1013
 2404.5000   133.5520     8.2283     0.0336     2.4837   -48.3533     3.4576     4.8877     6.1066
 2405.0000   131.4827     8.2295     0.0381     2.4920   -48.2988     3.5140     4.8920     6.0699
 2405.5000   133.2999     8.2305     0.0442     2.5011   -48.5725     3.5823     4.8614     6.0765
 2406.0000   134.5133     8.2246     0.0473     2.5041   -48.6982     3.6149     4.8667     6.1239
 2406.5000   130.6562     8.2146     0.0473     2.4997   -48.6760     3.6258     4.9049     6.0452
 2407.0000   130.9785     8.2047     0.0474     2.4960   -48.6513     3.6367     4.9433     6.0505
 2407.5000   132.4967     8.1947     0.0475     2.4923   -48.6317     3.6454     4.9384     5.9380
 2408.0000   136.4066     8.1848     0.0475     2.4894   -48.6095     3.6550     4.9179     5.9848
 2408.5000   137.0279     8.1651     0.0476     2.4857   -48.5869     3.6811     4.9224     6.0319
 2409.0000   134.0128     8.1515     0.0461     2.4865   -48.5637     3.6858     4.9275     6.0794
 2409.5000   135.5859     8.1379     0.0465     2.4880   -48.5386     3.6912     4.9833     6.0855
 2410.0000   136.5003     8.1242     0.0379     2.4843   -48.6070     3.6975     5.0047     6.2185
 2410.5000   133.8331     8.1257     0.0305     2.4776   -48.7969     3.7019     5.0442     6.2687
 2411.0000   135.3572     8.1120     0.0337     2.4786   -48.9180     3.6915     5.0486     6.3618
 2411.5000   138.3702     8.1132     0.0368     2.4853   -49.0498     3.6523     5.0531     6.2805
 2412.0000   138.9856     8.1143     0.0416     2.4913   -49.0237     3.6160     5.0585     6.2002
 2412.5000   136.3243     8.1155     0.0462     2.4959   -49.0015     3.5835     5.0280     6.0787
 2413.0000   132.7603     8.1167     0.0524     2.4907   -49.1279     3.5234     4.8610     5.8375
 2413.5000   128.2994     8.1178     0.0555     2.4945   -49.2490     3.4368     4.6028     5.1959
 2414.0000   131.3124     8.1338     0.0587     2.5006   -49.3755     3.4028     4.4182     4.8166
 2414.5000   134.0758     8.1349     0.0619     2.5051   -49.3959     3.3527     4.2724     4.8595
 2415.0000   136.8414     8.1657     0.0650     2.5089   -49.4858     3.2906     4.1592     4.8978
 2415.5000   139.1613     8.1669     0.0682     2.5060   -49.6069     3.2397     4.1057     4.9363
 2416.0000   138.5869     8.1683     0.0654     2.4974   -49.6812     3.1851     4.0735     4.9410
 2416.5000   138.0065     8.1842     0.0595     2.4874   -49.8598     3.1024     3.8918     4.9456
 2417.0000   138.3348     8.1854     0.0551     2.4867   -49.8373     3.0021     3.7107     4.8727
 2417.5000   138.9561     8.2013     0.0508     2.4808   -49.8115     2.9177     3.5627     4.5925
 2418.0000   139.2785     8.2025     0.0495     2.4711   -49.9451     2.8186     3.3735     4.3736
 2418.5000   139.3019     8.2184     0.0527     2.4651   -49.9165     2.7337     3.2389     4.1494
 2419.0000   139.0264     8.2344     0.0558     2.4637   -49.8964     2.6469     3.1971     3.8231
 2419.5000   137.5551     8.2355     0.0605     2.4668   -49.8735     2.5961     3.1785     3.3795
 2420.0000   142.9596     8.2367     0.0637     2.4651   -49.8521     2.5649     3.1808     3.0915
 2420.5000   146.2965     8.2527     0.0668     2.4789   -49.8299     2.5332     3.1837     3.5781
 2421.0000   146.2459     8.2686     0.0670     2.4903   -49.8077     2.5366     3.1868     4.0554
 2421.5000   145.1285     8.2701     0.0687     2.5017   -49.7823     2.5406     3.1894     4.1746
 2422.0000   143.9561     8.2712     0.0673     2.4993   -49.7633     2.5623     3.1936     4.1195
 2422.5000   143.9795     8.2573     0.0675     2.4948   -49.7411     2.6043     3.2174     4.2106
 2423.0000   143.7040     8.2587     0.0661     2.4919   -49.7189     2.6431     3.2206     4.3326
 2423.5000   143.1236     8.2448     0.0648     2.4972   -49.6967     2.6822     3.2232     4.3970
 2424.0000   141.3592     8.2312     0.0620     2.4995   -49.6746     2.7430     3.2261     4.3407
 2424.5000   139.5831     8.2027     0.0607     2.4981   -49.7276     2.7721     3.2330     4.2547
 2425.0000   140.8082     8.1746     0.0593     2.4944   -49.7781     2.8275     3.2546     4.2597
 2425.5000   141.4295     8.1609     0.0535     2.4899   -49.7559     2.8514     3.2937     4.2933
 2426.0000   139.6592     8.1473     0.0642     2.4885   -49.7337     2.8555     3.3288     4.3873
 2426.5000   137.5659     8.1337     0.0718     2.4901   -49.7115     2.8596     3.3549     4.3013
 2427.0000   135.4216     8.1351     0.0780     2.4924   -49.6868     2.8634     3.3603     4.2757
 2427.5000   132.2615     8.1363     0.0842     2.4947   -49.8151     2.8482     3.3848     4.2808
 2428.0000   130.1864     8.1375     0.0873     2.4962   -49.7929     2.7940     3.4113     4.2848
 2428.5000   132.9062     8.1534     0.0920     2.4986   -49.7668     2.7980     3.3857     4.2888
 2429.0000   135.9192     8.1546     0.0937     2.5024   -49.7485     2.8019     3.3701     4.2048
 2429.5000   138.3343     8.1705     0.0953     2.5009   -49.7263     2.8254     3.3498     4.0659
 2430.0000   139.5535     8.1865     0.0970     2.4905   -49.7041     2.8566     3.3297     3.9863
 2430.5000   139.2722     8.2024     0.0972     2.4875   -49.8342     2.8731     3.3327     4.1028
 2431.0000   139.3014     8.2184     0.0974     2.4981   -49.8073     2.8979     3.3377     4.2216
 2431.5000   138.7265     8.2343     0.0990     2.5019   -49.7855     2.9020     3.3857     4.3439
 2432.0000   138.7504     8.2517     0.0992     2.4982   -49.9123     2.9061     3.5092     4.1143
 2432.5000   139.0732     8.2665     0.1008     2.5005   -49.8890     2.9105     3.6350     4.0051
 2433.0000   139.0972     8.2825     0.1010     2.5043   -49.8669     2.9136     3.6890     4.5404
 2433.5000   138.8206     8.2984     0.1012     2.5104   -49.9926     2.8587     3.5912     4.8695
 2434.0000   138.8499     8.2996     0.1013     2.5107   -49.9704     2.8391     3.3990     4.9078
 2434.5000   139.7702     8.3007     0.1000     2.5038   -49.9439     2.7885     3.2656     4.3394
 2435.0000   140.9895     8.3019     0.0986     2.4999   -49.9242     2.7356     3.1353     3.8892
 2435.5000   143.4045     8.3178     0.0958     2.4927   -49.9046     2.6910     3.0311     3.5586
 2436.0000   143.7211     8.3338     0.0930     2.4807   -50.0296     2.6251     3.0015     3.2788
 2436.5000   141.9566     8.3349     0.0932     2.4800   -50.1575     2.5713     2.9940     3.5900
 2437.0000   141.3812     8.3361     0.0933     2.4823   -50.1331     2.5317     3.0602     3.7974
 2437.5000   142.6014     8.3669     0.0935     2.4757   -50.1109     2.4911     3.1929     3.9345
 2438.0000   144.1196     8.3680     0.0816     2.4637   -50.0888     2.4524     3.3377     3.5244
 2438.5000   142.2997     8.3842     0.0713     2.4570   -50.0644     2.4762     3.4288     3.3595
 2439.0000   140.5299     8.3854     0.0699     2.4683   -50.1927     2.5646     3.3612     3.3201
 2439.5000   138.5156     8.4013     0.0746     2.4796   -50.1658     2.6772     3.1607     3.7380
 2440.0000   137.6363     8.4025     0.0823     2.4918   -50.1443     2.8306     2.9928     3.8997
 2440.5000   138.8614     8.4037     0.0871     2.5025   -50.1229     2.9786     2.9536     3.9304
