~VERSION INFORMATION
 VERS.                2.0:   CWLS LOG ASCII STANDARD - VERSION 2.0
 WRAP.                 NO:   ONE LINE PER DEPTH STEP
~WELL INFORMATION
#MNEM.UNIT      DATA TYPE    INFORMATION
#----------   ------------   ------------------------------
 STRT.F           44.0000:   START DEPTH
 STOP.F         6166.0000:   STOP DEPTH
 STEP.F            0.5000:   STEP LENGTH
 NULL.          -999.2500:   NO VALUE
 COMP.   TESORO PETROLEUM:   COMPANY
 WELL. TESORO 11X NPR #3-23:   WELL
 FLD .             TEAPOT:   FIELD
 LOC .      S23 T38N R78W:   LOCATION
 CNTY.            NATRONA:   COUNTY
 STAT.            WYOMING:   STATE
 CTRY. UNITED STATES OF AMERICA:   COUNTRY
 SRVC.       SCHLUMBERGER:   SERVICE COMPANY
 DATE.        29-OCT-1968:   LOGDATE
 API .     49025100170000:   API NUMBER
~CURVE INFORMATION
#MNEM.UNIT       API CODE    CURVE DESCRIPTION
#----------   ------------   ------------------------------
 DEPT.F                  :   
 SN  .OHMM   05 040 18 00:   SHORT NORMAL 18"
 RES .OHMM   05 000 00 00:   RESISTIVITY
 ILD .OHMM   05 120 46 00:   INDUCTION LOG DEEP RESISTIVITY
 SPR .MV     05 010 01 00:   SPONTANEOUS POTENTIAL FROM RES.
~PARAMETER INFORMATION
#MNEM.UNIT          VALUE    DESCRIPTION
#----------   ------------   ------------------------------
 EKB .F         5283.0000:   Kelly bushing
 EGL .F         5272.0000:   Ground level
 EDF .F            0.0000:   Drilling floor
 TD  .F         6171.0000:   Total depth
 CLNT.            A2DTECH:   Client Code
 SL  . 380' FNL & 380' FWL:   Surface Location
 PD  .                 GL:   Permanent Datum
 EPD .F              5272:   Elevation Permanent Datum
 LMF .                 KB:   Log Measured From
 DMF .                 KB:   Drilling Measured From
 DAPD.F                11:   Feet Above Permanent Datum
 DATE.        29-OCT-1968:   Date Logged [DD-MMM-YYYY]
 DD  .F              6171:   Depth driller
 DL  .F              6167:   Depth logger
 BLI .F              6166:   Bottom log interval
 TLI .F               975:   Top log interval
 CS1 .IN            10.75:   Casing size
 CBD1.      10.75" @ 975':   Casing driller 1
 CBL1.F               975:   Casing logger 1
 BS1 .IN            9.125:   Bit size
 BSD1.F              6171:   Depth drilled with bit1
 DFT .           GEL-CHEM:   Type fluid in hole
 DFD .                9.6:   Density
 DFV .                 61:   Viscosity
 DFPH.                 10:   pH
 DFL .                6.8:   Fluid loss
 MSS .           FLOWLINE:   Source of sample
 RMS .OHMM           0.89:   Rm
 MST .F                80:   Rm Meas. temp.
 RMF .OHMM           0.60:   Rmf
 MFST.F                80:   Rmf Meas. temp.
 MFSS.               MEAS:   Source Rmf.
 RMB .OHMM           0.45:   Rm. at BHT
 BHT .F               160:   BHT.
 TCS .HRS               4:   Time Circ. stopped
 MRT .F               160:   Maximum recorded temp.
 LUN .               7041:   Logging unit number
 LUL .               CSPR:   Logging unit location
 ENGI.            MANGOLD:   Recorded By
 WITN.                MAY:   Witnessed by
 ORIG.         2.5" PRINT:   Origin of data
 UWI .     49025100170000:   Unique Well ID
 DICO. A2D TECHNIOLOGIES,INC.:   Digitizing Company
~OTHER INFORMATION
~A  DEPTH       SN        RES        ILD        SPR
# ...
 2088.0000     6.9515  -999.2500     6.6869   -52.4428
 2088.5000     6.9524  -999.2500     6.6869   -52.4194
 2089.0000     6.9530  -999.2500     6.6869   -52.3959
 2089.5000     6.9538  -999.2500     6.6869   -52.3724
 2090.0000     6.9545  -999.2500     6.6869   -52.3490
 2090.5000     6.9553  -999.2500     6.6869   -52.3255
 2091.0000     6.9561  -999.2500     6.6869   -52.3020
 2091.5000     6.9568  -999.2500     6.6869   -52.2786
 2092.0000     6.9576  -999.2500     6.6869   -52.2551
 2092.5000     6.9585  -999.2500     6.6869   -52.2316
 2093.0000     6.9591  -999.2500     6.6869   -52.2082
 2093.5000     6.9599  -999.2500     6.6869   -52.1847
 2094.0000     6.9606  -999.2500     6.6869   -52.1613
 2094.5000     6.9614  -999.2500     6.8389   -52.1378
 2095.0000     6.9621  -999.2500     6.8389   -52.1143
 2095.5000     6.9629  -999.2500     6.8389   -52.0909
 2096.0000     6.9636  -999.2500     6.9909   -52.0674
 2096.5000     6.9645  -999.2500     6.9909   -52.0439
 2097.0000     6.9652  -999.2500     6.9909   -52.0205
 2097.5000     6.9659  -999.2500     6.9909   -51.9970
 2098.0000     6.8151  -999.2500     6.9909   -51.9738
 2098.5000     6.8159  -999.2500     6.9909   -51.9503
 2099.0000     6.6650  -999.2500     6.9909   -51.9269
 2099.5000     6.6659  -999.2500     6.9909   -51.9047
 2100.0000     6.6668  -999.2500     6.9909   -51.8793
 2100.5000     6.6655  -999.2500     6.9909   -51.8570
 2101.0000     6.6639  -999.2500     6.9909   -51.8391
 2101.5000     6.6624  -999.2500     6.8389   -51.7458
 2102.0000     6.6608  -999.2500     6.6869   -51.5388
 2102.5000     6.6593  -999.2500     6.6869   -51.3403
 2103.0000     6.6577  -999.2500     6.6869   -51.1439
 2103.5000     6.6562  -999.2500     6.6869   -50.9446
 2104.0000     6.6546  -999.2500     6.6869   -50.7413
 2104.5000     6.6530  -999.2500     6.6869   -50.5537
 2105.0000     6.4495  -999.2500     6.6677   -50.3470
 2105.5000     6.3470  -999.2500     6.6367   -50.1648
 2106.0000     6.3452  -999.2500     6.6057   -50.6093
 2106.5000     6.3439  -999.2500     6.5747   -51.0586
 2107.0000     6.3424  -999.2500     6.5437   -51.0033
 2107.5000     6.3409  -999.2500     6.5127   -51.0099
 2108.0000     6.3394  -999.2500     6.4863   -51.0606
 2108.5000     6.3379  -999.2500     6.4833   -50.9089
 2109.0000     6.3364  -999.2500     6.4802   -51.6587
 2109.5000     6.3348  -999.2500     6.3247   -51.0328
 2110.0000     6.3331  -999.2500     6.3219   -51.0625
 2110.5000     6.3317  -999.2500     6.3190   -50.9926
 2111.0000     6.3303  -999.2500     6.3161   -51.0211
 2111.5000     6.3288  -999.2500     6.3131   -51.0198
 2112.0000     6.4182  -999.2500     6.3100   -51.0120
 2112.5000     6.4773  -999.2500     6.3070   -51.0291
 2113.0000     6.5498  -999.2500     6.1520   -50.9955
 2113.5000     6.6258  -999.2500     6.0727   -50.9881
 2114.0000     6.4725  -999.2500     5.9934   -50.2297
 2114.5000     6.4712  -999.2500     5.9905   -50.2230
 2115.0000     6.4697  -999.2500     5.9876   -50.1913
 2115.5000     6.4682  -999.2500     5.9847   -50.1952
 2116.0000     6.4667  -999.2500     6.2858   -50.2914
 2116.5000     6.4652  -999.2500     6.2827   -50.4702
 2117.0000     6.4636  -999.2500     6.4675   -50.6465
 2117.5000     6.4619  -999.2500     6.5810   -50.8179
 2118.0000     6.6120  -999.2500     6.7974   -50.9938
 2118.5000     6.6106  -999.2500     6.8784   -51.1673
 2119.0000     6.9122  -999.2500     7.0269   -51.3399
 2119.5000     7.0924  -999.2500     7.1763   -51.5167
 2120.0000     7.4141  -999.2500     7.1731   -51.6883
 2120.5000     7.5136  -999.2500     7.1702   -51.8231
 2121.0000     7.5118  -999.2500     7.1672   -51.7586
 2121.5000     7.5104  -999.2500     7.1641   -51.7064
 2122.0000     7.5090  -999.2500     7.1611   -51.6462
 2122.5000     7.2045  -999.2500     7.1581   -51.5880
 2123.0000     7.1828  -999.2500     7.1550   -51.5307
 2123.5000     6.8985  -999.2500     7.1514   -51.4722
 2124.0000     6.8970  -999.2500     7.1485   -51.4141
 2124.5000     6.8955  -999.2500     7.1456   -51.3562
 2125.0000     6.8937  -999.2500     7.1427   -51.2979
 2125.5000     6.8924  -999.2500     7.1398   -51.2403
 2126.0000     6.8909  -999.2500     6.9848   -51.1829
 2126.5000     6.8894  -999.2500     6.9818   -51.1224
 2127.0000     6.8879  -999.2500     6.9787   -51.0680
 2127.5000     6.8864  -999.2500     6.9757   -51.0238
 2128.0000     6.8848  -999.2500     6.8895   -51.1294
 2128.5000     6.8833  -999.2500     6.8171   -51.2234
 2129.0000     6.8816  -999.2500     6.8142   -51.3253
 2129.5000     6.8802  -999.2500     6.8113   -51.4249
 2130.0000     6.8788  -999.2500     6.8085   -51.5236
 2130.5000     6.8773  -999.2500     6.8055   -51.6221
 2131.0000     6.8758  -999.2500     6.8024   -51.7249
 2131.5000     6.8742  -999.2500     6.7994   -51.8229
 2132.0000     6.8727  -999.2500     6.7964   -51.8149
 2132.5000     6.8712  -999.2500     6.7933   -51.8745
 2133.0000     6.8697  -999.2500     6.7897   -51.4940
 2133.5000     6.8681  -999.2500     6.7868   -51.4293
 2134.0000     6.8667  -999.2500     6.7839   -51.4100
 2134.5000     6.8652  -999.2500     6.7810   -51.4284
 2135.0000     6.8636  -999.2500     6.7781   -51.4223
 2135.5000     6.8621  -999.2500     6.7751   -51.4206
 2136.0000     6.8603  -999.2500     6.7720   -51.4537
 2136.5000     6.8589  -999.2500     6.7690   -51.4977
 2137.0000     6.8576  -999.2500     6.7660   -51.5428
 2137.5000     6.8561  -999.2500     6.7629   -51.5868
 2138.0000     6.8545  -999.2500     6.7594   -51.6313
 2138.5000     6.8530  -999.2500     6.7565   -51.6756
 2139.0000     6.8515  -999.2500     6.7536   -51.7199
 2139.5000     6.8500  -999.2500     6.7508   -51.7642
 2140.0000     6.8482  -999.2500     6.7477   -51.8085
 2140.5000     6.8468  -999.2500     6.7447   -51.8528
 2141.0000     6.8454  -999.2500     6.7416   -51.8971
 2141.5000     6.8439  -999.2500     6.7386   -51.9417
 2142.0000     6.8424  -999.2500     6.7356   -51.9860
 2142.5000     6.8409  -999.2500     6.7319   -52.0304
 2143.0000     6.8394  -999.2500     6.7290   -52.0759
 2143.5000     6.8379  -999.2500     6.7262   -52.1184
 2144.0000     6.8364  -999.2500     6.7233   -52.1637
 2144.5000     6.8348  -999.2500     6.7204   -52.2156
 2145.0000     6.8333  -999.2500     6.5653   -52.1784
 2145.5000     6.8318  -999.2500     6.5623   -51.9905
 2146.0000     6.8303  -999.2500     6.5593   -51.8106
 2146.5000     6.8288  -999.2500     6.6218   -51.6302
 2147.0000     6.8273  -999.2500     6.7052   -51.4479
 2147.5000     6.8258  -999.2500     6.7021   -51.2647
 2148.0000     6.8241  -999.2500     6.6987   -51.0871
 2148.5000     6.8227  -999.2500     6.6958   -50.9042
 2149.0000     6.8212  -999.2500     6.5410   -50.7061
 2149.5000     6.8197  -999.2500     6.5380   -50.6625
 2150.0000     6.8182  -999.2500     6.5350   -50.8625
 2150.5000     6.8167  -999.2500     6.5319   -51.0447
 2151.0000     6.8149  -999.2500     6.5289   -51.2267
 2151.5000     6.8134  -999.2500     6.5258   -51.4131
 2152.0000     6.8120  -999.2500     6.5228   -51.5985
 2152.5000     6.8106  -999.2500     6.5193   -51.7809
 2153.0000     6.8091  -999.2500     6.6687   -51.9649
 2153.5000     6.8076  -999.2500     6.6655   -52.1603
 2154.0000     6.8061  -999.2500     6.6626   -52.2060
 2154.5000     6.8045  -999.2500     6.6596   -52.1158
 2155.0000     6.8028  -999.2500     6.6895   -52.0371
 2155.5000     6.8697  -999.2500     6.8059   -51.9605
 2156.0000     6.9515  -999.2500     6.9544   -51.8801
 2156.5000     7.1015  -999.2500     6.9514   -51.8012
 2157.0000     7.1000  -999.2500     6.9478   -51.7226
 2157.5000     7.0985  -999.2500     6.9449   -51.6441
 2158.0000     7.0970  -999.2500     6.9420   -51.5635
 2158.5000     7.2470  -999.2500     6.9391   -51.4866
 2159.0000     7.3968  -999.2500     6.9362   -51.4275
 2159.5000     7.3954  -999.2500     6.9331   -51.4874
 2160.0000     7.3939  -999.2500     6.9301   -51.5366
 2160.5000     7.0894  -999.2500     6.9271   -51.5913
