~VERSION INFORMATION
 VERS.                2.0:   CWLS LOG ASCII STANDARD - VERSION 2.0
 WRAP.                 NO:   ONE LINE PER DEPTH STEP
~WELL INFORMATION
#MNEM.UNIT      DATA TYPE    INFORMATION
#----------   ------------   ------------------------------
 STRT.F          196.0000:   START DEPTH
 STOP.F         3430.0000:   STOP DEPTH
 STEP.F            0.5000:   STEP LENGTH
 NULL.          -999.2500:   NO VALUE
 COMP.    FENIX $ SCISSON:   COMPANY
 WELL.   FENIX "A" #23-10:   WELL
 FLD .              N P R:   FIELD
 LOC .      S10 T38N R78W:   LOCATION
 CNTY.            NATRONA:   COUNTY
 STAT.            WYOMING:   STATE
 CTRY. UNITED STATES OF AMERICA:   COUNTRY
 SRVC.              WELEX:   SERVICE COMPANY
 DATE.        23-JUL-1977:   LOGDATE
 API .     49025103990000:   API NUMBER
~CURVE INFORMATION
#MNEM.UNIT       API CODE    CURVE DESCRIPTION
#----------   ------------   ------------------------------
 DEPT.F                  :   
 SPR .MV     07 010 01 00:   SPONTANEOUS POTENTIAL
 GURD.OHMM   07 220 05 00:   GUARD LOG RESISTIVITY
 FORX.OHMM   07 220 00 00:   FORMATION FACTOR
 NPHI.DEC    42 890 03 00:   NEUTRON POROSITY SANDSTONE
 CALD.IN     45 280 60 00:   CALIPER FROM DENSITY LOG
 CORR.G/C3   45 356 01 00:   DENSITY CORRECTION
 GRD .GAPI   45 310 01 00:   GAMMA RAY FROM DENSITY LOG
 RHOB.G/C3   45 350 01 00:   BULK DENSITY
~PARAMETER INFORMATION
#MNEM.UNIT          VALUE    DESCRIPTION
#----------   ------------   ------------------------------
 EKB .F         5251.0000:   Kelly bushing
 EGL .F         5241.0000:   Ground level
 EDF .F            0.0000:   Drilling floor
 EPD .F         5241.0000:   Permanent datum
 TD  .F         3430.0000:   Total depth
 DATE.        23-JUL-1977:   Date logged
 CLNT.            A2DTECH:   Client Code
 SL  . 1650' FNL & 990' FWL:   Surface Location
 PD  .                 GL:   Permanent Datum
 DD  .F              3430:   Depth driller
 DL  .F              3430:   Depth logger
 BLI .F              3428:   Bottom log interval
 CS1 .IN            8.625:   Casing size
 CBD1.      8.625" @ 220':   Casing driller 1
 BS1 .IN            7.875:   Bit size
 DFT .            KCL MUD:   Type fluid in hole
 DFD .                8.9:   Density
 DFV .                 33:   Viscosity
 DFPH.                  8:   pH
 DFL .                  8:   Fluid loss
 MSS .           FLOWLINE:   Source of sample
 RMS .OHMM            .49:   Rm
 MST .F                94:   Rm Meas. temp.
 RMF .OHMM            .46:   Rmf
 MFST.F                90:   Rmf Meas. temp.
 RMC .OHMM            .40:   Rmc
 MCST.F                90:   Rmc Meas. temp.
 MFSS.               FANN:   Source Rmf.
 RMB .OHMM            .15:   Rm. at BHT
 BHT .F               122:   BHT.
 TCS .HRS               6:   Time Circ. stopped
 MRT .F               122:   Maximum recorded temp.
 LUN .               8611:   Logging unit number
 LUL .             CASPER:   Logging unit location
 ENGI.            C. DOAK:   Recorded By
 WITN.      B. HARRINGTON:   Witnessed by
 ORIG.           5" PRINT:   Origin of data
 UWI .     49025103990000:   Unique Well ID
 DICO. A2D TECHNOLOGIES, INC.:   Digitizing Company
 DAPD.                 10:   Feet Above Permanent Datum
 BSD1.               3430:   Depth drilled with bit1
 MCSS.                KIT:   Source Rmc.
 TLI .                200:   Top log interval
~OTHER INFORMATION
~A   DEPT      SPR         GURD     FORX       NPHI       CALD       CORR        GRD       RHOB   
# ...
  398.5000   -85.1590     8.9550     8.2380     0.2670    11.8260     0.0540   106.0030     2.4270
  399.0000   -85.2860     8.8480     8.2380     0.2670    11.8270     0.0570   106.2040     2.4210
  399.5000   -85.3790     8.7420     8.1220     0.2670    11.8280     0.0600   105.7100     2.4150
  400.0000   -85.4740     8.6250     7.8890     0.2650    11.8300     0.0630   105.2180     2.4110
  400.5000   -85.5700     8.4390     7.6570     0.2620    11.8310     0.0660   104.7210     2.3960
  401.0000   -85.6660     8.1630     7.4240     0.2600    11.8320     0.0690   104.2230     2.3790
  401.5000   -85.7610     7.8870     7.1470     0.2600    11.8310     0.0720   103.7270     2.3630
  402.0000   -85.8570     7.6100     6.8280     0.2630    11.8240     0.0730   103.0390     2.3430
  402.5000   -85.9570     7.3340     6.4900     0.2690    11.8180     0.0730   102.1160     2.3230
  403.0000   -86.0220     7.0570     6.0200     0.2750    11.8110     0.0730   102.8550     2.3030
  403.5000   -86.1760     6.5960     5.4980     0.2780    11.8050     0.0730   103.8400     2.2820
  404.0000   -86.3240     6.0630     4.9170     0.2800    11.7980     0.0690   102.2350     2.2620
  404.5000   -86.4710     5.4970     4.3780     0.2830    11.7830     0.0650   103.0690     2.2410
  405.0000   -86.6190     4.9380     3.8570     0.2860    11.8230     0.0610   102.4860     2.2220
  405.5000   -86.7670     4.3410     3.3690     0.2870    11.8780     0.0600   100.1970     2.2190
  406.0000   -86.9140     3.7430     2.8810     0.2860    11.9350     0.0610    99.1280     2.2470
  406.5000   -87.0590     3.1460     2.3940     0.2860    11.9900     0.0620    98.9730     2.2710
  407.0000   -87.0490     2.5490     1.9820     0.2900    12.0310     0.0630   100.5630     2.2840
  407.5000   -86.7280     2.2510     2.1280     0.2960    12.0190     0.0630   101.0440     2.2620
  408.0000   -86.4120     2.0560     4.2710     0.3010    11.9720     0.0420   103.6040     2.2420
  408.5000   -86.0960     2.2960     5.9170     0.3050    11.9300     0.0290   106.9210     2.2890
  409.0000   -85.7790     3.0350     3.3540     0.3060    11.8880     0.0390   110.0500     2.4010
  409.5000   -85.4580     3.8060     1.0410     0.2990    11.8110     0.0470   111.7100     2.4200
  410.0000   -85.3930     2.1930     7.1110     0.2970    11.7380     0.0460   111.7140     2.4170
  410.5000   -85.3920     2.3310     7.0790     0.2920    11.6650     0.0450   108.4200     2.4110
  411.0000   -85.3920     3.1830     7.0460     0.2860    11.6110     0.0440   109.2660     2.4040
  411.5000   -85.3920     5.9070     7.1620     0.2840    11.6050     0.0440   110.8120     2.3980
  412.0000   -85.3920     6.8970     7.3100     0.2820    11.5990     0.0430   112.2080     2.4040
  412.5000   -85.3920     7.7240     6.7920     0.2800    11.5920     0.0420   111.8350     2.4050
  413.0000   -85.3920     7.6280     6.7920     0.2790    11.5850     0.0410   111.3850     2.4000
  413.5000   -85.3920     7.3900     6.1950     0.2790    11.5780     0.0400   110.9340     2.3840
  414.0000   -85.3920     7.1520     6.3400     0.2800    11.5720     0.0390   110.7020     2.3690
  414.5000   -85.3950     6.8720     6.5880     0.2850    11.5650     0.0380   112.3320     2.3540
  415.0000   -85.3920     6.9480     6.7290     0.2900    11.5580     0.0370   113.8090     2.3380
  415.5000   -85.6410     7.1010     6.8000     0.2910    11.5520     0.0370   112.4910     2.3220
  416.0000   -85.7820     7.2910     6.9070     0.2860    11.5450     0.0380   110.7210     2.3210
  416.5000   -85.9350     7.0620     6.3200     0.2800    11.5380     0.0400   112.0980     2.3660
  417.0000   -86.0930     6.9180     4.8230     0.2750    11.5320     0.0420   113.0760     2.4160
  417.5000   -86.2500     7.0960     2.0000     0.2710    11.5250     0.0420   110.7230     2.4110
  418.0000   -86.4060     7.1770     5.5480     0.2670    11.5180     0.0380   108.9640     2.4090
  418.5000   -86.5630     3.5040     5.2020     0.2660    11.5120     0.0330   108.3470     2.4130
  419.0000   -86.7190     4.3100     6.3100     0.2650    11.5050     0.0300   109.4340     2.4170
  419.5000   -86.8740     5.0800     4.8340     0.2640    11.4980     0.0340   110.4830     2.4220
  420.0000   -86.9030     5.4970     6.6710     0.2620    11.4950     0.0380   111.4740     2.4360
  420.5000   -86.7770     5.4970     6.3100     0.2620    11.4910     0.0420   112.9300     2.4540
  421.0000   -86.6530     6.1950     6.1010     0.2640    11.4860     0.0460   114.3430     2.4670
  421.5000   -86.5280     5.8660     5.8090     0.2670    11.4820     0.0500   113.5320     2.4600
  422.0000   -86.4020     5.6510     6.7440     0.2710    11.4780     0.0520   112.5290     2.4540
  422.5000   -86.2770     6.0050     7.7530     0.2740    11.4750     0.0470   111.5300     2.4480
  423.0000   -86.1520     6.5270     7.9060     0.2740    11.4750     0.0430   110.5370     2.4380
  423.5000   -86.0260     7.0500     8.0430     0.2730    11.4750     0.0390   109.5530     2.4280
  424.0000   -85.9010     7.5720     8.1800     0.2720    11.4750     0.0350   108.7990     2.4220
  424.5000   -85.7760     7.9400     8.3170     0.2710    11.4750     0.0420   108.0850     2.4270
  425.0000   -85.6510     8.0320     8.4680     0.2710    11.4750     0.0510   107.3790     2.4330
  425.5000   -85.5920     8.0530     8.4200     0.2690    11.4750     0.0590   106.6800     2.4390
  426.0000   -85.6040     8.0730     8.3240     0.2680    11.4750     0.0570   105.9800     2.4370
  426.5000   -85.6160     8.0880     8.2280     0.2670    11.4750     0.0550   105.2360     2.4280
  427.0000   -85.6270     7.8120     8.0970     0.2680    11.4750     0.0520   106.0480     2.4190
  427.5000   -85.6390     7.5620     7.8890     0.2710    11.4750     0.0500   107.4160     2.4160
  428.0000   -85.6510     7.3120     7.6820     0.2730    11.4750     0.0480   108.8010     2.4120
  428.5000   -85.6630     7.2330     7.5500     0.2750    11.4750     0.0550   110.0110     2.4050
  429.0000   -85.6750     7.2130     7.4850     0.2780    11.4750     0.0610   109.6600     2.4030
  429.5000   -85.6870     7.1930     7.4200     0.2790    11.4750     0.0620   109.9010     2.4010
  430.0000   -85.6990     7.1770     7.2680     0.2790    11.4750     0.0630   111.2950     2.4000
  430.5000   -85.7100     7.0050     6.9440     0.2780    11.4750     0.0640   113.3730     2.3910
  431.0000   -85.7220     6.8630     6.6680     0.2730    11.4750     0.0650   112.5120     2.3760
  431.5000   -85.7340     6.7200     6.4470     0.2710    11.4750     0.0620   110.9890     2.3590
  432.0000   -85.7460     6.5780     6.2140     0.2700    11.4750     0.0540   109.4370     2.3420
  432.5000   -85.7580     6.4400     5.9710     0.2710    11.4900     0.0460   107.8850     2.3260
  433.0000   -85.7690     6.1500     5.7030     0.2720    11.5200     0.0390   106.3380     2.3540
  433.5000   -85.7810     5.8170     4.7020     0.2710    11.5440     0.0340   104.7740     2.3890
  434.0000   -85.6900     5.3950     3.3580     0.2700    11.5630     0.0330   103.1030     2.4200
  434.5000   -85.5300     4.3180     2.2330     0.2700    11.5820     0.0310   106.1580     2.4120
  435.0000   -85.3680     3.0250     6.6680     0.2700    11.6000     0.0290   109.2570     2.4050
  435.5000   -85.2060     4.3440     6.7650     0.2710    11.6140     0.0270   108.1430     2.4050
  436.0000   -85.0440     5.6890     7.2330     0.2730    11.5920     0.0260   108.4330     2.4020
  436.5000   -84.8820     7.0460     7.8800     0.2800    11.5890     0.0250   110.6120     2.3930
  437.0000   -84.7200     7.4320     8.0140     0.2870    11.5850     0.0240   112.7370     2.3930
  437.5000   -84.5580     7.7240     8.0340     0.2930    11.5790     0.0230   113.5260     2.4000
  438.0000   -84.3960     7.6840     8.0550     0.2950    11.5740     0.0260   111.6060     2.4060
  438.5000   -84.2340     7.5840     8.0750     0.2930    11.5690     0.0290   110.1490     2.4110
