~VERSION INFORMATION
 VERS.                2.0:   CWLS LOG ASCII STANDARD - VERSION 2.0
 WRAP.                 NO:   ONE LINE PER DEPTH STEP
~WELL INFORMATION
#MNEM.UNIT      DATA TYPE    INFORMATION
#----------   ------------   ------------------------------
 STRT.F          494.0000:   START DEPTH
 STOP.F         4999.5000:   STOP DEPTH
 STEP.F            0.5000:   STEP LENGTH
 NULL.          -999.2500:   NO VALUE
 COMP.    FENIX & SCISSON:   COMPANY
 WELL.  FENIX "LX" #26-23:   WELL
 FLD . MPR #3 (TEAPOT DOME):   FIELD
 LOC .      S23 T38N R78W:   LOCATION
 CNTY.            NATRONA:   COUNTY
 STAT.            WYOMING:   STATE
 CTRY. UNITED STATES OF AMERICA:   COUNTRY
 SRVC.       SCHLUMBERGER:   SERVICE COMPANY
 DATE.        11-AUG-1978:   LOGDATE
 API .     49025107340000:   API NUMBER
~CURVE INFORMATION
#MNEM.UNIT       API CODE    CURVE DESCRIPTION
#----------   ------------   ------------------------------
 DEPT.F                  :   
 NPHI.DEC    42 890 03 00:   NEUTRON POROSITY SANDSTONE
 TEND.LBS    45 635 01 00:   TENSION FORM DENSITY LOG
 GRD .GAPI   45 310 01 00:   GAMMA RAY FROM DENSITY LOG
 CALD.IN     45 280 60 00:   CALIPER FROM DENSITY LOG
 DRHO.G/C3   45 356 01 00:   DENSITY CORRECTION
 RHOB.G/C3   45 350 01 00:   BULK DENSITY
 SPR .MV     07 010 01 00:   SPONTANEOUS POTENTIAL
 TENR.LBS    07 635 01 00:   TENSION FROM RESISTIVITY LOG
 ILD .OHMM   07 120 46 00:   INDUCTION LOG DEEP RESISTIVITY
 ILM .OHMM   07 120 44 00:   INDUCTION LOG MEDIUM RESISTIVITY
 SFL .OHMM   07 220 01 00:   SPHERICALLY FOCUSED LOG RESISITIVITY
~PARAMETER INFORMATION
#MNEM.UNIT          VALUE    DESCRIPTION
#----------   ------------   ------------------------------
 EKB .F         5335.0000:   Kelly bushing
 EGL .F         5325.0000:   Ground level
 EDF .F            0.0000:   Drilling floor
 EPD .F         5325.0000:   Permanent datum
 TD  .F         5000.0000:   Total depth
 CLNT.            A2DTECH:   Client Code
 SL  . 1600' FSL & 903' FWL:   Surface Location
 PD  .                 GL:   Permanent Datum
 LMF .                 KB:   Log Measured From
 DMF .                 KB:   Drilling Measured From
 DAPD.F                10:   Feet Above Permanent Datum
 DATE.        11-AUG-1978:   Date Logged [DD-MMM-YYYY]
 DD  .F              5000:   Depth driller
 DL  .F              4998:   Depth logger
 BLI .F              4992:   Bottom log interval
 TLI .F               525:   Top log interval
 CS1 .IN            9.625:   Casing size
 CBD1.      9.625" @ 521':   Casing driller 1
 CBL1.F               521:   Casing logger 1
 BS1 .IN             8.75:   Bit size
 BSD1.F              5000:   Depth drilled with bit1
 DFD .                9.1:   Density
 MSS .            MUD PIT:   Source of sample
 RMS .OHMM          0.897:   Rm
 MST .F                64:   Rm Meas. temp.
 RMF .OHMM          0.821:   Rmf
 MFST.F                64:   Rmf Meas. temp.
 MFSS.               MEAS:   Source Rmf.
 BHT .F               135:   BHT.
 TCS .HRS              03:   00:   Time Circ. stopped
 TLAB.HRS              09:   00:   Time logger at bottom
 MRT .F               135:   Maximum recorded temp.
 LUL .               CSPR:   Logging unit location
 ENGI.              CRAIG:   Recorded By
 ORIG.           5" PRINT:   Origin of data
 UWI .     49025107340000:   Unique Well ID
 DICO. A2D TECHNOLOGIES, INC.:   Digitizing Company
 DFV .                 40:   Viscosity
 DFPH.                 12:   pH
 DFL .                  4:   Fluid loss
~OTHER INFORMATION
~A  DEPTH     NPHI       TEND        GRD       CALD       DRHO       RHOB        SPR       TENR        ILD        ILM        SFL
# ...
 3788.0000     0.2961  2156.1250   135.0167    11.2503     0.1955     2.5436   -29.4860  1748.3271     5.3876     5.4145     6.7142
 3788.5000     0.2937  2141.2852   136.8246    11.2506     0.2136     2.5483   -29.1762  1747.5104     5.4624     5.5303     6.8077
 3789.0000     0.2937  2141.6458   135.6356    11.2358     0.2045     2.5330   -29.0163  1746.6936     5.5768     5.5682     6.8071
 3789.5000     0.2940  2157.0630   134.1427    11.2209     0.2022     2.5255   -28.4042  1745.8768     5.5764     5.6467     6.7129
 3790.0000     0.2958  2157.3518   133.2517    11.1455     0.2022     2.5247   -28.0945  1745.0602     5.6148     5.6853     6.6198
 3790.5000     0.3108  2157.6404   132.9304    11.0851     0.2006     2.5164   -28.2369  1744.2434     5.6571     5.7238     6.5736
 3791.0000     0.3087  2173.1296   128.4753    11.0854     0.1749     2.5073   -28.5244  1743.3700     5.7320     5.7630     6.5277
 3791.5000     0.3060  2173.4185   128.1819    11.1767     0.1710     2.5276   -29.2911  1743.0699     5.7715     5.8025     6.5727
 3792.0000     0.2990  2173.7070   129.6918    11.1618     0.2094     2.5622   -30.0013  1741.7904     5.8517     5.8001     6.6180
 3792.5000     0.2949  2173.9790   132.0991    11.1167     0.2474     2.5758   -30.2937  1740.5107     5.8919     5.7981     6.6175
 3793.0000     0.2946  2159.1558   132.1097    11.1018     0.2413     2.5509   -30.7336  1739.2311     5.8914     5.7542     6.5713
 3793.5000     0.2994  2159.4553   130.6190    11.1476     0.2171     2.5059   -30.7211  1737.9514     5.8503     5.7523     6.6167
 3794.0000     0.3003  2159.8049   126.1298    11.2540     0.1929     2.4966   -30.7088  1736.6719     5.8500     5.7093     6.8024
 3794.5000     0.2822  2144.8928   126.4381    11.2846     0.1550     2.5079   -30.6988  1735.3922     5.8092     5.6666     7.0911
 3795.0000     0.2633  2130.0530   129.8244    11.1636     0.1633     2.5364   -31.1387  1734.1125     5.7288     5.6646     7.2400
 3795.5000     0.2590  2115.2800   134.5532    11.0730     0.1905     2.5515   -31.4288  1733.7332     5.6888     5.5418     6.6608
 3796.0000     0.2587  2100.4451   138.1599    11.0431     0.2344     2.5567   -31.5686  1734.3329     5.6101     5.4221     6.1708
 3796.5000     0.2678  2131.0632   139.3679    11.1797     0.2419     2.5160   -31.2564  1734.9325     5.5710     5.3431     6.0433
 3797.0000     0.2783  2146.4802   136.3779    11.4073     0.1987     2.4475   -31.0965  1735.5322     5.4560     5.2652     6.1272
 3797.5000     0.2786  2161.8977   131.5909    11.5288     0.1881     2.4250   -30.7867  1736.1320     5.3805     5.1881     6.1268
 3798.0000     0.2789  2177.3149   130.0980    11.4155     0.2305     2.4835   -30.9386  1736.7316     5.2694     5.1863     6.0841
 3798.5000     0.2873  2177.6099   135.8058    11.2870     0.2500     2.5264   -31.0667  1737.3313     5.2327     5.1846     5.9171
 3799.0000     0.2994  2177.9644   138.2132    11.3327     0.2115     2.5114   -30.6046  1737.9310     5.1962     5.2202     5.6360
 3799.5000     0.3131  2163.0520   137.4614    11.4845     0.1524     2.4601   -30.2948  1738.5306     5.1959     5.2977     5.5967
 3800.0000     0.3093  2163.4128   128.0374    11.6363     0.1161     2.4480   -29.9850  1798.5718     5.2446     5.2163     5.7845
 3800.5000     0.3030  2163.5674   122.3488    11.3943     0.0775     2.4759   -30.0968  1783.6177     5.4090     5.2528     6.6102
 3801.0000     0.2861  2163.7102   117.5597    11.1673     0.0506     2.5105   -30.2596  1784.5341     5.4555     5.3326     7.5210
 3801.5000     0.2367  2178.9814   114.5654    11.0464     0.0570     2.5489   -30.7822  1785.2711     5.5650     5.5602     8.4853
 3802.0000     0.2078  2179.1243   115.7797    11.0012     0.0987     2.5692   -31.0903  1801.6873     5.6805     5.7208     8.7237
 3802.5000     0.1973  2164.1389   122.6848    10.9636     0.1297     2.5767   -31.1045  1802.4202     5.7586     5.8440     7.8062
 3803.0000     0.2003  2179.4458   129.2900    10.8655     0.1773     2.5842   -31.0994  1787.4659     5.8784     5.8848     7.1805
 3803.5000     0.2156  2194.7173   131.0976    10.7597     0.2264     2.6173   -31.0900  1788.3823     5.8770     5.8833     6.7934
 3804.0000     0.2554  2194.8601   129.2596    10.8661     0.2500     2.6308   -31.1961  1789.2988     5.8758     5.8821     6.6530
 3804.5000     0.2602  2195.0076   128.9393    10.9572     0.2204     2.5848   -31.4892  1790.0316     5.9155     5.9232     6.6989
 3805.0000     0.2590  2180.0171   130.7946    10.9576     0.1494     2.5178   -31.4933  1790.7649     5.9969     5.9646     6.8394
 3805.5000     0.2509  2180.1956   132.2674    10.8367     0.1198     2.5019   -31.7170  1791.4978     6.0794     6.0927     7.1793
 3806.0000     0.2457  2165.1743   132.5694    10.7612     0.1478     2.5471   -30.8757  1792.2482     6.1205     6.1794     7.3810
 3806.5000     0.2451  2150.2241   131.3736    10.7312     0.1569     2.5802   -30.4992  1793.1471     6.1618     6.3128     7.3804
 3807.0000     0.2535  2135.2385   128.6778    10.7163     0.1546     2.5839   -30.2527  1793.8804     6.2031     6.3566     7.2279
 3807.5000     0.2529  2135.4170   125.9820    10.7015     0.1047     2.5229   -30.1132  1810.1172     6.2019     6.4934     7.1741
 3808.0000     0.2481  2120.3955   124.1858    10.6867    -0.0006     2.5048   -30.2188  1810.8528     6.3307     6.6329     7.1273
 3808.5000     0.2390  2120.5747   128.3873    10.6870     0.0055     2.5161   -30.3465  1811.7665     6.4181     6.6796     7.2766
 3809.0000     0.2336  2135.8811   128.9899    10.6873     0.0418     2.5484   -30.1040  1812.4998     6.5516     6.6779     7.5856
 3809.5000     0.2291  2151.1526   125.6944    10.6952     0.0751     2.6041   -30.0919  1797.7288     6.5500     6.6765     7.7986
 3810.0000     0.2255  2166.4241   121.7992    10.7334     0.1485     2.6139   -29.8883  1798.4615     6.5035     6.6748     7.9622
 3810.5000     0.2399  2181.6953   125.1809    10.8094     0.1719     2.6063   -29.9066  1799.3781     6.3681     6.4848     7.6900
 3811.0000     0.2501  2196.9741   132.9001    10.8854     0.1968     2.6138   -29.5723  1800.1113     6.1928     6.2106     7.3758
 3811.5000     0.2516  2197.1455   134.1024    10.9463     0.2468     2.6364   -29.2366  1785.1572     6.0223     5.9027     6.9770
 3812.0000     0.2485  2182.1240   135.9043    11.0073     0.2498     2.6393   -29.1062  1786.0732     5.6570     5.5352     6.4450
 3812.5000     0.2444  2182.3025   138.9057    11.0530     0.2500     2.6182   -29.0942  1786.8217     4.8223     5.1883     5.7438
 3813.0000     0.2531  2182.4507   146.1050    11.1594     0.2500     2.5263   -29.0873  1787.7229     4.0264     4.7598     5.1042
 3813.5000     0.2914  2182.6238   155.5902    11.4021     0.2500     2.4623   -29.4358  1788.4558     3.5535     4.1828     4.5045
 3814.0000     0.3257  2182.7666   162.6032    11.8267     0.2104     2.3222   -29.9029  1804.6925     3.4556     3.5462     4.0005
 3814.5000     0.3817  2182.9094   161.4067    11.9179     0.1537     2.2160   -30.1545  1789.9220     3.4549     3.4950     3.0113
 3815.0000     0.4188  2183.0559   153.0138    11.8121     0.0690     2.1723   -30.4713  1790.8384     3.5267     3.5702     2.7897
 3815.5000     0.3859  2183.2310   139.8232    11.4942     0.0024     2.2122   -31.3225  1791.5713     3.6503     3.7532     3.1172
 3816.0000     0.3278  2183.3738   129.9310    10.9994     0.0576     2.3447   -31.6431  1792.3042     3.7522     4.0141     4.0577
 3816.5000     0.2293  2183.5166   117.9951    10.6968     0.1544     2.6451   -31.9543  1808.5413     3.9653     4.4556     5.5260
 3817.0000     0.2274  2183.6611   114.3446    10.6367     0.2044     2.7640   -32.2996  1809.3021     4.3217     4.8548     7.0690
 3817.5000     0.2299  2183.8379   117.6465    10.6220     0.2165     2.7715   -32.5872  1810.1906     4.8123     5.2898     7.4206
 3818.0000     0.2274  2168.8523   122.1471    10.6073     0.1537     2.6683   -32.9242  1826.4272     5.3756     5.6465     7.3687
