~VERSION INFORMATION
 VERS.                2.0:   CWLS LOG ASCII STANDARD - VERSION 2.0
 WRAP.                 NO:   ONE LINE PER DEPTH STEP
~WELL INFORMATION
#MNEM.UNIT      DATA TYPE    INFORMATION
#----------   ------------   ------------------------------
 STRT.F            0.0000:   START DEPTH
 STOP.F         1071.5000:   STOP DEPTH
 STEP.F            0.5000:   STEP LENGTH
 NULL.          -999.2500:   NO VALUE
 COMP.       FLUOR DANIEL:   COMPANY
 WELL.     FLUOR X #82-22:   WELL
 FLD .                NPR:   FIELD
 LOC .      S22 T38N R78W:   LOCATION
 CNTY.            NATRONA:   COUNTY
 STAT.            WYOMING:   STATE
 CTRY. UNITED STATES OF AMERICA:   COUNTRY
 SRVC.      WESTERN ATLAS:   SERVICE COMPANY
 DATE.        19-SEP-1994:   LOGDATE
 API .     49025226520000:   API NUMBER
~CURVE INFORMATION
#MNEM.UNIT       API CODE    CURVE DESCRIPTION
#----------   ------------   ------------------------------
 DEPT.F                  :   
 GRR .GAPI   07 310 01 00:   GAMMA RAY FROM RESISTIVITY
 TENR.LBS    07 635 01 00:   TENSION
 ILD .OHMM   07 120 46 00:   INDUCTION LOG DEEP RESISTIVITY
 ILM .OHMM   07 120 44 00:   INDUCTION LOG MEDIUM RESISTIVITY
~PARAMETER INFORMATION
#MNEM.UNIT          VALUE    DESCRIPTION
#----------   ------------   ------------------------------
 EKB .F         5288.0000:   Kelly bushing
 EGL .F         5278.0000:   Ground level
 EDF .F         5287.0000:   Drilling floor
 EPD .F         5278.0000:   Permanent datum
 TD  .F         1062.0000:   Total depth
 DATE.        19-SEP-1994:   Date logged
 CLNT.            A2DTECH:   Client Code
 SL  . 937' FNL & 347' FEL:   Surface Location
 PD  .                 GL:   Permanent Datum
 LMF .                 KB:   Log Measured From
 DMF .                 KB:   Drilling Measured From
 DAPD.F                10:   Feet Above Permanent Datum
 DD  .F              1060:   Depth driller
 DL  .F              1062:   Depth logger
 BLI .F              1054:   Bottom log interval
 CS1 .IN            9.625:   Casing size
 CBD1.       9.625" @ 77':   Casing driller 1
 CBL1.F                78:   Casing logger 1
 BS1 .IN             8.75:   Bit size
 BSD1.F              1060:   Depth drilled with bit1
 DFT .                AIR:   Type fluid in hole
 LUN .            HL 6530:   Logging unit number
 LUL .             CASPER:   Logging unit location
 ENGI.      PAT RASMUSSEN:   Recorded By
 WITN.        GARY STRONG:   Witnessed by
 ORIG.           5" PRINT:   Origin of data
 UWI .     49025226520000:   Unique Well ID
 DICO. A2D TECHNOLOGIES, INC.:   Digitizing Company
~OTHER INFORMATION
~A    DEPT      GRR      TENR        ILD        ILM   
# ...
  949.0000    97.1770    67.6610     9.9890     9.8870
  949.5000    96.7650    65.4150     9.9720     9.8700
  950.0000    96.3860    63.1690     9.9550     9.8530
  950.5000    97.0090    60.9230     9.9370     9.8450
  951.0000    97.2580    58.6760     9.9710     9.8820
  951.5000    97.4200    56.4300    10.0090     9.9340
  952.0000    97.5850    54.1840    10.0470     9.9860
  952.5000    97.9470    51.9370    10.0850    10.0370
  953.0000    98.2070    49.6910    10.1230    10.0890
  953.5000   102.8660    47.4450    10.1610    10.1400
  954.0000   107.9400    47.5470    10.1980    10.1920
  954.5000   110.0700    48.6360    10.4320    10.4420
  955.0000   110.1330    49.7250    10.8350    10.8620
  955.5000   109.3740    50.8130    11.2370    11.2820
  956.0000   108.3390    51.9020    11.8950    11.8080
  956.5000   104.6820    52.9910    12.6120    12.4770
  957.0000    95.8440    54.0790    13.3300    13.1470
  957.5000    82.8260    55.1680    14.0470    13.8170
  958.0000    66.3490    56.2560    14.7640    14.5610
  958.5000    61.8650    57.3450    15.5010    15.3330
  959.0000    66.0780    58.4340    15.5010    15.5010
  959.5000    71.6020    59.5220    15.5010    15.4020
  960.0000    74.4530    60.6110    15.3080    15.2410
  960.5000    74.8440    61.7000    15.0080    15.0800
  961.0000    76.8330    62.7880    14.6780    14.8630
  961.5000    81.7480    63.8770    14.2610    14.2010
  962.0000    86.2160    64.9660    13.5890    13.5400
  962.5000    86.2130    66.0540    12.8790    12.8790
  963.0000    84.6660    66.6470    13.0560    12.9470
  963.5000    83.1730    65.4970    13.1200    12.9990
  964.0000    81.6720    64.3480    12.6990    12.6820
  964.5000    81.4260    63.1990    12.4070    12.4280
  965.0000    81.8320    62.0500    12.1150    12.1740
  965.5000    82.2530    60.9010    11.8240    11.9200
  966.0000    82.8850    59.7520    11.5320    11.6660
  966.5000    84.9520    58.6030    11.4030    11.4170
  967.0000    87.0700    57.4540    11.3780    11.4170
  967.5000    88.5120    59.1050    11.3530    11.4170
  968.0000    88.8420    63.9520    11.3290    11.4170
  968.5000    87.3230    68.8000    11.3120    11.3640
  969.0000    86.0000    73.6480    11.3130    11.3050
  969.5000    86.3900    78.4960    11.2780    11.2460
  970.0000    87.2620    83.3440    11.2180    11.1870
  970.5000    89.0190    87.2670    11.1580    11.1280
  971.0000    90.9800    88.2810    11.0980    11.0680
  971.5000    92.9410    89.2950    11.0380    11.0090
  972.0000    93.6540    90.3090    10.9790    10.9500
  972.5000    92.7920    91.3220    10.9190    10.9010
  973.0000    90.3300    92.3360    10.8590    10.9010
  973.5000    87.9220    93.3500    10.8000    10.9010
  974.0000    87.1380    94.3640    10.8440    10.9000
  974.5000    87.7140    95.3780    10.8870    10.9010
  975.0000    89.7790    96.3920    10.9300    10.9010
  975.5000    90.1920    97.9070    10.9740    11.0600
  976.0000    90.0620   100.4930    11.0750    11.2360
  976.5000    89.8650   103.0780    11.2850    11.4730
  977.0000    88.6150   105.6640    11.4960    11.7570
  977.5000    88.2690   105.9360    11.7070    12.0400
  978.0000    90.0790   100.7650    11.7390    12.3240
  978.5000    93.0120    95.5940    11.5480    12.5260
  979.0000    93.4800    90.4230    11.3960    11.9030
  979.5000    92.8230    89.0650    11.2440    11.4170
  980.0000    93.3460    95.0320    11.0490    11.1490
  980.5000    94.3640   100.9980    10.8400    10.8670
  981.0000    96.3430   106.9650    10.6310    10.5840
  981.5000    98.2920   112.9310    10.4220    10.3020
  982.0000    98.0630   116.4870    10.2130    10.0200
  982.5000    95.9580   113.9640    10.0280     9.9360
  983.0000    95.1940   111.4420    10.0820    10.0140
  983.5000    96.1970   108.9190    10.1650    10.2270
  984.0000    97.4840   106.3970    10.4180    10.4910
  984.5000    98.3830   103.8740    10.6700    10.7550
  985.0000    96.5130   101.3520    10.9230    11.0180
  985.5000    95.1260    98.8300    11.1040    11.2080
  986.0000    96.3860    99.3530    11.0850    11.1460
  986.5000    98.4640   106.7400    11.0670    11.0980
  987.0000   100.5670   114.1280    11.0480    11.0500
  987.5000   100.2150   114.1850    11.0300    11.0010
  988.0000    98.1500   109.0140    11.0130    10.9530
  988.5000    95.7050   103.8430    10.9600    10.9050
  989.0000    94.4260    98.6720    10.8690    10.8570
  989.5000    93.0890    97.5980    10.7780    10.8080
  990.0000    91.1870    98.6320    10.6860    10.7600
  990.5000    89.3200    99.6660    10.5940    10.7120
  991.0000    90.7000   100.7000    10.5020    10.6640
  991.5000    94.7500   101.7340    10.4100    10.6150
  992.0000    95.2820   102.7690    10.3190    10.5670
  992.5000    92.9410   103.8030    10.2270    10.5190
  993.0000    90.9880   104.8370    10.2030    10.4960
  993.5000    89.8730   105.8710    10.1890    10.4850
  994.0000    91.3120   106.9050    10.1750    10.4740
  994.5000    94.1520   105.2460    10.1610    10.4620
  995.0000    97.0890   102.7830    10.1460    10.4510
  995.5000    95.6140   100.3210    10.1320    10.4400
  996.0000    93.1200    97.8590    10.1230    10.4280
  996.5000    90.6020    99.5250    10.1630    10.4170
  997.0000    88.0820   103.0910    10.1950    10.4080
  997.5000    85.5520   106.6570    10.2280    10.4410
  998.0000    86.4670   110.2230    10.2600    10.4710
  998.5000    88.3270   113.7900    10.2930    10.5010
  999.0000    90.1650   117.2030    10.3410    10.5310
  999.5000    92.0660   112.7190    10.4110    10.5610
 1000.0000    95.9600   108.4200    10.4800    10.5920
 1000.5000    99.8340   104.1200    10.5500    10.6220
 1001.0000    99.6920    99.8200    10.6200    10.6520
 1001.5000    97.1720    99.3280    10.6890    10.6820
 1002.0000    94.6700   105.5090    10.7590    10.7000
 1002.5000    92.1870   111.6900    10.8040    10.6780
 1003.0000    90.2890   117.8710    10.8140    10.6610
 1003.5000    91.1580   124.0520    10.8230    10.6450
 1004.0000    91.9930   127.6560    10.8330    10.6290
 1004.5000    92.7500   128.4740    10.8430    10.6130
 1005.0000    93.0210   129.2920    10.8530    10.6020
 1005.5000    94.8080   130.1090    10.8620    10.8030
 1006.0000    97.0250   130.9270    10.8720    10.9550
 1006.5000    98.2080   131.7440    10.8820    11.1040
 1007.0000    97.7070   132.5620    10.8920    11.1040
 1007.5000    97.2020   133.3800    10.9000    11.1040
 1008.0000    98.5010   134.1970    10.8760    11.0670
 1008.5000    99.6520   135.0150    10.8540    11.0240
 1009.0000    97.4380   135.8320    10.8310    10.9810
 1009.5000    96.8170   136.6500    10.8080    10.9380
 1010.0000   100.8140   137.6420    10.7850    10.8950
 1010.5000   105.3240   139.4490    10.7630    10.8520
 1011.0000   103.2620   141.2560    10.7400    10.8090
 1011.5000    98.8960   143.0640    10.7170    10.7660
 1012.0000    98.6240   144.8710    10.6800    10.7220
 1012.5000   101.9240   146.6780    10.6050    10.6750
 1013.0000   105.2940   148.4860    10.5300    10.6230
 1013.5000   108.2580   150.2930    10.4550    10.5720
 1014.0000   110.7950   152.1000    10.3800    10.5200
 1014.5000   109.8060   153.9080    10.3040    10.4680
 1015.0000   106.6180   155.7150    10.2160    10.4070
 1015.5000   102.2490   157.4450    10.2950    10.4870
 1016.0000   101.2690   158.9370    10.3920    10.5840
 1016.5000   102.9580   160.3680    10.4880    10.6820
 1017.0000   104.5900   161.7990    10.5850    10.7790
 1017.5000   105.4560   163.2290    10.6810    10.9010
 1018.0000   106.3650   164.6600    10.8000    10.8290
 1018.5000   107.2260   166.0910    10.7490    10.7340
 1019.0000   106.7740   167.5050    10.6830    10.6380
 1019.5000   106.8380   167.9880    10.6180    10.4320
 1020.0000   108.7150   168.4640    10.5520    10.1220
 1020.5000   109.3400   168.9410    10.4860    10.1780
 1021.0000   108.6070   169.4180    10.4200    10.2420
 1021.5000   108.7260   169.8950    10.3540    10.3110
