~VERSION INFORMATION
 VERS.                2.0:   CWLS LOG ASCII STANDARD - VERSION 2.0
 WRAP.                 NO:   ONE LINE PER DEPTH STEP
~WELL INFORMATION
#MNEM.UNIT      DATA TYPE    INFORMATION
#----------   ------------   ------------------------------
 STRT.F          230.0000:   START DEPTH
 STOP.F         3480.0000:   STOP DEPTH
 STEP.F            0.5000:   STEP LENGTH
 NULL.          -999.2500:   NO VALUE
 COMP.    FENIX & SCISSON:   COMPANY
 WELL. FENIX NPR 3 "AX" #33-15:   WELL
 FLD .                NPR:   FIELD
 LOC .      S15 T38N R78W:   LOCATION
 CNTY.            NATRONA:   COUNTY
 STAT.            WYOMING:   STATE
 CTRY. UNITED STATES OF AMERICA:   COUNTRY
 SRVC.       SCHLUMBERGER:   SERVICE COMPANY
 DATE.        19-MAR-1981:   LOGDATE
 API .     49025108760000:   API NUMBER
~CURVE INFORMATION
#MNEM.UNIT       API CODE    CURVE DESCRIPTION
#----------   ------------   ------------------------------
 DEPT.F                  :   
 TENR.LBS    07 635 01 00:   TENSION
 SFL .OHMM   07 220 01 00:   SHALLOW FOCUSED LOG RESISTIVITY
 ILM .OHMM   07 120 44 00:   INDUCTION LOG MEDIUM RESISTIVITY
 ILD .OHMM   07 120 46 00:   INDUCTION LOG DEEP RESISTIVITY
 SPR .MV     07 010 01 00:   SPONTANEOUS POTENTIAL
 CALD.IN     45 280 60 00:   CALIPER FROM DENSITY LOG
 GRD .GAPI   45 310 01 00:   GAMMA RAY FROM DENSITY LOG
 CORR.G/C3   45 356 01 00:   DENSITY CORRECTION
 RHOB.G/C3   45 350 01 00:   BULK DENSITY
~PARAMETER INFORMATION
#MNEM.UNIT          VALUE    DESCRIPTION
#----------   ------------   ------------------------------
 EKB .F         5286.0000:   Kelly bushing
 EGL .F         5276.0000:   Ground level
 EDF .F            0.0000:   Drilling floor
 TD  .F         3500.0000:   Total depth
 DATE.        19-MAR-1981:   Date logged
 CLNT.            A2DTECH:   Client Code
 SL  . 1545' FNL & 1467' FWL:   Surface Location
 PD  .                 GL:   Permanent Datum
 EPD .F              5276:   Elevation Permanent Datum
 LMF .                 KB:   Log Measured From
 DMF .                 KB:   Drilling Measured From
 DAPD.F                10:   Feet Above Permanent Datum
 DD  .F              3500:   Depth driller
 DL  .F              3476:   Depth logger
 BLI .F              3470:   Bottom log interval
 TLI .F               234:   Top log interval
 CS1 .IN            8.625:   Casing size
 CBD1.      8.625" @ 250':   Casing driller 1
 CBL1.F               234:   Casing logger 1
 BS1 .IN            7.875:   Bit size
 BSD1.F              3500:   Depth drilled with bit1
 DFT .                FGM:   Type fluid in hole
 DFD .                8.9:   Density
 DFV .                 39:   Viscosity
 DFPH.                9.5:   pH
 DFL .                 10:   Fluid loss
 MSS .               TANK:   Source of sample
 RMS .OHMM           2.26:   Rm
 MST .F                54:   Rm Meas. temp.
 RMF .OHMM           1.60:   Rmf
 MFST.F                54:   Rmf Meas. temp.
 MFSS.               MEAS:   Source Rmf.
 RMB .OHMM            .87:   Rm. at BHT
 BHT .F               140:   BHT.
 TCS .HRS            1030:   Time Circ. stopped
 TLAB.HRS            1300:   Time logger at bottom
 MRT .F               140:   Maximum recorded temp.
 LUN .               8039:   Logging unit number
 LUL .               CSPR:   Logging unit location
 ENGI.           C. PFARR:   Recorded By
 WITN.           R. SCOTT:   Witnessed by
 ORIG.     2.5", 5" PRINT:   Origin of data
 UWI .     49025108760000:   Unique Well ID
 DICO. A2D TECHNOLOGIES, INC.:   Digitizing Company
~OTHER INFORMATION
~A   DEPT     TENR          SFL      ILM        ILD        SPR         CALD       GRD      CORR         RHOB 
# ...
 1507.5000  1025.5439    10.6510     7.9570     9.0140   -45.3760     8.9420   110.7260     0.0530     2.5640
 1508.0000  1026.2330    10.6250     7.9530     9.0150   -45.4030     8.9480   106.3020     0.0580     2.5590
 1508.5000  1026.9210    10.5440     7.9480     9.0160   -45.2680     8.9550   104.8350     0.0500     2.5390
 1509.0000  1027.6100    10.4630     7.9440     9.0120   -45.1470     8.9610   106.6180     0.0520     2.5360
 1509.5000  1028.2980    10.3830     7.9400     9.0180   -45.0220     8.9680   109.9390     0.0610     2.5560
 1510.0000  1028.9871    10.3020     7.9360     9.0290   -44.8950     8.9740   114.1080     0.0700     2.5660
 1510.5000  1029.6750    10.2220     7.9300     8.8260   -44.7710     8.9810   117.3600     0.0650     2.5500
 1511.0000  1030.3640    10.1410     7.9280     8.8710   -44.6470     8.9870   116.1930     0.0560     2.5330
 1511.5000  1031.0520    10.0750     7.9220     8.6960   -44.5180     8.9940   113.2970     0.0560     2.5320
 1512.0000  1031.7410    10.1260     7.9180     8.6330   -44.4000     9.0000   112.8040     0.0620     2.5470
 1512.5000  1032.4290    10.1690     7.8080     8.5790   -44.2590     9.0070   115.7520     0.0680     2.5570
 1513.0000  1033.1180    10.2120     7.6980     8.5250   -44.2400     9.0130   117.6030     0.0700     2.5550
 1513.5000  1033.8060    10.2630     7.5870     8.4720   -44.3140     9.0200   118.2510     0.0660     2.5490
 1514.0000  1034.4940    10.1300     7.4770     8.4200   -44.4440     9.0260   115.7370     0.0630     2.5470
 1514.5000  1035.1830     9.9660     7.3660     8.3680   -44.5820     9.0240   113.2540     0.0570     2.5490
 1515.0000  1035.8710     9.8030     7.2560     8.3160   -44.6680     9.0210   112.6090     0.0570     2.5420
 1515.5000  1036.5601     9.6390     7.1450     8.2660   -44.9940     9.0180   113.0390     0.0590     2.5350
 1516.0000  1037.2480     9.4760     6.9920     8.2170   -45.3180     9.0150   112.3890     0.0660     2.5130
 1516.5000  1037.9370     9.2230     6.7870     7.9930   -45.6570     9.0120   110.7720     0.1220     2.4800
 1517.0000  1038.6250     8.7180     6.5820     7.7810   -45.9970     9.0090   110.5420     0.1550     2.4470
 1517.5000  1039.3140     8.2140     6.3770     7.5690   -46.2350     9.0070   108.4790     0.1540     2.3940
 1518.0000  1040.0020     7.7090     6.1720     7.3570   -46.3820     9.0040   104.7890     0.1280     2.3800
 1518.5000  1040.6910     7.3020     6.1000     7.1450   -46.5630     9.0010   104.1190     0.0890     2.3880
 1519.0000  1041.3790     7.2170     6.0720     6.9550   -46.7390     8.9980   107.0640     0.0600     2.4260
 1519.5000  1042.0680     7.1390     6.0440     6.9550   -46.9160     8.9950   109.6310     0.0570     2.4640
 1520.0000  1042.7560     7.0850     6.0150     6.9550   -47.0920     8.9920   113.4470     0.0590     2.4960
 1520.5000  1043.4449     7.0850     5.9880     6.9550   -47.2660     8.9900   118.4510     0.0660     2.5110
 1521.0000  1044.1331     7.4130     5.9630     6.9550   -47.4360     8.9870   120.6330     0.0730     2.5260
 1521.5000  1044.8210     7.7660     5.9380     6.9330   -47.1840     8.9860   120.0190     0.0800     2.5370
 1522.0000  1045.5100     8.0660     5.9130     6.9040   -46.4780     8.9860   118.4310     0.0910     2.5390
 1522.5000  1046.1980     7.9890     5.8860     6.8750   -45.7910     8.9950   115.7860     0.0780     2.5280
 1523.0000  1046.8870     7.9210     5.9120     6.8290   -45.0390     9.0040   114.8970     0.0760     2.5340
 1523.5000  1047.5750     7.8540     5.9370     6.8360   -44.5730     9.0130   114.0450     0.0730     2.5400
 1524.0000  1048.2640     7.7870     5.9630     6.8670   -44.5340     9.0220   114.3380     0.0710     2.5470
 1524.5000  1048.9520     7.8220     5.9880     6.8980   -44.4350     9.0310   116.7370     0.0690     2.5460
 1525.0000  1049.6410     7.8850     6.0140     6.9270   -44.3470     9.0390   119.2930     0.0600     2.5330
 1525.5000  1050.3290     7.9480     6.0400     6.9570   -44.2640     9.0360   120.2190     0.0500     2.5180
 1526.0000  1051.0179     8.0100     6.0650     6.9870   -44.1740     9.0250   118.8470     0.0400     2.5030
 1526.5000  1051.7061     8.0730     6.0910     7.0170   -44.0890     9.0220   118.5900     0.0350     2.5010
 1527.0000  1052.3950     8.1360     6.1170     7.0470   -44.0000     9.0190   117.6280     0.0340     2.5050
 1527.5000  1053.0830     8.1990     6.1420     7.0760   -43.9160     9.0160   116.2990     0.0360     2.5150
 1528.0000  1053.7720     8.2620     6.1680     7.1060   -43.8560     9.0140   115.7110     0.0410     2.5290
 1528.5000  1054.4600     8.3240     6.1940     7.1360   -44.0610     9.0110   116.7220     0.0480     2.5430
 1529.0000  1055.1479     8.3710     6.2230     7.1660   -44.3100     9.0080   118.5040     0.0550     2.5560
 1529.5000  1055.8370     8.4010     6.3210     7.1950   -44.5630     9.0060   118.7480     0.0600     2.5640
 1530.0000  1056.5250     8.4670     6.4350     7.2540   -44.8120     9.0060   117.8170     0.0570     2.5640
 1530.5000  1057.2140     8.5270     6.5490     7.3860   -45.0610     9.0060   115.0120     0.0440     2.5520
 1531.0000  1057.9020     8.5270     6.6630     7.5180   -45.3130     9.0060   115.1820     0.0430     2.5470
 1531.5000  1058.5909     8.7460     6.7770     7.6500   -45.5620     9.0060   115.4100     0.0420     2.5470
 1532.0000  1059.2791     8.9900     6.8910     7.7820   -45.8120     9.0060   114.7490     0.0450     2.5550
 1532.5000  1059.9680     9.2330     7.0050     7.9150   -45.8020     9.0060   114.1250     0.0520     2.5640
 1533.0000  1060.6560     9.4770     7.1190     8.0470   -45.4020     9.0170   113.3090     0.0550     2.5670
 1533.5000  1061.3450     9.7210     7.2170     8.1790   -45.0310     9.0300   111.2050     0.0560     2.5650
 1534.0000  1062.0330     9.9650     7.2850     8.3110   -44.6430     9.0430   109.5640     0.0520     2.5570
 1534.5000  1062.7220    10.1040     7.3450     8.4090   -44.2650     9.0560   109.5360     0.0500     2.5530
 1535.0000  1063.4100    10.1570     7.4050     8.4780   -43.8840     9.0670   110.7380     0.0550     2.5570
 1535.5000  1064.0990    10.2110     7.4650     8.5480   -43.5000     9.0670   111.3020     0.0620     2.5610
 1536.0000  1064.9360    10.2640     7.5250     8.6180   -43.1260     9.0680   110.7070     0.0690     2.5580
 1536.5000  1065.8190    10.3170     7.5860     8.6870   -42.7430     9.0680   108.3540     0.0690     2.5420
 1537.0000  1066.7020    10.3700     7.6460     8.7570   -42.6820     9.0690   106.1770     0.0640     2.5360
 1537.5000  1067.5840    10.4550     7.7060     8.8260   -42.7650     9.0690   106.1240     0.0660     2.5430
 1538.0000  1068.4670    10.4310     7.7660     8.8960   -42.8430     9.0700   106.0230     0.0680     2.5500
 1538.5000  1069.3500    10.3700     7.8260     8.9660   -42.9180     9.0700   104.0140     0.0640     2.5450
 1539.0000  1070.2321    10.3100     7.8860     9.0350   -42.9970     9.0710   103.0720     0.0580     2.5360
 1539.5000  1071.1150    10.2630     7.9460     9.1050   -43.0730     9.0710   105.8360     0.0510     2.5280
 1540.0000  1071.9969    10.4730     8.0060     9.1750   -43.1500     9.0720   111.1170     0.0470     2.5310
 1540.5000  1072.8800    10.7240     8.0660     9.2440   -43.2270     9.0720   114.6750     0.0540     2.5460
 1541.0000  1073.7629    10.9750     8.1260     9.3140   -43.3050     9.0730   112.0020     0.0580     2.5610
 1541.5000  1074.6450    11.2600     8.1860     9.3830   -43.3790     9.0740   107.9940     0.0570     2.5730
 1542.0000  1075.5280    11.2420     8.2460     9.4530   -43.4550     9.0740   105.3590     0.0560     2.5720
 1542.5000  1076.4100    11.2050     8.3060     9.5230   -43.3920     9.0750   103.7840     0.0550     2.5690
 1543.0000  1077.2930    11.1680     8.3660     9.5920   -43.2830     9.0750   105.7900     0.0630     2.5680
 1543.5000  1078.1760    11.1310     8.4260     9.6620   -43.1880     9.0760   106.3560     0.0610     2.5690
