~VERSION INFORMATION
 VERS.                2.0:   CWLS LOG ASCII STANDARD - VERSION 2.0
 WRAP.                 NO:   ONE LINE PER DEPTH STEP
~WELL INFORMATION
#MNEM.UNIT      DATA TYPE    INFORMATION
#----------   ------------   ------------------------------
 STRT.F          492.0000:   START DEPTH
 STOP.F         3008.0000:   STOP DEPTH
 STEP.F            0.5000:   STEP LENGTH
 NULL.          -999.2500:   NO VALUE
 COMP.    FENIX & SCISSON:   COMPANY
 WELL. FENIX & SCISSON AX #24-28:   WELL
 FLD .             TEAPOT:   FIELD
 LOC .      S28 T39N R78W:   LOCATION
 CNTY.            NATRONA:   COUNTY
 STAT.            WYOMING:   STATE
 CTRY. UNITED STATES OF AMERICA:   COUNTRY
 SRVC.              WELEX:   SERVICE COMPANY
 DATE.        03-AUG-1980:   LOGDATE
 API .     49025108490000:   API NUMBER
~CURVE INFORMATION
#MNEM.UNIT       API CODE    CURVE DESCRIPTION
#----------   ------------   ------------------------------
 DEPT.F                  :   
 SPR .MV     07 010 01 00:   SPONTANEOUS POTENTIAL
 ILD .OHMM   07 120 46 00:   DEEP INDUCTION RESISTIVITY
 ILM .OHMM   07 120 44 00:   INDUCTION LOG MEDIUM RESISTIVITY
 SGRD.OHMM   07 220 05 00:   SHALLOW SHORT GUARD RESISTIVITY
 GRD .GAPI   45 310 01 00:   GAMMA RAY FROM DENSITY LOG
 CALD.IN     45 280 60 00:   CALIPER FROM DENSITY LOG
 CORR.G/C3   45 356 01 00:   DENSITY CORRECTION
 RHOB.G/C3   45 350 01 00:   BULK DENSITY
~PARAMETER INFORMATION
#MNEM.UNIT          VALUE    DESCRIPTION
#----------   ------------   ------------------------------
 EKB .F         5061.0000:   Kelly bushing
 EGL .F         5051.0000:   Ground level
 TD  .F         3000.0000:   Total depth
 CLNT.            A2DTECH:   Client Code
 SL  . 2350' FNL & 1000' FWL:   Surface Location
 DATE.         3-AUG-1980:   Date Logged [DD-MMM-YYYY]
 DD  .F              3000:   Depth driller
 DL  .F              3010:   Depth logger
 BLI .F              3008:   Bottom log interval
 TLI .F               308:   Top log interval
 CS1 .              8.625:   Casing size
 CBD1.      8.625" @ 393':   Casing driller 1
 BS1 .IN            7.875:   Bit size
 BSD1.F              3000:   Depth drilled with bit1
 DFT .     WATER BASE MUD:   Type fluid in hole
 DFD .                8.9:   Density
 TCS .HRS               8:   Time Circ. stopped
 MRT .F               115:   Maximum recorded temp.
 ENGI.           WACHTELL:   Recorded By
 WITN.           DINSMORE:   Witnessed by
 ORIG.      2.5" 5" PRINT:   Origin of data
 UWI .     49025108490000:   Unique Well ID
 DICO. A2D TECHNOLOGIES, INC.:   Digitizing Company
 PD  .                 GL:   Permanent Datum
 EPD .F              3051:   Elevation Permanent Datum
 LMF .                 KB:   Log Measured From
 DMF .                 KB:   Drilling Measured From
 DAPD.F                10:   Feet Above Permanent Datum
 DFV .                 43:   Viscosity
 DFPH.                9.5:   pH
 DFL .                7.2:   Fluid loss
 MSS .           FLOWLINE:   Source of sample
 RMS .OHMM             .9:   Rm
 MST .F                80:   Rm Meas. temp.
 RMF .OHMM            .72:   Rmf
 MFST.F                80:   Rmf Meas. temp.
 MFSS.               MEAS:   Source Rmf.
 RMC .OHMM           1.08:   Rmc
 MCST.F                80:   Rmc Meas. temp.
 MCSS.               MEAS:   Source Rmc.
 RMB .OHMM            .06:   Rm. at BHT
 BHT .F               115:   BHT.
 LUN .               1892:   Logging unit number
 LUL .             CASPER:   Logging unit location
~OTHER INFORMATION
~A   DEPT      SPR        ILD        ILM       SGRD        GRD       CALD       CORR       RHOB   
# ...
 2800.5000   -25.0101     4.9554     7.1193     6.2702    92.4241    10.9024     0.0293     2.5493
 2801.0000   -25.0208     5.0638     7.1761     6.6319    91.2954    10.8718     0.0052     2.5732
 2801.5000   -25.0312     5.1320     7.1499     6.8226    93.5389    10.8709     0.0111     2.5478
 2802.0000   -24.7427     5.2736     7.0563     6.9593    94.8839    10.8702     0.0502     2.5404
 2802.5000   -24.7545     5.3447     6.9918     6.9570    95.5543    10.8695     0.0439     2.5740
 2803.0000   -24.7649     5.3577     6.9890     6.9547    96.4495    10.8812     0.0252     2.5575
 2803.5000   -24.7753     5.3970     6.9862     6.8566    96.5917    10.8797     0.0329     2.5508
 2804.0000   -24.7857     5.4362     6.9834     6.8543    93.5083    10.8786     0.0701     2.5609
 2804.5000   -24.7961     5.4754     6.9806     6.8520    90.9350    10.8774     0.0960     2.5773
 2805.0000   -24.8072     5.4809     6.9777     6.8480    91.3694    10.8913     0.1210     2.6026
 2805.5000   -24.8198     5.4016     6.9748     6.7530    92.9283    10.8900     0.1162     2.6070
 2806.0000   -24.8324     5.2503     6.9719     6.6576    94.0373    10.9037     0.1130     2.5896
 2806.5000   -24.8451     5.0327     6.9477     6.5636    94.4756    10.9026     0.1315     2.5830
 2807.0000   -24.8577     4.7573     6.8425     6.5614    94.0067    10.9163     0.1579     2.5934
 2807.5000   -24.8703     4.2532     6.6134     6.4687    93.0918    10.9149     0.1873     2.6091
 2808.0000   -24.8829     3.9582     6.1199     6.2896    92.4017    10.9286     0.1499     2.6225
 2808.5000   -24.8955     3.7423     5.6500     6.1585    91.4662    10.9275     0.0985     2.5895
 2809.0000   -24.9081     3.5099     5.3322     5.9822    90.3432    10.9415     0.0906     2.5798
 2809.5000   -24.9207     3.0314     4.9803     5.7013    89.4283    10.9552     0.0874     2.5894
 2810.0000   -24.9333     2.7309     4.6443     5.3918    90.3125    10.9687     0.0919     2.6170
 2810.5000   -24.9459     2.5898     4.3309     5.0288    92.7710    10.9824     0.0591     2.5614
 2811.0000   -24.9585     2.5001     3.9829     4.6903    95.4543    10.9962     0.0450     2.5512
 2811.5000   -24.9711     2.4251     3.6124     4.3745    99.9367    10.9649     0.0294     2.5840
 2812.0000   -24.9837     2.4237     3.4158     3.9918   104.6440    10.7849     0.0121     2.5241
 2812.5000   -24.9963     2.4561     3.1834     3.4297   109.1264    10.5900    -0.0097     2.5017
 2813.0000   -25.0089     2.5241     3.0493     3.2024   115.4303    10.5442    -0.0269     2.5435
 2813.5000   -25.0215     2.7048     3.0106     3.1198   120.0016    10.5430    -0.0332     2.4889
 2814.0000   -25.0341     2.8187     3.1591     3.0756   125.4933    10.5418     0.0428     2.5187
 2814.5000   -25.0467     3.0629     3.4544     3.3630   128.8513    10.5556     0.0536     2.5437
 2815.0000   -25.0593     3.3749     3.7844     3.8468   131.0848    10.5852     0.0566     2.5141
 2815.5000   -25.0714     3.7732     4.1853     4.7700   133.5432    10.6275     0.0647     2.5327
 2816.0000   -25.0833     4.0543     4.6283     6.2527   127.0061    10.6564     0.0844     2.5693
 2816.5000   -25.0973     4.3474     5.3074     6.8581   114.1722    10.6401     0.0796     2.5932
 2817.0000   -25.1088     4.5253     5.9289     6.7605   105.1613    10.6091     0.0639     2.6014
 2817.5000   -25.1203     4.6373     6.1787     6.3926    97.2749    10.6228     0.0498     2.6006
 2818.0000   -25.1318     4.0691     6.1763     6.0447    87.7291    10.6369     0.0388     2.5691
 2818.5000   -25.1433     3.7896     5.8401     5.5594    84.6505    10.6801     0.0294     2.5414
 2819.0000   -25.1548     3.7561     5.4460     5.1845    86.2056    10.7237     0.0293     2.5287
 2819.5000   -25.1667     3.8067     5.0785     4.7560    87.7644    10.7672     0.0401     2.5264
 2820.0000   -25.1786     3.8579     4.6536     4.3693    89.0984    10.8105     0.0664     2.5450
 2820.5000   -25.1905     3.7495     4.2202     4.1465    88.4084    10.8690     0.0804     2.5591
 2821.0000   -25.2024     3.4953     4.1181     4.2185    86.8188    10.8979     0.0911     2.5262
 2821.5000   -25.2143     3.1249     4.2222     4.3393    86.5786    10.9411     0.0879     2.5247
 2822.0000   -25.2262     2.8330     4.4316     4.3772    88.3624    10.9552     0.1530     2.5373
 2822.5000   -25.2381     2.5328     4.5334     4.2856    90.3710    10.9835     0.2183     2.5956
 2823.0000   -25.2500     2.3610     4.4392     4.1050    91.9683    10.9973     0.2570     2.6426
 2823.5000   -25.2641     2.2631     4.0145     3.8040    93.9347    11.0110     0.2896     2.6605
 2824.0000   -25.2756     2.2619     3.4288     3.4504    95.7184    11.0248     0.3097     2.6649
 2824.5000   -25.2871     2.2606     3.1098     3.0865    98.6266    11.0233     0.2956     2.6619
 2825.0000   -25.2986     2.2673     2.9406     2.6855   101.3099    11.0222     0.1804     2.5265
 2825.5000   -25.0119     2.3101     2.7805     2.5044   106.6919    10.9912     0.0932     2.4749
 2826.0000   -25.0240     2.4118     2.7032     2.5032   117.6960    10.9453     0.0775     2.4674
 2826.5000   -25.0357     2.6054     2.8171     2.6918   128.2504    10.8697     0.0983     2.4853
 2827.0000   -25.0476     2.8997     3.1501     3.5374   137.2306    10.8089     0.1224     2.5054
 2827.5000   -25.0595     3.2514     3.5292     4.8474   140.3744    10.7630     0.1316     2.4852
 2828.0000   -25.0714     3.8233     3.8367     5.3216   143.1262    10.7169     0.1377     2.4914
 2828.5000   -25.0833     4.2719     4.1322     5.7385   140.3291    10.6396     0.1330     2.5468
 2829.0000   -25.0952     4.5776     4.4403     6.0469   127.2703    10.5804     0.1189     2.5620
 2829.5000   -25.1071     4.7705     4.9314     6.2318   113.3119    10.5643     0.1032     2.5694
 2830.0000   -25.1190     4.9026     5.4623     6.2288    96.2051    10.5483     0.0813     2.5357
 2830.5000   -25.1332     4.9000     5.7424     6.0549    85.3951    10.5173     0.0703     2.5297
 2831.0000   -25.1447     4.9660     5.9546     5.8053    86.0545    10.5013     0.0733     2.5461
 2831.5000   -25.1562     4.9632     6.1070     5.7227    88.0631    10.5001     0.0950     2.5378
 2832.0000   -25.1677     4.9605     6.1045     5.8002    90.2966    10.4989     0.1123     2.5699
 2832.5000   -25.1792     4.9577     6.1877     5.9603    93.0248    10.5127     0.1212     2.5975
 2833.0000   -25.1907     4.9549     6.1849     6.0407    95.7655    10.5115     0.1055     2.5688
 2833.5000   -25.2024     4.9522     6.1824     6.2097    98.3427    10.5548     0.0837     2.5481
 2834.0000   -25.2143     4.8809     6.1799     6.3875   100.1265    10.6132     0.0540     2.5562
 2834.5000   -25.2262     4.8782     6.2638     6.4798   101.6853    10.6568     0.0493     2.6085
 2835.0000   -25.2381     4.8755     6.3489     6.6441   103.4691    10.7152     0.0740     2.5957
 2835.5000   -25.2500     4.8723     6.3461     6.6406   105.0280    10.7591     0.0988     2.5994
 2836.0000   -24.9621     4.8697     6.4325     6.6373   106.5868    10.4298     0.1189     2.6062
 2836.5000   -25.2738     4.8670     6.4295     6.6341   107.4710    10.3839     0.1266     2.5911
 2837.0000   -25.2857     4.9329     6.4269     6.6309   108.1305    10.3827     0.1249     2.5778
 2837.5000   -25.2976     4.9300     6.4654     6.6277   107.4211    10.3791     0.1105     2.5589
 2838.0000   -25.3115     4.9273     6.5113     6.6239   104.9474    10.3652     0.1076     2.5879
 2838.5000   -25.3230     4.9247     6.5081     6.6208   103.5827    10.3790     0.1106     2.6021
 2839.0000   -25.3345     4.9219     6.5055     6.6177   103.7923    10.3927     0.1089     2.6050
 2839.5000   -25.3460     4.8511     6.5028     6.4336   103.7769    10.4213     0.0995     2.5743
 2840.0000   -25.3575     4.8484     6.5002     6.2547   104.4362    10.4202     0.0698     2.5205
 2840.5000   -25.3691     4.8457     6.4976     6.1653   105.0956    10.4190     0.0153     2.5062
