~VERSION INFORMATION
 VERS.                2.0:   CWLS LOG ASCII STANDARD - VERSION 2.0
 WRAP.                 NO:   ONE LINE PER DEPTH STEP
~WELL INFORMATION
#MNEM.UNIT      DATA TYPE    INFORMATION
#----------   ------------   ------------------------------
 STRT.F           10.0000:   START DEPTH
 STOP.F         2950.0000:   STOP DEPTH
 STEP.F            0.5000:   STEP LENGTH
 NULL.          -999.2500:   NO VALUE
 COMP.    FENIX & SCISSON:   COMPANY
 WELL.   PENIX SHX #11-23:   WELL
 FLD .  TEAPOT DOME NPR-3:   FIELD
 LOC .      S23 T38N R78W:   LOCATION
 CNTY.            NATRONA:   COUNTY
 STAT.            WYOMING:   STATE
 CTRY. UNITED STATES OF AMERICA:   COUNTRY
 SRVC.           BIRDWELL:   SERVICE COMPANY
 DATE.        19-MAY-1979:   LOGDATE
 API .     49025107790000:   API NUMBER
~CURVE INFORMATION
#MNEM.UNIT       API CODE    CURVE DESCRIPTION
#----------   ------------   ------------------------------
 DEPT.F                  :   
 ILD .OHMM   05 120 46 00:   INDUCTION LOG DEEP
 SN  .OHMM   05 040 16 00:   SHORT NORMAL 16"
 CALD.IN     45 280 60 00:   CALIPER FROM DENSITY LOG
 GRD .GAPI   45 310 01 00:   GAMMA RAY FROM DENSITY LOG
 RHOB.G/C3   45 350 01 00:   BULK DENSITY
 CORR.G/C3   45 356 01 00:   DENSITY CORRECTION
~PARAMETER INFORMATION
#MNEM.UNIT          VALUE    DESCRIPTION
#----------   ------------   ------------------------------
 EKB .F         5275.0000:   Kelly bushing
 EGL .F         5265.0000:   Ground level
 EDF .F            0.0000:   Drilling floor
 TD  .F         2995.0000:   Total depth
 DATE.        19-MAY-1979:   Date logged
 CLNT.            A2DTECH:   Client Code
 SL  . 337' FNL & 237' FWL:   Surface Location
 PD  .                 GL:   Permanent Datum
 EPD .F              5265:   Elevation Permanent Datum
 LMF .                 KB:   Log Measured From
 DMF .                 KB:   Drilling Measured From
 DAPD.F                10:   Feet Above Permanent Datum
 DD  .F              2995:   Depth driller
 DL  .F              2950:   Depth logger
 BLI .F              2944:   Bottom log interval
 TLI .F              1050:   Top log interval
 CS1 .IN            9.625:   Casing size
 CBD1.     9.625" @ 2050':   Casing driller 1
 CBL1.F              1050:   Casing logger 1
 BS1 .IN             8.75:   Bit size
 BSD1.F              2995:   Depth drilled with bit1
 DFT . AIR/FORRATION FLUIDS:   Type fluid in hole
 TCS .HRS              12:   Time Circ. stopped
 LUN .               3029:   Logging unit number
 LUL .             CASPER:   Logging unit location
 ENGI.         B. ROLLINS:   Recorded By
 ORIG.         2.5" PRINT:   Origin of data
 UWI .     49025107790000:   Unique Well ID
 DICO. A2D TECHNOLOGIES, INC.:   Digitizing Company
~OTHER INFORMATION
~A   DEPT      ILD         SN       CALD        GRD       RHOB         CORR 
# ...
 1934.0000     6.6550  -999.2500    10.2170   171.4080     2.0610     0.2130
 1934.5000     6.0670  -999.2500     9.7970   173.9190     2.2020     0.1430
 1935.0000     6.1050  -999.2500    10.5570   168.2740     2.3300     0.0690
 1935.5000     6.2020  -999.2500    10.3000   163.4370     2.4680     0.0360
 1936.0000     6.2950  -999.2500     9.8730   168.8010     2.4570     0.0470
 1936.5000     6.2610  -999.2500     9.6880   171.6050     2.4360     0.0670
 1937.0000     6.2290  -999.2500     9.7590   170.7920     2.3900     0.0960
 1937.5000     6.1960  -999.2500     9.7350   168.7390     2.4150     0.1260
 1938.0000     6.1060  -999.2500     9.6310   165.5420     2.4400     0.1340
 1938.5000     6.6550  -999.2500     9.6880   162.2470     2.4470     0.1020
 1939.0000     5.5310  -999.2500     9.7180   159.0710     2.4490     0.0960
 1939.5000     5.8490  -999.2500     9.3590   156.1800     2.4740     0.0900
 1940.0000     6.2950  -999.2500     9.3350   152.7270     2.4990     0.1000
 1940.5000     5.5310  -999.2500     9.5940   156.6500     2.5250     0.1360
 1941.0000     5.8680  -999.2500     9.4750   161.9920     2.5380     0.1280
 1941.5000     6.1800  -999.2500     9.4120   167.6010     2.5230     0.0990
 1942.0000     5.9420  -999.2500     9.4140   171.6210     2.5260     0.0720
 1942.5000     5.7390  -999.2500     9.4190   172.6290     2.5200     0.0470
 1943.0000     6.2950  -999.2500     9.4130   173.8830     2.5110     0.0180
 1943.5000     6.4360  -999.2500     9.4360   172.8900     2.5030     0.0260
 1944.0000     6.6550  -999.2500     9.3610   169.9230     2.5150     0.0340
 1944.5000     5.9150  -999.2500     9.2960   165.7430     2.5240     0.0360
 1945.0000     6.5330  -999.2500     9.4220   167.1740     2.5170     0.0290
 1945.5000     6.3200  -999.2500     9.4850   173.0680     2.5140     0.0240
 1946.0000     5.8460  -999.2500     9.4240   176.2270     2.5170     0.0210
 1946.5000     6.0930  -999.2500     9.3600   172.8720     2.5230     0.0190
 1947.0000     6.4130  -999.2500     9.4120   169.9530     2.5200     0.0140
 1947.5000     6.3550  -999.2500     9.5300   166.9070     2.5140     0.0210
 1948.0000     6.2700  -999.2500     9.4860   163.4560     2.5110     0.0260
 1948.5000     6.1800  -999.2500     9.4490   164.4330     2.5020     0.0370
 1949.0000     6.3460  -999.2500     9.4190   166.7550     2.4940     0.0380
 1949.5000     6.6550  -999.2500     9.4170   181.6780     2.4890     0.0410
 1950.0000     6.2950  -999.2500     9.4160   180.0900     2.5000     0.0480
 1950.5000     6.4210  -999.2500     9.4250   174.9930     2.5100     0.0580
 1951.0000     6.7790  -999.2500     9.4690   172.9530     2.5230     0.0620
 1951.5000     6.5240  -999.2500     9.5000   172.6700     2.5190     0.0540
 1952.0000     6.0670  -999.2500     9.4820   171.8390     2.5080     0.0450
 1952.5000     6.1240  -999.2500     9.4730   173.2950     2.4980     0.0380
 1953.0000     6.2410  -999.2500     9.4580   176.6910     2.4870     0.0350
 1953.5000     6.3750  -999.2500     9.4570   179.1210     2.4890     0.0390
 1954.0000     6.4130  -999.2500     9.4590   176.0660     2.4910     0.0440
 1954.5000     6.4130  -999.2500     9.4530   173.4000     2.4990     0.0540
 1955.0000     6.7790  -999.2500     9.4900   173.3800     2.5070     0.0700
 1955.5000     5.0850  -999.2500     9.4980   174.6190     2.5170     0.0830
 1956.0000     5.7130  -999.2500     9.4990   175.8410     2.5190     0.0770
 1956.5000     6.2950  -999.2500     9.4970   176.3480     2.5110     0.0720
 1957.0000     5.8460  -999.2500     9.4980   172.4410     2.4930     0.0360
 1957.5000     6.5330  -999.2500     9.4980   167.5840     2.4820     0.0320
 1958.0000     5.8040  -999.2500     9.4970   166.4750     2.5010     0.0480
 1958.5000     5.9470  -999.2500     9.5100   176.9110     2.5080     0.0850
 1959.0000     6.2330  -999.2500     9.5370   174.5290     2.5230     0.1160
 1959.5000     6.6560  -999.2500     9.5390   176.4700     2.5390     0.1020
 1960.0000     7.4360  -999.2500     9.5460   179.0760     2.5220     0.0590
 1960.5000     5.9560  -999.2500     9.5820   183.0110     2.5180     0.0180
 1961.0000     7.4360  -999.2500     9.5820   175.1130     2.5350     0.0070
 1961.5000     7.1760  -999.2500     9.5150   168.5410     2.5500     0.0280
 1962.0000     6.5330  -999.2500     9.4920   173.3580     2.5700     0.0450
 1962.5000     6.9050  -999.2500     9.6830   168.6080     2.5650     0.0380
 1963.0000     6.7550  -999.2500     9.5490   163.8970     2.5480     0.0280
 1963.5000     6.1030  -999.2500     9.4970   170.5640     2.5450     0.0380
 1964.0000     5.4300  -999.2500     9.4970   175.5680     2.5610     0.0670
 1964.5000     6.0670  -999.2500     9.5000   166.4060     2.5500     0.0510
 1965.0000     5.9560  -999.2500     9.4750   160.8660     2.5560     0.0460
 1965.5000     6.3690  -999.2500     9.4070   163.9340     2.5670     0.0460
 1966.0000     6.6550  -999.2500     9.3860   169.3500     2.5610     0.0460
 1966.5000     5.5310  -999.2500     9.4160   170.5720     2.5420     0.0470
 1967.0000     5.8460  -999.2500     9.4470   168.4430     2.5430     0.0480
 1967.5000     6.2110  -999.2500     9.4730   175.2450     2.5410     0.0540
 1968.0000     6.5330  -999.2500     9.4820   174.1300     2.5470     0.0590
 1968.5000     5.6740  -999.2500     9.4150   172.0450     2.5590     0.0690
 1969.0000     6.6290  -999.2500     9.4490   173.1070     2.5430     0.0300
 1969.5000     6.7790  -999.2500     9.4700   176.5120     2.5160     0.0340
 1970.0000     6.7790  -999.2500     9.4960   179.4210     2.5240     0.0380
 1970.5000     5.9560  -999.2500     9.4620   180.8100     2.5330     0.0400
 1971.0000     6.1040  -999.2500     9.4150   172.6530     2.5260     0.0260
 1971.5000     6.2500  -999.2500     9.3680   164.6690     2.5200     0.0150
 1972.0000     6.9050  -999.2500     9.3490   159.1310     2.5160     0.0120
 1972.5000     6.7890  -999.2500     9.4050   164.2060     2.5130     0.0270
 1973.0000     6.5330  -999.2500     9.4490   169.7790     2.5230     0.0360
 1973.5000     6.8840  -999.2500     9.3430   167.4400     2.5160     0.0290
 1974.0000     7.1900  -999.2500     9.1510   163.7470     2.5020     0.0130
 1974.5000     7.2990  -999.2500     9.2210   161.9290     2.4930     0.0260
 1975.0000     7.0840  -999.2500     9.3030   167.2690     2.5030     0.0470
 1975.5000     6.6550  -999.2500     9.2610   169.6470     2.5160     0.0630
 1976.0000     6.6550  -999.2500     9.0350   163.1840     2.4990     0.0780
 1976.5000     6.6550  -999.2500     9.2150   160.3090     2.5090     0.1070
 1977.0000     6.6550  -999.2500     9.2870   174.2870     2.5270     0.1450
 1977.5000     6.6550  -999.2500     9.3320   173.4760     2.5500     0.1270
 1978.0000     6.0010  -999.2500     9.3660   174.4230     2.5000     0.0730
 1978.5000     6.6550  -999.2500     9.2880   171.0370     2.4600     0.0230
 1979.0000     6.3720  -999.2500     9.3600   162.8150     2.4910     0.0610
 1979.5000     5.8460  -999.2500     9.3180   163.1910     2.5340     0.1130
 1980.0000     6.0130  -999.2500     9.2230   159.6780     2.5480     0.1100
 1980.5000     6.1800  -999.2500     9.2530   163.6760     2.5670     0.1170
 1981.0000     5.8940  -999.2500     9.3140   160.8190     2.5710     0.0790
 1981.5000     5.7390  -999.2500     9.3480   156.5940     2.5550     0.0570
 1982.0000     6.1800  -999.2500     9.4530   166.2470     2.5520     0.0530
 1982.5000     6.0880  -999.2500     9.3780   176.7010     2.5580     0.0770
 1983.0000     5.9010  -999.2500     9.4600   177.5120     2.5640     0.0830
 1983.5000     5.7390  -999.2500     9.4810   179.2940     2.5500     0.0720
 1984.0000     6.1230  -999.2500     9.5200   175.7780     2.5360     0.0650
 1984.5000     6.4600  -999.2500     9.2470   169.7930     2.5330     0.0680
 1985.0000     6.5330  -999.2500     9.2370   164.5160     2.5480     0.0720
 1985.5000     6.5550  -999.2500     9.2550   164.2950     2.5770     0.1610
