~VERSION INFORMATION
 VERS.                2.0:   CWLS LOG ASCII STANDARD - VERSION 2.0
 WRAP.                 NO:   ONE LINE PER DEPTH STEP
~WELL INFORMATION
#MNEM.UNIT      DATA TYPE    INFORMATION
#----------   ------------   ------------------------------
 STRT.F          209.5000:   START DEPTH
 STOP.F         3130.0000:   STOP DEPTH
 STEP.F            0.5000:   STEP LENGTH
 NULL.          -999.2500:   NO VALUE
 COMP. FENIX & SCISSON-U.S. NAVY:   COMPANY
 WELL.   FENIX "A" #66-29:   WELL
 FLD .              NPR 3:   FIELD
 LOC .      S29 T39N R78W:   LOCATION
 CNTY.            NATRONA:   COUNTY
 STAT.            WYOMING:   STATE
 CTRY. UNITED STATES OF AMERICA:   COUNTRY
 SRVC.       SCHLUMBERGER:   SERVICE COMPANY
 DATE.        12-JUN-1977:   LOGDATE
 API .     49025103850000:   API NUMBER
~CURVE INFORMATION
#MNEM.UNIT       API CODE    CURVE DESCRIPTION
#----------   ------------   ------------------------------
 DEPT.F                  :   
 CALD.IN     45 280 60 00:   CALIPER FROM DENSITY LOG
 GRD .GAPI   45 310 01 00:   GAMMA RAY FROM DENSITY LOG
 RHOB.G/C3   45 350 01 00:   BULK DENSITY
 CORR.G/C3   45 356 01 00:   DENSITY CORRECTION
 LL8 .OHMM   07 220 08 00:   LATEROLOG-8 RES.
 ILD .OHMM   07 120 46 00:   DEEP INDUCTION RESISTIVITY
 ILM .OHMM   07 120 44 00:   INDUCTION LOG MEDIUM RESISTIVITY
 SPR .MV     07 010 01 00:   SPONTANEOUS POTENTIAL
~PARAMETER INFORMATION
#MNEM.UNIT          VALUE    DESCRIPTION
#----------   ------------   ------------------------------
 EKB .F         5058.0000:   Kelly bushing
 EGL .F         5048.0000:   Ground level
 EDF .F            0.0000:   Drilling floor
 TD  .F         3120.0000:   Total depth
 DATE.        12-JUN-1977:   Date logged
 CLNT.            A2DTECH:   Client Code
 SL  . 1650' FSL & 1650' FEL:   Surface Location
 PD  .                 GL:   Permanent Datum
 EPD .F              5048:   Elevation Permanent Datum
 LMF .                 KB:   Log Measured From
 DMF .                 KB:   Drilling Measured From
 DAPD.F                10:   Feet Above Permanent Datum
 DD  .F              3120:   Depth driller
 DL  .F              3120:   Depth logger
 BLI .F              3120:   Bottom log interval
 TLI .F               219:   Top log interval
 CS1 .IN            8.625:   Casing size
 CBD1.      8.625" @ 225':   Casing driller 1
 CBL1.F               219:   Casing logger 1
 BS1 .IN            7.875:   Bit size
 BSD1.F              3120:   Depth drilled with bit1
 DFT .            KCL MUD:   Type fluid in hole
 DFD .                8.8:   Density
 DFV .                 32:   Viscosity
 DFPH.                7.5:   pH
 DFL .                  8:   Fluid loss
 MSS .              CIRC.:   Source of sample
 RMS .OHMM           2.01:   Rm
 MST .F                72:   Rm Meas. temp.
 RMF .OHMM            1.9:   Rmf
 MFST.F                72:   Rmf Meas. temp.
 RMC .OHMM           3.02:   Rmc
 MCST.F                72:   Rmc Meas. temp.
 MFSS.               MEAS:   Source Rmf.
 MCSS.               CALC:   Source Rmc.
 RMB .OHMM           1.21:   Rm. at BHT
 BHT .F               120:   BHT.
 TCS .HRS            1400:   Time Circ. stopped
 TLAB.HRS            1730:   Time logger at bottom
 MRT .F               120:   Maximum recorded temp.
 LUN .               7711:   Logging unit number
 LUL .               CSPR:   Logging unit location
 ENGI.             SAYLER:   Recorded By
 WITN.             RHODES:   Witnessed by
 ORIG.           5" PRINT:   Origin of data
 UWI .     49025103850000:   Unique Well ID
 DICO. A2D TECHNOLOGIES, INC.:   Digitizing Company
~OTHER INFORMATION
~A   DEPT     CALD         GRD      RHOB       CORR        LL8        ILD        ILM        SPR   
# ...
  776.5000     8.2683    96.7437     2.5306     0.0126     9.5489     9.9289     9.7503   -54.6562
  777.0000     8.2684    96.3495     2.5296     0.0146     9.3719     9.9253     9.6552   -54.8585
  777.5000     8.2883    97.3386     2.5346     0.0206     9.2833     9.9217     9.6545   -55.0607
  778.0000     8.2884    99.1183     2.5426     0.0235     9.1955     9.8277     9.4725   -54.8675
  778.5000     8.2884    99.9098     2.5396     0.0146     9.0258     9.7347     9.3842   -54.4766
  779.0000     8.2886    99.1203     2.5267     0.0066     8.9404     9.7297     9.2107   -54.2835
  779.5000     8.2887    97.3425     2.5098     0.0056     8.8559     9.6383     9.0405   -53.8926
  780.0000     8.2888    96.3554     2.4973     0.0056     8.5351     9.2879     8.9549   -53.6994
  780.5000     8.2691    98.7283     2.5108     0.0096     8.4544     9.2013     8.8701   -53.1109
  781.0000     8.2890    97.9384     2.5108     0.0106     8.3744     9.1135     8.8668   -53.1578
  781.5000     8.2891    96.5560     2.5148     0.0146     8.2953     9.0273     8.8636   -52.9647
  782.0000     8.2892    96.5569     2.5217     0.0166     8.2922     9.0240     8.7797   -52.5739
  782.5000     8.3090    98.7319     2.5267     0.0176     8.2892     9.0207     8.7765   -52.3808
  783.0000     8.3487   100.5119     2.5377     0.0246     8.3622     9.0180     8.6934   -52.1877
  783.5000     8.3685   100.1173     2.5297     0.0216     8.3592     9.0969     8.6902   -51.7970
  784.0000     8.3488    99.1299     2.5237     0.0086     8.4328     9.0936     8.6870   -51.9965
  784.5000     8.3094    97.5502     2.5198     0.0057     8.5071     9.1738     8.6839   -52.3955
  785.0000     8.3095    99.5273     2.5307     0.0146     8.5040     9.1705     8.6807   -52.6917
  785.5000     8.3096   102.8881     2.5377     0.0096     8.5009     9.1691     8.6775   -52.9879
  786.0000     8.3295   103.8772     2.5307     0.0067     8.3440     9.4187     8.7541   -53.2841
  786.5000     8.3098   101.5070     2.5277     0.0077     8.3409     9.4153     8.7509   -53.5802
  787.0000     8.3099    99.9265     2.5258     0.0087     8.3379     9.4984     8.8281   -54.0061
  787.5000     8.3298    99.7299     2.5268     0.0106     8.3354     9.4949     8.8248   -54.0079
  788.0000     8.3299   100.5214     2.5327     0.0087     8.4854     9.4914     8.8216   -54.2101
  788.5000     8.3497   103.6849     2.5387     0.0047     8.6387     9.4880     8.8184   -54.4123
  789.0000     8.3498   103.2901     2.5387     0.0047     8.7948     9.4866     8.8152   -54.8129
  789.5000     8.3302    98.3510     2.5298     0.0087     8.7916     9.3091     8.8120   -54.8175
  790.0000     8.3698    98.1534     2.5258     0.0126     8.7884     9.2210     8.8088   -54.6244
  790.5000     8.3699    99.9252     2.5188     0.0097     8.6261     9.2176     8.8055   -54.2338
  791.0000     8.3502   101.5159     2.5148     0.0065     8.4669     9.1304     8.8023   -53.8431
  791.5000     8.3503    99.7378     2.5049     0.0027     8.3106     9.1270     8.7190   -53.2125
  792.0000     8.3504    96.9721     2.4950     0.0007     8.3075     9.1237     8.7158   -52.6243
  792.5000     8.3505    97.9611     2.5049     0.0057     8.3045     9.1224     8.6333   -52.4313
  793.0000     8.3506    98.7526     2.5049     0.0067     8.3015     9.1170     8.6301   -52.2383
  793.5000     8.3310    99.9393     2.5129     0.0057     8.2984     9.1137     8.6270   -52.2429
  794.0000     8.3508   101.1261     2.5189     0.0057     8.2954     9.1104     8.6238   -51.8524
  794.5000     8.3509   101.9177     2.5278     0.0077     8.2170     9.1071     8.6207   -51.6594
  795.0000     8.3510   102.3139     2.5398     0.0067     8.1393     9.1037     8.6175   -51.8616
  795.5000     8.3511   103.3031     2.5248     0.0047     8.0624     9.0175     8.5359   -52.0638
  796.0000     8.3512   104.8853     2.5129    -0.0003     8.0594     8.9322     8.5328   -52.4635
  796.5000     8.3513   103.3054     2.5258     0.0007     8.0565     8.9289     8.4520   -52.4681
  797.0000     8.3514   101.3301     2.5189    -0.0003     8.0535     8.9257     8.4490   -52.6702
  797.5000     8.3515   100.1449     2.5139     0.0027     8.1245     8.9224     8.4459   -52.8723
  798.0000     8.3516    97.5772     2.5239     0.0107     8.1215     8.9191     8.4428   -53.4695
  798.5000     8.3517    98.3683     2.5199     0.0107     8.1186     8.9159     8.4397   -53.6716
  799.0000     8.3716    99.9502     2.5149     0.0057     8.1156     8.9126     8.4366   -53.6761
  799.5000     8.3717   102.5206     2.5199     0.0027     8.0389     8.9094     8.3568   -53.8782
  800.0000     8.3718   105.0906     2.5378     0.0276     8.0359     8.9061     8.2776   -53.8828
  800.5000     8.3719   106.3234     2.5332     0.0233     8.0500     8.8266     8.2012   -53.6988
  801.0000     8.3919   106.4779     2.5169     0.0187     8.0486     8.7393     8.1972   -53.6999
  801.5000     8.3921   106.6775     2.5135     0.0197     7.9002     8.6570     8.1200   -53.3124
  802.0000     8.3923   107.4697     2.5135     0.0277     7.4755     8.6544     8.1176   -53.1225
  802.5000     8.4123   104.7051     2.5209     0.0217     7.4052     8.6518     8.1897   -52.5375
  803.0000     8.4125   102.7307     2.5299     0.0197     7.6089     8.6491     8.1872   -52.1500
  803.5000     8.4127   100.7563     2.5229     0.0088     7.5216     8.6465     7.9626   -51.7625
  804.0000     8.4129    97.7949     2.5210     0.0028     7.6579     8.6439     7.9616   -51.7701
  804.5000     8.3933    98.7843     2.5200     0.0008     7.7258     8.6412     8.1047   -51.5801
  805.0000     8.3737    99.7745     2.5240     0.0048     7.7943     8.6386     8.1767   -51.5876
  805.5000     8.3739   100.1713     2.5270     0.0078     7.8635     8.6360     8.1742   -51.5951
  806.0000     8.4137   101.1611     2.5339     0.0158     7.8611     8.6333     8.1717   -51.2076
  806.5000     8.3941    99.9781     2.5339     0.0128     7.8587     8.6307     8.1692   -51.4127
  807.0000     8.3943    99.7824     2.5260     0.0118     7.8563     8.6281     8.1667   -51.8152
  807.5000     8.3945   100.3769     2.5300     0.0168     7.8539     8.5464     8.0152   -52.4153
  808.0000     8.4737   100.9718     2.5200     0.0178     7.8515     8.4660     8.0147   -52.6204
  808.5000     8.4146   103.3454     2.5170     0.0198     7.8491     8.2342     8.0128   -53.2221
  809.0000     8.4148   103.1489     2.5131     0.0248     7.8467     8.1568     8.0102   -53.6247
  809.5000     8.4150   100.1871     2.5111     0.0188     7.8443     8.3049     8.0076   -53.6322
  810.0000     8.4152    99.3990     2.5051     0.0168     7.8419     8.2267     8.0050   -54.4299
  810.5000     8.4154    99.7962     2.5121     0.0119     7.8395     8.2242     8.0024   -54.4375
  811.0000     8.3959    99.7982     2.5211     0.0109     7.8371     8.1468     7.9997   -54.2475
  811.5000     8.4158   100.1951     2.5141     0.0069     7.8348     8.0702     7.9971   -54.2551
  812.0000     8.4160   100.3947     2.5126     0.0059     7.7611     8.0677     7.9945   -54.2626
  812.5000     8.4162   100.5943     2.5251     0.0159     7.7588     8.0652     7.9919   -54.4677
  813.0000     8.4362   102.3750     2.5350     0.0219     7.7564     8.1369     7.9893   -54.6728
  813.5000     8.4561   104.9463     2.5420     0.0209     7.7540     8.1349     7.9859   -54.6804
  814.0000     8.4563   107.5175     2.5271     0.0189     7.7517     8.1319     7.9845   -54.0953
  814.5000     8.4348   108.1124     2.5251     0.0179     7.7493     8.1294     7.9820   -53.7077
  815.0000     8.4350   108.3120     2.5231     0.0159     7.7469     8.1270     7.9796   -53.5177
  815.5000     8.3956   107.3258     2.5211     0.0160     7.7446     8.1992     7.9045   -52.9325
  816.0000     8.3958   105.1537     2.5261     0.0160     7.7422     8.1220     7.8301   -52.7425
  816.5000     8.3763   104.9581     2.5331     0.0120     7.5450     8.0456     7.7564   -52.7501
