~VERSION INFORMATION
 VERS.                2.0:   CWLS LOG ASCII STANDARD - VERSION 2.0
 WRAP.                 NO:   ONE LINE PER DEPTH STEP
~WELL INFORMATION
#MNEM.UNIT      DATA TYPE    INFORMATION
#----------   ------------   ------------------------------
 STRT.F           32.0000:   START DEPTH
 STOP.F         5116.0000:   STOP DEPTH
 STEP.F            0.5000:   STEP LENGTH
 NULL.          -999.2500:   NO VALUE
 COMP. LAWRENCE ALLISON AND ASSOCIATES:   COMPANY
 WELL. LAWRENCE "X" #11-26:   WELL
 FLD .       N.P.R. NO. 3:   FIELD
 LOC .      S26 T38N R78W:   LOCATION
 CNTY.            NATRONA:   COUNTY
 STAT.            WYOMING:   STATE
 CTRY. UNITED STATES OF AMERICA:   COUNTRY
 SRVC.      DRESSER ATLAS:   SERVICE COMPANY
 DATE.        03-DEC-1984:   LOGDATE
 API .     49025110120000:   API NUMBER
~CURVE INFORMATION
#MNEM.UNIT       API CODE    CURVE DESCRIPTION
#----------   ------------   ------------------------------
 DEPT.F                  :   
 CALD.IN     45 280 60 00:   CALIPER FROM DENSITY LOG
 TEND.LBS    45 635 01 00:   TENSION FORM DENSITY LOG
 CORR.G/C3   45 356 01 00:   DENSITY CORRECTION
 DEN .G/C3   45 350 01 00:   BULK DENSITY
 NPHI.DEC    42 890 03 00:   NEUTRON POROSITY SANDSTONE
 GRR .GAPI   07 310 01 00:   GAMMA RAY FROM RESISTIVITY
 SPR .MV     07 010 01 00:   SPONTANEOUS POTENTIAL
 CALR.IN     07 280 01 00:   CALIPER FROM RESISTIVITY
 TENR.LBS    07 635 01 00:   TENSION FROM RESISTIVITY
 RILD.OHMM   07 120 46 00:   INDUCTION LOG DEEP RESISTIVITY
 RILM.OHMM   07 120 44 00:   INDUCTION LOG MEDIUM RESISTIVITY
 RFOC.OHMM   07 220 04 00:   RESISTIVITY FOCUSED LOG RES.
 TENS.LBS    60 635 01 00:   TENSION FROM SONIC
 DT  .US/F   60 520 00 00:   DELTA TIME
~PARAMETER INFORMATION
#MNEM.UNIT          VALUE    DESCRIPTION
#----------   ------------   ------------------------------
 EKB .F         5321.0000:   Kelly bushing
 EGL .F         5309.0000:   Ground level
 EDF .F         5320.0000:   Drilling floor
 TD  .F         5104.0000:   Total depth
 CLNT.            A2DTECH:   Client Code
 SL  . 509' FWL & 22' FNL:   Surface Location
 PD  .                 GL:   Permanent Datum
 EPD .F              5309:   Elevation Permanent Datum
 LMF .                 KB:   Log Measured From
 DMF .                 KB:   Drilling Measured From
 DAPD.F                12:   Feet Above Permanent Datum
 DATE.        03-DEC-1984:   Date Logged [DD-MMM-YYYY]
 DD  .F              5100:   Depth driller
 DL  .F              5104:   Depth logger
 BLI .F              5102:   Bottom log interval
 TLI .F              1400:   Top log interval
 CS1 .IN            9.625:   Casing size
 CBD1.     9.625' @ 1657':   Casing driller 1
 CBL1.F              1652:   Casing logger 1
 BS1 .IN            7.875:   Bit size
 DFT .            KCL GEL:   Type fluid in hole
 DFD .                90.:   Density
 DFV .                 41:   Viscosity
 DFPH.                8.9:   pH
 DFL .               12.6:   Fluid loss
 MSS .           FLOWLINE:   Source of sample
 RMS .OHMM           .327:   Rm
 MST .F                84:   Rm Meas. temp.
 RMF .OHMM            .29:   Rmf
 MFST.F                84:   Rmf Meas. temp.
 MFSS.               CALC:   Source Rmf.
 RMC .OHMM            .42:   Rmc
 MCST.F                84:   Rmc Meas. temp.
 MCSS.               CALC:   Source Rmc.
 RMB .OHMM            .23:   Rm. at BHT
 BHT .F               142:   BHT.
 TCS .HRS               4:   Time Circ. stopped
 MRT .F               142:   Maximum recorded temp.
 LUN .               6307:   Logging unit number
 LUL .               CLTE:   Logging unit location
 WITN.             STRONG:   Witnessed by
 ORIG.           5" PRINT:   Origin of data
 UWI .     49025110120000:   Unique Well ID
 DICO. A2D TECHNOLOGIES, INC.:   Digitizing Company
~OTHER INFORMATION
~A  DEPTH     CALD       TEND       CORR        DEN       NPHI        GRR        SPR       CALR       TENR       RILD       RILM       RFOC       TENS         DT
# ...
 3045.5000  -999.2500  -999.2500  -999.2500  -999.2500  -999.2500   119.9538   -45.7017     9.7925   -85.9695     7.1687     7.1540     9.1023  -999.2500  -999.2500
 3046.0000  -999.2500  -999.2500  -999.2500  -999.2500  -999.2500   118.1524   -45.6927     9.7928   -91.9736     7.1965     7.1537     9.1662  -999.2500  -999.2500
 3046.5000  -999.2500  -999.2500  -999.2500  -999.2500  -999.2500   117.5605   -45.3826     9.7931   -98.9906     7.1940     7.1535     9.2949  -999.2500  -999.2500
 3047.0000  -999.2500  -999.2500  -999.2500  -999.2500  -999.2500   116.6698   -45.3754     9.7934   -98.5000     7.1915     7.1038     9.3601  -999.2500  -999.2500
 3047.5000  -999.2500  -999.2500  -999.2500  -999.2500  -999.2500   114.8741   -45.0671     9.7786   -98.1074     7.2497     7.1036     9.2961  -999.2500  -999.2500
 3048.0000  -999.2500  -999.2500  -999.2500  -999.2500  -999.2500   116.9971   -44.6081     9.7638   -97.6823     7.2867     7.1034     9.1627  -999.2500  -999.2500
 3048.5000  -999.2500  -999.2500  -999.2500  -999.2500  -999.2500   122.4384   -44.1435     9.7642   -97.3349     7.3348     7.1340     9.0432  -999.2500  -999.2500
 3049.0000  -999.2500  -999.2500  -999.2500  -999.2500  -999.2500   127.5780   -43.5378     9.7645   -96.9219     7.3833     7.1523     8.9814  -999.2500  -999.2500
 3049.5000  -999.2500  -999.2500  -999.2500  -999.2500  -999.2500   133.4166   -42.9282     9.7648   -96.4396     7.3803     7.2090     8.9820  -999.2500  -999.2500
 3050.0000  -999.2500  -999.2500  -999.2500  -999.2500  -999.2500   137.8601   -42.3187     9.7690   -96.0471     7.4807     7.2515     8.9826  -999.2500  -999.2500
 3050.5000  -999.2500  -999.2500  -999.2500  -999.2500  -999.2500   138.4720   -42.3115     9.7816   -95.6831     7.4783     7.2512     9.0821  -999.2500  -999.2500
 3051.0000  -999.2500  -999.2500  -999.2500  -999.2500  -999.2500   136.5271   -42.0030     9.7942   -95.2622     7.4758     7.2510     9.1519  -999.2500  -999.2500
 3051.5000  -999.2500  -999.2500  -999.2500  -999.2500  -999.2500   134.8778   -41.9942     9.8069   -94.8574     7.4733     7.1510     9.1732  -999.2500  -999.2500
 3052.0000  -999.2500  -999.2500  -999.2500  -999.2500  -999.2500   132.4789   -42.1981     9.8195   -94.3790     7.4703     7.1507     9.2377  -999.2500  -999.2500
 3052.5000  -999.2500  -999.2500  -999.2500  -999.2500  -999.2500   132.7920   -42.4407     9.8321   -93.9865     7.4163     7.1505     9.3026  -999.2500  -999.2500
 3053.0000  -999.2500  -999.2500  -999.2500  -999.2500  -999.2500   137.0266   -42.2829     9.8422   -93.5941     7.4054     7.1503     9.1751  -999.2500  -999.2500
 3053.5000  -999.2500  -999.2500  -999.2500  -999.2500  -999.2500   140.0547   -42.4277     9.8575   -93.2016     7.3599     7.1738     8.9249  -999.2500  -999.2500
 3054.0000  -999.2500  -999.2500  -999.2500  -999.2500  -999.2500   133.8932   -42.7218     9.8428   -92.7109     7.3577     7.3506     8.7418  -999.2500  -999.2500
 3054.5000  -999.2500  -999.2500  -999.2500  -999.2500  -999.2500   127.4107   -43.3184     9.8280   -92.3186     7.3536     7.4014     8.6820  -999.2500  -999.2500
 3055.0000  -999.2500  -999.2500  -999.2500  -999.2500  -999.2500   122.8973   -43.9165     9.8283   -91.9670     7.3019     7.4526     8.9889  -999.2500  -999.2500
 3055.5000  -999.2500  -999.2500  -999.2500  -999.2500  -999.2500   120.1938   -44.3611     9.8286   -91.5540     7.2485     7.4523     9.1783  -999.2500  -999.2500
 3056.0000  -999.2500  -999.2500  -999.2500  -999.2500  -999.2500   118.6969   -44.5060     9.8138   -91.1412     7.2465     7.4521     9.3718  -999.2500  -999.2500
 3056.5000  -999.2500  -999.2500  -999.2500  -999.2500  -999.2500   124.7444   -44.8000     9.7991   -90.6505     7.2440     7.4518     9.4376  -999.2500  -999.2500
 3057.0000  -999.2500  -999.2500  -999.2500  -999.2500  -999.2500   130.4874   -44.7943     9.7994   -90.2580     7.1419     7.3490     9.3732  -999.2500  -999.2500
 3057.5000  -999.2500  -999.2500  -999.2500  -999.2500  -999.2500   134.7220   -44.7885     9.7997   -89.9024     7.1392     7.1480     9.2447  -999.2500  -999.2500
 3058.0000  -999.2500  -999.2500  -999.2500  -999.2500  -999.2500   133.5268   -44.4816     9.8000   -89.4895     7.1369     7.0495     9.1813  -999.2500  -999.2500
 3058.5000  -999.2500  -999.2500  -999.2500  -999.2500  -999.2500   129.2280   -44.4758     9.7852   -89.0766     7.0363     7.0492     9.0557  -999.2500  -999.2500
 3059.0000  -999.2500  -999.2500  -999.2500  -999.2500  -999.2500   125.1061   -44.1687     9.7705   -88.6637     7.0339     7.0980     8.9938  -999.2500  -999.2500
 3059.5000  -999.2500  -999.2500  -999.2500  -999.2500  -999.2500   123.6092   -44.1617     9.7708   -88.1976     7.0315     7.0977     8.9322  -999.2500  -999.2500
 3060.0000  -999.2500  -999.2500  -999.2500  -999.2500  -999.2500   123.0145   -44.1560     9.7711   -87.8051     6.9804     7.1469     9.0577  -999.2500  -999.2500
 3060.5000  -999.2500  -999.2500  -999.2500  -999.2500  -999.2500   123.6321   -44.1502     9.7714   -87.4128     6.9299     7.1466     9.0583  -999.2500  -999.2500
 3061.0000  -999.2500  -999.2500  -999.2500  -999.2500  -999.2500   123.6464   -43.9939     9.7717   -87.0120     6.9275     7.1463     9.1218  -999.2500  -999.2500
 3061.5000  -999.2500  -999.2500  -999.2500  -999.2500  -999.2500   123.3562   -43.8373     9.7720   -94.0371     6.9248     7.1460     9.1225  -999.2500  -999.2500
 3062.0000  -999.2500  -999.2500  -999.2500  -999.2500  -999.2500   122.4626   -43.6797     9.7723   -86.1370     6.9227     7.1458     9.1232  -999.2500  -999.2500
 3062.5000  -999.2500  -999.2500  -999.2500  -999.2500  -999.2500   123.3791   -43.5234     9.7726   -85.7447     6.9203     7.1456     9.1001  -999.2500  -999.2500
 3063.0000  -999.2500  -999.2500  -999.2500  -999.2500  -999.2500   125.2329   -43.3670     9.7729   -85.3522     6.9179     7.1681     8.9988  -999.2500  -999.2500
 3063.5000  -999.2500  -999.2500  -999.2500  -999.2500  -999.2500   127.3264   -43.2107     9.7732   -84.9474     6.9470     7.1947     8.8755  -999.2500  -999.2500
 3064.0000  -999.2500  -999.2500  -999.2500  -999.2500  -999.2500   125.5278   -42.9036     9.7735   -84.4692     7.0096     7.1448     8.4350  -999.2500  -999.2500
 3064.5000  -999.2500  -999.2500  -999.2500  -999.2500  -999.2500   119.5061   -42.5953     9.7738   -84.1216     7.0738     7.1446     8.0004  -999.2500  -999.2500
 3065.0000  -999.2500  -999.2500  -999.2500  -999.2500  -999.2500   115.5960   -42.5896     9.7741   -83.7086     7.1024     7.1443     8.0566  -999.2500  -999.2500
 3065.5000  -999.2500  -999.2500  -999.2500  -999.2500  -999.2500   115.3057   -42.8865     9.7744   -83.2957     7.1991     7.1441     8.3992  -999.2500  -999.2500
 3066.0000  -999.2500  -999.2500  -999.2500  -999.2500  -999.2500   117.7333   -43.1807     9.7748   -82.8829     7.1961     7.1438     8.8786  -999.2500  -999.2500
 3066.5000  -999.2500  -999.2500  -999.2500  -999.2500  -999.2500   120.1580   -43.7772     9.7750   -82.4699     7.2443     7.1436     9.2661  -999.2500  -999.2500
 3067.0000  -999.2500  -999.2500  -999.2500  -999.2500  -999.2500   121.0744   -44.0726     9.7753   -82.0163     7.2414     7.1433     9.5171  -999.2500  -999.2500
 3067.5000  -999.2500  -999.2500  -999.2500  -999.2500  -999.2500   121.0959   -44.3681     9.7756   -81.6237     7.2390     7.2428     9.5178  -999.2500  -999.2500
 3068.0000  -999.2500  -999.2500  -999.2500  -999.2500  -999.2500   121.7035   -44.6636     9.7759   -81.2313     7.1861     7.2425     9.5184  -999.2500  -999.2500
 3068.5000  -999.2500  -999.2500  -999.2500  -999.2500  -999.2500   125.6365   -44.6564     9.7763   -80.7407     7.1341     7.1426     9.5190  -999.2500  -999.2500
 3069.0000  -999.2500  -999.2500  -999.2500  -999.2500  -999.2500   132.2844   -44.9518     9.7765   -80.4054     7.0337     7.0930     9.5198  -999.2500  -999.2500
 3069.5000  -999.2500  -999.2500  -999.2500  -999.2500  -999.2500   133.5025   -44.9446     9.7768   -79.9557     6.8868     6.9470     9.5866  -999.2500  -999.2500
