~VERSION INFORMATION
 VERS.                2.0:   CWLS LOG ASCII STANDARD - VERSION 2.0
 WRAP.                 NO:   ONE LINE PER DEPTH STEP
~WELL INFORMATION
#MNEM.UNIT      DATA TYPE    INFORMATION
#----------   ------------   ------------------------------
 STRT.F           46.0000:   START DEPTH
 STOP.F         2736.5000:   STOP DEPTH
 STEP.F            0.5000:   STEP LENGTH
 NULL.          -999.2500:   NO VALUE
 COMP.          INTEX OIL:   COMPANY
 WELL. INTEX NPR 3 "AX" #72-20:   WELL
 FLD .             TEAPOT:   FIELD
 LOC .      S20 T39N R78W:   LOCATION
 CNTY.            NATRONA:   COUNTY
 STAT.            WYOMING:   STATE
 CTRY. UNITED STATES OF AMERICA:   COUNTRY
 SRVC.       SCHLUMBERGER:   SERVICE COMPANY
 DATE.        11-MAY-1966:   LOGDATE
 API .     49025095110000:   API NUMBER
~CURVE INFORMATION
#MNEM.UNIT       API CODE    CURVE DESCRIPTION
#----------   ------------   ------------------------------
 DEPT.F                  :   
 SPR .MV     05 010 01 00:   SPONTANEOUS POTENTIAL FROM RES.
 ILD .OHMM   05 120 46 00:   INDUCTION LOG DEEP
 ASN .OHMM   05 041 16 00:   AMPLIFIED SHORT NORMAL 16"
 CALD.IN     45 280 60 00:   CALIPER FROM DENSITY LOG
 CORR.G/C3   45 356 01 00:   DENSITY CORRECTION
 RHOB.G/C3   45 350 01 00:   BULK DENSITY
 GRD .GAPI   45 310 01 00:   GAMMA RAY FROM DENSITY LOG
~PARAMETER INFORMATION
#MNEM.UNIT          VALUE    DESCRIPTION
#----------   ------------   ------------------------------
 EKB .F         5042.3000:   Kelly bushing
 EGL .F         5032.0000:   Ground level
 EDF .F            0.0000:   Drilling floor
 EPD .F         5032.0000:   Permanent datum
 TD  .F         2740.0000:   Total depth
 DATE.        11-MAY-1966:   Date logged
 CLNT.            A2DTECH:   Client Code
 DAPD.F              10.3:   Feet Above Permanent Datum
 DD  .F              2740:   Depth driller
 DL  .F              2737:   Depth logger
 BLI .F              2736:   Bottom log interval
 TLI .F                88:   Top log interval
 CS1 .IN            10.75:   Casing size
 CBD1.       10.75" @ 24':   Casing driller 1
 BS1 .IN            7.875:   Bit size
 BSD1.F              2740:   Depth drilled with bit1
 DFT .           OIL EMUL:   Type fluid in hole
 DFD .                9.8:   Density
 DFV .                 58:   Viscosity
 MSS .         CIRCULATED:   Source of sample
 RMS .OHMM           3.04:   Rm
 MST .F                54:   Rm Meas. temp.
 RMF .OHMM           1.95:   Rmf
 MFST.F                55:   Rmf Meas. temp.
 MFSS.                 FR:   Source Rmf.
 RMB .OHMM           1.64:   Rm. at BHT
 BHT .F               100:   BHT.
 TCS .HRS               4:   Time Circ. stopped
 MRT .F               100:   Maximum recorded temp.
 LUN .               4507:   Logging unit number
 LUL .               CSPR:   Logging unit location
 ENGI.               HAUG:   Recorded By
 WITN.             TUTTLE:   Witnessed by
 ORIG.        2" 5" PRINT:   Origin of data
 UWI .     49025095110000:   Unique Well ID
 DICO. A2D TECHNOLOGIES, INC.:   Digitizing Company
~OTHER INFORMATION
~A   DEPT      SPR        ILD        ASN       CALD       CORR       RHOB         GRD  
# ...
  455.5000   -58.3700     6.7650     8.7650     8.4560     0.0330     2.4430   129.7090
  456.0000   -58.4100     6.7650     8.7860     8.4590     0.0300     2.4370   127.0220
  456.5000   -58.4500     6.7650     8.8050     8.4560     0.0270     2.4380   124.4610
  457.0000   -58.4900     6.7650     8.8250     8.4540     0.0250     2.4400   124.6030
  457.5000   -58.5300     6.7650     8.8450     8.4510     0.0260     2.4410   127.6030
  458.0000   -58.5690     6.7650     8.8640     8.4480     0.0270     2.4420   129.3910
  458.5000   -58.6090     6.7650     8.8790     8.4450     0.0170     2.4290   128.3970
  459.0000   -58.6480     6.7650     8.8490     8.4430     0.0100     2.4190   125.7130
  459.5000   -58.6880     6.7650     8.8210     8.4400     0.0080     2.4070   124.9950
  460.0000   -58.7270     6.7650     8.7910     8.4370     0.0080     2.4030   125.0210
  460.5000   -58.7690     6.7650     8.7620     8.4340     0.0080     2.4050   127.2240
  461.0000   -58.8050     6.7650     8.7330     8.4320     0.0090     2.4060   127.8870
  461.5000   -58.8450     6.7650     8.7020     8.4290     0.0170     2.4170   127.8000
  462.0000   -58.7180     6.7650     8.6730     8.4260     0.0240     2.4430   127.2470
  462.5000   -58.5110     6.7650     8.6530     8.4230     0.0300     2.4470   125.1400
  463.0000   -58.3190     6.7650     8.7080     8.4210     0.0350     2.4500   125.0600
  463.5000   -58.1230     6.7650     8.7580     8.4180     0.0280     2.4440   126.5620
  464.0000   -58.1690     6.7650     8.8020     8.4150     0.0230     2.4360   126.3690
  464.5000   -58.3080     6.7650     8.7960     8.4130     0.0180     2.4320   126.2240
  465.0000   -58.4400     6.7650     8.7900     8.4100     0.0300     2.4360   127.7260
  465.5000   -58.5710     6.7650     8.7830     8.4070     0.0420     2.4480   129.3250
  466.0000   -58.7050     6.7640     8.7770     8.4040     0.0330     2.4480   131.1190
  466.5000   -58.8340     6.7650     8.7700     8.4020     0.0230     2.4410   132.0570
  467.0000   -58.9700     6.7700     8.7680     8.3990     0.0250     2.4430   131.9680
  467.5000   -59.0970     6.8200     8.8020     8.3960     0.0300     2.4510   131.9980
  468.0000   -59.2360     6.8650     8.8330     8.3930     0.0290     2.4530   131.9420
  468.5000   -59.1820     6.9120     8.8650     8.3910     0.0260     2.4560   132.1290
  469.0000   -59.1040     6.9580     8.8970     8.3880     0.0330     2.4580   130.4150
  469.5000   -59.0220     7.0050     8.9280     8.3850     0.0390     2.4610   127.2070
  470.0000   -58.9450     7.0510     9.0060     8.3820     0.0410     2.4590   125.5230
  470.5000   -58.8640     7.0970     9.0720     8.3870     0.0330     2.4530   124.6610
  471.0000   -58.7860     7.1430     9.1420     8.3940     0.0260     2.4310   124.3110
  471.5000   -58.7060     7.1900     9.2110     8.4010     0.0240     2.4320   124.9540
  472.0000   -58.6270     7.2360     9.2790     8.4080     0.0300     2.4350   126.8090
  472.5000   -58.5470     7.2820     9.3480     8.4140     0.0360     2.4480   128.7600
  473.0000   -58.4680     7.3290     9.4190     8.4210     0.0370     2.4500   129.5780
  473.5000   -58.3880     7.3750     9.4670     8.4280     0.0340     2.4520   128.1790
  474.0000   -58.3100     7.4210     9.4600     8.4350     0.0310     2.4430   127.2740
  474.5000   -58.2290     7.4670     9.4530     8.4410     0.0290     2.4340   126.7160
  475.0000   -58.1510     7.5160     9.4450     8.4490     0.0360     2.4450   129.4800
  475.5000   -58.0760     7.5330     9.4370     8.4550     0.0440     2.4560   134.0200
  476.0000   -58.0750     7.4770     9.4350     8.4600     0.0490     2.4560   135.5740
  476.5000   -58.0690     7.4230     9.4480     8.4480     0.0450     2.4490   135.0710
  477.0000   -58.0740     7.3650     9.4610     8.4390     0.0440     2.4450   135.0450
  477.5000   -58.0880     7.3090     9.4740     8.4290     0.0530     2.4540   133.3950
  478.0000   -58.3260     7.2540     9.4870     8.4190     0.0520     2.4560   131.4350
  478.5000   -58.5550     7.1930     9.5000     8.4090     0.0440     2.4550   125.1440
  479.0000   -58.8020     7.1490     9.5130     8.4000     0.0450     2.4600   125.3520
  479.5000   -59.0350     7.1370     9.5260     8.3900     0.0540     2.4760   128.8900
  480.0000   -59.2320     7.1190     9.5410     8.3800     0.0600     2.4870   129.5600
  480.5000   -59.1270     7.1030     9.5430     8.3700     0.0670     2.4890   130.1060
  481.0000   -59.0260     7.0870     9.5170     8.3600     0.0590     2.4790   128.0310
  481.5000   -58.9120     7.0700     9.4950     8.3500     0.0490     2.4570   126.0220
  482.0000   -58.8070     7.0540     9.4710     8.3430     0.0370     2.4540   123.6430
  482.5000   -58.6980     7.0390     9.4460     8.3510     0.0410     2.4600   122.7230
  483.0000   -58.5910     7.0220     9.4260     8.3570     0.0460     2.4580   123.6030
  483.5000   -58.4820     7.0060     9.4160     8.3640     0.0530     2.4560   124.2250
  484.0000   -58.3750     6.9920     9.3980     8.3700     0.0590     2.4610   123.0530
  484.5000   -58.2650     6.9640     9.4150     8.3770     0.0810     2.4700   119.7720
  485.0000   -58.1570     7.0620     9.4850     8.3850     0.0980     2.4810   114.6900
  485.5000   -58.0820     7.3650     9.5510     8.4250     0.1150     2.4840   113.8270
  486.0000   -58.1650     7.6550     9.6200     8.4610     0.1010     2.4760   115.1730
  486.5000   -58.2340     7.9520     9.6860     8.4950     0.0860     2.4700   117.4140
  487.0000   -58.3120     8.2470     9.7570     8.5360     0.0700     2.4620   121.6120
  487.5000   -58.3850     8.5420     9.8220     8.5250     0.0540     2.4600   121.6740
  488.0000   -58.4600     8.8380     9.9390     8.5090     0.0440     2.4660   121.4070
  488.5000   -58.5340     9.1320    10.1900     8.4910     0.0360     2.4650   120.1720
  489.0000   -58.6080     9.4280    10.2780     8.4740     0.0380     2.4620   118.5630
  489.5000   -58.6830     9.7230    10.6430     8.4570     0.0490     2.4840   117.9200
  490.0000   -58.7570    10.0190    11.7380     8.4400     0.0420     2.4740   118.5170
  490.5000   -58.8320    10.3150    12.3490     8.4230     0.0340     2.4560   119.3710
  491.0000   -58.9060    10.6050    12.4210     8.4060     0.0430     2.4690   118.9520
  491.5000   -58.9810    10.9200    12.5750     8.3880     0.0530     2.4820   117.5770
  492.0000   -59.0550    11.1150    12.6990     8.3820     0.0530     2.4890   116.6480
  492.5000   -59.1280    11.1560    12.8310     8.3840     0.0480     2.4700   117.1440
  493.0000   -59.2100    11.2220    12.9640     8.3860     0.0440     2.4660   118.8970
  493.5000   -59.2470    11.2790    13.0940     8.3870     0.0460     2.4670   119.2790
  494.0000   -59.2160    11.3380    13.2260     8.3890     0.0470     2.4770   119.3160
  494.5000   -59.1940    11.3980    13.3580     8.3900     0.0330     2.4870   116.6180
  495.0000   -59.1690    11.4570    13.4900     8.3920     0.0350     2.4860   113.9610
  495.5000   -59.1440    11.5170    13.6160     8.3930     0.0380     2.4750   113.5250
  496.0000   -59.1200    11.5730    13.7630     8.3940     0.0290     2.4580   113.2580
  496.5000   -59.0950    11.6410    13.7670     8.3960     0.0300     2.4540   113.0720
  497.0000   -59.0710    11.6220    13.6090     8.3970     0.0360     2.4700   112.1060
  497.5000   -59.0460    11.5060    13.4720     8.3990     0.0410     2.4750   111.0880
  498.0000   -59.0220    11.4020    13.3280     8.4000     0.0470     2.4820   110.9440
  498.5000   -58.9970    11.2950    13.1850     8.4020     0.0440     2.4840   111.4820
  499.0000   -58.9730    11.1880    13.0430     8.4030     0.0390     2.4790   111.9170
  499.5000   -58.9480    11.0810    12.9010     8.4050     0.0340     2.4690   112.3960
  500.0000   -58.9240    10.9750    12.7580     8.4060     0.0290     2.4680   112.8440
  500.5000   -58.8990    10.8680    12.6150     8.4080     0.0240     2.4660   113.2700
