~VERSION INFORMATION
 VERS.                2.0:   CWLS LOG ASCII STANDARD - VERSION 2.0
 WRAP.                 NO:   ONE LINE PER DEPTH STEP
~WELL INFORMATION
#MNEM.UNIT      DATA TYPE    INFORMATION
#----------   ------------   ------------------------------
 STRT.F          502.0000:   START DEPTH
 STOP.F         4210.0000:   STOP DEPTH
 STEP.F            0.5000:   STEP LENGTH
 NULL.          -999.2500:   NO VALUE
 COMP.   FENIX & SCISSION:   COMPANY
 WELL. FENIX NPR 3 "JX" #43-34:   WELL
 FLD .              N P R:   FIELD
 LOC .      S34 T39N R78W:   LOCATION
 CNTY.            NATRONA:   COUNTY
 STAT.            WYOMING:   STATE
 CTRY. UNITED STATES OF AMERICA:   COUNTRY
 SRVC.              WELEX:   SERVICE COMPANY
 DATE.        05-FEB-1979:   LOGDATE
 API .     49025107690000:   API NUMBER
~CURVE INFORMATION
#MNEM.UNIT       API CODE    CURVE DESCRIPTION
#----------   ------------   ------------------------------
 DEPT.F                  :   
 TENR.LBS    07 635 01 00:   TENSION FROM RESISTIVITY
 SPR .MV     07 010 01 00:   SPONTANEOUS POTENTIAL
 SFL .OHMM   07 220 01 00:   SHALLOW FOCUSED LOG RESISTIVITY
 ILD .OHMM   07 120 46 00:   DEEP INDUCTION RESISTIVITY
 ILM .OHMM   07 120 44 00:   INDUCTION LOG MEDIUM RESISTIVITY
 TEND.LBS    45 635 01 00:   TENSION FROM DENSITY LOG
 CALD.IN     45 280 60 00:   CALIPER FROM DENSITY LOG
 GRD .GAPI   45 310 01 00:   GAMMA RAY FROM DENSITY LOG
 CORR.G/C3   45 356 01 00:   DENSITY CORRECTION
 NPHI.DEC    42 890 03 00:   NEUTRON POROSITY SANDSTONE
 RHOB.G/C3   45 350 01 00:   BULK DENSITY
~PARAMETER INFORMATION
#MNEM.UNIT          VALUE    DESCRIPTION
#----------   ------------   ------------------------------
 EKB .F         5108.0000:   Kelly bushing
 EGL .F         5098.0000:   Ground level
 TD  .F         4204.0000:   Total depth
 DATE.        05-FEB-1979:   Date logged
 CLNT.            A2DTECH:   Client Code
 SL  . 1627' FNL & 2110' FWL:   Surface Location
 PD  .                 GL:   Permanent Datum
 DD  .F              4200:   Depth driller
 DL  .F              4204:   Depth logger
 BLI .F              4202:   Bottom log interval
 CS1 .IN            8.625:   Casing size
 CBD1.      8.625" @ 506':   Casing driller 1
 CBL1.F               506:   Casing logger 1
 BS1 .IN            7.875:   Bit size
 DFT .           CHEM/GEL:   Type fluid in hole
 DFD .                9.2:   Density
 DFV .                 55:   Viscosity
 DFPH.                9.5:   pH
 DFL .                5.7:   Fluid loss
 MSS .            MUD/PIT:   Source of sample
 RMS .OHMM            1.1:   Rm
 MST .F                52:   Rm Meas. temp.
 RMF .OHMM            .45:   Rmf
 MFST.F                52:   Rmf Meas. temp.
 RMC .OHMM            1.8:   Rmc
 MCST.F                52:   Rmc Meas. temp.
 MFSS.               MEAS:   Source Rmf.
 RMB .OHMM           5.06:   Rm. at BHT
 BHT .F               128:   BHT.
 TCS .HRS               8:   Time Circ. stopped
 MRT .F               128:   Maximum recorded temp.
 LUN .               9685:   Logging unit number
 LUL .             CASPER:   Logging unit location
 ENGI.        KEIN/JOINER:   Recorded By
 WITN.        J. DINSMORE:   Witnessed by
 ORIG.           5" PRINT:   Origin of data
 UWI .     49025107690000:   Unique Well ID
 DICO. A2D TECHNOLOGIES, INC.:   Digitizing Company
 DAPD.F                10:   Feet Above Permanent Datum
 BSD1.F              4200:   Depth drilled with bit1
 MCSS.               MEAS:   Source Rmc.
 EPD .F              5098:   Elevation Permanent Datum
 LMF .                 KB:   Log Measured From
 DMF .                 KB:   Drilling Measured From
 TLI .F               500:   Top log interval
~OTHER INFORMATION
~A   DEPT     TENR        SPR        SFL        ILD        ILM        TEND        CALD       GRD        CORR       NPHI       RHOB 
# ...
 2942.0000  1385.2340   -50.4550     5.4040     3.9110     3.6630  1477.2020     9.0740   171.1540    -0.0040     0.2740     2.4330
 2942.5000  1385.4480   -50.4130     5.0700     3.8460     3.5790  1477.5300     9.0680   167.5970     0.0010     0.2740     2.4390
 2943.0000  1385.6620   -50.3970     5.1260     3.7760     3.5080  1477.8580     9.0620   163.9410     0.0030     0.2700     2.4460
 2943.5000  1385.8760   -50.3990     5.1650     3.7760     3.5080  1478.1860     9.0600   164.2990     0.0040     0.2650     2.4530
 2944.0000  1386.0900   -50.3940     5.1270     3.7760     3.5080  1478.5140     9.0600   165.0240     0.0050     0.2600     2.4580
 2944.5000  1386.3051   -50.4480     5.0880     3.7760     3.5080  1478.8420     9.0600   162.8610     0.0050     0.2560     2.4590
 2945.0000  1386.5190   -50.5850     5.0700     3.8330     3.5080  1479.1700     9.0600   161.8930     0.0060     0.2500     2.4630
 2945.5000  1386.7330   -50.7170     5.1250     3.8920     3.6660  1479.4990     9.0590   162.1440     0.0060     0.2450     2.4680
 2946.0000  1386.9470   -50.8490     5.1650     3.9930     3.8020  1479.8270     9.0700   160.7200     0.0070     0.2380     2.4690
 2946.5000  1387.1610   -50.9820     5.7770     4.1250     3.9380  1480.1550     9.0880   160.4240     0.0070     0.2320     2.4550
 2947.0000  1387.3750   -51.1230     6.3020     4.2580     4.0750  1480.4830     9.1040   159.9330     0.0080     0.2270     2.4540
 2947.5000  1387.5900   -51.2120     6.8270     4.3900     4.2110  1480.8110     9.1210   158.4580     0.0100     0.2250     2.4560
 2948.0000  1387.8040   -51.2300     7.4650     4.5230     4.3470  1481.1390     9.1370   156.6040     0.0130     0.2270     2.4500
 2948.5000  1388.0179   -51.2570     7.4210     4.7100     4.5400  1481.4670     9.1540   156.4670     0.0150     0.2290     2.4440
 2949.0000  1388.2321   -51.2830     7.3290     4.6730     4.4820  1481.7950     9.1710   157.8230     0.0180     0.2320     2.4290
 2949.5000  1388.4460   -51.3080     7.1560     4.6090     4.3830  1482.1240     9.1870   158.5810     0.0190     0.2350     2.4090
 2950.0000  1388.6600   -51.3340     7.0100     4.5450     4.2840  1482.4520     9.2040   160.2410     0.0240     0.2420     2.3890
 2950.5000  1388.8750   -51.3590     6.8650     4.4820     4.1860  1482.7800     9.2200   161.7090     0.0290     0.2500     2.3700
 2951.0000  1389.0890   -51.3850     6.2160     4.4280     4.0870  1483.1080     9.2360   163.4280     0.0270     0.2560     2.3490
 2951.5000  1389.3030   -51.4100     4.8870     4.2950     3.9910  1483.4360     9.2570   163.4260     0.0050     0.2600     2.3350
 2952.0000  1389.5170   -51.4360     5.1390     4.1400     4.0060  1483.7640     9.2280   160.7500    -0.0270     0.2610     2.3710
 2952.5000  1389.7310   -51.4610     5.5420     4.1400     4.0220  1484.0920     9.1700   157.8760    -0.0270     0.2570     2.4290
 2953.0000  1389.9449   -51.4870     5.9440     4.1400     4.0380  1484.4200     9.1060   155.4780    -0.0210     0.2510     2.4420
 2953.5000  1390.1600   -51.5130     6.3250     4.1400     4.0530  1484.7490     9.0920   154.0460    -0.0150     0.2490     2.4540
 2954.0000  1390.3740   -51.5380     6.3510     4.1400     4.0650  1485.0770     9.0610   152.5280    -0.0100     0.2460     2.4510
 2954.5000  1390.5880   -51.5640     6.4520     4.2700     4.1170  1485.4050     9.0550   152.3840    -0.0100     0.2410     2.4470
 2955.0000  1390.8020   -51.5950     6.5520     4.3820     4.1770  1485.7330     9.0470   152.4900    -0.0110     0.2380     2.4540
 2955.5000  1391.0160   -51.7120     6.6530     4.4950     4.2370  1486.0610     9.0410   151.2630    -0.0120     0.2380     2.4610
 2956.0000  1391.2300   -51.8550     6.8160     4.6070     4.2980  1486.3890     9.0340   149.3380    -0.0120     0.2370     2.4690
 2956.5000  1391.4449   -52.0000     7.0070     4.7200     4.3580  1486.7170     9.0270   148.4040    -0.0130     0.2340     2.4610
 2957.0000  1391.6591   -52.1410     7.0640     4.7980     4.4180  1487.0450     9.0200   147.4080    -0.0140     0.2300     2.4520
 2957.5000  1391.8730   -52.2810     7.0210     4.8170     4.4780  1487.3730     9.0130   146.1120    -0.0150     0.2320     2.4440
 2958.0000  1392.0870   -52.4920     6.9750     4.8550     4.5380  1487.7020     9.0070   144.3250    -0.0160     0.2370     2.4310
 2958.5000  1392.3010   -52.8770     6.9350     4.8930     4.5990  1488.0300     8.9990   142.8990    -0.0170     0.2360     2.4180
 2959.0000  1392.5150   -53.2620     7.0600     4.9310     4.6590  1488.3580     8.9940   139.3310    -0.0110     0.2320     2.4050
 2959.5000  1392.7300   -53.6380     7.1700     4.9680     4.7100  1488.6860     8.9850   135.7740     0.0000     0.2260     2.3910
 2960.0000  1392.9440   -54.0360     7.2810     5.3030     4.7880  1489.0140     8.9710   133.8470     0.0120     0.2200     2.3780
 2960.5000  1393.1580   -54.4210     7.3290     5.6630     4.8550  1489.3420     8.8790   132.4580     0.0260     0.2140     2.3650
 2961.0000  1393.3719   -55.2080     7.1950     6.4870     4.9230  1489.6700     8.7870   129.3600     0.0410     0.2070     2.3540
 2961.5000  1393.5861   -55.9260     8.4310     7.0640     4.9780  1489.9980     8.6830   125.2150     0.0270     0.2010     2.3600
 2962.0000  1393.8000   -56.7810    10.5650    15.0200     4.9520  1490.3270     8.5530   122.8990     0.0200     0.2000     2.3680
 2962.5000  1394.0150   -57.8160    12.2750    25.6470     4.9190  1490.6550     8.4300   126.7790     0.0400     0.2010     2.3690
 2963.0000  1394.2290   -59.0770    14.6350    21.7590     4.8870  1490.9830     8.3890   131.3210     0.0590     0.2120     2.3810
 2963.5000  1394.4430   -59.1480    15.8870    10.4000     4.8360  1491.3110     8.5550   135.9940     0.0740     0.2220     2.3660
 2964.0000  1394.6570   -59.1810    12.0950     7.8210     4.7850  1491.6390     8.7000   140.1570     0.0980     0.2330     2.3560
 2964.5000  1394.8710   -59.1490     6.6840     4.1400     4.7340  1491.9670     8.8060   138.3280     0.0680     0.2450     2.3590
 2965.0000  1395.0850   -59.1550     5.2610     4.2940     4.6830  1492.2950     8.8500   132.3970     0.0350     0.2420     2.3720
 2965.5000  1395.3000   -59.4140     5.6400     4.6470     4.6240  1492.6230     8.9040   126.5850     0.0550     0.2360     2.3960
 2966.0000  1395.5140   -60.7010     5.9850     5.0000     4.6850  1492.9520     8.9340   117.6880     0.0830     0.2200     2.3890
 2966.5000  1395.7280   -62.8250     7.5250     5.4360     4.8180  1493.2800     8.8070   108.6910     0.0810     0.2030     2.3630
 2967.0000  1395.9420   -65.3880     8.9840     6.1060     4.9520  1493.6080     8.7070    98.9850     0.0680     0.1970     2.3380
 2967.5000  1396.1560   -67.8830    10.4430     7.1680     5.0860  1493.9360     8.5970    92.5010     0.0560     0.1940     2.2810
 2968.0000  1396.3700   -70.3670    13.9370     8.4180     5.2190  1494.2640     8.4890    90.2980     0.0430     0.2060     2.2540
 2968.5000  1396.5840   -72.8740    20.9430     9.6690     5.4470  1494.5920     8.3850    87.4190     0.0310     0.2130     2.2410
 2969.0000  1396.7990   -74.7710    19.8290    10.7900     5.7180  1494.9200     8.3040    84.7260     0.0240     0.2140     2.2290
 2969.5000  1397.0129   -76.0630    17.6030    17.5600     5.9890  1495.2480     8.3010    82.1000     0.0230     0.2160     2.2350
 2970.0000  1397.2271   -77.0590    14.8350    23.6960     6.2600  1495.5770     8.2990    81.2280     0.0210     0.2180     2.2300
 2970.5000  1397.4410   -77.8950    15.0320    30.2710     6.4930  1495.9050     8.3000    80.4780     0.0190     0.2180     2.2370
 2971.0000  1397.6550   -78.2200    14.4300    25.4400     6.6500  1496.2330     8.3000    81.4020     0.0200     0.2150     2.2550
 2971.5000  1397.8690   -78.5110    13.7810    16.6470     6.8060  1496.5610     8.3000    82.4470     0.0220     0.2130     2.2710
 2972.0000  1398.0840   -78.7950    13.1320     9.6610     6.9630  1496.8890     8.3000    82.3940     0.0250     0.2090     2.2880
