~VERSION INFORMATION
 VERS.                2.0:   CWLS LOG ASCII STANDARD - VERSION 2.0
 WRAP.                 NO:   ONE LINE PER DEPTH STEP
~WELL INFORMATION
#MNEM.UNIT      DATA TYPE    INFORMATION
#----------   ------------   ------------------------------
 STRT.F          150.0000:   START DEPTH
 STOP.F         2980.0000:   STOP DEPTH
 STEP.F            0.5000:   STEP LENGTH
 NULL.          -999.2500:   NO VALUE
 COMP. FENIX & SCISSION U.S. NAVY:   COMPANY
 WELL.   FENIX "A" #84-20:   WELL
 FLD .             NPR #3:   FIELD
 LOC .      S20 T39N R78W:   LOCATION
 CNTY.            NATRONA:   COUNTY
 STAT.            WYOMING:   STATE
 CTRY. UNITED STATES OF AMERICA:   COUNTRY
 SRVC.       SCHLUMBERGER:   SERVICE COMPANY
 DATE.        21-FEB-1977:   LOGDATE
 API .     49025103020000:   API NUMBER
~CURVE INFORMATION
#MNEM.UNIT       API CODE    CURVE DESCRIPTION
#----------   ------------   ------------------------------
 DEPT.F                  :   
 NPHI.DEC    42 890 03 00:   NEUTRON POROSITY SANDSTONE
 GRD .GAPI   45 310 01 00:   GAMMA RAY FROM DENSITY LOG
 CALD.IN     45 280 60 00:   CALIPER FROM DENSITY LOG
 RHOB.G/C3   45 350 01 00:   BULK DENSITY
 DCOR.G/C3   45 356 01 00:   DENSITY CORRECTION
 SPR .MV     07 010 01 00:   SPONTANEOUS POTENTIAL
 LLD .OHMM   11 220 10 00:   LATEROLOG DEEP
 LLS .OHMM   11 220 09 00:   LATEROLOG SHALLOW
 MSFL.OHMM   07 270 04 00:   MICRO SPHERICALLY FOCUSED RES.
~PARAMETER INFORMATION
#MNEM.UNIT          VALUE    DESCRIPTION
#----------   ------------   ------------------------------
 EKB .F         5006.0000:   Kelly bushing
 EGL .F         4996.0000:   Ground level
 EDF .F            0.0000:   Drilling floor
 TD  .F         2973.0000:   Total depth
 DATE.        21-FEB-1977:   Date logged
 CLNT.            A2DTECH:   Client Code
 SL  . 330' FEL & 2310' FNL:   Surface Location
 PD  .                 GL:   Permanent Datum
 EPD .F              4996:   Elevation Permanent Datum
 LMF .                 KB:   Log Measured From
 DMF .                 KB:   Drilling Measured From
 DAPD.F                10:   Feet Above Permanent Datum
 DD  .F              2973:   Depth driller
 DL  .F              2971:   Depth logger
 BLI .F              2970:   Bottom log interval
 TLI .F               164:   Top log interval
 CS1 .IN            8.625:   Casing size
 CBD1.      8.625" @ 167':   Casing driller 1
 CBL1.F               164:   Casing logger 1
 BS1 .IN            7.875:   Bit size
 BSD1.F              2973:   Depth drilled with bit1
 DFT .            KCL MUD:   Type fluid in hole
 DFD .                9.5:   Density
 DFV .                 35:   Viscosity
 DFPH.                6.5:   pH
 DFL .                 11:   Fluid loss
 MSS .              CIRC.:   Source of sample
 RMS .OHMM           0.27:   Rm
 MST .F                72:   Rm Meas. temp.
 RMF .OHMM           0.19:   Rmf
 MFST.F                72:   Rmf Meas. temp.
 RMC .OHMM           0.35:   Rmc
 MCST.F                72:   Rmc Meas. temp.
 MFSS.               MEAS:   Source Rmf.
 MCSS.               CALC:   Source Rmc.
 RMB .OHMM           0.18:   Rm. at BHT
 BHT .F               110:   BHT.
 TCS .HRS            0300:   Time Circ. stopped
 TLAB.HRS            1000:   Time logger at bottom
 MRT .F               110:   Maximum recorded temp.
 LUN .               7711:   Logging unit number
 LUL .               CSPR:   Logging unit location
 ENGI.             SAYLER:   Recorded By
 WITN.               JAPP:   Witnessed by
 ORIG.           5" PRINT:   Origin of data
 UWI .     49025103020000:   Unique Well ID
 DICO. A2D TECHNOLOGIES, INC.:   Digitizing Company
~OTHER INFORMATION
~A   DEPT       NPHI       GRD      CALD       RHOB       DCOR        SPR        LLD        LLS       MSFL   
# ...
 1281.5000     0.3140   104.9510    10.4480     2.5500     0.0240   -34.2300     9.9890    10.3430    12.6810
 1282.0000     0.3080   104.4590    10.4480     2.5500     0.0340   -34.2710     9.7830    10.1620    12.1110
 1282.5000     0.3020   103.9690    10.4480     2.5560     0.0390   -34.3130     9.5770     9.9820    11.3120
 1283.0000     0.2990   103.5850    10.4480     2.5570     0.0400   -34.3540     9.4120     9.7650    11.6380
 1283.5000     0.3040   103.9090    10.4480     2.5660     0.0460   -34.3960     9.4120     9.8790    12.4010
 1284.0000     0.3090   104.2180    10.4480     2.5620     0.0360   -34.4370     9.6120    10.0220    12.1370
 1284.5000     0.3130   104.5510    10.4480     2.5470     0.0230   -34.4790     9.8110    10.1660    11.5220
 1285.0000     0.3180   105.5070    10.4500     2.5370     0.0240   -34.5200    10.1300    10.3090    11.9250
 1285.5000     0.3230   106.4860    10.4660     2.5420     0.0300   -34.5620    10.0700    10.5100    12.8650
 1286.0000     0.3190   106.8390    10.4820     2.5460     0.0410   -34.6030     9.9190    10.3960    12.6230
 1286.5000     0.3160   106.0780    10.4970     2.5440     0.0350   -34.6450     9.7680    10.2070    12.2190
 1287.0000     0.3140   103.9550    10.5130     2.5570     0.0420   -34.6860     9.5870    10.0180    11.7350
 1287.5000     0.3140   103.3750    10.5290     2.5640     0.0440   -34.7270     9.4460     9.8290    12.4010
 1288.0000     0.3160   103.5310    10.5440     2.5430     0.0280   -34.7700     9.2710     9.6400    11.8390
 1288.5000     0.3190   103.6990    10.5600     2.5380     0.0330   -34.8100     9.0960     9.4510    10.9030
 1289.0000     0.3250   104.1640    10.5450     2.5520     0.0270   -34.8570     8.9200     9.2610    11.3120
 1289.5000     0.3230   105.2390    10.4910     2.5580     0.0450   -34.8600     8.7450     9.0720    10.6780
 1290.0000     0.3160   105.6540    10.4150     2.5720     0.0490   -34.8610     9.0780     9.3320     9.4120
 1290.5000     0.3150   106.0890    10.5420     2.5440     0.0180   -34.8600     9.4120     9.5910    10.9370
 1291.0000     0.3150   106.4980    10.5720     2.5350     0.0230   -34.8610     9.9460     9.8510    11.9530
 1291.5000     0.3140   106.4220    10.5810     2.5520     0.0320   -34.8610     9.7970    10.1110    13.3470
 1292.0000     0.3050   106.2420    10.5880     2.5500     0.0300   -34.8600     9.4260    10.3180    12.5540
 1292.5000     0.2990   104.2040    10.5960     2.5480     0.0350   -34.8610     9.0550    10.2480    10.7050
 1293.0000     0.3000   102.1450    10.6060     2.5530     0.0370   -34.8610     8.9070    10.1890    10.8870
 1293.5000     0.2860   100.2020    10.5600     2.5450     0.0230   -34.8600     8.9070    10.1300    11.1900
 1294.0000     0.2910    99.4870    10.5080     2.5360     0.0160   -34.8620     8.9070    10.3350    11.3120
 1294.5000     0.3020   101.8710    10.4790     2.5470     0.0210   -34.8600     8.9070    10.5390    10.7160
 1295.0000     0.3140   106.0540    10.5360     2.5570     0.0250   -34.8540     8.9070    10.7440    10.3180
 1295.5000     0.3240   109.3440    10.5900     2.5520     0.0260   -34.7730     9.5630    10.9490    11.1060
 1296.0000     0.3310   110.7270    10.6440     2.5620     0.0350   -34.7050    10.1090    11.1530     9.9460
 1296.5000     0.3290   109.9890    10.6840     2.5560     0.0320   -34.6320    10.6560    11.3580    14.9730
 1297.0000     0.3250   109.1100    10.6770     2.5510     0.0260   -34.5620    11.3120    11.5220    20.0000
 1297.5000     0.3190   109.5630    10.6720     2.5510     0.0200   -34.4900    10.4160    10.6870     9.9460
 1298.0000     0.3140   110.0390    10.6660     2.5480     0.0130   -34.4610     9.0720    10.1300    12.8650
 1298.5000     0.3090   110.4420    10.6610     2.5360     0.0110   -34.5230     9.0060    10.7050    11.3150
 1299.0000     0.3070   109.2390    10.6550     2.5320     0.0130   -34.6010     8.9070     9.9460     9.7650
 1299.5000     0.3070   109.0660    10.6500     2.5430     0.0220   -34.6770     8.9440    10.0200    12.1750
 1300.0000     0.3070   109.2350    10.6450     2.5320     0.0180   -34.7500     9.0370    10.1140    10.7050
 1300.5000     0.3090   108.5040    10.6480     2.5360     0.0280   -34.8390     9.1300    10.2070    12.8650
 1301.0000     0.3140   107.4810    10.6500     2.5430     0.0270   -34.7820     9.2410    10.3180    12.4990
 1301.5000     0.3210   106.6890    10.6530     2.5450     0.0200   -34.6190     9.1360    10.0750    13.2120
 1302.0000     0.3320   105.7860    10.6550     2.5300     0.0140   -34.4720     8.8820     9.7750    12.9800
 1302.5000     0.3260   105.4540    10.6580     2.5240     0.0200   -34.3240     8.6270     9.4740    10.4180
 1303.0000     0.3140   105.6860    10.6610     2.5280     0.0270   -34.1720     8.4800     9.2840    11.7350
 1303.5000     0.3080   105.9040    10.6630     2.5290     0.0260   -34.0240     8.7060     9.4810    11.0900
 1304.0000     0.3010   105.2500    10.6570     2.5210     0.0180   -33.8770     8.9320     9.6780    11.1200
 1304.5000     0.3020   106.0190    10.6340     2.5160     0.0100   -33.7200     9.2410     9.9460    12.4010
 1305.0000     0.3020   107.8580    10.6110     2.5290     0.0230   -33.6770     9.0910     9.9090    11.8020
 1305.5000     0.3080   108.5240    10.5890     2.5470     0.0380   -33.7140     8.8560     9.8530    10.9030
 1306.0000     0.3170   107.4180    10.5670     2.5490     0.0380   -33.7420     8.5850     9.7650    11.1060
 1306.5000     0.3220   106.1570    10.5600     2.5410     0.0290   -33.7700     8.9990     9.9630    10.8870
 1307.0000     0.3320   106.2720    10.5550     2.5390     0.0240   -33.8000     9.4870    10.4040    10.4020
 1307.5000     0.3290   106.4480    10.5500     2.5460     0.0420   -33.8290     9.9460    10.8450     9.9460
 1308.0000     0.3220   106.2460    10.5580     2.5480     0.0360   -33.8590    10.3700    11.5220    14.2780
 1308.5000     0.3260   106.0150    10.5860     2.5410     0.0280   -33.8880    10.9030    11.3200    12.9330
 1309.0000     0.3350   106.5320    10.6130     2.5830     0.0670   -33.9170    10.5350    10.8890    12.2320
 1309.5000     0.3350   106.5340    10.6400     2.5780     0.0600   -33.9470     9.7080    10.3180    13.5950
 1310.0000     0.3240   105.7510    10.6680     2.5570     0.0470   -33.9750     9.7480    10.5410    12.4510
 1310.5000     0.3190   105.3310    10.6960     2.5530     0.0400   -34.0060    10.5100    11.0350    10.9030
 1311.0000     0.3110   105.0090    10.6990     2.5510     0.0330   -34.0330    10.1300    11.0210    13.0790
 1311.5000     0.3050   105.2150    10.6920     2.5540     0.0280   -34.0580    10.1300    10.7280    14.9030
 1312.0000     0.3010   105.6320    10.6850     2.5470     0.0290   -33.9920     9.8260    10.4350    13.4420
 1312.5000     0.2900   106.1910    10.6880     2.5400     0.0230   -33.9230     9.3880    10.1420    10.7050
 1313.0000     0.2930   107.3120    10.6930     2.5350     0.0200   -33.8500     8.9070     9.8480    12.1750
 1313.5000     0.3010   108.6880    10.6970     2.5380     0.0270   -33.7790     8.9820     9.5870    10.1300
 1314.0000     0.3090   109.4200    10.7020     2.5530     0.0460   -33.7080     9.0720     9.8200    12.4010
 1314.5000     0.3160   109.6620    10.7060     2.5690     0.0530   -33.6370     9.3750    10.0310    11.8840
 1315.0000     0.3180   109.5430    10.7100     2.5600     0.0350   -33.5660     9.7070    10.2410    12.2280
 1315.5000     0.3180   108.7300    10.7150     2.5520     0.0300   -33.4950    10.0630    10.4660    13.0470
 1316.0000     0.3180   108.1210    10.7190     2.5740     0.0400   -33.4210     9.9120    10.3700    12.9210
 1316.5000     0.3180   108.2720    10.7240     2.5760     0.0440   -33.3560     9.6120    10.1770    12.6690
 1317.0000     0.3240   108.0340    10.7320     2.5810     0.0460   -33.2760     9.3710     9.9840    12.4010
 1317.5000     0.3290   108.6280    10.7400     2.5890     0.0510   -33.3620     9.2490     9.7910    10.7050
