~VERSION INFORMATION
 VERS.                2.0:   CWLS LOG ASCII STANDARD - VERSION 2.0
 WRAP.                 NO:   ONE LINE PER DEPTH STEP
~WELL INFORMATION
#MNEM.UNIT      DATA TYPE    INFORMATION
#----------   ------------   ------------------------------
 STRT.F          198.0000:   START DEPTH
 STOP.F         3252.0000:   STOP DEPTH
 STEP.F            0.5000:   STEP LENGTH
 NULL.          -999.2500:   NO VALUE
 COMP. FENIX & SCISSON - U.S. NAVY:   COMPANY
 WELL.   FENIX A X #21-33:   WELL
 FLD .              NPR-3:   FIELD
 LOC .      S33 T39N R78W:   LOCATION
 CNTY.            NATRONA:   COUNTY
 STAT.            WYOMING:   STATE
 CTRY. UNITED STATES OF AMERICA:   COUNTRY
 SRVC.              WELEX:   SERVICE COMPANY
 DATE.        06-JUN-1977:   LOGDATE
 API .     49025103750000:   API NUMBER
~CURVE INFORMATION
#MNEM.UNIT       API CODE    CURVE DESCRIPTION
#----------   ------------   ------------------------------
 DEPT.F                  :   
 CALD.IN     45 280 60 00:   CALIPER FROM DENSITY LOG
 GRD .GAPI   45 310 01 00:   GAMMA RAY FROM DENSITY LOG
 RHOB.G/C3   45 350 01 00:   BULK DENSITY
 CORR.G/C3   45 356 01 00:   DENSITY CORRECTION
 NPHI.DEC    42 890 01 00:   NEUTRON POROSITY LIMESTONE
 SPR .MV     07 010 01 00:   SPONTANEOUS POTENTIAL
 GURD.OHMM   07 220 05 00:   GUARD LOG RESISTIVITY
 FORX.OHMM   07 220 00 00:   FORMATION FACTOR
~PARAMETER INFORMATION
#MNEM.UNIT          VALUE    DESCRIPTION
#----------   ------------   ------------------------------
 EKB .F         5147.0000:   Kelly bushing
 EGL .F         5137.0000:   Ground level
 EDF .F            0.0000:   Drilling floor
 EPD .F            0.0000:   Permanent datum
 TD  .F         3254.0000:   Total depth
 CLNT.            A2DTECH:   Client Code
 SL  . 660' FNL & 1320' FWL:   Surface Location
 PD  .                 GL:   Permanent Datum
 DAPD.F                10:   Feet Above Permanent Datum
 DATE.        06-JUN-1977:   Date Logged [DD-MMM-YYYY]
 DD  .F              3249:   Depth driller
 DL  .F              3254:   Depth logger
 BLI .F              3252:   Bottom log interval
 TLI .F               200:   Top log interval
 CS1 .IN            8.625:   Casing size
 CBD1.      8.625" @ 204':   Casing driller 1
 CBL1.F               221:   Casing logger 1
 BS1 .IN            7.875:   Bit size
 BSD1.F              3249:   Depth drilled with bit1
 DFT .            KCL MUD:   Type fluid in hole
 DFD .                  9:   Density
 DFV .                134:   Viscosity
 DFPH.                7.5:   pH
 DFL .                7.8:   Fluid loss
 MSS .           FLOWLINE:   Source of sample
 RMS .OHMM           0.64:   Rm
 MST .F                85:   Rm Meas. temp.
 RMF .OHMM           0.61:   Rmf
 MFST.F                85:   Rmf Meas. temp.
 MFSS.           FANN KIT:   Source Rmf.
 RMC .OHMM              1:   Rmc
 MCST.F                85:   Rmc Meas. temp.
 MCSS.           FANN KIT:   Source Rmc.
 RMB .OHMM           0.46:   Rm. at BHT
 BHT .F               116:   BHT.
 TCS .HRS             2.5:   Time Circ. stopped
 MRT .F               116:   Maximum recorded temp.
 LUN .               8611:   Logging unit number
 LUL .             CASPER:   Logging unit location
 ENGI.            C. DOAK:   Recorded By
 WITN.      B. HARRINGTON:   Witnessed by
 ORIG.           5" PRINT:   Origin of data
 UWI .     49025103750000:   Unique Well ID
 DICO. A2D TECHNOLOGIES, INC.:   Digitizing Company
~OTHER INFORMATION
~A   DEPT     CALD         GRD      RHOB       CORR       NPHI        SPR       GURD       FORX   
# ...
  603.0000     9.1046   112.1759     2.4525     0.0226     0.2657   -47.7362     7.8453     4.9312
  603.5000     9.1210   113.6970     2.4645     0.0228     0.2651   -47.7624     7.8515     5.0055
  604.0000     9.1229   111.1049     2.4587     0.0214     0.2657   -47.8778     7.9125     5.0450
  604.5000     9.1244   109.0619     2.4521     0.0216     0.2662   -47.9895     8.0884     5.1575
  605.0000     9.1259   107.6204     2.4447     0.0233     0.2659   -48.1008     8.1514     5.1614
  605.5000     9.1424   106.7741     2.4502     0.0265     0.2665   -48.2122     8.0986     5.1653
  606.0000     9.1439   106.5231     2.4678     0.0266     0.2674   -48.3236     8.1049     5.1698
  606.5000     9.1603   106.8690     2.4623     0.0253     0.2691   -48.4351     8.1100     5.1730
  607.0000     9.1767   107.8184     2.4414     0.0210     0.2715   -48.5465     8.2315     5.1774
  607.5000     9.2080   108.7579     2.4341     0.0182     0.2735   -48.6574     8.5961     5.1812
  608.0000     9.2244   107.3164     2.4409     0.0153     0.2751   -48.7211     9.1055     5.1850
  608.5000     9.2111   104.0891     2.4365     0.0140     0.2762   -48.7208     9.2418     5.3007
  609.0000     9.2126   101.7431     2.4269     0.0126     0.2776   -48.7183     9.3122     5.3806
  609.5000     9.1992   103.2895     2.4240     0.0174     0.2785   -48.6594     8.9299     5.5007
  610.0000     9.2012   104.5265     2.4346     0.0220     0.2788   -48.5993     8.6847     5.5047
  610.5000     9.2027   102.7874     2.4475     0.0267     0.2790   -48.5395     8.5672     5.4309
  611.0000     9.2191    99.8578     2.4610     0.0314     0.2790   -48.4797     8.8833     5.3582
  611.5000     9.2206    96.2959     2.4799     0.0361     0.2793   -48.4199    10.3586     5.4435
  612.0000     9.2222    93.7010     2.4897     0.0394     0.2799   -48.3601    28.1770     5.7318
  612.5000     9.2237    96.4378     2.4988     0.0394     0.2828   -48.3004    10.4224     6.0183
  613.0000     9.2401    98.5677     2.5011     0.0381     0.2846   -48.2406     9.5642     6.1090
  613.5000     9.2416   100.6976     2.4964     0.0308     0.2875   -48.1808     9.2356     6.1571
  614.0000     9.2432   101.6371     2.4890     0.0279     0.2878   -48.1210     9.0462     6.1616
  614.5000     9.2447   101.3744     2.4764     0.0236     0.2866   -48.0613     9.0519     6.1213
  615.0000     9.2463   100.2422     2.4660     0.0193     0.2854   -48.0015     9.1874     6.0404
  615.5000     9.2481    97.3126     2.4609     0.0210     0.2835   -47.9417     9.3250     5.8742
  616.0000     9.2344    92.8949     2.4543     0.0226     0.2822   -47.8819     9.4647     5.9215
  616.5000     9.2214    91.4524     2.4612     0.0273     0.2802   -47.8223     9.5383     6.0108
  617.0000     9.2230    92.3960     2.4711     0.0335     0.2789   -47.7610     9.4763     6.0581
  617.5000     9.2092    97.9342     2.4802     0.0352     0.2792   -47.7329     9.2164     6.0625
  618.0000     9.2260   110.5837     2.4832     0.0308     0.2804   -47.7852     9.0274     5.9813
  618.5000     9.2425   126.7704     2.4767     0.0280     0.2816   -47.9378     8.9661     5.9011
  619.0000     9.2440   132.1742     2.4716     0.0252     0.2839   -48.0208     8.8478     5.8636
  619.5000     9.2753   128.9469     2.4664     0.0254     0.2878   -48.0957     8.8547     5.6640
  620.0000     9.2768   123.9340     2.4643     0.0256     0.2910   -48.1709     8.8603     5.5808
  620.5000     9.2783   115.9449     2.4667     0.0272     0.2910   -48.2468     8.9283     5.5122
  621.0000     9.2650   109.1462     2.4691     0.0274     0.2904   -48.3232     8.9340     5.4383
  621.5000     9.2666   105.3238     2.4714     0.0276     0.2891   -48.3273     8.9404     5.4433
  622.0000     9.2684   103.5847     2.4723     0.0277     0.2873   -48.3269     9.0100     5.4473
  622.5000     9.2700   103.3333     2.4725     0.0294     0.2855   -48.3268     8.9507     5.4902
  623.0000     9.2715   104.2738     2.4718     0.0281     0.2837   -48.3268     9.0207     5.4942
  623.5000     9.2730   104.9618     2.4697     0.0283     0.2819   -48.3268     9.0897     5.5375
  624.0000     9.2593   107.0565     2.4661     0.0269     0.2812   -48.3268     9.0959     5.6209
  624.5000     9.2612   107.6983     2.4550     0.0238     0.2815   -48.3268     8.8533     5.6251
  625.0000     9.2479   103.2806     2.4469     0.0213     0.2830   -48.3268     8.5577     5.6293
  625.5000     9.2494   100.3510     2.4417     0.0230     0.2835   -48.3263     8.5030     5.6335
  626.0000     9.2658    99.2071     2.4464     0.0247     0.2832   -48.3336     8.3352     5.5588
  626.5000     9.2673    99.5513     2.4519     0.0263     0.2847   -48.3511     8.2819     5.4833
  627.0000     9.2540   101.0860     2.4594     0.0295     0.2858   -47.9561     8.8225     5.4884
  627.5000     9.2556   104.1088     2.4640     0.0327     0.2858   -48.1671     9.1398     5.4525
  628.0000     9.2723   109.8102     2.4686     0.0328     0.2846   -48.3792     8.8960     5.4183
  628.5000     9.2738   117.0312     2.4740     0.0330     0.2839   -48.5945     8.4220     5.4227
  629.0000     9.2754   118.8333     2.4719     0.0317     0.2821   -48.8090     7.7552     5.4655
  629.5000     9.2769   117.4020     2.4645     0.0274     0.2809   -49.0234     8.1679     5.4695
  630.0000     9.2784   114.7701     2.4549     0.0245     0.2803   -49.2402     8.0957     5.4735
  630.5000     9.2800   110.6500     2.4565     0.0277     0.2802   -49.3099     8.5631     5.4775
  631.0000     9.2815   103.8513     2.4611     0.0294     0.2802   -49.3129     8.5060     5.4426
  631.5000     9.2830    98.2432     2.4659     0.0311     0.2793   -49.2100     8.3404     5.4467
  632.0000     9.2846    92.9326     2.4749     0.0313     0.2778   -49.0584     7.9991     5.4120
  632.5000     9.2861    88.8125     2.4787     0.0314     0.2756   -48.9051     7.7927     5.3776
  633.0000     9.3025    86.4782     2.4819     0.0316     0.2741   -48.7518     7.9082     5.3434
  633.5000     9.3041    84.6894     2.4827     0.0319     0.2738   -48.5983     8.5406     5.3094
  634.0000     9.3060    90.1506     2.4784     0.0349     0.2741   -48.4456     8.2554     5.3143
  634.5000     9.3075    93.4925     2.4770     0.0336     0.2743   -48.3239     7.8698     5.3182
  635.0000     9.3239    95.3071     2.4809     0.0338     0.2746   -48.3266     7.9300     5.3221
  635.5000     9.3254    97.1394     2.4825     0.0340     0.2755   -48.3256     8.3878     5.2873
  636.0000     9.3270    99.5670     2.4841     0.0342     0.2763   -48.4170     9.2488     5.2921
  636.5000     9.3434   102.2921     2.4850     0.0343     0.2781   -48.5611     8.6355     5.3338
  637.0000     9.3598   104.7197     2.4875     0.0360     0.2793   -48.7064     8.1754     5.4142
  637.5000     9.3762   104.7663     2.4942     0.0377     0.2798   -48.8517     7.8464     5.4958
  638.0000     9.3926   103.6224     2.5003     0.0379     0.2816   -48.9969     8.4167     5.5786
  638.5000     9.4090   103.6690     2.5034     0.0395     0.2851   -49.1422     9.5399     5.6628
  639.0000     9.4254   104.0132     2.4939     0.0412     0.2866   -49.2874     8.1979     5.7482
  639.5000     9.4270   104.3574     2.4828     0.0384     0.2887   -49.4326     8.3180     5.8774
  640.0000     9.4289   105.3371     2.4776     0.0370     0.2899   -49.5779     9.2998     5.9659
  640.5000     9.4304   110.4968     2.4785     0.0387     0.2904   -49.7242     8.7435     6.0129
  641.0000     9.4319   114.3302     2.4831     0.0389     0.2904   -49.8795     8.1073     6.1035
  641.5000     9.4484   120.6268     2.4877     0.0391     0.2903   -49.8653     7.4089     6.1516
  642.0000     9.4648   124.2449     2.4729     0.0333     0.2897   -49.5204     7.3599     6.1114
  642.5000     9.4663   125.7679     2.4476     0.0274     0.2882   -49.5085     7.5246     5.9033
  643.0000     9.4678   118.6833     2.4291     0.0201     0.2861   -49.5072     8.2007     5.6207
