~VERSION INFORMATION
 VERS.                2.0:   CWLS LOG ASCII STANDARD - VERSION 2.0
 WRAP.                 NO:   ONE LINE PER DEPTH STEP
~WELL INFORMATION
#MNEM.UNIT      DATA TYPE    INFORMATION
#----------   ------------   ------------------------------
 STRT.F            0.0000:   START DEPTH
 STOP.F         3040.0000:   STOP DEPTH
 STEP.F            0.5000:   STEP LENGTH
 NULL.          -999.2500:   NO VALUE
 COMP.    FENIX & SCISSON:   COMPANY
 WELL.  FENIX "AX" #43-28:   WELL
 FLD .             TEAPOT:   FIELD
 LOC .      S28 T39N R78W:   LOCATION
 CNTY.            NATRONA:   COUNTY
 STAT.            WYOMING:   STATE
 CTRY. UNITED STATES OF AMERICA:   COUNTRY
 SRVC.              WELEX:   SERVICE COMPANY
 DATE.        20-JUL-1980:   LOGDATE
 API .     49025108450000:   API NUMBER
~CURVE INFORMATION
#MNEM.UNIT       API CODE    CURVE DESCRIPTION
#----------   ------------   ------------------------------
 DEPT.F                  :   
 GRD .GAPI   45 310 01 00:   GAMMA RAY FROM DENSITY LOG
 CALD.IN     45 280 60 00:   CALIPER FROM DENSITY LOG
 RHOB.G/C3   45 350 01 00:   BULK DENSITY
 CORR.G/C3   45 356 01 00:   DENSITY CORRECTION
 SPR .MV     07 010 01 00:   SPONTANEOUS POTENTIAL
 ILD .OHMM   07 120 46 00:   DEEP INDUCTION RESISTIVITY
 ILM .OHMM   07 120 44 00:   INDUCTION LOG MEDIUM RESISTIVITY
 SGRD.OHMM   07 220 05 00:   SHALLOW SHORT GUARD RESISTIVITY
 NEUT.CPS    35 330 30 00:   NEUTRON
~PARAMETER INFORMATION
#MNEM.UNIT          VALUE    DESCRIPTION
#----------   ------------   ------------------------------
 EKB .F         5042.0000:   Kelly bushing
 EGL .F         5032.0000:   Ground level
 EDF .F            0.0000:   Drilling floor
 TD  .F         3038.0000:   Total depth
 DATE.        20-JUL-1980:   Date logged
 CLNT.            A2DTECH:   Client Code
 SL  . 1500' FNL & 2500' FWL:   Surface Location
 PD  .                 GL:   Permanent Datum
 EPD .F              5032:   Elevation Permanent Datum
 LMF .                 KB:   Log Measured From
 DMF .                 KB:   Drilling Measured From
 DD  .F              3000:   Depth driller
 DL  .F              3038:   Depth logger
 BLI .F              3036:   Bottom log interval
 TLI .F               432:   Top log interval
 CS1 .IN            8.625:   Casing size
 CBD1.      8.625" @ 443':   Casing driller 1
 CBL1.F               432:   Casing logger 1
 BS1 .IN            7.875:   Bit size
 BSD1.F              3000:   Depth drilled with bit1
 DFT .     WATER BASE MUD:   Type fluid in hole
 DFD .                9.3:   Density
 DFV .                 45:   Viscosity
 DFPH.                  9:   pH
 DFL .                  8:   Fluid loss
 MSS .                PIT:   Source of sample
 RMS .OHMM           0.85:   Rm
 MST .F                75:   Rm Meas. temp.
 RMF .OHMM           0.68:   Rmf
 MFST.F                75:   Rmf Meas. temp.
 RMC .OHMM           1.02:   Rmc
 MCST.F                75:   Rmc Meas. temp.
 MFSS.               MEAS:   Source Rmf.
 MCSS.               MEAS:   Source Rmc.
 RMB .OHMM           0.57:   Rm. at BHT
 BHT .F               112:   BHT.
 TCS .HRS               3:   Time Circ. stopped
 MRT .F               112:   Maximum recorded temp.
 LUN .               9865:   Logging unit number
 LUL .             CASPER:   Logging unit location
 ENGI.            TOTHILL:   Recorded By
 WITN.           DINSMORE:   Witnessed by
 ORIG.     2.5", 5" PRINT:   Origin of data
 UWI .     49025108450000:   Unique Well ID
 DICO. A2D TECHNOLOGIES, INC.:   Digitizing Company
~OTHER INFORMATION
~A    DEPT     GRD       CALD       RHOB       CORR        SPR        ILD        ILM       SGRD        NEUT  
# ...
  766.5000    73.9320     9.0220     2.4890    -0.0060   -30.2290    11.7740    12.4530    12.9410   195.5540
  767.0000    73.8800     9.0240     2.4920    -0.0040   -30.2380    11.7210    12.3460    12.8320   175.7540
  767.5000    73.8270     9.0260     2.4960    -0.0020   -30.2380    11.6680    12.2390    12.7240   209.9250
  768.0000    73.7740     9.0290     2.4990     0.0010   -30.2310    11.6140    12.1310    12.6160   208.3880
  768.5000    73.7200     9.0310     2.5050     0.0030   -30.2520    11.5610    12.0370    12.5070   177.8240
  769.0000    73.6770     9.0330     2.5100     0.0080   -30.0860    11.5080    11.9830    12.3990   178.8460
  769.5000    73.8060     9.0350     2.5150     0.0120   -29.8190    11.4540    11.9280    12.2910   173.9940
  770.0000    73.9360     9.0370     2.5200     0.0160   -29.5640    11.4030    11.8730    12.1820   197.5200
  770.5000    74.0640     9.0390     2.5250     0.0200   -29.4460    11.2870    11.8310    12.0740   211.3120
  771.0000    74.1910     9.0410     2.5300     0.0250   -29.5840    11.1750    11.7150    11.9660   178.0240
  771.5000    74.1590     9.0440     2.5340     0.0290   -29.6950    11.0630    11.5750    11.8570   151.8930
  772.0000    73.9420     9.0470     2.5400     0.0330   -29.8360    10.9510    11.4360    11.7490   178.5070
  772.5000    73.7260     9.0500     2.5460     0.0390   -29.8320    10.8390    11.2960    11.6400   200.4750
  773.0000    73.5090     9.0530     2.5490     0.0430   -29.8380    10.7260    11.1570    11.5320   182.5790
  773.5000    73.2920     9.0550     2.5470     0.0410   -29.2840    10.5930    10.9910    11.4030   186.4190
  774.0000    73.0750     9.0580     2.5410     0.0370   -29.1180    10.7520    11.1560    11.5880   193.2630
  774.5000    72.8580     9.0610     2.5340     0.0320   -29.3000    10.9480    11.3590    11.8170   189.0260
  775.0000    72.6430     9.0410     2.5260     0.0270   -29.4490    11.1440    11.5620    12.0450   181.2950
  775.5000    72.4770     9.0190     2.5170     0.0230   -29.5930    11.3390    11.7650    12.2730   198.5640
  776.0000    72.3880     8.9980     2.5060     0.0190   -29.7600    11.5350    11.9680    12.5030   197.5110
  776.5000    72.2940     8.9810     2.5020     0.0150   -29.8490    11.6330    12.0690    12.5030   174.1720
  777.0000    72.2010     8.9780     2.5000     0.0150   -29.8390    11.6630    12.1000    12.3680   184.8340
  777.5000    72.3750     8.9750     2.4990     0.0150   -29.8420    11.6930    12.1310    12.2750   196.5920
  778.0000    72.5730     8.9710     2.4950     0.0140   -29.8420    11.7230    12.1620    12.5030   185.8340
  778.5000    72.7710     8.9680     2.4920     0.0100   -29.8410    11.7520    12.1930    12.5980   173.7640
  779.0000    72.9690     8.9650     2.4900     0.0070   -29.8420    11.7820    12.2240    12.6940   162.7010
  779.5000    73.1680     8.9610     2.4890     0.0040   -29.8420    11.8290    12.2750    12.7360   182.6900
  780.0000    73.3680     8.9580     2.4870     0.0010   -29.8420    11.7700    12.1750    12.7360   197.2320
  780.5000    73.3140     8.9550     2.4860    -0.0020   -29.8410    11.5930    11.8310    12.3270   193.0870
  781.0000    73.2000     8.9520     2.4860    -0.0040   -29.8420    11.4060    11.8470    12.0510   193.4360
  781.5000    73.0860     8.9480     2.4850    -0.0060   -29.8420    11.4500    11.8930    12.1450   201.3860
  782.0000    72.9720     8.9450     2.4850    -0.0050   -29.8370    11.4950    11.9390    12.3150   189.1450
  782.5000    72.8580     8.9430     2.4840    -0.0050   -29.8500    11.5410    11.9840    12.4860   174.7250
  783.0000    72.7440     8.9470     2.4850    -0.0040   -29.8310    11.5870    12.0300    12.6560   206.5810
  783.5000    72.6300     8.9510     2.4870    -0.0030   -29.8180    11.6330    12.0940    12.7360   196.5800
  784.0000    72.5200     8.9550     2.4880    -0.0020   -29.1500    11.6790    12.1730    12.7360   182.1120
  784.5000    72.2850     8.9590     2.4880    -0.0010   -28.2860    11.7250    12.2520    12.6650   194.0650
  785.0000    72.0210     8.9620     2.4900    -0.0010   -27.8180    11.7720    12.2010    12.5880   187.0550
  785.5000    71.7560     8.9630     2.4950     0.0020   -27.8860    11.8180    12.0970    12.5120   176.7630
  786.0000    71.4910     8.9630     2.4990     0.0070   -27.8960    11.7470    11.9940    12.4360   200.3890
  786.5000    71.2290     8.9630     2.5070     0.0120   -28.4190    11.6280    11.8910    12.3590   189.9290
  787.0000    71.0390     8.9630     2.5140     0.0170   -28.9460    11.5100    11.7880    12.2750   176.5440
  787.5000    71.2230     8.9630     2.5220     0.0220   -29.4780    11.4030    11.6850    12.2750   184.0620
  788.0000    71.3970     8.9630     2.5270     0.0230   -30.0330    11.2920    11.5820    12.7360   192.8820
  788.5000    71.5550     8.9660     2.5210     0.0210   -30.2120    11.1910    11.4780    12.4480   202.2860
  789.0000    72.1410     8.9750     2.5200     0.0170   -30.1070    11.0910    11.3750    12.1260   211.6370
  789.5000    72.7960     8.9840     2.5190     0.0170   -30.0330    10.9900    11.2720    11.8310   184.6710
  790.0000    73.4500     8.9930     2.5180     0.0190   -29.9570    10.8890    11.1690    11.8010   188.2060
  790.5000    73.9530     9.0020     2.5180     0.0210   -29.8760    10.7880    11.0660    11.7720   202.0850
  791.0000    73.8010     9.0110     2.5200     0.0230   -29.7990    10.6870    10.9910    11.7440   186.4190
  791.5000    73.6760     9.0200     2.5250     0.0250   -29.7200    10.5930    10.9740    11.7160   207.2570
  792.0000    73.4880     9.0290     2.5290     0.0260   -29.6420    10.5200    10.9380    11.6870   200.0900
  792.5000    73.2050     9.0380     2.5290     0.0260   -29.5640    10.4520    10.9030    11.6590   191.0280
  793.0000    72.9210     9.0390     2.5280     0.0270   -29.4840    10.3840    10.8670    11.6310   196.0650
  793.5000    72.6360     9.0350     2.5230     0.0260   -29.4210    10.3160    10.8310    11.5850   203.9490
  794.0000    72.3520     9.0310     2.5190     0.0240   -29.3730    10.2100    10.7900    11.5190   194.2590
  794.5000    72.0930     9.0280     2.5200     0.0220   -29.3230    10.2530    10.8400    11.4200   170.3430
  795.0000    71.8630     9.0240     2.5200     0.0240   -29.2760    10.3510    10.8990    11.4390   185.1500
  795.5000    71.6360     9.0230     2.5200     0.0270   -29.2250    10.4480    10.9570    11.5850   197.4970
  796.0000    71.8180     9.0260     2.5170     0.0290   -29.1770    10.5450    11.0160    11.7320   210.9170
  796.5000    72.0640     9.0290     2.5090     0.0240   -29.1320    10.6420    11.0750    11.8790   191.8250
  797.0000    72.3120     9.0320     2.5060     0.0180   -29.0640    10.7390    11.1340    12.0510   162.7250
  797.5000    72.5590     9.0350     2.5060     0.0160   -29.2000    10.8370    11.1920    11.9760   166.1690
  798.0000    72.8070     9.0390     2.5080     0.0180   -29.5870    10.9910    11.2510    11.8850   176.0970
  798.5000    73.0530     9.0410     2.5090     0.0190   -29.9540    10.9680    11.3100    11.7580   186.3470
  799.0000    73.1880     9.0360     2.5070     0.0160   -30.2180    10.9120    11.4030    11.5800   195.8160
  799.5000    73.3060     9.0320     2.5040     0.0120   -30.1670    10.8570    11.3800    11.4030   204.8410
  800.0000    73.4350     9.0270     2.5010     0.0080   -30.1180    10.8010    11.3190    11.3880   212.5920
  800.5000    73.8370     9.0230     2.5020     0.0090   -30.0590    10.7460    11.2570    11.3720   192.0050
  801.0000    74.0510     9.0180     2.5050     0.0120   -30.0070    10.6900    11.1960    11.3560   199.9970
  801.5000    74.2510     9.0140     2.5090     0.0150   -29.9500    10.6350    11.1340    11.3400   195.0320
  802.0000    74.4490     9.0090     2.5130     0.0170   -29.8960    10.5790    11.0730    11.3250   189.5500
  802.5000    74.6490     9.0050     2.5170     0.0190   -29.8470    10.5240    11.0120    11.3090   194.8780
