~VERSION INFORMATION
 VERS.                2.0:   CWLS LOG ASCII STANDARD - VERSION 2.0
 WRAP.                 NO:   ONE LINE PER DEPTH STEP
~WELL INFORMATION
#MNEM.UNIT      DATA TYPE    INFORMATION
#----------   ------------   ------------------------------
 STRT.F            6.0000:   START DEPTH
 STOP.F         3190.0000:   STOP DEPTH
 STEP.F            0.5000:   STEP LENGTH
 NULL.          -999.2500:   NO VALUE
 COMP. LAWRENCE ALLISON & ASSOCIATES:   COMPANY
 WELL. LAWRENCE N. P. R. 73AX #3-3:   WELL
 FLD .              N P R:   FIELD
 LOC .       S3 T38N R78W:   LOCATION
 CNTY.            NATRONA:   COUNTY
 STAT.            WYOMING:   STATE
 CTRY. UNITED STATES OF AMERICA:   COUNTRY
 SRVC.      DRESSER ATLAS:   SERVICE COMPANY
 DATE.        04-JUN-1986:   LOGDATE
 API .     49025110910000:   API NUMBER
~CURVE INFORMATION
#MNEM.UNIT       API CODE    CURVE DESCRIPTION
#----------   ------------   ------------------------------
 DEPT.F                  :   
 CALD.IN     45 280 60 00:   CALIPER FROM DENSITY LOG
 DEN .LBS    45 635 01 00:   BUCK DENSITY
 CORR.G/C3   45 356 01 00:   DENSITY CORRECTION
 TEND.LBS    45 635 01 00:   TENSION FROM DENSITY LOG
 SPR .MV     07 010 01 00:   SPONTANEOUS POTENTIAL
 GRR .GAPI   07 310 01 00:   GAMMA RAY FROM RESISTIVITY
 SFLU.OHMM   07 220 01 00:   SPHERICALLY FOCUSED LOG UNAVERAGED RESISTIVITY
 ILD .OHMM   07 120 46 00:   DEEP INDUCTION RESISTIVITY
 ILM .OHMM   07 120 44 00:   INDUCTION LOG MEDIUM RESISTIVITY
 TENR.LBS    07 635 01 00:   TENSION FROM RESISTIVITY
 CNC .DEC    42 890 01 00:   NEUTRON PORISITY LIMESTONE
~PARAMETER INFORMATION
#MNEM.UNIT          VALUE    DESCRIPTION
#----------   ------------   ------------------------------
 EKB .F         5173.0000:   Kelly bushing
 EGL .F         5161.0000:   Ground level
 TD  .F         3170.0000:   Total depth
 DATE.        04-JUN-1986:   Date logged
 CLNT.            A2DTECH:   Client Code
 PD  .                 GL:   Permanent Datum
 EPD .F              5161:   Elevation Permanent Datum
 LMF .                 KB:   Log Measured From
 DMF .                 KB:   Drilling Measured From
 DAPD.F                12:   Feet Above Permanent Datum
 DD  .F              3170:   Depth driller
 DL  .F              3168:   Depth logger
 BLI .F               8.9:   Bottom log interval
 TLI .F                38:   Top log interval
 CS1 .IN            8.625:   Casing size
 CBD1.      8.625" @ 603':   Casing driller 1
 CBL1.F               602:   Casing logger 1
 BS1 .IN            7.875:   Bit size
 BSD1.F              3170:   Depth drilled with bit1
 DFT .        KCL/POLYMER:   Type fluid in hole
 DFD .                8.9:   Density
 DFV .                 38:   Viscosity
 DFPH.                9.0:   pH
 DFL .               13.2:   Fluid loss
 MSS .           FLOWLINE:   Source of sample
 RMS .OHMM           .446:   Rm
 MST .F                64:   Rm Meas. temp.
 RMF .OHMM           .361:   Rmf
 MFST.F                64:   Rmf Meas. temp.
 RMC .OHMM            .56:   Rmc
 MCST.F                64:   Rmc Meas. temp.
 MFSS.               MEAS:   Source Rmf.
 MCSS.               CALC:   Source Rmc.
 RMB .OHMM           .242:   Rm. at BHT
 BHT .F               118:   BHT.
 TCS .HRS               3:   Time Circ. stopped
 MRT .F               118:   Maximum recorded temp.
 LUN .               6274:   Logging unit number
 LUL .           GILLETTE:   Logging unit location
 WITN.             STRONG:   Witnessed by
 ORIG.           5" PRINT:   Origin of data
 UWI .     49025110910000:   Unique Well ID
 DICO. A2D TECHNOLOGIES, INC.:   Digitizing Company
~OTHER INFORMATION
~A    DEPT    CALD        DEN       CORR       TEND        SPR         GRR      SFLU        ILD        ILM       TENR        CNC   
# ...
 1134.5000  -999.2500  -999.2500  -999.2500  -999.2500   -59.7750    92.1353     8.5035     8.7432     7.3153   -75.1695  -999.2500
 1135.0000  -999.2500  -999.2500  -999.2500  -999.2500   -59.5743    86.8958     8.5031     8.7428     7.3215   -75.1196  -999.2500
 1135.5000  -999.2500  -999.2500  -999.2500  -999.2500   -59.5751    84.0735     8.5028     8.7424     7.3278   -75.0697  -999.2500
 1136.0000  -999.2500  -999.2500  -999.2500  -999.2500   -59.5754    84.4749     8.4240     8.7419     7.3341   -75.0199  -999.2500
 1136.5000  -999.2500  -999.2500  -999.2500  -999.2500   -59.5767    86.8912     8.4236     8.7415     7.3404   -74.9700  -999.2500
 1137.0000  -999.2500  -999.2500  -999.2500  -999.2500   -59.5773    88.5015     8.4231     8.7411     7.3466   -74.9201  -999.2500
 1137.5000  -999.2500  -999.2500  -999.2500  -999.2500   -59.5783    89.7089     8.2681     8.7407     7.3529   -74.8703  -999.2500
 1138.0000  -999.2500  -999.2500  -999.2500  -999.2500   -59.3776    90.5133     8.1915     8.7403     7.3592   -74.8204  -999.2500
 1138.5000  -999.2500  -999.2500  -999.2500  -999.2500   -59.5799    94.1385     8.1155     8.7399     7.3655   -74.7705  -999.2500
 1139.0000  -999.2500  -999.2500  -999.2500  -999.2500   -59.5807    97.7638     8.1907     8.7395     7.3718   -74.7206  -999.2500
 1139.5000  -999.2500  -999.2500  -999.2500  -999.2500   -59.5815    98.1650     8.1903     8.7391     7.3781   -74.6708  -999.2500
 1140.0000  -999.2500  -999.2500  -999.2500  -999.2500   -59.7838    96.1486     8.2662     8.6581     7.3845   -74.6209  -999.2500
 1140.5000  -999.2500  -999.2500  -999.2500  -999.2500   -59.7845    97.7590     8.3428     8.6578     7.3908   -74.5710  -999.2500
 1141.0000  -999.2500  -999.2500  -999.2500  -999.2500   -59.9868    97.7575     8.3424     8.6629     7.3971   -74.5211  -999.2500
 1141.5000  -999.2500  -999.2500  -999.2500  -999.2500   -60.3906    94.5321     8.4196     8.6679     7.4034   -74.4713  -999.2500
 1142.0000  -999.2500  -999.2500  -999.2500  -999.2500   -60.3913    93.3216     8.3416     8.6730     7.4098   -74.4214  -999.2500
 1142.5000  -999.2500  -999.2500  -999.2500  -999.2500   -60.3924    93.3200     8.4189     8.6780     7.4161   -74.3715  -999.2500
 1143.0000  -999.2500  -999.2500  -999.2500  -999.2500   -60.1917    94.9305     8.3408     8.6831     7.4225   -74.3217  -999.2500
 1143.5000  -999.2500  -999.2500  -999.2500  -999.2500   -60.1925    97.7500     8.4181     8.6881     7.4288   -74.2718  -999.2500
 1144.0000  -999.2500  -999.2500  -999.2500  -999.2500   -59.5888    98.5545     8.3401     8.6932     7.4352   -74.2219  -999.2500
 1144.5000  -999.2500  -999.2500  -999.2500  -999.2500   -59.1866    98.5520     8.4173     8.6983     7.4416   -74.1720  -999.2500
 1145.0000  -999.2500  -999.2500  -999.2500  -999.2500   -59.1874    97.3424     8.3392     8.7033     7.4479   -74.1222  -999.2500
 1145.5000  -999.2500  -999.2500  -999.2500  -999.2500   -59.1882    91.6982     8.3389     8.7084     7.4543   -74.0723  -999.2500
 1146.0000  -999.2500  -999.2500  -999.2500  -999.2500   -59.3905    90.8913     8.4161     8.7135     7.4592   -74.0224  -999.2500
 1146.5000  -999.2500  -999.2500  -999.2500  -999.2500   -59.5928    89.6807     8.3381     8.7186     7.3900   -73.9725  -999.2500
 1147.0000  -999.2500  -999.2500  -999.2500  -999.2500   -59.7951    88.0671     8.2608     8.7236     7.2937   -73.9227  -999.2500
 1147.5000  -999.2500  -999.2500  -999.2500  -999.2500   -59.9972    88.4686     8.1843     8.7287     7.1986   -73.8728  -999.2500
 1148.0000  -999.2500  -999.2500  -999.2500  -999.2500   -60.1997    94.9150     8.2601     8.7323     7.1047   -73.8229  -999.2500
 1148.5000  -999.2500  -999.2500  -999.2500  -999.2500   -61.0068    98.9437     8.1835     8.6221     7.0121   -73.7731  -999.2500
 1149.0000  -999.2500  -999.2500  -999.2500  -999.2500   -60.8058    99.3452     8.2593     8.5133     6.9206   -73.7232  -999.2500
 1149.5000  -999.2500  -999.2500  -999.2500  -999.2500   -60.4036    99.7467     8.2589     8.4059     6.8304   -73.6733  -999.2500
 1150.0000  -999.2500  -999.2500  -999.2500  -999.2500   -60.6060   102.5664     8.1069     8.3354     6.7413   -73.6234  -999.2500
 1150.5000  -999.2500  -999.2500  -999.2500  -999.2500   -60.4053   106.9982     7.8116     8.1305     6.6534   -73.5736  -999.2500
 1151.0000  -999.2500  -999.2500  -999.2500  -999.2500   -60.2046   112.2361     7.6645     7.9306     6.5667   -73.5237  -999.2500
 1151.5000  -999.2500  -999.2500  -999.2500  -999.2500   -60.0039   113.0407     7.5202     7.7356     6.3688   -73.4738  -999.2500
 1152.0000  -999.2500  -999.2500  -999.2500  -999.2500   -60.2062   111.0250     7.3785     7.5454     6.3171   -73.4210  -999.2500
 1152.5000  -999.2500  -999.2500  -999.2500  -999.2500   -60.0055   106.9923     7.1851     7.3599     6.2659   -73.3812  -999.2500
 1153.0000  -999.2500  -999.2500  -999.2500  -999.2500   -60.0063   103.3635     7.1849     7.2520     6.2151   -73.3713  -999.2500
 1153.5000  -999.2500  -999.2500  -999.2500  -999.2500   -60.4096    99.7347     7.1849     7.2449     6.1648   -73.3009  -999.2500
 1154.0000  -999.2500  -999.2500  -999.2500  -999.2500   -60.2094    99.3302     7.1698     7.2379     6.0230   -73.2023  -999.2500
 1154.5000  -999.2500  -999.2500  -999.2500  -999.2500   -60.4117   100.1348     7.1548     7.2309     5.9122   -73.1725  -999.2500
 1155.0000  -999.2500  -999.2500  -999.2500  -999.2500   -60.4124    99.7302     7.1398     7.2239     6.0225   -83.1933  -999.2500
 1155.5000  -999.2500  -999.2500  -999.2500  -999.2500   -60.4133    99.3254     7.1249     7.2169     6.0222   -83.1436  -999.2500
 1156.0000  -999.2500  -999.2500  -999.2500  -999.2500   -60.4141    99.7269     7.1100     7.2099     5.9114   -83.0939  -999.2500
 1156.5000  -999.2500  -999.2500  -999.2500  -999.2500   -60.4149    99.3224     7.0951     7.2029     5.9112   -83.0442  -999.2500
 1157.0000  -999.2500  -999.2500  -999.2500  -999.2500   -60.2142    98.1117     7.0802     7.1959     5.9658   -72.9239  -999.2500
 1157.5000  -999.2500  -999.2500  -999.2500  -999.2500   -60.0135    94.8858     7.0654     7.1890     5.9656   -72.8742  -999.2500
 1158.0000  -999.2500  -999.2500  -999.2500  -999.2500   -60.0144    95.6904     7.0497     7.1816     5.9103   -62.7540  -999.2500
 1158.5000  -999.2500  -999.2500  -999.2500  -999.2500   -60.2167    97.3011     7.0495     7.1813     5.9100   -72.7748  -999.2500
 1159.0000  -999.2500  -999.2500  -999.2500  -999.2500   -60.4191    94.4782     7.0492     7.1810     5.9097   -72.7251  -999.2500
 1159.5000  -999.2500  -999.2500  -999.2500  -999.2500   -60.2183    93.2681     7.0488     7.1144     5.9095   -72.6754  -999.2500
 1160.0000  -999.2500  -999.2500  -999.2500  -999.2500   -60.2191    93.6690     7.0485     7.1141     5.9092   -72.6257  -999.2500
 1160.5000  -999.2500  -999.2500  -999.2500  -999.2500   -60.2199    96.8920     6.9831     7.0481     5.9639   -82.6465  -999.2500
 1161.0000  -999.2500  -999.2500  -999.2500  -999.2500   -60.2207    97.6966     7.0478     7.1134     6.0191   -72.5263  -999.2500
 1161.5000  -999.2500  -999.2500  -999.2500  -999.2500   -60.4231    96.4859     7.0475     7.1131     5.9634   -72.4766  -999.2500
 1162.0000  -999.2500  -999.2500  -999.2500  -999.2500   -60.6254    94.4690     7.1128     7.1128     5.9081   -72.4169  -999.2500
 1162.5000  -999.2500  -999.2500  -999.2500  -999.2500   -60.6262    94.4675     7.1124     7.1786     6.1309   -62.2967  -999.2500
 1163.0000  -999.2500  -999.2500  -999.2500  -999.2500   -60.6269    94.8691     7.1783     7.1783     6.1876   -62.2470  -999.2500
 1163.5000  -999.2500  -999.2500  -999.2500  -999.2500   -60.4263    97.6891     7.3122     7.3803     6.3618   -62.1973  -999.2500
 1164.0000  -999.2500  -999.2500  -999.2500  -999.2500   -60.4271    98.4935     7.4487     7.5180     6.4805   -62.1476  -999.2500
 1164.5000  -999.2500  -999.2500  -999.2500  -999.2500   -60.4279    98.4920     7.5876     7.6583     6.6014   -72.1684  -999.2500
