~VERSION INFORMATION
 VERS.                2.0:   CWLS LOG ASCII STANDARD - VERSION 2.0
 WRAP.                 NO:   ONE LINE PER DEPTH STEP
~WELL INFORMATION
#MNEM.UNIT      DATA TYPE    INFORMATION
#----------   ------------   ------------------------------
 STRT.F           63.5000:   START DEPTH
 STOP.F         4112.0000:   STOP DEPTH
 STEP.F            0.5000:   STEP LENGTH
 NULL.          -999.2500:   NO VALUE
 COMP. LAWRENCE-ALLISON & ASSOC:   COMPANY
 WELL. LAWRENCE "X" #34-34:   WELL
 FLD .           N.P.R.#3:   FIELD
 LOC .      S34 T39N R78W:   LOCATION
 CNTY.            NATRONA:   COUNTY
 STAT.            WYOMING:   STATE
 CTRY. UNITED STATES OF AMERICA:   COUNTRY
 SRVC.      DRESSER ATLAS:   SERVICE COMPANY
 DATE.        19-OCT-1983:   LOGDATE
 API .     49025109440000:   API NUMBER
~CURVE INFORMATION
#MNEM.UNIT       API CODE    CURVE DESCRIPTION
#----------   ------------   ------------------------------
 DEPT.F                  :   
 AC  .US/F   60 250 00 00:   ACCOUSTIC
 TENS.LBS    60 635 01 00:   TENSION FROM SONIC
 ILD .OHMM   07 120 46 00:   DEEP INDUCTION RESISTIVITY
 ILM .OHMM   07 120 44 00:   INDUCTION LOG MEDIUM RESISTIVITY
 RFOC.OHMM   07 220 04 00:   RESISTIVITY FOCUSED LOG RES.
 TENR.LBS    07 635 01 00:   TENSION FROM RESISTIVITY
 SPR .MV     07 010 01 00:   SPONTANEOUS POTENTIAL
 GRR .GAPI   07 310 01 00:   GAMMA RAY FROM RESISTIVITY
 CALD.IN     45 280 60 00:   CALIPER FROM DENSITY LOG
 RHOB.G/C3   45 350 01 00:   BULK DENSITY
 CORR.G/C3   45 356 01 00:   DENSITY CORRECTION
 TEND.LBS    45 635 01 00:   TENSION FROM DENSITY LOG
 NPHI.DEC    42 890 03 00:   NEUTRON POROSITY SANDSTONE
~PARAMETER INFORMATION
#MNEM.UNIT          VALUE    DESCRIPTION
#----------   ------------   ------------------------------
 EKB .F         5100.0000:   Kelly bushing
 EGL .F         5090.0000:   Ground level
 TD  .F         4107.0000:   Total depth
 DATE.        19-OCT-1983:   Date logged
 CLNT.            A2DTECH:   Client Code
 SL  . 1997' FNL & 1661' FWL:   Surface Location
 PD  .                 GL:   Permanent Datum
 EPD .F              5090:   Elevation Permanent Datum
 LMF .                 KB:   Log Measured From
 DMF .                 KB:   Drilling Measured From
 DAPD.F                10:   Feet Above Permanent Datum
 DD  .F              4107:   Depth driller
 DL  .F              4102:   Depth logger
 BLI .F              4100:   Bottom log interval
 CS1 .IN            9.625:   Casing size
 CBD1.      9.625" @ 695':   Casing driller 1
 CBL1.F               696:   Casing logger 1
 BS1 .IN            7.875:   Bit size
 BSD1.F              4107:   Depth drilled with bit1
 DFT .            GEL-KCL:   Type fluid in hole
 DFD .                  9:   Density
 DFV .                 43:   Viscosity
 DFPH.                  9:   pH
 DFL .                 11:   Fluid loss
 MSS .           FLOWLINE:   Source of sample
 RMS .OHMM          0.313:   Rm
 MST .F                72:   Rm Meas. temp.
 RMF .OHMM          0.265:   Rmf
 MFST.F                68:   Rmf Meas. temp.
 RMC .OHMM          0.598:   Rmc
 MCST.F                68:   Rmc Meas. temp.
 MFSS.               MEAS:   Source Rmf.
 MCSS.               MEAS:   Source Rmc.
 RMB .OHMM          0.173:   Rm. at BHT
 BHT .F               130:   BHT.
 TCS .HRS               4:   Time Circ. stopped
 MRT .F               130:   Maximum recorded temp.
 LUN .               6774:   Logging unit number
 LUL .               GLTE:   Logging unit location
 ENGI.           FAHLEING:   Recorded By
 WITN.           JENNINGS:   Witnessed by
 ORIG.           5" PRINT:   Origin of data
 UWI .     49025109440000:   Unique Well ID
 DICO. A2D TECHNOLOGIES, INC.:   Digitizing Company
~OTHER INFORMATION
~A   DEPT       AC       TENS        ILD        ILM       RFOC       TENR        SPR         GRR      CALD       RHOB       CORR       TEND       NPHI   
# ...
 3391.5000    94.8830   -90.5300     2.5950     2.6150     3.4830   -69.6940   -49.6730   161.6150     7.8250     2.4400    -0.0300   -13.6780     0.2650
 3392.0000    94.9500   -90.1430     2.6150     2.5810     3.2650   -74.2270   -49.6730   166.4110     7.8250     2.4260    -0.0480    11.9050     0.2710
 3392.5000    96.7880   -89.7550     2.5450     2.5430     3.0940   -78.7590   -49.6720   166.7260     7.8250     2.4120    -0.0210    15.0980     0.2760
 3393.0000    98.2720   -89.3680     2.4180     2.3870     3.1180   -82.6490   -49.6340   166.5680     7.8250     2.4110     0.0040    10.5300     0.2820
 3393.5000    99.0180   -88.9800     2.2360     2.2430     3.1820   -80.9190   -49.4710   166.2950     7.8250     2.4140    -0.0050     5.9610     0.2880
 3394.0000    99.7650   -88.5920     2.1130     2.1000     3.1390   -79.1890   -49.3120   167.7630     7.8250     2.4150    -0.0110     1.3930     0.2910
 3394.5000   100.3880   -88.2050     2.0410     1.9850     2.9490   -77.4590   -49.1520   175.7910     7.8250     2.4090    -0.0080    -3.1750     0.3000
 3395.0000   101.6080   -87.8170     1.9980     2.0430     2.5390   -75.7290   -48.9950   182.4610     7.8250     2.3850    -0.0050    -7.7440     0.3020
 3395.5000   103.8040   -87.4300     2.0270     2.1000     2.1500   -73.9990   -48.8860   182.8040     7.8250     2.3630    -0.0020   -12.3120     0.2990
 3396.0000   104.8510   -87.0420     2.0500     2.1580     2.2320   -72.2680   -49.0980   173.1610     7.8250     2.3680    -0.0180   -16.8800     0.2870
 3396.5000   103.6630   -86.6550     2.0730     2.2530     2.6440   -70.5380   -49.3060   163.7040     7.8250     2.3940    -0.0080   -21.4480     0.2740
 3397.0000   102.1960   -86.2670     2.1200     2.3570     3.2000   -68.8080   -49.5090   157.4820     7.8240     2.4190     0.0110   -26.0170     0.2720
 3397.5000    99.4950   -85.8790     2.2570     2.4620     3.5790   -67.0780   -49.5930   155.2190     7.8250     2.4350     0.0300   -30.5850     0.2750
 3398.0000    96.7330   -85.4920     2.3930     2.5660     3.6710   -65.3480   -49.1740   155.3440     7.8610     2.4450     0.0370   -33.5390     0.2780
 3398.5000    96.0030   -85.1040     2.5300     2.6650     3.6980   -63.6180   -48.9180   155.5520     7.9030     2.4460     0.0280   -35.6360     0.2760
 3399.0000    95.3470   -84.7170     2.6670     2.7520     3.7250   -61.8870   -49.2270   157.5000     7.9260     2.4500     0.0190   -37.7330     0.2750
 3399.5000    95.7880   -84.3290     2.7920     2.8350     3.6610   -60.1570   -49.5210   160.5410     7.9280     2.4460     0.0100   -39.8300     0.2810
 3400.0000    96.1960   -83.9420     2.8370     2.9250     3.5920   -58.4270   -49.5860   163.0710     7.9310     2.4380     0.0020   -41.9270     0.2940
 3400.5000    96.6040   -83.5540     2.8980     2.9760     3.4130   -56.6970   -49.4160   162.0010     7.9330     2.4310    -0.0070   -44.0240     0.2990
 3401.0000    96.7810   -83.1660     2.8670     3.0370     3.3030   -54.9670   -49.2670   157.8530     7.9350     2.4330    -0.0120   -46.1210     0.2990
 3401.5000    96.9390   -82.7790     2.8080     3.0180     3.3570   -53.2370   -49.2660   153.2170     7.9370     2.4340    -0.0160   -48.2180     0.2900
 3402.0000    97.0970   -82.3910     2.7800     2.9540     3.4240   -54.9180   -49.2690   151.6240     7.9390     2.4340    -0.0200   -50.3150     0.2800
 3402.5000    97.2550   -82.0040     2.7640     2.8520     3.5260   -59.5700   -49.1730   150.2920     7.9410     2.4320    -0.0240   -52.4120     0.2760
 3403.0000    97.6160   -81.6830     2.7480     2.7570     3.4720   -64.2210   -49.0510   148.5350     7.9440     2.4280    -0.0160   -54.5090     0.2800
 3403.5000    98.1430   -81.6830     2.7310     2.6970     3.3380   -68.8730   -48.9270   148.5980     7.9460     2.4230    -0.0070   -56.6060     0.2910
 3404.0000    98.6690   -81.6830     2.7150     2.6380     3.2050   -73.5240   -48.8040   148.6090     7.9480     2.4190     0.0100   -58.7030     0.2960
 3404.5000    98.9110   -81.6830     2.6380     2.5790     3.1230   -78.1750   -48.6840   147.6480     7.9500     2.4170    -0.0280   -60.8000     0.2950
 3405.0000    98.5270   -81.6830     2.5590     2.5200     3.1820   -82.8270   -48.5180   146.2360     7.9520     2.4170    -0.0330   -62.4630     0.2900
 3405.5000    98.1980   -81.6830     2.4800     2.4160     3.2420   -82.8270   -48.3470   147.4200     7.9540     2.4170    -0.0390   -61.8340     0.2850
 3406.0000    97.9210   -81.6830     2.4340     2.3120     3.2110   -82.8270   -48.1770   148.4870     7.9560     2.4180    -0.0210   -61.2050     0.2890
 3406.5000    98.9880   -81.6830     2.4080     2.2080     3.0740   -82.8270   -48.0100   150.4940     7.9590     2.4190    -0.0230   -60.5760     0.2950
 3407.0000    99.9100   -81.6830     2.3820     2.1910     2.8980   -82.8270   -47.8170   154.1160     7.9610     2.3960    -0.0230   -59.9470     0.2950
 3407.5000   100.6930   -81.6830     2.4030     2.4430     2.5200   -82.8270   -47.0280   155.4470     7.9630     2.3670     0.0050   -59.3170     0.2650
 3408.0000    98.9110   -81.6830     2.4230     2.4890     2.4500   -82.8270   -46.2280   152.2530     7.9650     2.3560     0.0240   -58.6880     0.2570
 3408.5000    96.0710   -81.6830     2.4500     2.5140     2.5910   -82.8270   -46.1060   140.8630     7.9670     2.3750     0.0150   -58.0590     0.2550
 3409.0000    93.2940   -81.6830     2.3900     2.5390     3.1130   -82.8270   -46.4290   130.4870     7.9690     2.3940    -0.0010   -57.4300     0.2540
 3409.5000    90.5160   -81.6830     2.3010     2.5640     3.4600   -82.8270   -46.7490   124.8220     7.9710     2.4020     0.0030   -56.8010     0.2540
 3410.0000    87.4260   -81.6830     2.2020     2.3380     3.4430   -82.8270   -47.0690   126.4200     7.9740     2.4000     0.0060   -56.1720     0.2620
 3410.5000    86.6340   -81.6830     2.0250     2.1440     3.4280   -82.8270   -47.3870   139.5810     7.9760     2.3930    -0.0140   -55.5420     0.2720
 3411.0000    88.0340   -81.6830     1.8170     1.9290     3.2170   -82.8270   -47.7080   161.2280     7.9780     2.3780    -0.0190   -54.9130     0.2770
 3411.5000    90.2590   -81.6830     1.6100     1.7130     2.4900   -82.8270   -47.8780   183.7110     7.9800     2.3620    -0.0130   -54.2840     0.2830
 3412.0000    93.5950   -81.6830     1.4020     1.4980     1.8890   -82.8270   -47.9720   199.4260     7.9820     2.3470    -0.0050   -53.6550     0.2950
 3412.5000    96.9310   -81.6830     1.1940     1.2820     1.5800   -82.8270   -48.0100   203.5000     7.9840     2.3330     0.0030   -53.0260     0.3110
 3413.0000   100.6930   -81.6830     1.0190     1.0580     1.5510   -82.8270   -47.7880   209.6260     7.9850     2.3200     0.0110   -52.4320     0.3200
 3413.5000   102.5310   -81.6830     1.0190     1.0500     1.5510   -82.8270   -47.5720   218.7680     7.9730     2.3090     0.0020   -56.7700     0.3300
 3414.0000   104.2460   -81.6830     1.0190     1.0380     1.5020   -82.8270   -47.3580   227.8470     7.9610     2.3040    -0.0070   -60.8800     0.3140
 3414.5000   106.0400   -81.6830     1.1160     1.2020     1.4260   -82.8270   -47.2590   231.4350     7.9480     2.3060     0.0130   -64.9900     0.2940
 3415.0000   105.8680   -81.6830     1.2390     1.4070     1.4530   -82.8270   -47.3110   222.3660     7.9360     2.3180     0.0330   -69.1000     0.2710
 3415.5000   104.5030   -81.6830     1.3610     1.7650     1.6710   -82.8270   -47.3630   199.1220     7.9240     2.3560     0.0350   -73.2100     0.2520
 3416.0000    99.6930   -81.6830     1.6800     2.1220     2.7830   -82.8270   -47.4160   169.1800     7.9110     2.3980     0.0160   -77.3200     0.2350
 3416.5000    93.8230   -81.6830     1.9960     2.4800     4.1520   -82.8270   -47.4690   125.8470     7.9020     2.4400    -0.0050   -81.4300     0.2240
 3417.0000    87.8220   -81.6830     2.3120     2.8380     5.8320   -81.6610   -47.5220   106.9350     7.8970     2.4450    -0.0170   -85.5390     0.2290
