~VERSION INFORMATION
 VERS.                2.0:   CWLS LOG ASCII STANDARD - VERSION 2.0
 WRAP.                 NO:   ONE LINE PER DEPTH STEP
~WELL INFORMATION
#MNEM.UNIT      DATA TYPE    INFORMATION
#----------   ------------   ------------------------------
 STRT.F           80.0000:   START DEPTH
 STOP.F         2730.0000:   STOP DEPTH
 STEP.F            0.5000:   STEP LENGTH
 NULL.          -999.2500:   NO VALUE
 COMP.          U.S. NAVY:   COMPANY
 WELL. US NPR 3 "AX" #57-20:   WELL
 FLD .             TEAPOT:   FIELD
 LOC .      S20 T39N R78W:   LOCATION
 CNTY.            NATRONA:   COUNTY
 STAT.            WYOMING:   STATE
 CTRY. UNITED STATES OF AMERICA:   COUNTRY
 SRVC.       SCHLUMBERGER:   SERVICE COMPANY
 DATE.        31-JUL-1964:   LOGDATE
 API .     49025066320000:   API NUMBER
~CURVE INFORMATION
#MNEM.UNIT       API CODE    CURVE DESCRIPTION
#----------   ------------   ------------------------------
 DEPT.F                  :   
 SPR .MV     01 010 01 00:   SPONTANEOUS POTENTIAL FROM RES.
 LN  .OHMM   01 060 39 00:   LONG NORMAL 39"
 ASN .OHMM   01 041 16 00:   AMPLIFIED SHORT NORMAL 16"
 LAT .OHMM   01 070 00 00:   LATERAL
 GRN .GAPI   35 310 30 00:   GAMMA RAY
 NEUT.NAPI   35 330 01 00:   NEUTRON
~PARAMETER INFORMATION
#MNEM.UNIT          VALUE    DESCRIPTION
#----------   ------------   ------------------------------
 EKB .F         5019.0000:   Kelly bushing
 EGL .F         5011.0000:   Ground level
 TD  .F         2696.0000:   Total depth
 DATE.        31-JUL-1964:   Date logged
 CLNT.            A2DTECH:   Client Code
 PD  .                 GL:   Permanent Datum
 EPD .F              5011:   Elevation Permanent Datum
 LMF .                 KB:   Log Measured From
 DMF .                 KB:   Drilling Measured From
 DAPD.F                 8:   Feet Above Permanent Datum
 DD  .F              2690:   Depth driller
 DL  .F              2696:   Depth logger
 BLI .F              2695:   Bottom log interval
 TLI .F                82:   Top log interval
 CS1 .IN            12.25:   Casing size
 CBD1.       12.25" @ 15':   Casing driller 1
 BS1 .IN               11:   Bit size
 BSD1.F              2690:   Depth drilled with bit1
 DFT .                GEL:   Type fluid in hole
 MSS .           FLOWLINE:   Source of sample
 RMS .OHMM           2.48:   Rm
 MST .F                83:   Rm Meas. temp.
 RMF .OHMM           1.87:   Rmf
 MFST.F                83:   Rmf Meas. temp.
 MFSS.                 FP:   Source Rmf.
 MCSS.                 FP:   Source Rmc.
 TCS .HRS               4:   Time Circ. stopped
 LUN .               3527:   Logging unit number
 LUL .               CSPR:   Logging unit location
 ENGI.            WINKLER:   Recorded By
 WITN.          GORGENSEN:   Witnessed by
 ORIG.         2.5" PRINT:   Origin of data
 UWI .     49025066320000:   Unique Well ID
 DICO.   A2D TECHNOLOGIES:   Digitizing Company
~OTHER INFORMATION
~A   DEPT      SPR         LN        ASN        LAT        GRN       NEUT   
# ...
 1328.0000   -38.9560     9.4770     9.4790    10.4330  -999.2500  -999.2500
 1328.5000   -38.9140     9.3450     9.4810    10.7820  -999.2500  -999.2500
 1329.0000   -38.8720     9.2130     9.4170    11.0760  -999.2500  -999.2500
 1329.5000   -38.8850     9.1120     9.1270    11.3990  -999.2500  -999.2500
 1330.0000   -38.9040     9.1110     8.9450    11.6950  -999.2500  -999.2500
 1330.5000   -38.9240     9.1180     8.9950    12.0140  -999.2500  -999.2500
 1331.0000   -38.9430     9.2130     9.0460    12.3260  -999.2500  -999.2500
 1331.5000   -38.9630     9.2930     9.0830    12.5100  -999.2500  -999.2500
 1332.0000   -38.9820     9.3800     9.0220    11.9780  -999.2500  -999.2500
 1332.5000   -39.0010     9.4620     8.9700    11.5050  -999.2500  -999.2500
 1333.0000   -39.0200     9.5480     8.9130    10.9920  -999.2500  -999.2500
 1333.5000   -39.0400     9.6330     8.8580    10.6140  -999.2500  -999.2500
 1334.0000   -39.0590     9.6970     8.8090    10.5730  -999.2500  -999.2500
 1334.5000   -39.0780     9.6730     8.7730    10.3990  -999.2500  -999.2500
 1335.0000   -39.0980     9.6500     8.7730    10.4040  -999.2500  -999.2500
 1335.5000   -39.1170     9.6240     8.7750    10.3710  -999.2500  -999.2500
 1336.0000   -39.1360     9.6010     8.8070    10.2060  -999.2500  -999.2500
 1336.5000   -39.1550     9.5760     8.8360    10.2020  -999.2500  -999.2500
 1337.0000   -39.1750     9.5510     8.8660    10.1920  -999.2500  -999.2500
 1337.5000   -39.1940     9.5260     8.8890    10.1590  -999.2500  -999.2500
 1338.0000   -39.2140     9.5060     8.8760    10.1210  -999.2500  -999.2500
 1338.5000   -39.2300     9.5050     8.8640    10.0860  -999.2500  -999.2500
 1339.0000   -39.2570     9.5050     8.8570    10.0500  -999.2500  -999.2500
 1339.5000   -39.2040     9.5050     8.9180    10.0140  -999.2500  -999.2500
 1340.0000   -39.1080     9.5050     8.9760     9.9780  -999.2500  -999.2500
 1340.5000   -39.0250     9.5050     9.0350     9.9430  -999.2500  -999.2500
 1341.0000   -38.9380     9.5050     9.0940     9.9070  -999.2500  -999.2500
 1341.5000   -38.8520     9.5050     9.1530     9.8710  -999.2500  -999.2500
 1342.0000   -38.7670     9.5050     9.2030     9.8350  -999.2500  -999.2500
 1342.5000   -38.6800     9.5050     9.1860     9.7990  -999.2500  -999.2500
 1343.0000   -38.5960     9.5050     9.1630     9.7630  -999.2500  -999.2500
 1343.5000   -38.5080     9.5050     9.0820     9.7280  -999.2500  -999.2500
 1344.0000   -38.4740     9.5050     9.0070     9.6920  -999.2500  -999.2500
 1344.5000   -38.4780     9.5050     8.9250     9.6560  -999.2500  -999.2500
 1345.0000   -38.4770     9.5050     8.8480     9.6200  -999.2500  -999.2500
 1345.5000   -38.4770     9.5050     8.7800     9.5850  -999.2500  -999.2500
 1346.0000   -38.4770     9.5040     8.8150     9.5480  -999.2500  -999.2500
 1346.5000   -38.4770     9.5050     8.8520     9.5150  -999.2500  -999.2500
 1347.0000   -38.4770     9.5040     8.8940     9.4760  -999.2500  -999.2500
 1347.5000   -38.4770     9.5050     8.9320     9.4420  -999.2500  -999.2500
 1348.0000   -38.4770     9.5040     8.9720     9.4220  -999.2500  -999.2500
 1348.5000   -38.4770     9.4960     9.0100     9.5860  -999.2500  -999.2500
 1349.0000   -38.4770     9.3840     9.0510     9.7590  -999.2500  -999.2500
 1349.5000   -38.4770     9.2670     9.0910     9.9370  -999.2500  -999.2500
 1350.0000   -38.4770     9.1470     9.1700    10.1090  -999.2500  -999.2500
 1350.5000   -38.4770     9.0310     9.2530    10.2860  -999.2500  -999.2500
 1351.0000   -38.4770     8.9120     9.4460    10.4590  -999.2500  -999.2500
 1351.5000   -38.4760     8.7940     9.6380    10.6350  -999.2500  -999.2500
 1352.0000   -38.4770     8.6770     9.8270    10.8090  -999.2500  -999.2500
 1352.5000   -38.4730     8.5570     9.8130    10.9760  -999.2500  -999.2500
 1353.0000   -38.4630     8.4420     9.7920    10.9830  -999.2500  -999.2500
 1353.5000   -38.4530     8.3260     9.7640    10.8950  -999.2500  -999.2500
 1354.0000   -38.4440     8.3200     9.8270    10.7940  -999.2500  -999.2500
 1354.5000   -38.4350     8.3220     9.8880    10.6970  -999.2500  -999.2500
 1355.0000   -38.4250     8.4130     9.9420    10.5980  -999.2500  -999.2500
 1355.5000   -38.4160     8.5200     9.7550    10.5000  -999.2500  -999.2500
 1356.0000   -38.4060     8.7480     9.5370    10.4020  -999.2500  -999.2500
 1356.5000   -38.3970     8.9920     9.3230    10.3030  -999.2500  -999.2500
 1357.0000   -38.3870     9.2420     9.0960    10.2050  -999.2500  -999.2500
 1357.5000   -38.3780     9.4910     8.9090    10.1060  -999.2500  -999.2500
 1358.0000   -38.3690     9.6820     8.7130    10.0080  -999.2500  -999.2500
 1358.5000   -38.3590     9.6530     8.7540     9.9100  -999.2500  -999.2500
 1359.0000   -38.3500     9.5970     8.8190     9.7980  -999.2500  -999.2500
 1359.5000   -38.3400     9.5410     8.8900     9.5820  -999.2500  -999.2500
 1360.0000   -38.3310     9.4880     8.9630     9.3290  -999.2500  -999.2500
 1360.5000   -38.3210     9.4330     8.9800     9.0890  -999.2500  -999.2500
 1361.0000   -38.3120     9.3790     8.9900     8.8350  -999.2500  -999.2500
 1361.5000   -38.3020     9.3240     8.9980     8.8120  -999.2500  -999.2500
 1362.0000   -38.2930     9.2700     9.0060     8.8110  -999.2500  -999.2500
 1362.5000   -38.2840     9.2150     8.9470     8.8130  -999.2500  -999.2500
 1363.0000   -38.2740     9.1600     8.8740     8.7920  -999.2500  -999.2500
 1363.5000   -38.2650     9.1050     8.8030     8.7720  -999.2500  -999.2500
 1364.0000   -38.2550     9.0510     8.7290     8.7490  -999.2500  -999.2500
 1364.5000   -38.2460     8.9960     8.6590     8.7280  -999.2500  -999.2500
 1365.0000   -38.2360     8.9410     8.5850     8.7050  -999.2500  -999.2500
 1365.5000   -38.2270     8.8870     8.6310     8.6850  -999.2500  -999.2500
 1366.0000   -38.2180     8.8310     8.7030     8.6610  -999.2500  -999.2500
 1366.5000   -38.2080     8.7790     8.7700     8.6420  -999.2500  -999.2500
 1367.0000   -38.1990     8.7200     8.8430     8.6210  -999.2500  -999.2500
 1367.5000   -38.1890     8.7360     8.8300     8.7350  -999.2500  -999.2500
 1368.0000   -38.1800     8.7640     8.8040     8.8850  -999.2500  -999.2500
 1368.5000   -38.1700     8.7930     8.7720     9.0330  -999.2500  -999.2500
 1369.0000   -38.1610     8.8200     8.7180     9.1800  -999.2500  -999.2500
 1369.5000   -38.1520     8.8500     8.6450     9.3280  -999.2500  -999.2500
 1370.0000   -38.1420     8.8750     8.5800     9.4750  -999.2500  -999.2500
 1370.5000   -38.1330     8.9070     8.5020     9.6230  -999.2500  -999.2500
 1371.0000   -38.1230     8.8590     8.4860     9.7710  -999.2500  -999.2500
 1371.5000   -38.1140     8.7940     8.4740     9.9170  -999.2500  -999.2500
 1372.0000   -38.1040     8.7200     8.4630    10.0660  -999.2500  -999.2500
 1372.5000   -38.0950     8.7130     8.4500    10.2120  -999.2500  -999.2500
 1373.0000   -38.0860     8.7120     8.4390    10.3580  -999.2500  -999.2500
 1373.5000   -38.0760     8.7130     8.4270    10.3970  -999.2500  -999.2500
 1374.0000   -38.0670     8.7120     8.4150    10.3620  -999.2500  -999.2500
 1374.5000   -38.0570     8.7130     8.4030    10.3180  -999.2500  -999.2500
 1375.0000   -38.0480     8.7120     8.3910    10.2750  -999.2500  -999.2500
 1375.5000   -38.0380     8.7140     8.3790    10.2310  -999.2500  -999.2500
 1376.0000   -38.0290     8.7110     8.3380    10.1870  -999.2500  -999.2500
 1376.5000   -38.0200     8.7100     8.2850    10.1440  -999.2500  -999.2500
 1377.0000   -38.0100     8.5750     8.2330    10.0990  -999.2500  -999.2500
 1377.5000   -38.0010     8.3710     8.2060    10.0590  -999.2500  -999.2500
 1378.0000   -37.9910     8.3130     8.1910    10.0080  -999.2500  -999.2500
 1378.5000   -37.9820     8.3190     8.1740    10.0490  -999.2500  -999.2500
 1379.0000   -37.9720     8.3170     8.1620    10.1370  -999.2500  -999.2500
 1379.5000   -37.9630     8.3170     8.1380    10.2130  -999.2500  -999.2500
