~VERSION INFORMATION
 VERS.                2.0:   CWLS LOG ASCII STANDARD - VERSION 2.0
 WRAP.                 NO:   ONE LINE PER DEPTH STEP
~WELL INFORMATION
#MNEM.UNIT      DATA TYPE    INFORMATION
#----------   ------------   ------------------------------
 STRT.F          298.0000:   START DEPTH
 STOP.F         3084.0000:   STOP DEPTH
 STEP.F            0.5000:   STEP LENGTH
 NULL.          -999.2500:   NO VALUE
 COMP. LAWERNCE ALLISON AND ASSOCIATED:   COMPANY
 WELL. LAWERNCE "TX" #77-20:   WELL
 FLD .        TEAPOT DOME:   FIELD
 LOC .      S20 T39N R78W:   LOCATION
 CNTY.            NATRONA:   COUNTY
 STAT.            WYOMING:   STATE
 CTRY. UNITED STATES OF AMERICA:   COUNTRY
 SRVC.       SCHLUMBERGER:   SERVICE COMPANY
 DATE.        22-JAN-1982:   LOGDATE
 API .     49025108840000:   API NUMBER
~CURVE INFORMATION
#MNEM.UNIT       API CODE    CURVE DESCRIPTION
#----------   ------------   ------------------------------
 DEPT.F                  :   
 CALD.IN     45 280 60 00:   CALIPER FROM DENSITY LOG
 GRD .GAPI   45 310 01 00:   GAMMA RAY FROM DENSITY LOG
 TEND.LBS    45 635 01 00:   TENSION FROM DENSITY LOG
 RHOB.G/C3   45 350 01 00:   BULK DENSITY
 NPHI.DEC    42 890 03 00:   NEUTRON POROSITY SANDSTONE
 CORR.G/C3   45 356 01 00:   DENSITY CORRECTION
 SFLU.OHMM   07 220 01 00:   SPHERICALLY FOCUSED LOG UNAVERAGED RESISTIVITY
 ILD .OHMM   07 120 46 00:   INDUCTION LOG DEEP RESISTIVITY
 ILM .OHMM   07 120 44 00:   INDUCTION LOG MEDIUM RESISTIVITY
 TENR.LBS    07 635 01 00:   TENSION
 SPR .MV     07 010 01 00:   SPONTANEOUS POTENTIAL
~PARAMETER INFORMATION
#MNEM.UNIT          VALUE    DESCRIPTION
#----------   ------------   ------------------------------
 EKB .F         5022.0000:   Kelly bushing
 EGL .F         5012.0000:   Ground level
 EDF .F         5021.0000:   Drilling floor
 TD  .F         3079.0000:   Total depth
 DATE.        22-JAN-1982:   Date logged
 CLNT.            A2DTECH:   Client Code
 SL  . 986' FSL & 779' FEL:   Surface Location
 PD  .                 GL:   Permanent Datum
 EPD .F              5012:   Elevation Permanent Datum
 LMF .                 KB:   Log Measured From
 DMF .                 KB:   Drilling Measured From
 DAPD.F                10:   Feet Above Permanent Datum
 DD  .F              3079:   Depth driller
 DL  .F              3070:   Depth logger
 BLI .F              3064:   Bottom log interval
 TLI .F               328:   Top log interval
 CS1 .IN            9.625:   Casing size
 CBD1.      9.625" @ 300':   Casing driller 1
 CBL1.F               328:   Casing logger 1
 BS1 .IN            7.875:   Bit size
 BSD1.F              3079:   Depth drilled with bit1
 DFT .           CHEM/GEL:   Type fluid in hole
 DFD .                8.9:   Density
 DFV .                 50:   Viscosity
 DFPH.               10.5:   pH
 DFL .                  8:   Fluid loss
 MSS .           FLOWLINE:   Source of sample
 RMS .OHMM           2.53:   Rm
 MST .F                49:   Rm Meas. temp.
 RMF .OHMM           2.04:   Rmf
 MFST.F                49:   Rmf Meas. temp.
 RMC .OHMM           3.80:   Rmc
 MCST.F                49:   Rmc Meas. temp.
 MFSS.               MEAS:   Source Rmf.
 MCSS.               CALC:   Source Rmc.
 RMB .OHMM           1.04:   Rm. at BHT
 BHT .F               119:   BHT.
 TCS .HRS            0330:   Time Circ. stopped
 TLAB.HRS            0800:   Time logger at bottom
 MRT .F               119:   Maximum recorded temp.
 LUN .               8043:   Logging unit number
 LUL .               CSPR:   Logging unit location
 ENGI.            PERAKIS:   Recorded By
 WITN.              SCOTT:   Witnessed by
 ORIG.           5" PRINT:   Origin of data
 UWI .     49025108840000:   Unique Well ID
 DICO. A2D TECHNOLOGIES, INC.:   Digitizing Company
~OTHER INFORMATION
~A   DEPT       CALD       GRD      TEND         RHOB       NPHI     CORR       SFLU        ILD        ILM       TENR        SPR   
# ...
 1609.5000    10.8630   105.0710   913.1950     2.5200     0.3270     0.0130     7.8540     6.3130     6.4500   862.6100   -24.3430
 1610.0000    10.8260   104.8080   900.0160     2.5240     0.3150     0.0180     8.3510     6.5820     6.7790   850.5230   -24.3120
 1610.5000    10.8400   108.7130   886.8380     2.5200     0.3040     0.0150     8.4290     6.8630     7.0580   845.1920   -24.2290
 1611.0000    10.8530   111.7050   873.6600     2.5120     0.3060     0.0120     8.3600     6.8630     7.0580   852.5310   -24.1470
 1611.5000    10.8650   114.7350   860.4810     2.5030     0.3130     0.0140     8.2680     6.8630     7.0580   859.8690   -24.0660
 1612.0000    10.8780   116.1160   847.3030     2.4940     0.3250     0.0220     8.1760     6.7830     6.9680   856.3110   -23.9840
 1612.5000    10.8910   117.7360   847.4490     2.4770     0.3390     0.0330     8.0700     6.5740     6.7320   844.8960   -23.9020
 1613.0000    10.9040   119.5520   858.1990     2.4610     0.3530     0.0370     7.5590     6.3650     6.4960   844.3390   -23.8220
 1613.5000    10.9090   121.4010   868.9500     2.4490     0.3550     0.0260     6.9530     6.1560     6.2590   846.4580   -23.7520
 1614.0000    10.9150   121.5720   879.7010     2.4550     0.3450     0.0180     6.3690     6.0220     6.0780   848.5760   -23.6440
 1614.5000    10.9200   120.7820   887.8850     2.4770     0.3370     0.0140     6.4990     6.0220     6.0860   850.6940   -23.5310
 1615.0000    10.9250   118.9860   904.9070     2.4960     0.3290     0.0090     6.7840     6.0220     6.0940   852.8130   -23.4190
 1615.5000    10.9300   117.0220   921.9290     2.5010     0.3180     0.0040     6.9930     6.0220     6.1020   854.9310   -23.3090
 1616.0000    10.9350   116.8990   903.5530     2.4990     0.3080     0.0040     7.1720     6.0220     6.1100   857.0500   -23.1940
 1616.5000    10.9400   117.8150   909.7460     2.4960     0.3080     0.0120     7.5740     6.0220     6.1180   859.1680   -23.3170
 1617.0000    10.9440   117.9290   915.4200     2.4930     0.3230     0.0270     8.0440     6.0210     6.1250   861.2860   -23.6300
 1617.5000    10.9330   117.6130   921.0940     2.4960     0.3400     0.0420     8.1200     6.0230     6.1330   863.4050   -23.9460
 1618.0000    10.9390   117.2920   913.1640     2.4960     0.3530     0.0480     7.4570     6.0260     6.1930   865.5230   -24.1580
 1618.5000    10.9490   116.9870   879.1200     2.4920     0.3580     0.0450     6.4290     5.8140     5.9610   867.6410   -24.3340
 1619.0000    10.9590   116.3840   862.9440     2.4890     0.3680     0.0430     6.6230     5.6570     5.7860   869.7600   -24.1760
 1619.5000    10.9690   115.7630   862.9440     2.4880     0.3850     0.0580     7.0580     5.5010     5.6110   871.8780   -24.0380
 1620.0000    10.9790   116.7310   866.4840     2.4800     0.4020     0.0500     6.6190     5.3830     5.4850   873.9970   -23.9600
 1620.5000    10.9890   119.6360   876.9600     2.4600     0.4060     0.0250     5.8510     5.3830     5.4850   876.1150   -24.1700
 1621.0000    10.7900   122.5970   887.4350     2.4440     0.3700     0.0010     5.6940     5.4640     5.5360   878.2330   -24.3890
 1621.5000    10.5500   125.5020   897.9100     2.4550     0.3390    -0.0060     5.9790     5.8620     5.9500   880.3520   -24.6070
 1622.0000    10.4830   127.7590   908.3850     2.4780     0.3270     0.0030     7.8860     6.2600     6.3610   882.4700   -24.8240
 1622.5000    10.4710   129.8900   918.8600     2.5030     0.3190     0.0150     9.5280     6.6580     6.7730   883.2490   -24.9490
 1623.0000    10.4610   132.5830   929.3350     2.5210     0.3120     0.0270    10.0660     7.0560     7.1840   883.2490   -24.9490
 1623.5000    10.4510   144.7640   939.8100     2.5150     0.3040     0.0280    10.0660     7.4540     7.5960   883.2490   -24.9540
 1624.0000    10.4410   152.5370   944.1620     2.4950     0.3040     0.0170    10.0660     7.8220     7.9640   883.2490   -24.7370
 1624.5000    10.4310   159.6030   937.4620     2.4730     0.3190     0.0090    10.0660     7.8220     7.9280   883.2490   -24.4220
 1625.0000    10.4210   165.0140   926.1140     2.4500     0.3320     0.0140    10.0660     7.6480     7.8950   883.2490   -24.1040
 1625.5000    10.4440   161.1380   914.7660     2.4030     0.3590     0.0210     9.6150     7.0610     7.2840   883.2490   -23.7320
 1626.0000    10.4690   155.9610   903.4180     2.3560     0.3850     0.0270     8.6580     6.4740     6.7270   883.2490   -23.5680
 1626.5000    10.4950   150.7060   892.0700     2.3080     0.4120     0.0220     7.2400     5.9660     6.1350   883.2490   -23.6650
 1627.0000    10.5200   150.4590   884.3860     2.2900     0.4170     0.0130     6.2510     6.0260     6.1830   883.2490   -24.0460
 1627.5000    10.4460   154.9010   889.4920     2.3130     0.4100     0.0040     6.2510     6.1350     6.2710   883.2490   -24.4120
 1628.0000    10.3620   163.3270   894.5990     2.3590     0.4020    -0.0020     6.9040     6.3250     6.6240   883.2490   -24.7770
 1628.5000    10.2780   169.4770   899.7060     2.4070     0.3930     0.0020     7.8940     6.7580     7.1800   883.2490   -25.1430
 1629.0000    10.1940   168.7000   904.8120     2.4470     0.3870     0.0060     8.8830     7.1910     7.7360   883.2490   -25.5090
 1629.5000    10.1110   166.9290   909.9190     2.4540     0.3870     0.0100     9.8720     7.6490     8.2920   883.2490   -25.8750
 1630.0000    10.0540   165.2120   915.0250     2.4530     0.3950     0.0120    10.7450     8.2020     8.8480   883.2490   -26.2410
 1630.5000    10.0560   168.1050   920.1320     2.4440     0.4010     0.0130    11.2000     8.7560     9.4040   883.2490   -26.6070
 1631.0000    10.0570   174.7490   919.7670     2.4360     0.3950     0.0130    11.9950     9.3090     9.8270   883.2490   -26.9710
 1631.5000    10.0570   183.5570   904.6360     2.4290     0.3830     0.0140    12.9850     9.8630    10.1740   883.2490   -27.3340
 1632.0000    10.0580   197.8390   889.5060     2.4240     0.3700     0.0120    13.3220    10.2990    10.5200   883.2490   -27.4570
 1632.5000    10.0590   212.1470   874.3750     2.4110     0.3610     0.0040    12.4780    10.6000    10.8670   883.2490   -27.2940
 1633.0000    10.0600   218.0880   859.2440     2.3970     0.3720    -0.0010    12.4780    10.9010    11.2130   883.2490   -27.0970
 1633.5000    10.0610   208.1500   842.6400     2.3870     0.3810    -0.0030    13.0550    11.0690    11.5600   884.8880   -26.7980
 1634.0000    10.0620   186.2350   862.9440     2.3910     0.3680    -0.0020    14.1910    11.1280    11.7980   886.7220   -26.2230
 1634.5000    10.0630   164.1360   870.9720     2.4000     0.3390    -0.0010    15.1830    11.1870    11.6610   888.5570   -25.7450
 1635.0000    10.0630   157.0740   886.6850     2.4080     0.3240    -0.0010    15.1830    11.2460    11.6360   890.3920   -25.8160
 1635.5000    10.0640   152.2660   903.5530     2.4100     0.3270     0.0000    14.9100    11.3050    11.6110   892.2260   -25.9030
 1636.0000    10.0650   152.6310   904.2200     2.4180     0.3290     0.0010    14.1250    11.3660    11.5860   894.0610   -26.1370
 1636.5000    10.0660   160.9310   905.4810     2.4270     0.3190     0.0050    13.3220    11.0870    11.3000   895.8960   -25.8640
 1637.0000    10.0670   154.7080   906.7420     2.4280     0.3100     0.0060    13.3220    10.7240    10.9960   897.7300   -25.5790
 1637.5000    10.0680   147.9780   908.0030     2.4280     0.3100     0.0070    13.3220    10.3620    10.6920   899.5650   -25.2910
 1638.0000    10.0690   140.2940   909.2640     2.4410     0.3230     0.0150    13.0260     9.9990    10.3890   901.4000   -25.0000
 1638.5000    10.0690   129.7670   910.5250     2.4580     0.3340     0.0240    12.2990     9.6970    10.0850   903.2340   -24.7220
 1639.0000    10.0700   122.5080   911.7850     2.4730     0.3380     0.0220    11.5720     9.6970     9.9720   888.5760   -24.4380
 1639.5000    10.0710   120.6620   913.0460     2.4740     0.3390     0.0140    10.8460     9.6970     9.9720   870.4450   -24.9440
