~VERSION INFORMATION
 VERS.                2.0:   CWLS LOG ASCII STANDARD - VERSION 2.0
 WRAP.                 NO:   ONE LINE PER DEPTH STEP
~WELL INFORMATION
#MNEM.UNIT      DATA TYPE    INFORMATION
#----------   ------------   ------------------------------
 STRT.F           32.0000:   START DEPTH
 STOP.F         2998.0000:   STOP DEPTH
 STEP.F            0.5000:   STEP LENGTH
 NULL.          -999.2500:   NO VALUE
 COMP.   TESORO PETROLEUM:   COMPANY
 WELL. TESORO N.P.R. #3-34:   WELL
 FLD .        TEAPOT DOME:   FIELD
 LOC .      S34 T39N R78W:   LOCATION
 CNTY.            NATRONA:   COUNTY
 STAT.            WYOMING:   STATE
 CTRY. UNITED STATES OF AMERICA:   COUNTRY
 SRVC.       SCHLUMBERGER:   SERVICE COMPANY
 DATE.        08-AUG-1969:   LOGDATE
 API .     49025100250000:   API NUMBER
~CURVE INFORMATION
#MNEM.UNIT       API CODE    CURVE DESCRIPTION
#----------   ------------   ------------------------------
 DEPT.F                  :   
 SPR .MV     05 010 01 00:   SPONTANEOUS POTENTIAL FROM RES.
 ASN .OHMM   05 040 16 00:   AMPLIFIED SHORT NORMAL 16"
 ILD .OHMM   05 120 46 00:   INDUCTION LOG DEEP
 CORR.G/C3   45 356 01 00:   DENSITY CORRECTION
 GRD .GAPI   45 310 01 00:   GAMMA RAY FROM DENSITY LOG
 CALD.IN     45 280 60 00:   CALIPER FROM DENSITY LOG
 RHOB.G/C3   45 350 01 00:   BULK DENSITY
~PARAMETER INFORMATION
#MNEM.UNIT          VALUE    DESCRIPTION
#----------   ------------   ------------------------------
 EKB .F         5185.0000:   Kelly bushing
 EGL .F         5172.0000:   Ground level
 TD  .F         2999.0000:   Total depth
 CLNT.            A2DTECH:   Client Code
 SL  . 465' FWL & 1075' FSL':   Surface Location
 DATE.        08-AUG-1969:   Date Logged [DD-MMM-YYYY]
 DD  .F              2998:   Depth driller
 DL  .F              2999:   Depth logger
 BLI .F              2998:   Bottom log interval
 TLI .F               615:   Top log interval
 CS1 .              10.75:   Casing size
 CBD1.      10.75" @ 615':   Casing driller 1
 CBL1.IN              615:   Casing logger 1
 BS1 .IN                9:   Bit size
 BSD1.F              2998:   Depth drilled with bit1
 DFT .      FRESH GEL MUD:   Type fluid in hole
 DFD .                9.6:   Density
 DFV .                 55:   Viscosity
 DFPH.                9.5:   pH
 DFL .                7.0:   Fluid loss
 MSS .           FLOWLINE:   Source of sample
 RMS .OHMM           0.75:   Rm
 MST .F                87:   Rm Meas. temp.
 RMF .OHMM           1.09:   Rmf
 MFST.F                87:   Rmf Meas. temp.
 MFSS.               MEAS:   Source Rmf.
 RMB .OHMM           0.59:   Rm. at BHT
 BHT .F               111:   BHT.
 TCS .HRS               3:   Time Circ. stopped
 MRT .F               111:   Maximum recorded temp.
 LUN .               4507:   Logging unit number
 LUL .               CSPR:   Logging unit location
 ENGI.            ED MIXA:   Recorded By
 WITN.                MAY:   Witnessed by
 ORIG.   1" 2.5" 5" PRINT:   Origin of data
 UWI .     49025100250000:   Unique Well ID
 DICO. A2D TECHNOLOGIES, INC.:   Digitizing Company
~OTHER INFORMATION
~A   DEPT      SPR        ASN        ILD       CORR        GRD       CALD       RHOB   
# ...
 2216.0000   -29.3248    11.0139     9.0788     0.0177   101.4312     9.0128     2.4837
 2216.5000   -29.3186    10.8664     8.8615     0.0114   100.2047     9.0123     2.4759
 2217.0000   -29.1672    10.7191     8.7179     0.0066    97.7552     8.9813     2.4710
 2217.5000   -29.0074    10.5716     8.5635     0.0080    95.3057     8.9809     2.4793
 2218.0000   -28.8656    10.2766     8.3581     0.0086    95.3026     8.9498     2.4842
 2218.5000   -28.8588    10.2029     8.2874     0.0055    95.9113     8.9494     2.4753
 2219.0000   -28.7088    10.0555     8.2178     0.0007    95.2965     8.9183     2.4804
 2219.5000   -28.7007     9.9819     8.1460    -0.0042    94.0702     8.9179     2.4867
 2220.0000   -28.6934     9.9035     8.0795     0.0034    92.8439     8.9174     2.4918
 2220.5000   -28.5426     9.7611     8.0098     0.0097    92.2293     8.9170     2.4865
 2221.0000   -28.5366     9.7613     8.0151     0.0121    92.1939     8.9165     2.4796
 2221.5000   -28.5291     9.7616     8.0193     0.0146    94.0580     8.9161     2.4888
 2222.0000   -28.5166     9.7619     8.0245     0.0175    96.5015     8.9187     2.4936
 2222.5000   -28.3709     9.7622     8.0287     0.0216    97.7218     8.9232     2.4957
 2223.0000   -28.2207     9.8364     8.1068     0.0221    97.7348     8.9278     2.4812
 2223.5000   -28.0703     9.9105     8.1848     0.0170    96.4923     8.9323     2.4765
 2224.0000   -28.0620     9.9846     8.2629     0.0084    94.6544     8.9369     2.4980
 2224.5000   -28.0558    10.0588     8.2681     0.0144    92.2049     8.9414     2.5059
 2225.0000   -27.9045    10.2068     8.3462     0.0144    92.2018     8.9460     2.5054
 2225.5000   -27.7547    10.2810     8.3504     0.0105    94.6579     8.9506     2.4931
 2226.0000   -27.6029    10.3551     8.3546     0.0073    97.0887     8.9551     2.4867
 2226.5000   -27.5955    10.4292     8.4337     0.0084    95.1908     8.9597     2.4906
 2227.0000   -27.4462    10.4296     8.5117     0.0084    91.5456     8.9642     2.4945
 2227.5000   -27.4390    10.4299     8.5159     0.0050    90.3313     8.9688     2.4827
 2228.0000   -27.4307    10.4302     8.5201     0.0004    89.1008     8.9733     2.4697
 2228.5000   -27.4239    10.4304     8.5244    -0.0039    87.8992     8.9779     2.4779
 2229.0000   -27.4171    10.4307     8.4546    -0.0053    89.7633     8.9824     2.4835
 2229.5000   -27.4104    10.4311     8.4599     0.0023    91.5993     8.9870     2.4747
 2230.0000   -27.4019    10.3574     8.4641     0.0106    92.1713     8.9916     2.4844
 2230.5000   -27.3952    10.2839     8.4683     0.0174    90.8102     8.9961     2.4935
 2231.0000   -27.3884    10.2842     8.5474     0.0248    89.1072     8.9991     2.5035
 2231.5000   -27.3816    10.3584     8.6254     0.0331    91.8671     8.9985     2.5112
 2232.0000   -27.3732    10.3587     8.7035     0.0404    99.1717     9.0288     2.5164
 2232.5000   -27.5099    10.5067     8.8554     0.0453   103.9601     9.0383     2.5187
 2233.0000   -27.6466    10.6547     8.9389     0.0502   107.4436     9.0585     2.5115
 2233.5000   -27.9268    10.8027     9.0864     0.0372   102.3390     9.0579     2.5174
 2234.0000   -28.0635    10.9507     9.2383     0.0149   101.9329     9.0575     2.5191
 2234.5000   -28.4854    11.1726     9.3164     0.0067   102.5415     9.0570     2.4947
 2235.0000   -28.7656    11.2467     9.5421     0.0053    96.7892     9.0566     2.4847
 2235.5000   -29.0459    11.4685     9.6212     0.0094    91.7949     9.0562     2.4802
 2236.0000   -29.1825    11.4689     9.6993     0.0136    85.0473     9.0251     2.4916
 2236.5000   -29.3175    11.4692     9.7035     0.0156    84.1807     9.0246     2.5088
 2237.0000   -29.1690    11.3955     9.7077     0.0140    87.3332     9.0241     2.5119
 2237.5000   -29.4476    11.2482     9.6320     0.0099    89.7809     9.0543     2.4934
 2238.0000   -29.4404    10.9531     9.2740     0.0131    91.6168     9.0527     2.4927
 2238.5000   -29.4333    10.6579     8.9828     0.0175    90.7858     9.0512     2.4976
 2239.0000   -29.4261    10.3628     8.6177     0.0205    89.5553     9.0496     2.4920
 2239.5000   -29.4189     9.9199     8.3265     0.0197    89.0550     9.0481     2.5096
 2240.0000   -29.4109     9.6149     8.1101     0.0144    89.0520     9.0465     2.5034
 2240.5000   -29.4041     9.9944     8.0394     0.0100    89.0489     9.0449     2.5014
 2241.0000   -29.3974     9.8765     7.8970     0.0117    87.4309     9.0434     2.5163
 2241.5000   -29.3889     9.8620     7.9012     0.0171    85.3731     9.0418     2.5329
 2242.0000   -29.3821     9.9214     7.8315     0.0210    85.3701     9.0403     2.5343
 2242.5000   -29.2319     9.7002     7.8368     0.0160    80.0459     9.0387     2.5462
 2243.0000   -29.2251    10.1436     7.8410     0.0113    76.8012     9.0372     2.5341
 2243.5000   -29.0563    10.2178     7.8452     0.0072    78.6252     9.0356     2.5261
 2244.0000   -28.9230    10.1442     7.8493     0.0029    82.6100     9.0341     2.5263
 2244.5000   -28.7733    10.0705     7.8546     0.0007    84.7435     9.0325     2.5301
 2245.0000   -28.7648     9.9714     7.8588     0.0069    84.0877     9.0310     2.5386
 2245.5000   -28.7590     9.7758     7.8630     0.0130    80.4561     9.0294     2.5445
 2246.0000   -28.7518     9.6727     7.8672     0.0173    82.4588     9.0279     2.5224
 2246.5000   -28.8892     9.7321     7.9530     0.0210    84.4703     9.0263     2.5297
 2247.0000   -28.8796     9.9244     8.2459     0.0240    85.3399     9.0247     2.5415
 2247.5000   -28.8734     9.9454     8.4717     0.0251    83.5627     9.0232     2.5488
 2248.0000   -29.0101    10.2943     8.7713     0.0251    82.8873     9.0216     2.5355
 2248.5000   -29.1468    10.5900     8.9970     0.0180    86.7452     9.0201     2.5296
 2249.0000   -29.1383    10.8857     9.2239     0.0108    85.7429     9.0185     2.5266
 2249.5000   -29.1316    11.2553     9.3758     0.0085    84.3132     9.0170     2.5177
 2250.0000   -29.5550    11.4771     9.4538     0.0133    82.6707     9.0154     2.5185
 2250.5000   -29.5537    11.4035     9.6057     0.0175    83.8989     9.0139     2.5256
 2251.0000   -29.4088    11.2561     9.6184     0.0196    85.7391     9.0123     2.5338
 2251.5000   -29.4075    11.1087     9.6890     0.0221    88.1909     9.0109     2.5264
 2252.0000   -29.4058    10.8875     9.6961     0.0231    89.8103     9.0104     2.5165
 2252.5000   -29.2610    10.8878     9.7261     0.0215    90.1993     9.0100     2.5248
 2253.0000   -29.1161    10.8880     9.7489     0.0175    86.4529     9.0034     2.5282
 2253.5000   -28.9712    10.9622     9.7489     0.0130    83.6116     8.9785     2.5084
 2254.0000   -28.8263    11.1533     9.7489     0.0081    81.0153     8.9742     2.5113
 2254.5000   -28.6813    11.3750     9.6750     0.0080    82.7164     8.9469     2.5132
 2255.0000   -28.5366    11.5229     9.5273     0.0139    85.1682     8.9465     2.4979
 2255.5000   -28.4679    11.4492     9.2875     0.0190    86.7593     8.9460     2.4993
 2256.0000   -28.3901    11.3016     8.9365     0.0249    86.8665     8.9150     2.5067
 2256.5000   -28.2451    11.0802     8.7149     0.0301    85.6360     8.9146     2.5036
 2257.0000   -28.2439    10.7849     8.4934     0.0292    84.1450     8.9140     2.4874
 2257.5000   -28.2422    10.4146     8.3444     0.0206    82.5637     8.9136     2.5021
 2258.0000   -28.0976    10.0958     8.2718     0.0084    83.0947     8.9143     2.5197
 2258.5000   -28.0961    10.0118     8.1979     0.0022    85.2038     8.9175     2.5373
 2259.0000   -28.0946     9.9430     8.1241     0.0074    87.3783     8.9208     2.5506
 2259.5000   -27.9497     9.8699     8.1241     0.0127    89.2139     8.9241     2.5593
 2260.0000   -27.9389     9.8700     8.0502     0.0155    90.4383     8.9274     2.5224
 2260.5000   -27.8034     9.9145     8.0502     0.0192    92.5963     8.9307     2.5327
 2261.0000   -27.6584    10.1953     7.9764     0.0251    90.7830     8.9340     2.5385
