~VERSION INFORMATION
 VERS.                2.0:   CWLS LOG ASCII STANDARD - VERSION 2.0
 WRAP.                 NO:   ONE LINE PER DEPTH STEP
~WELL INFORMATION
#MNEM.UNIT      DATA TYPE    INFORMATION
#----------   ------------   ------------------------------
 STRT.F          200.0000:   START DEPTH
 STOP.F         3050.0000:   STOP DEPTH
 STEP.F            0.5000:   STEP LENGTH
 NULL.          -999.2500:   NO VALUE
 COMP.     FENIX & SISSON:   COMPANY
 WELL. FENIX & SISSON "AX" #16-28:   WELL
 FLD .              NPR 3:   FIELD
 LOC .      S28 T39N R78W:   LOCATION
 CNTY.            NATRONA:   COUNTY
 STAT.            WYOMING:   STATE
 CTRY. UNITED STATES OF AMERICA:   COUNTRY
 SRVC.      DRESSER ATLAS:   SERVICE COMPANY
 DATE.        01-JUL-1977:   LOGDATE
 API .     49025103930000:   API NUMBER
~CURVE INFORMATION
#MNEM.UNIT       API CODE    CURVE DESCRIPTION
#----------   ------------   ------------------------------
 DEPT.F                  :   
 CALD.IN     45 280 60 00:   CALIPER FROM DENSITY LOG
 GRD .GAPI   45 310 01 00:   GAMMA RAY FROM DENSITY LOG
 CORR.G/C3   45 356 01 00:   DENSITY CORRECTION
 TEND.LBS    45 635 01 00:   TENSION FROM DENSITY LOG
 SPR .MV     07 010 01 00:   SPONTANEOUS POTENTIAL
 ILD .OHMM   07 120 46 00:   DEEP INDUCTION RESISTIVITY
 ILM .OHMM   07 120 44 00:   INDUCTION LOG MEDIUM RESISTIVITY
 SFL .OHMM   07 220 01 00:   SHALLOW FOCUSED LOG RESISTIVITY
 RHOB.G/C3   45 350 01 00:   BULK DENSITY
~PARAMETER INFORMATION
#MNEM.UNIT          VALUE    DESCRIPTION
#----------   ------------   ------------------------------
 EKB .F         5067.0000:   Kelly bushing
 EGL .F         5057.0000:   Ground level
 EDF .F         5066.0000:   Drilling floor
 EPD .F            0.0000:   Permanent datum
 TD  .F         3036.0000:   Total depth
 DATE.        01-JUL-1977:   Date logged
 CLNT.            A2DTECH:   Client Code
 SL  . 1220' FSL & 330' FWL:   Surface Location
 PD  .                 GL:   Permanent Datum
 DAPD.F                10:   Feet Above Permanent Datum
 DD  .F              3034:   Depth driller
 DL  .F              3036:   Depth logger
 BLI .F              3034:   Bottom log interval
 TLI .F               214:   Top log interval
 CS1 .IN            8.625:   Casing size
 CBD1.      8.625" @ 204':   Casing driller 1
 CBL1.F               214:   Casing logger 1
 BS1 .IN            7.875:   Bit size
 BSD1.F              3034:   Depth drilled with bit1
 DFT .                KCL:   Type fluid in hole
 DFD .                  9:   Density
 DFV .                 34:   Viscosity
 DFPH.                7.2:   pH
 DFL .                8.8:   Fluid loss
 MSS .         CIRCULATED:   Source of sample
 RMS .OHMM           .112:   Rm
 MST .F                75:   Rm Meas. temp.
 RMF .OHMM           .085:   Rmf
 MFST.F                75:   Rmf Meas. temp.
 RMC .OHMM           .141:   Rmc
 MCST.F                75:   Rmc Meas. temp.
 MFSS.               MEAS:   Source Rmf.
 MCSS.               MEAS:   Source Rmc.
 RMB .OHMM           .067:   Rm. at BHT
 BHT .F               124:   BHT.
 TCS .HRS               1:   Time Circ. stopped
 MRT .F               124:   Maximum recorded temp.
 LUN .               6134:   Logging unit number
 LUL .              GLTTE:   Logging unit location
 ENGI.              GOULD:   Recorded By
 WITN.         PETTINGILL:   Witnessed by
 ORIG.       2.5"5" PRINT:   Origin of data
 UWI .     49025103930000:   Unique Well ID
 DICO. A2D TECHNOLOGIES, INC.:   Digitizing Company
~OTHER INFORMATION
~A   DEPT     CALD         GRD      CORR       TEND        SPR        ILD        ILM        SFL       RHOB   
# ...
 2061.5000     7.8920    95.0040     0.0410   -32.1860   -69.0440     7.6330     9.5560    16.0160     2.5110
 2062.0000     7.9060    94.4450     0.0330   -32.4660   -69.0570     7.6760     9.4350    16.2290     2.5020
 2062.5000     7.9210    95.0860     0.0230   -32.7470   -68.9080     7.7200     9.3140    15.4640     2.4810
 2063.0000     7.9350    95.7870     0.0140   -33.0270   -68.7750     7.7630     9.1940    14.8690     2.4660
 2063.5000     7.9500    95.0340     0.0100   -33.3070   -68.6340     7.8070     9.0200    15.0810     2.4600
 2064.0000     7.9650    93.7520     0.0100   -33.5870   -68.4930     7.8500     9.0670    14.7220     2.4660
 2064.5000     7.9660    92.8710     0.0130   -33.8670   -68.3680     7.8940     9.1510    14.0830     2.4620
 2065.0000     7.9650    93.3220     0.0160   -34.1470   -68.1630     7.9320     9.2340    13.4440     2.4750
 2065.5000     7.9640    92.2340     0.0190   -34.4270   -67.9050     7.9320     9.3180    13.2620     2.4830
 2066.0000     7.9630    90.8920     0.0190   -34.7080   -67.6550     7.9310     9.4020    13.8780     2.4670
 2066.5000     7.9620    89.9970     0.0190   -34.9880   -67.4170     7.9310     9.5310    14.2730     2.4640
 2067.0000     7.9610    89.3120     0.0230   -35.2680   -67.1720     7.9310     9.4540    14.2730     2.4740
 2067.5000     7.9600    89.9200     0.0300   -35.5480   -66.9340     7.9320     9.2880    14.7340     2.4750
 2068.0000     7.9590    89.6630     0.0410   -35.8280   -66.7580     7.9330     9.1220    16.6270     2.5020
 2068.5000     7.9580    88.7850     0.0500   -36.1080   -67.0250     7.9340     8.8560    17.7720     2.5090
 2069.0000     7.9570    88.4190     0.0510   -36.3880   -67.2530     7.8520     8.8810    16.1320     2.5060
 2069.5000     7.9560    89.2150     0.0520   -36.6690   -67.5220     7.6460     8.9430    14.4910     2.5110
 2070.0000     7.9550    89.5790     0.0490   -37.6340   -67.8780     7.4410     9.0060    12.7840     2.5150
 2070.5000     7.9540    88.9160     0.0440   -38.7060   -68.2770     7.2360     9.0690    13.2620     2.4990
 2071.0000     7.9530    88.2690     0.0470   -39.7770   -68.6520     7.0310     9.1310    12.7840     2.5010
 2071.5000     7.9520    88.1800     0.0510   -40.8490   -69.0640     6.8490     9.1870    13.2620     2.5170
 2072.0000     7.9510    88.4680     0.0530   -41.9210   -69.0920     6.8720     9.0960    12.8510     2.5260
 2072.5000     7.9500    88.1840     0.0500   -42.9930   -69.1000     6.8930     9.0150    11.4830     2.5210
 2073.0000     7.9490    88.2680     0.0380   -44.0650   -69.0900     6.9140     8.9330    11.0380     2.5080
 2073.5000     7.9480    89.2660     0.0270   -45.1370   -69.1030     6.9350     8.8560    15.6440     2.4760
 2074.0000     7.9470    90.6170     0.0230   -46.2090   -69.0090     6.9550     8.6030    15.3130     2.4720
 2074.5000     7.9530    90.3370     0.0180   -40.1860   -68.7820     6.9760     8.3620    14.8060     2.4770
 2075.0000     7.9790    89.9360     0.0150   -29.6200   -68.5720     6.9120     8.1210    14.8060     2.4690
 2075.5000     8.0030    89.4770     0.0110   -19.0550   -68.3570     6.8490     7.8800    13.6420     2.4580
 2076.0000     8.0280    88.5050     0.0010   -24.6830   -68.3040     6.5710     7.6390    12.1810     2.4390
 2076.5000     8.0460    87.0440    -0.0160   -34.5440   -68.3070     6.2880     7.3980    11.0660     2.3880
 2077.0000     8.0450    87.1150    -0.0430   -44.4050   -68.3070     6.0060     7.1570    10.2840     2.3240
 2077.5000     8.0450    87.6870    -0.0630   -46.6270   -68.3070     5.7000     6.9160    10.3420     2.2760
 2078.0000     8.0260    88.9040    -0.0590   -46.6270   -68.3060     5.4700     6.6750    10.4470     2.2900
 2078.5000     8.0890    89.7510    -0.0400   -46.6270   -68.3070     5.3950     6.6020     9.0420     2.3370
 2079.0000     8.1220    89.2650    -0.0100   -46.6270   -68.3090     5.3950     6.8980     8.2290     2.4350
 2079.5000     8.0690    90.1240     0.0260   -46.6270   -68.2990     5.5470     7.5140     9.1350     2.4780
 2080.0000     8.0230    91.1950     0.0320   -46.6270   -68.3920     5.7740     8.1300    10.9790     2.4890
 2080.5000     8.0800    91.6080     0.0330   -46.6270   -68.5420     6.0020     8.8560    13.4210     2.4960
 2081.0000     8.0960    91.2010     0.0280   -46.6270   -68.6820     6.1350     8.6710    15.8630     2.4900
 2081.5000     8.0520    90.7190     0.0250   -46.6270   -68.8160     6.1350     8.2250    17.4660     2.4820
 2082.0000     8.0240    90.4150     0.0270   -46.6270   -68.9610     6.1350     7.7780    15.3840     2.4910
 2082.5000     8.0700    90.8590     0.0310   -46.6270   -69.1060     5.9800     7.3320    12.7430     2.5000
 2083.0000     8.1060    92.1510     0.0330   -46.6270   -69.4280     5.7090     6.8860    11.2110     2.4950
 2083.5000     8.0620    93.0140     0.0350   -46.6270   -69.7480     5.4380     6.4390    10.0370     2.5050
 2084.0000     8.0370    92.1340     0.0370   -46.6270   -70.0720     5.1670     6.0230     8.8630     2.5100
 2084.5000     8.1060    91.1510     0.0320   -47.2440   -70.4050     4.9220     6.2280     7.6890     2.4900
 2085.0000     8.0630    91.8000     0.0270   -49.3880   -70.7150     4.9220     6.6330     7.0030     2.4730
 2085.5000     8.0250    92.8180     0.0250   -51.5310   -71.0270     4.9220     7.0390     7.5070     2.4620
 2086.0000     8.0590    93.1890     0.0270   -53.6750   -70.7530     4.9220     7.5070     9.2540     2.4760
 2086.5000     8.1220    94.6450     0.0330   -55.8190   -70.4420     4.8320     7.6460    10.8940     2.4890
 2087.0000     8.0910    95.3910     0.0380   -57.9620   -70.0820     4.8520     7.1040    12.5340     2.4990
 2087.5000     8.0450    95.5660     0.0440   -60.1060   -69.8180     4.9430     6.3640    13.7580     2.5120
 2088.0000     8.0620    93.8910     0.0470   -62.2500   -69.6920     5.0330     6.5440    11.9730     2.5190
 2088.5000     8.0860    92.1980     0.0430   -64.3940   -69.5380     5.1240     6.8480     7.6460     2.5140
 2089.0000     8.0780    91.0770     0.0380   -66.4680   -69.3840     5.2010     7.1050     8.2040     2.5090
 2089.5000     8.0680    90.0360     0.0350   -55.8660   -69.2400     5.2010     7.1050     9.1980     2.5210
 2090.0000     8.0590    88.9540     0.0350   -45.5940   -69.1030     5.2010     7.1050    10.0700     2.5300
 2090.5000     8.0490    88.5510     0.0350   -35.3220   -69.0870     5.4250     7.5050     8.8560     2.5350
 2091.0000     8.0470    88.2230     0.0310   -25.0500   -69.1120     5.7380     8.0630     8.8560     2.5150
 2091.5000     8.0770    87.8700     0.0270   -17.7360   -68.8920     6.0520     8.6950    10.3090     2.5080
 2092.0000     8.1070    88.4650     0.0280   -22.0240   -68.4330     6.3650     9.0200    12.6790     2.5140
 2092.5000     8.1230    88.5840     0.0350   -26.3110   -68.5190     6.6140     8.7510    15.3280     2.5280
 2093.0000     8.0740    86.9280     0.0310   -30.5990   -69.0090     6.6640     8.3380    18.4550     2.5240
 2093.5000     8.0270    85.9710     0.0270   -34.8860   -69.4180     6.7240     7.9240    16.2000     2.5200
 2094.0000     8.0390    85.4790     0.0300   -37.2420   -69.8490     6.8490     7.5070    11.0380     2.5230
 2094.5000     8.1100    85.0650     0.0380   -38.1720   -69.8380     6.7410     7.7710    11.1570     2.5350
 2095.0000     8.1180    85.4670     0.0450   -39.1020   -69.8010     6.5560     8.0370    11.3600     2.5480
 2095.5000     8.0820    86.4410     0.0430   -40.0330   -69.7490     6.3710     8.3030    11.4510     2.5420
 2096.0000     8.0470    87.3350     0.0410   -40.9630   -69.7090     6.1350     8.5680    11.1560     2.5330
 2096.5000     8.0540    88.1720     0.0350   -41.8930   -69.6640     6.1350     8.8340    10.7570     2.5240
 2097.0000     8.1080    88.9790     0.0280   -42.8230   -69.6190     6.1640     9.1870    11.1330     2.5120
 2097.5000     8.1460    88.0850     0.0170   -43.7540   -69.5750     6.2600     9.1870    11.8310     2.4970
