~VERSION INFORMATION
 VERS.                2.0:   CWLS LOG ASCII STANDARD - VERSION 2.0
 WRAP.                 NO:   ONE LINE PER DEPTH STEP
~WELL INFORMATION
#MNEM.UNIT      DATA TYPE    INFORMATION
#----------   ------------   ------------------------------
 STRT.F          502.0000:   START DEPTH
 STOP.F         3068.0000:   STOP DEPTH
 STEP.F            0.5000:   STEP LENGTH
 NULL.          -999.2500:   NO VALUE
 COMP. LAWRENCE ALLISON AND ASSOCIATES:   COMPANY
 WELL. LAWRENCE NPR TX #85-33:   WELL
 FLD .              N P R:   FIELD
 LOC .      S33 T39N R78W:   LOCATION
 CNTY.            NATRONA:   COUNTY
 STAT.            WYOMING:   STATE
 CTRY. UNITED STATES OF AMERICA:   COUNTRY
 SRVC.       SCHLUMBERGER:   SERVICE COMPANY
 DATE.        20-JUN-1982:   LOGDATE
 API .     49025107990001:   API NUMBER
~CURVE INFORMATION
#MNEM.UNIT       API CODE    CURVE DESCRIPTION
#----------   ------------   ------------------------------
 DEPT.F                  :   
 RHOB.G/C3   45 350 01 00:   BULK DENSITY
 GRD .GAPI   45 310 01 00:   GAMMA RAY FROM DENSITY LOG
 CALD.IN     45 280 60 00:   CALIPER FROM DENSITY LOG
 CORR.G/C3   45 356 01 00:   DENSITY CORRECTION
 TEND.LBS    45 635 01 00:   TENSION FROM DENSITY LOG
 NPHI.DEC    42 890 03 00:   NEUTRON POROSITY SANDSTONE
 TENR.LBS    07 635 01 00:   TENSION FROM RESISTIVITY
 SPR .MV     07 010 01 00:   SPONTANEOUS POTENTIAL
 ILD .OHMM   07 120 46 00:   DEEP INDUCTION RESISTIVITY
 ILM .OHMM   07 120 44 00:   INDUCTION LOG MEDIUM RESISTIVITY
 SFL .OHMM   07 220 01 00:   SHALLOW FOCUSED LOG RESISTIVITY
~PARAMETER INFORMATION
#MNEM.UNIT          VALUE    DESCRIPTION
#----------   ------------   ------------------------------
 EKB .F         5123.0000:   Kelly bushing
 EGL .F         5113.0000:   Ground level
 EDF .F         5122.0000:   Drilling floor
 EPD .F         5113.0000:   Permanent datum
 TD  .F         3100.0000:   Total depth
 DATE.        20-JUN-1982:   Date logged
 CLNT.            A2DTECH:   Client Code
 SL  . 2263' FSL & 293' FEL:   Surface Location
 PD  .                 GL:   Permanent Datum
 DD  .F              3100:   Depth driller
 DL  .F              3056:   Depth logger
 BLI .F              3050:   Bottom log interval
 CS1 .IN            9.625:   Casing size
 CBD1.      9.625" @ 524':   Casing driller 1
 CBL1.F               520:   Casing logger 1
 BS1 .IN            7.875:   Bit size
 DFT .           POLY/KCL:   Type fluid in hole
 DFD .                8.4:   Density
 DFV .                 40:   Viscosity
 DFPH.                7.6:   pH
 DFL .                 10:   Fluid loss
 MSS .               TANK:   Source of sample
 RMS .OHMM            .92:   Rm
 MST .F                66:   Rm Meas. temp.
 RMF .OHMM           .603:   Rmf
 MFST.F                68:   Rmf Meas. temp.
 MFSS.               MEAS:   Source Rmf.
 RMB .OHMM           .515:   Rm. at BHT
 BHT .F               118:   BHT.
 TCS .HRS             815:   Time Circ. stopped
 MRT .F               118:   Maximum recorded temp.
 LUN .               8035:   Logging unit number
 LUL .               CSPR:   Logging unit location
 ENGI.              PENNY:   Recorded By
 WITN.           JENNINGS:   Witnessed by
 ORIG.           5" PRINT:   Origin of data
 UWI .     49025107990001:   Unique Well ID
 DICO. A2D TECHNOLOGIES, INC.:   Digitizing Company
 DAPD.                 10:   Feet Above Permanent Datum
 BSD1.               3100:   Depth drilled with bit1
 TLI .                520:   Top log interval
 TLAB.               1100:   Time logger at bottom
~OTHER INFORMATION
~A   DEPT     RHOB         GRD      CALD       CORR       TEND       NPHI       TENR        SPR        ILD        ILM        SFL   
# ...
  532.5000     2.3570   117.2770     9.9110     0.0200   930.5780  -999.2500  1349.5341  -999.2500    16.1920    16.1490  -999.2500
  533.0000     2.3410   117.2630     9.8850     0.0150   930.1620  -999.2500  1351.8290  -999.2500    16.1750    15.7580  -999.2500
  533.5000     2.3250   117.3520     9.8970     0.0090   929.7460  -999.2500  1354.1240  -999.2500    16.1360    15.3680  -999.2500
  534.0000     2.3100   118.0300     9.9450     0.0040   929.3300  -999.2500  1356.4189  -999.2500    16.0980    14.9780  -999.2500
  534.5000     2.3070   119.8250     9.9930     0.0100   928.9140  -999.2500  1358.7130  -999.2500    16.0590    14.7720  -999.2500
  535.0000     2.3180   121.6170    10.0400     0.0240   928.4980  -999.2500  1361.0081  -999.2500    16.0220    15.0470  -999.2500
  535.5000     2.3280   122.5440    10.0890     0.0420   928.0820  -999.2500  1363.3030  -999.2500    15.9870    15.3100  -999.2500
  536.0000     2.3350   123.2690    10.1000     0.0710   927.6660  -999.2500  1365.5980  -999.2500    15.9520    15.5730  -999.2500
  536.5000     2.3150   125.0680     9.9530     0.0840   927.2500  -999.2500  1365.9020  -999.2500    15.9160    15.6080  -999.2500
  537.0000     2.3010   127.2380     9.7840     0.0860   926.8340  -999.2500  1365.9020  -999.2500    15.8810    15.4200  -999.2500
  537.5000     2.3010   128.0870     9.6160     0.0790   926.4180  -999.2500  1365.9020  -999.2500    15.8460    15.2350  -999.2500
  538.0000     2.3260   126.6740     9.5120     0.0890   926.0020  -999.2500  1365.9020  -999.2500    15.8100    15.0510  -999.2500
  538.5000     2.3490   125.1720     9.5180     0.0960   925.5860  -999.2500  1365.9020  -999.2500    15.7750    14.8660  -999.2500
  539.0000     2.3560   124.6750     9.5270     0.0970   925.1700  -999.2500  1365.9020  -999.2500    15.6240    14.6820  -999.2500
  539.5000     2.3430   124.8110     9.5360     0.0860   924.7540  -999.2500  1365.9020  -999.2500    15.2670    14.4970  -999.2500
  540.0000     2.3300   124.2410     9.5450     0.0710   924.3380  -999.2500  1365.9020  -999.2500    14.9100    14.3130  -999.2500
  540.5000     2.3200   122.7410     9.5540     0.0550   923.9220  -999.2500  1365.9020  -999.2500    14.5530    14.1280  -999.2500
  541.0000     2.3220   121.2530     9.5630     0.0460   923.5060  -999.2500  1365.9020  -999.2500    14.2390    13.9440  -999.2500
  541.5000     2.3370   121.2220     9.5720     0.0390   923.0900  -999.2500  1365.9020  -999.2500    14.1290    13.7590  -999.2500
  542.0000     2.3510   123.4040     9.5860     0.0320   922.6740  -999.2500  1365.9020  -999.2500    14.0090    13.5750  -999.2500
  542.5000     2.3570   124.9110     9.6000     0.0250   922.6190  -999.2500  1365.9020  -999.2500    13.8880    13.3900  -999.2500
  543.0000     2.3630   122.9420     9.6130     0.0200   923.2470  -999.2500  1365.9020  -999.2500    13.7680    13.2060  -999.2500
  543.5000     2.3730   121.0900     9.6270     0.0210   923.8340  -999.2500  1365.9020  -999.2500    13.6470    13.0210  -999.2500
  544.0000     2.3870   121.4170     9.6400     0.0240   924.4210  -999.2500  1365.9020  -999.2500    13.5790    12.8710  -999.2500
  544.5000     2.3960   123.7250     9.6540     0.0240   925.0090  -999.2500  1365.9020  -999.2500    13.5450    12.7360  -999.2500
  545.0000     2.3910   125.2640     9.6670     0.0150   925.5960  -999.2500  1365.9020  -999.2500    13.5100    12.7060  -999.2500
  545.5000     2.3910   123.7010     9.6810     0.0090   926.1830  -999.2500  1365.9020  -999.2500    13.4760    12.6760  -999.2500
  546.0000     2.4000   121.8050     9.6900     0.0120   926.7710  -999.2500  1365.9020  -999.2500    13.4410    12.6450  -999.2500
  546.5000     2.4130   119.8940     9.6570     0.0160   927.3580  -999.2500  1365.9020  -999.2500    13.4070    12.6150  -999.2500
  547.0000     2.4140   117.9560     9.6180     0.0200   927.9450  -999.2500  1365.9020  -999.2500    13.3730    12.5840  -999.2500
  547.5000     2.4080   117.2050     9.5780     0.0240   928.5330  -999.2500  1365.9020  -999.2500    13.3380    12.5540  -999.2500
  548.0000     2.4020   119.1170     9.5380     0.0270   929.1200  -999.2500  1365.9020  -999.2500    13.3040    12.5200  -999.2500
  548.5000     2.4010   122.4890     9.4990     0.0300   929.7070  -999.2500  1365.9020  -999.2500    13.2700    12.5210  -999.2500
  549.0000     2.4030   125.8020     9.4590     0.0360   930.2950  -999.2500  1365.9020  -999.2500    13.2350    12.5210  -999.2500
  549.5000     2.4020   128.1860     9.4030     0.0570   930.8820  -999.2500  1365.9020  -999.2500    13.2010    12.5210  -999.2500
  550.0000     2.3920   127.6940     9.3440     0.0780   931.4690  -999.2500  1365.9020  -999.2500    13.1670    12.5210  -999.2500
  550.5000     2.3810   127.2500     9.2860     0.0930   932.0570  -999.2500  1365.9020  -999.2500    13.1320    12.5210  -999.2500
  551.0000     2.3750   128.1760     9.2280     0.0720   932.6440  -999.2500  1365.9020  -999.2500    13.0900    12.5210  -999.2500
  551.5000     2.3820   129.9470     9.1690     0.0500   933.2310  -999.2500  1365.9020  -999.2500    13.0300    12.5210  -999.2500
  552.0000     2.3850   130.7630     9.1110     0.0380   933.8190  -999.2500  1365.9020  -999.2500    12.9710    12.5210  -999.2500
  552.5000     2.3820   130.7730     9.0520     0.0400   934.4060  -999.2500  1365.9020  -999.2500    12.9110    12.5230  -999.2500
  553.0000     2.3760   130.9720     8.9940     0.0400   934.9940  -999.2500  1365.9020  -999.2500    12.8520    12.5210  -999.2500
  553.5000     2.3810   131.5520     8.9400     0.0430   935.5810  -999.2500  1365.9020  -999.2500    12.7920    12.3050  -999.2500
  554.0000     2.3960   132.1470     8.9050     0.0580   936.1680  -999.2500  1365.9020  -999.2500    12.7320    12.0900  -999.2500
  554.5000     2.4110   132.1580     8.9130     0.0730   936.7560  -999.2500  1365.9020  -999.2500    12.6730    11.8760  -999.2500
  555.0000     2.4210   128.9140     8.9310     0.0840   937.3430  -999.2500  1365.9020  -999.2500    12.6130    11.6610  -999.2500
  555.5000     2.4190   125.5130     8.9490     0.0720   937.9300  -999.2500  1365.9020  -999.2500    12.5540    11.4470  -999.2500
  556.0000     2.4160   125.4570     8.9670     0.0570   938.5180  -999.2500  1365.9020  -999.2500    12.4940    11.2150  -999.2500
  556.5000     2.4100   128.2040     8.9850     0.0410   939.1050  -999.2500  1365.9020  -999.2500    12.4350    11.2150  -999.2500
  557.0000     2.4080   130.8910     9.0030     0.0370   939.6920  -999.2500  1365.9020  -999.2500    12.3750    11.2150  -999.2500
  557.5000     2.4130   132.6600     9.0210     0.0420   940.2800  -999.2500  1365.9020  -999.2500    12.3160    11.2150  -999.2500
  558.0000     2.4200   133.7570     9.0080     0.0560   940.8670  -999.2500  1365.9020  -999.2500    12.2560    11.3180  -999.2500
  558.5000     2.4210   134.7620     8.9400     0.0690   941.4540  -999.2500  1365.9020  -999.2500    12.1970    11.2970  -999.2500
  559.0000     2.4170   136.5460     8.8750     0.0770   942.0420  -999.2500  1365.9020  -999.2500    12.1370    11.2610  -999.2500
  559.5000     2.4220   138.1040     8.8450     0.0800   942.2900  -999.2500  1365.9020  -999.2500    12.0780    11.2250  -999.2500
  560.0000     2.4380   138.0560     8.8500     0.0920   941.6970  -999.2500  1365.9020  -999.2500    12.0180    11.1890  -999.2500
  560.5000     2.4540   136.6800     8.8530     0.1050   941.1040  -999.2500  1365.9020  -999.2500    11.9590    11.1530  -999.2500
  561.0000     2.4500   135.5400     8.8570     0.1080   940.5110  -999.2500  1365.9020  -999.2500    11.8990    11.1180  -999.2500
  561.5000     2.4410   136.5760     8.8600     0.1020   939.9190  -999.2500  1365.9020  -999.2500    11.8400    11.0820  -999.2500
  562.0000     2.4380   136.2930     8.8630     0.1060   939.3260  -999.2500  1365.9020  -999.2500    11.7800    11.0460  -999.2500
  562.5000     2.4320   133.6560     8.8660     0.1080   938.7330  -999.2500  1365.9020  -999.2500    11.7200    11.0100  -999.2500
