~VERSION INFORMATION
 VERS.                2.0:   CWLS LOG ASCII STANDARD - VERSION 2.0
 WRAP.                 NO:   ONE LINE PER DEPTH STEP
~WELL INFORMATION
#MNEM.UNIT      DATA TYPE    INFORMATION
#----------   ------------   ------------------------------
 STRT.F          200.0000:   START DEPTH
 STOP.F         3098.0000:   STOP DEPTH
 STEP.F            0.5000:   STEP LENGTH
 NULL.          -999.2500:   NO VALUE
 COMP.    FENIX & SCISSON:   COMPANY
 WELL.   FENIX "AX" #74-3:   WELL
 FLD .              N P R:   FIELD
 LOC .       S3 T38N R78W:   LOCATION
 CNTY.            NATRONA:   COUNTY
 STAT.            WYOMING:   STATE
 CTRY. UNITED STATES OF AMERICA:   COUNTRY
 SRVC.              WELEX:   SERVICE COMPANY
 DATE.        17-AUG-1977:   LOGDATE
 API .     49025104120000:   API NUMBER
~CURVE INFORMATION
#MNEM.UNIT       API CODE    CURVE DESCRIPTION
#----------   ------------   ------------------------------
 DEPT.F                  :   
 CALD.IN     45 280 60 00:   CALIPER FROM DENSITY LOG
 SPR .MV     07 010 01 00:   SPONTANEOUS POTENTIAL
 NPHI.DEC    42 890 00 00:   NEUTRON POROSITY
 GRD .GAPI   45 310 01 00:   GAMMA RAY FROM DENSITY LOG
 CORR.G/C3   45 356 01 00:   DENSITY CORRECTION
 RHOB.G/C3   45 350 01 00:   BULK DENSITY
 SGRD.OHMM   07 220 05 00:   SHALLOW SHORT GUARD RESISTIVITY
 ILD .OHMM   07 120 46 00:   DEEP INDUCTION RESISTIVITY
 ILM .OHMM   07 120 44 00:   INDUCTION LOG MEDIUM RESISTIVITY
~PARAMETER INFORMATION
#MNEM.UNIT          VALUE    DESCRIPTION
#----------   ------------   ------------------------------
 EKB .F         5141.0000:   Kelly bushing
 EGL .F         5131.0000:   Ground level
 EDF .F            0.0000:   Drilling floor
 TD  .F         3100.0000:   Total depth
 DATE.        17-AUG-1977:   Date logged
 CLNT.            A2DTECH:   Client Code
 SL  . 2272' FNL & 1060' FEL:   Surface Location
 PD  .                 GL:   Permanent Datum
 EPD .F              5131:   Elevation Permanent Datum
 LMF .                 KB:   Log Measured From
 DMF .                 KB:   Drilling Measured From
 DD  .F              3100:   Depth driller
 DL  .F              3100:   Depth logger
 BLI .F              3098:   Bottom log interval
 TLI .F               200:   Top log interval
 CS1 .IN            8.625:   Casing size
 CBD1.      8.625" @ 215':   Casing driller 1
 CBL1.F               218:   Casing logger 1
 BS1 .IN            7.875:   Bit size
 DFT .            KCL MUD:   Type fluid in hole
 DFD .                8.8:   Density
 DFV .                 33:   Viscosity
 DFPH.                9.5:   pH
 DFL .               10.6:   Fluid loss
 MSS .           FLOWLINE:   Source of sample
 RMS .OHMM            .67:   Rm
 MST .F                98:   Rm Meas. temp.
 RMF .OHMM            .64:   Rmf
 MFST.F                98:   Rmf Meas. temp.
 RMC .OHMM            .31:   Rmc
 MCST.F                98:   Rmc Meas. temp.
 MFSS.           MEASURED:   Source Rmf.
 RMB .OHMM            .57:   Rm. at BHT
 BHT .F               115:   BHT.
 TCS .HRS               3:   Time Circ. stopped
 MRT .F               115:   Maximum recorded temp.
 LUN .               8611:   Logging unit number
 LUL .             CASPER:   Logging unit location
 ENGI.            C. DOAK:   Recorded By
 WITN.     MR. PETTINGILL:   Witnessed by
 ORIG.           5" PRINT:   Origin of data
 UWI .     49025104120000:   Unique Well ID
 DICO. A2D TECHNOLOGIES, INC.:   Digitizing Company
 BSD1.               3100:   Depth drilled with bit1
~OTHER INFORMATION
~A   DEPT       CALD      SPR       NPHI          GRD      CORR        RHOB     SGRD        ILD        ILM   
# ...
  382.5000    12.0330   -62.5000     0.2760   -16.7820     0.0240     2.3660    11.3960     9.5200    10.4890
  383.0000    12.0330   -62.5000     0.2780   -18.0990     0.0200     2.3570    11.6700     9.5930    10.4250
  383.5000    12.0330   -62.5000     0.2790   -17.3460     0.0170     2.3590    11.9450     9.6670    10.3610
  384.0000    12.0310   -62.5000     0.2800   -16.6470     0.0160     2.3690    12.1430     9.7480    10.2970
  384.5000    12.0290   -62.5000     0.2800   -16.1180     0.0140     2.3790    12.1430     9.6750    10.2330
  385.0000    12.0260   -62.5000     0.2800   -16.4360     0.0130     2.3800    11.9170     9.5950    10.2040
  385.5000    12.0240   -62.5000     0.2780   -16.7370     0.0160     2.3790    11.6760     9.5140    10.2040
  386.0000    12.0210   -62.5000     0.2770   -17.0500     0.0230     2.3860    11.4350     9.4340    10.0900
  386.5000    12.0190   -62.5000     0.2770   -16.6200     0.0300     2.3960    11.1940     9.3530    10.0420
  387.0000    12.0160   -62.5000     0.2800   -16.0700     0.0300     2.3920    10.9530     9.2720     9.9940
  387.5000    12.0140   -62.5000     0.2830   -16.0740     0.0270     2.3840    10.7120     9.1920     9.9460
  388.0000    12.0200   -62.4990     0.2860   -16.2980     0.0240     2.3760    10.4710     9.1110     9.9280
  388.5000    12.0270   -62.5030     0.2860   -16.5530     0.0230     2.3690    10.2300     9.0310     9.8130
  389.0000    12.0350   -62.5920     0.2850   -16.8110     0.0270     2.3690    10.1110     8.9500     9.7610
  389.5000    12.0420   -62.6820     0.2840   -17.0530     0.0300     2.3710    10.1420     8.8690     9.7090
  390.0000    12.0500   -62.7720     0.2810   -16.9670     0.0340     2.3760    10.1650     8.7890     9.6560
  390.5000    12.0570   -62.8610     0.2780   -14.9550     0.0360     2.3880    10.1880     8.7080     9.6040
  391.0000    12.0650   -62.9510     0.2760   -12.7470     0.0330     2.3910    10.2100     8.6280     9.5520
  391.5000    12.0720   -63.0410     0.2730   -10.5310     0.0300     2.3920    10.2330     8.5470     9.5000
  392.0000    12.0600   -63.0780     0.2700    -8.3320     0.0270     2.4030    10.2560     8.4970     9.4470
  392.5000    12.0480   -62.9580     0.2680    -7.2540     0.0240     2.4060    10.2790     8.4970     9.3970
  393.0000    12.0360   -62.8280     0.2660    -7.9350     0.0250     2.3990    10.3020     8.4970     9.3970
  393.5000    12.0130   -62.6990     0.2640    -8.5960     0.0270     2.3920    10.3250     8.4970     9.3850
  394.0000    11.9760   -62.5700     0.2620    -9.0110     0.0280     2.3920    10.3480     8.4970     9.3620
  394.5000    11.9380   -62.4410     0.2600    -8.8240     0.0300     2.3980    10.3710     8.4970     9.3390
  395.0000    11.9010   -62.3120     0.2570    -7.9670     0.0310     2.3980    10.3930     8.4970     9.3150
  395.5000    11.8970   -62.1830     0.2570    -7.7670     0.0320     2.3950    10.3920     8.4970     9.2920
  396.0000    11.8970   -62.0540     0.2580    -8.3440     0.0290     2.3920    10.3670     8.4910     9.2690
  396.5000    11.8950   -61.9250     0.2590    -7.3020     0.0250     2.3890    10.3180     8.4820     9.2460
  397.0000    11.8890   -61.7970     0.2600    -6.5090     0.0260     2.3910    10.2680     8.4740     9.2220
  397.5000    11.8820   -61.7580     0.2610    -7.2790     0.0280     2.3920    10.2190     8.4660     9.1990
  398.0000    11.8790   -61.8330     0.2630    -8.7560     0.0300     2.3870    10.1690     8.4570     9.1760
  398.5000    11.8860   -61.9080     0.2660    -9.0650     0.0330     2.3840    10.1200     8.4490     9.1520
  399.0000    11.8920   -61.9830     0.2680    -8.8890     0.0350     2.3900    10.0710     8.4400     9.1430
  399.5000    11.8980   -62.0580     0.2710    -8.1610     0.0370     2.3970    10.0210     8.4320     9.1200
  400.0000    11.9050   -62.1330     0.2710    -8.0730     0.0380     2.4030     9.9720     8.4240     9.0270
  400.5000    11.9110   -62.2080     0.2720    -8.9110     0.0380     2.4020     9.9220     8.4190     8.9350
  401.0000    11.9180   -62.2830     0.2720    -9.7650     0.0380     2.3960     9.8730     8.2920     8.8420
  401.5000    11.9240   -62.3580     0.2710   -10.6120     0.0370     2.3900     9.8240     8.1560     8.7490
  402.0000    11.9300   -62.4330     0.2770   -11.3900     0.0370     2.3890     9.7740     8.0210     8.6570
  402.5000    11.9370   -62.5040     0.2760   -11.5080     0.0370     2.3930     9.7250     7.8860     8.5640
  403.0000    11.9430   -62.2890     0.2750    -9.9370     0.0370     2.3980     9.6750     7.7500     8.4710
  403.5000    11.9500   -61.9930     0.2760    -9.6380     0.0370     2.4030     9.6260     7.6150     8.3790
  404.0000    11.9560   -61.6960     0.2800   -10.3970     0.0360     2.3980     9.5770     7.4800     8.3430
  404.5000    11.9620   -61.4000     0.2840   -11.0140     0.0360     2.3910     9.5270     7.4070     8.4830
  405.0000    11.9690   -61.1040     0.2860   -11.4320     0.0370     2.3880     9.4840     7.8650     8.7220
  405.5000    11.9750   -60.8070     0.2870   -12.3700     0.0390     2.3860     9.6350     8.1910     8.9600
  406.0000    11.9820   -60.5110     0.2880   -13.8600     0.0400     2.3810     9.8210     8.4020     9.1980
  406.5000    11.9880   -60.2140     0.2890   -15.3450     0.0410     2.3760    10.0060     8.6210     9.4370
  407.0000    11.9940   -59.9180     0.2870   -16.5720     0.0430     2.3700    10.1920     8.8400     9.6750
  407.5000    11.9810   -59.6220     0.2840   -18.1520     0.0440     2.3630    10.3780     9.0590     9.9140
  408.0000    11.9520   -59.3250     0.2810   -20.2920     0.0390     2.3500    10.5630     9.2770    10.1520
  408.5000    11.9070   -59.0290     0.2780   -22.5690     0.0200     2.3170    10.7490     9.4960    10.2980
  409.0000    11.8620   -58.7320     0.2750   -24.8420     0.0080     2.3020    10.9340     9.7150    10.4880
  409.5000    11.8000   -58.4360     0.2720   -26.4840     0.0080     2.2910    11.1200     9.9340    10.6840
  410.0000    11.7140   -58.1390     0.2680   -26.2490     0.0080     2.2860    11.3050    10.1520    10.9100
  410.5000    11.6270   -57.8460     0.2650   -24.7240     0.0080     2.2850    11.4940    10.3710    11.1370
  411.0000    11.5920   -57.6510     0.2620   -23.2520     0.0080     2.2830    11.9990    10.5850    11.3630
  411.5000    11.5650   -57.5720     0.2600   -21.7620     0.0080     2.2820    12.5030    10.8950    11.5890
  412.0000    11.5850   -57.4860     0.2600   -21.5400     0.0080     2.2800    13.0080    11.1520    11.8160
  412.5000    11.6070   -57.4000     0.2610   -23.2310     0.0080     2.2810    13.5120    11.4080    12.0320
  413.0000    11.6120   -57.3150     0.2600   -24.9910     0.0080     2.2830    14.0170    11.6650    12.1430
  413.5000    11.6180   -57.2300     0.2590   -26.7360     0.0060     2.2850    14.5220    11.8140    12.1110
  414.0000    11.6240   -57.1440     0.2560   -27.9960     0.0040     2.2870    14.9890    11.8140    12.0830
  414.5000    11.6300   -57.0590     0.2530   -27.9900     0.0030     2.2870    14.8700    11.9230    12.0560
  415.0000    11.6350   -56.9730     0.2490   -27.0370     0.0010     2.2880    14.7580    11.8980    12.0280
  415.5000    11.6420   -56.8880     0.2460   -25.6810    -0.0020     2.2930    14.6470    11.8650    12.0010
  416.0000    11.6120   -56.8020     0.2440   -24.3080     0.0000     2.3050    14.5830    11.8310    11.9740
  416.5000    11.5820   -56.7160     0.2490   -22.9350     0.0020     2.3160    15.0600    11.7980    11.9460
  417.0000    11.5510   -56.7420     0.2540   -21.5580     0.0040     2.3270    15.5480    11.7640    11.9190
  417.5000    11.5200   -57.0090     0.2540   -20.1840     0.0060     2.3270    15.3420    11.7310    11.8910
  418.0000    11.4890   -57.2670     0.2540   -19.1060     0.0080     2.3220    15.0640    11.6970    11.8640
  418.5000    11.4790   -57.5260     0.2520   -20.1470     0.0100     2.3250    14.8530    11.6640    11.8370
