~VERSION INFORMATION
 VERS.                2.0:   CWLS LOG ASCII STANDARD - VERSION 2.0
 WRAP.                 NO:   ONE LINE PER DEPTH STEP
~WELL INFORMATION
#MNEM.UNIT      DATA TYPE    INFORMATION
#----------   ------------   ------------------------------
 STRT.F          192.0000:   START DEPTH
 STOP.F         3016.0000:   STOP DEPTH
 STEP.F            0.5000:   STEP LENGTH
 NULL.          -999.2500:   NO VALUE
 COMP. FENIX & SCISSON U.S. NAVY:   COMPANY
 WELL.  FENIX "AX" #81-33:   WELL
 FLD .              NPR-3:   FIELD
 LOC .      S33 T39N R78W:   LOCATION
 CNTY.            NATRONA:   COUNTY
 STAT.            WYOMING:   STATE
 CTRY. UNITED STATES OF AMERICA:   COUNTRY
 SRVC.              WELEX:   SERVICE COMPANY
 DATE.        12-MAY-1977:   LOGDATE
 API .     49025109850000:   API NUMBER
~CURVE INFORMATION
#MNEM.UNIT       API CODE    CURVE DESCRIPTION
#----------   ------------   ------------------------------
 DEPT.F                  :   
 SPR .MV     07 010 01 00:   SPONTANEOUS POTENTIAL
 RILM.OHMM   07 120 44 00:   INDUCTION LOG MEDIUM RESISTIVITY
 RILD.OHMM   07 120 46 00:   DEEP INDUCTION RESISTIVITY
 SGRD.OHMM   07 220 05 00:   SHALLOW GUARD LOG RESISTIVITY
 NPHI.DEC    42 890 03 00:   NEUTRON POROSITY SANDSTONE
 GRD .GAPI   45 310 01 00:   GAMMA RAY FROM DENSITY LOG
 CALD.IN     45 280 60 00:   CALIPER FROM DENSITY LOG
 RHOB.G/C3   45 350 01 00:   BULK DENSITY
 DCOR.G/C3   45 356 01 00:   DENSITY CORRECTION
~PARAMETER INFORMATION
#MNEM.UNIT          VALUE    DESCRIPTION
#----------   ------------   ------------------------------
 EKB .F         5114.0000:   Kelly bushing
 EGL .F         5100.0000:   Ground level
 EDF .F         5112.0000:   Drilling floor
 TD  .F         3014.0000:   Total depth
 DATE.        12-MAY-1977:   Date logged
 CLNT.            A2DTECH:   Client Code
 SL  . 660' FEL & 660' FNL:   Surface Location
 PD  .                 GL:   Permanent Datum
 EPD .F              5100:   Elevation Permanent Datum
 LMF .                 KB:   Log Measured From
 DMF .                 KB:   Drilling Measured From
 DD  .F              3000:   Depth driller
 DL  .F              3014:   Depth logger
 BLI .F              3012:   Bottom log interval
 TLI .F              1500:   Top log interval
 CS1 .IN            8.625:   Casing size
 CBD1.      8.625" @ 217':   Casing driller 1
 CBL1.F               209:   Casing logger 1
 BS1 .IN            7.875:   Bit size
 BSD1.F              3000:   Depth drilled with bit1
 DFT .            KCL MUD:   Type fluid in hole
 DFD .                  9:   Density
 DFV .                 33:   Viscosity
 DFPH.                7.5:   pH
 DFL .                7.8:   Fluid loss
 MSS .           FLOWLINE:   Source of sample
 RMS .OHMM           0.69:   Rm
 MST .F                68:   Rm Meas. temp.
 RMF .OHMM           0.66:   Rmf
 MFST.F                68:   Rmf Meas. temp.
 RMC .OHMM           1.27:   Rmc
 MCST.F                68:   Rmc Meas. temp.
 MFSS.                 BK:   Source Rmf.
 MCSS.                 BK:   Source Rmc.
 RMB .OHMM           0.39:   Rm. at BHT
 BHT .F               118:   BHT.
 TCS .HRS               6:   Time Circ. stopped
 MRT .F               118:   Maximum recorded temp.
 LUN .               9685:   Logging unit number
 LUL .           BRIGHTON:   Logging unit location
 ENGI.          T. JOYNER:   Recorded By
 WITN.            K. JAPP:   Witnessed by
 ORIG.           5" PRINT:   Origin of data
 UWI .     49025109850000:   Unique Well ID
 DICO. A2D TECHNOLOGIES, INC.:   Digitizing Company
~OTHER INFORMATION
~A   DEPT      SPR       RILM       RILD       SGRD       NPHI         GRD        CALD       RHOB     DCOR   
# ...
  739.5000   -45.9280     8.2730     7.0190    11.0780  -999.2500   119.2430     8.5200     2.4660     0.0160
  740.0000   -45.9630     8.3140     6.9810    11.1020  -999.2500   119.5620     8.5260     2.4730     0.0220
  740.5000   -45.9980     7.7660     7.0000    11.1260  -999.2500   119.8810     8.5330     2.4870     0.0290
  741.0000   -46.0320     7.5050     7.0200    11.1500  -999.2500   120.2000     8.5390     2.5000     0.0360
  741.5000   -46.0670     7.3100     7.0460    11.1740  -999.2500   120.5200     8.5450     2.5130     0.0420
  742.0000   -46.1020     7.4630     7.0340    11.1990  -999.2500   120.8390     8.5510     2.5120     0.0440
  742.5000   -46.1360     7.6810     7.0170    11.2230  -999.2500   121.1580     8.5580     2.5100     0.0420
  743.0000   -46.1710     7.8330     7.0010    11.2600  -999.2500   121.4770     8.5640     2.5100     0.0440
  743.5000   -46.1760     7.9400     6.9840    11.1710  -999.2500   121.7960     8.5700     2.5150     0.0470
  744.0000   -46.1770     7.8410     6.9700    10.9790  -999.2500   122.1150     8.5760     2.5200     0.0490
  744.5000   -46.1760     7.7240     6.9560    10.7540  -999.2500   122.4350     8.5850     2.5230     0.0500
  745.0000   -46.1760     7.9090     6.9420    10.8360  -999.2500   122.7550     8.5980     2.5220     0.0480
  745.5000   -46.1760     8.0880     6.9290    10.9340  -999.2500   123.0690     8.6100     2.5190     0.0470
  746.0000   -46.1770     7.9660     6.9180    11.1580  -999.2500   123.2500     8.6230     2.5210     0.0450
  746.5000   -46.1520     7.8150     6.9860    11.3640  -999.2500   122.9780     8.6360     2.5220     0.0440
  747.0000   -46.1210     7.6640     7.0080    11.2240  -999.2500   122.7180     8.6190     2.5190     0.0420
  747.5000   -46.0900     7.4450     7.0430    11.1070  -999.2500   122.4600     8.5880     2.5170     0.0400
  748.0000   -46.0580     7.6300     7.0120    10.9030  -999.2500   122.2010     8.5730     2.5140     0.0380
  748.5000   -46.0270     7.9640     6.9150    10.2710  -999.2500   121.9410     8.5620     2.5100     0.0350
  749.0000   -45.9960     8.3900     6.8190    10.3330  -999.2500   121.6820     8.5520     2.5030     0.0330
  749.5000   -45.9990     8.1880     6.7730    10.5550  -999.2500   121.4230     8.5420     2.4960     0.0300
  750.0000   -46.0330     7.9070     6.7470    10.8170  -999.2500   121.1630     8.5310     2.4910     0.0250
  750.5000   -46.0680     7.6540     6.7290    11.0550  -999.2500   120.9060     8.5200     2.4870     0.0200
  751.0000   -46.1030     7.4450     6.8770    11.1570  -999.2500   120.6480     8.5270     2.4860     0.0140
  751.5000   -46.1380     7.5320     6.9810    11.0870  -999.2500   120.7580     8.5350     2.4880     0.0080
  752.0000   -46.1730     7.7080     6.9810    10.9870  -999.2500   121.2200     8.5430     2.4900     0.0050
  752.5000   -46.2070     7.8840     6.9810    10.8870  -999.2500   121.6820     8.5560     2.4960     0.0070
  753.0000   -46.2420     7.9400     6.9810    10.7870  -999.2500   122.1460     8.5680     2.5060     0.0160
  753.5000   -46.2770     7.9400     6.9530    10.5390  -999.2500   122.6100     8.5800     2.5160     0.0270
  754.0000   -46.3120     7.9400     6.8930    10.1800  -999.2500   123.0730     8.5930     2.5250     0.0360
  754.5000   -46.3470     8.0140     6.8330    10.1990  -999.2500   123.5370     8.6050     2.5300     0.0390
  755.0000   -46.3730     7.9650     6.7730    10.2250  -999.2500   124.0010     8.6170     2.5290     0.0390
  755.5000   -46.3730     7.8040     6.7130    10.2510  -999.2500   124.4650     8.6290     2.5280     0.0370
  756.0000   -46.3730     7.5980     6.6680    10.2710  -999.2500   124.9280     8.6420     2.5270     0.0350
  756.5000   -46.3730     7.3910     6.7230    10.1850  -999.2500   125.3920     8.6540     2.5250     0.0330
  757.0000   -46.3720     7.1330     6.7920    10.1170  -999.2500   125.8540     8.6620     2.5230     0.0310
  757.5000   -46.3640     7.2720     6.7400    10.0480  -999.2500   126.3200     8.6680     2.5220     0.0290
  758.0000   -46.3260     7.5240     6.6230     9.9800  -999.2500   126.8110     8.6730     2.5230     0.0300
  758.5000   -46.2880     7.7750     6.5060     9.9120  -999.2500   126.2180     8.6780     2.5280     0.0360
  759.0000   -46.2510     7.8680     6.3900     9.6450  -999.2500   125.3560     8.6840     2.5330     0.0410
  759.5000   -46.2140     7.6970     6.2520     9.2830  -999.2500   124.4830     8.6890     2.5390     0.0470
  760.0000   -46.1710     7.2960     6.2860     9.4820  -999.2500   123.6100     8.6940     2.5360     0.0440
  760.5000   -45.9640     6.9810     6.3280     9.7200  -999.2500   122.7390     8.7000     2.5290     0.0380
  761.0000   -45.7550     7.0770     6.3680     9.9510  -999.2500   121.8650     8.7050     2.5230     0.0330
  761.5000   -45.5810     7.3070     6.3950    10.1770  -999.2500   120.9840     8.7100     2.5170     0.0270
  762.0000   -45.5760     7.5380     6.4220    10.1170  -999.2500   120.1730     8.7160     2.5120     0.0220
  762.5000   -45.5660     7.5840     6.4490    10.0570  -999.2500   121.1630     8.7100     2.5090     0.0160
  763.0000   -45.5550     7.5840     6.4860     9.9970  -999.2500   122.2280     8.6860     2.5090     0.0110
  763.5000   -45.5450     7.5840     6.4800     9.9370  -999.2500   123.3050     8.6620     2.5090     0.0080
  764.0000   -45.5340     7.6360     6.4680     9.9040  -999.2500   123.1260     8.6380     2.5090     0.0120
  764.5000   -45.5240     8.0550     6.4570     9.9350  -999.2500   122.2010     8.6140     2.5110     0.0170
  765.0000   -45.5130     7.9490     6.4460     9.9610  -999.2500   121.2700     8.5900     2.5120     0.0210
  765.5000   -45.5030     7.7240     6.4340     9.9860  -999.2500   120.3370     8.5660     2.5140     0.0250
  766.0000   -45.4930     7.2870     6.3920    10.0120  -999.2500   119.4050     8.5420     2.5130     0.0270
  766.5000   -45.4820     7.1770     6.2970    10.0370  -999.2500   118.4550     8.5190     2.5110     0.0240
  767.0000   -45.4720     7.2160     6.2020    10.0630  -999.2500   118.6120     8.5050     2.5080     0.0200
  767.5000   -45.4610     7.4560     6.1070    10.0840  -999.2500   119.3500     8.5300     2.5080     0.0240
  768.0000   -45.4510     7.8290     6.0270    10.0440  -999.2500   120.0920     8.5550     2.5120     0.0280
  768.5000   -45.4410     8.1620     6.1230    10.0110  -999.2500   120.3300     8.5790     2.5150     0.0330
  769.0000   -45.4300     8.0110     6.2060     9.9770  -999.2500   119.9160     8.6030     2.5160     0.0370
  769.5000   -45.4200     7.7370     6.3100     9.9430  -999.2500   119.5060     8.6280     2.5140     0.0390
  770.0000   -45.4100     7.4450     6.2820     9.9090  -999.2500   119.0940     8.6520     2.5130     0.0350
  770.5000   -45.3970     7.4450     6.2450     9.8340  -999.2500   118.6800     8.6770     2.5120     0.0420
  771.0000   -45.3200     7.3110     6.2080     9.7440  -999.2500   118.2390     8.6970     2.5130     0.0390
  771.5000   -45.0660     7.1770     6.1710     9.3180  -999.2500   118.6900     8.6630     2.5140     0.0360
  772.0000   -44.8220     7.3460     6.1430     8.9480  -999.2500   119.5080     8.6280     2.5160     0.0330
  772.5000   -44.6040     7.1770     6.3160     9.7760  -999.2500   120.3360     8.5930     2.5190     0.0300
  773.0000   -44.5650     7.3100     6.4860    10.9540  -999.2500   121.1640     8.5590     2.5210     0.0300
  773.5000   -44.5270     7.4550     6.5850    10.8530  -999.2500   121.9950     8.5250     2.5250     0.0360
  774.0000   -44.4890     7.9400     6.6920    10.0940  -999.2500   122.8120     8.5030     2.5290     0.0410
  774.5000   -44.4510     8.5390     6.7990    10.9300  -999.2500   122.6860     8.5180     2.5330     0.0420
  775.0000   -44.4130     9.1980     6.9060    11.5080  -999.2500   122.4370     8.5330     2.5370     0.0430
  775.5000   -44.3750     9.1230     7.0340    11.7680  -999.2500   122.1850     8.5470     2.5360     0.0430
