~VERSION INFORMATION
 VERS.                2.0:   CWLS LOG ASCII STANDARD - VERSION 2.0
 WRAP.                 NO:   ONE LINE PER DEPTH STEP
~WELL INFORMATION
#MNEM.UNIT      DATA TYPE    INFORMATION
#----------   ------------   ------------------------------
 STRT.F           40.0000:   START DEPTH
 STOP.F         3032.5000:   STOP DEPTH
 STEP.F            0.5000:   STEP LENGTH
 NULL.          -999.2500:   NO VALUE
 COMP.   TESORO PETROLEUM:   COMPANY
 WELL. TESORO NPR 3 "AX" #51-15:   WELL
 FLD .        TEAPOT DOME:   FIELD
 LOC .      S15 T38N R78W:   LOCATION
 CNTY.            NATRONA:   COUNTY
 STAT.            WYOMING:   STATE
 CTRY. UNITED STATES OF AMERICA:   COUNTRY
 SRVC.       SCHLUMBERGER:   SERVICE COMPANY
 DATE.        21-JUL-1969:   LOGDATE
 API .     49025100240000:   API NUMBER
~CURVE INFORMATION
#MNEM.UNIT       API CODE    CURVE DESCRIPTION
#----------   ------------   ------------------------------
 DEPT.F                  :   
 CALD.IN     45 280 60 00:   CALIPER FROM DENSITY LOG
 GRD .GAPI   45 310 01 00:   GAMMA RAY FROM DENSITY LOG
 RHOB.G/C3   45 350 01 00:   BULK DENSITY
 CORR.G/C3   45 356 01 00:   DENSITY CORRECTION
 GR  .GAPI   35 310 01 00:   GAMMA RAY FROM GAMMA RAY LOG
 SPR .MV     05 010 01 00:   SPONTANEOUS POTENTIAL
 ASN .OHMM   05 041 16 00:   AMPLIFIED SHORT NORMAL 16"
 ILD .OHMM   05 120 46 00:   DEEP INDUCTION RESISTIVITY
~PARAMETER INFORMATION
#MNEM.UNIT          VALUE    DESCRIPTION
#----------   ------------   ------------------------------
 EKB .F         5235.0000:   Kelly bushing
 EGL .F         5222.0000:   Ground level
 EDF .F            0.0000:   Drilling floor
 TD  .F         3027.0000:   Total depth
 DATE.        21-JUL-1969:   Date logged
 CLNT.            A2DTECH:   Client Code
 SL  . 2000' FEL & 660' FNL:   Surface Location
 PD  .                 GL:   Permanent Datum
 EPD .F              5222:   Elevation Permanent Datum
 LMF .                 KB:   Log Measured From
 DMF .                 KB:   Drilling Measured From
 DAPD.F                13:   Feet Above Permanent Datum
 DD  .F              3027:   Depth driller
 DL  .F              3025:   Depth logger
 BLI .F              3024:   Bottom log interval
 TLI .F              2604:   Top log interval
 CS1 .IN            10.75:   Casing size
 CBD1.      10.75" @ 622':   Casing driller 1
 BS1 .IN                9:   Bit size
 BSD1.F              3027:   Depth drilled with bit1
 DFT .          FRESH/GEL:   Type fluid in hole
 DFD .                9.7:   Density
 DFV .                 65:   Viscosity
 DFPH.                9.5:   pH
 DFL .                  7:   Fluid loss
 MSS .           FLOWLINE:   Source of sample
 RMS .OHMM           2.48:   Rm
 MST .F                80:   Rm Meas. temp.
 RMF .OHMM           2.80:   Rmf
 MFST.F                80:   Rmf Meas. temp.
 MFSS.               MEAS:   Source Rmf.
 RMB .OHMM           2.20:   Rm. at BHT
 BHT .F               106:   BHT.
 TCS .HRS               1:   Time Circ. stopped
 MRT .F               106:   Maximum recorded temp.
 LUN .               4507:   Logging unit number
 LUL .               CSPR:   Logging unit location
 ENGI.           CHAMPLIN:   Recorded By
 WITN.                MAY:   Witnessed by
 ORIG.           5" PRINT:   Origin of data
 UWI .     49025100240000:   Unique Well ID
 DICO. A2D TECHNOLOGIES, INC.:   Digitizing Company
~OTHER INFORMATION
~A   DEPT     CALD        GRD       RHOB       CORR         GR        SPR        ASN          ILD 
# ...
 2551.0000     9.2360   103.9600     2.5590    -0.0020  -999.2500   -12.9020    10.3940     8.7960
 2551.5000     9.2350   102.1280     2.5740     0.0050  -999.2500   -12.8090    10.1760     8.5730
 2552.0000     9.2330   105.6810     2.5840     0.0080  -999.2500   -12.7170     9.7270     8.3420
 2552.5000     9.2340   109.1320     2.5770     0.0170  -999.2500   -12.6230     9.4790     8.1210
 2553.0000     9.2380   111.0660     2.5720     0.0180  -999.2500   -12.5350     9.2730     7.9720
 2553.5000     9.2410   111.7590     2.5720     0.0150  -999.2500   -12.4350     9.1450     7.8720
 2554.0000     9.2440   112.7500     2.5840     0.0140  -999.2500   -12.4290     9.0620     7.7750
 2554.5000     9.2480   111.7730     2.5870     0.0220  -999.2500   -12.4920     8.9800     7.6700
 2555.0000     9.2510   110.5970     2.5680     0.0270  -999.2500   -12.5440     8.9330     7.6570
 2555.5000     9.2540   112.3520     2.5730     0.0220  -999.2500   -12.5990     8.9120     7.6970
 2556.0000     9.2580   111.3230     2.5800     0.0170  -999.2500   -12.6540     8.8870     7.7280
 2556.5000     9.2610   111.7050     2.5880     0.0150  -999.2500   -12.7080     8.8650     7.7610
 2557.0000     9.2640   113.2440     2.5950     0.0170  -999.2500   -12.7700     8.8400     7.7950
 2557.5000     9.2680   114.6720     2.5930     0.0210  -999.2500   -12.7920     8.8290     7.8270
 2558.0000     9.2720   109.9380     2.5720     0.0240  -999.2500   -12.8700     8.8320     7.8320
 2558.5000     9.2680   104.6220     2.5760     0.0260  -999.2500   -12.9780     8.8750     7.7370
 2559.0000     9.2520   102.9980     2.5750     0.0160  -999.2500   -13.1600     8.9250     7.6300
 2559.5000     9.2370   102.9740     2.5660     0.0000  -999.2500   -13.1290     8.9510     7.5220
 2560.0000     9.2220   103.2100     2.5630    -0.0070  -999.2500   -13.8200     8.9470     7.4160
 2560.5000     9.2070   103.5770     2.5710    -0.0070  -999.2500   -14.3830     8.9310     7.3090
 2561.0000     9.1920   103.8880     2.5690    -0.0040  -999.2500   -14.8730     8.7650     7.2010
 2561.5000     9.1770   104.0110     2.5620     0.0020  -999.2500   -15.3420     8.6040     7.0960
 2562.0000     9.1610   105.6180     2.5710     0.0030  -999.2500   -15.9110     8.4150     6.9870
 2562.5000     9.1510   107.2390     2.5810     0.0050  -999.2500   -16.3540     8.1430     6.8800
 2563.0000     9.1480   108.9480     2.5760     0.0090  -999.2500   -16.8980     8.1050     6.7820
 2563.5000     9.1450   110.2320     2.5750     0.0120  -999.2500   -17.4070     8.0890     6.6170
 2564.0000     9.1420   106.3960     2.5780     0.0150  -999.2500   -17.9460     8.0820     6.4330
 2564.5000     9.1390   104.8280     2.5690     0.0180  -999.2500   -18.4600     8.1020     6.4760
 2565.0000     9.1360   106.8850     2.5620     0.0180  -999.2500   -19.0570     8.1920     6.5160
 2565.5000     9.1330   106.6860     2.5540     0.0110  -999.2500   -19.5430     8.3040     6.5880
 2566.0000     9.1290   108.5300     2.5580    -0.0020  -999.2500   -20.1330     8.3360     6.6130
 2566.5000     9.1260   109.9920     2.5680     0.0090  -999.2500   -20.6290     8.6520     6.9070
 2567.0000     9.1230   109.5970     2.5800     0.0080  -999.2500   -20.6820     8.8290     7.3410
 2567.5000     9.1200   108.2930     2.5750     0.0040  -999.2500   -20.8360    10.1650     8.0280
 2568.0000     9.1170    99.9570     2.5540     0.0020  -999.2500   -22.9050    12.2480     9.4100
 2568.5000     9.1140    85.4070     2.5920    -0.0010  -999.2500   -25.9690    15.1120    10.7390
 2569.0000     9.1100    73.0240     2.5710     0.0640  -999.2500   -30.8060    19.4060    12.1160
 2569.5000     9.1050    58.3230     2.5270     0.0580  -999.2500   -34.1760    24.0260    13.6530
 2570.0000     9.1000    53.9380     2.4660     0.0340  -999.2500   -35.7480    25.9540    16.6520
 2570.5000     9.0950    53.9580     2.4890     0.0250  -999.2500   -37.6530    26.0990    20.1930
 2571.0000     9.0900    56.4030     2.4780     0.0190  -999.2500   -38.4710    26.1560    22.5090
 2571.5000     9.0860    59.7140     2.4330     0.0120  -999.2500   -36.5920    26.7470    23.7600
 2572.0000     9.0810    63.8760     2.4150     0.0060  -999.2500   -37.9100    28.6930    23.9090
 2572.5000     9.0760    68.6270     2.4370     0.0000  -999.2500   -41.7770    30.2240    23.9290
 2573.0000     9.0710    67.9040     2.4050     0.0040  -999.2500   -41.7460    30.6860    24.1990
 2573.5000     9.0670    67.1780     2.4030     0.0090  -999.2500   -40.3690    31.1470    24.7330
 2574.0000     9.0620    68.1310     2.4260     0.0150  -999.2500   -38.2090    31.6090    25.9520
 2574.5000     9.0570    70.1220     2.4520     0.0180  -999.2500   -37.9690    32.0710    26.2900
 2575.0000     9.0520    70.0680     2.4410     0.0210  -999.2500   -37.8740    32.4400    26.5490
 2575.5000     9.0470    70.7690     2.4160     0.0230  -999.2500   -36.8120    33.0400    26.7830
 2576.0000     9.0430    69.6240     2.4320     0.0250  -999.2500   -35.7410    33.5450    27.0940
 2576.5000     9.0380    67.3450     2.4640     0.0160  -999.2500   -34.0230    35.5180    27.8870
 2577.0000     9.0320    64.8420     2.4680     0.0320  -999.2500   -33.4890    38.1170    28.9070
 2577.5000     9.0060    62.7010     2.4750     0.0460  -999.2500   -32.6630    40.5270    29.8990
 2578.0000     8.9720    57.7500     2.4650     0.0610  -999.2500   -31.9510    44.6310    30.9050
 2578.5000     8.9380    54.0870     2.5030     0.0630  -999.2500   -30.5410    45.3980    31.8900
 2579.0000     8.9060    55.8880     2.5000     0.0620  -999.2500   -29.0960    46.4660    32.9100
 2579.5000     8.8750    58.3450     2.5080     0.0500  -999.2500   -28.9360    46.5130    33.8820
 2580.0000     8.8980    60.6470     2.5280     0.0410  -999.2500   -29.1100    46.1340    34.9260
 2580.5000     8.9200    63.0470     2.5170     0.0540  -999.2500   -30.7270    45.5510    35.0490
 2581.0000     8.9500    65.4180     2.4880     0.0470  -999.2500   -32.0070    45.2670    35.0940
 2581.5000     8.9490    67.5980     2.4630     0.0430  -999.2500   -33.3680    45.7050    35.1180
 2582.0000     8.9460    67.5260     2.4350     0.0510  -999.2500   -34.6090    46.1420    35.1720
 2582.5000     8.9420    64.7210     2.4480     0.0490  -999.2500   -35.8680    46.5280    35.1840
 2583.0000     8.9390    63.3780     2.4620     0.0480  -999.2500   -37.1740    47.5350    35.5170
 2583.5000     8.9360    61.6370     2.4560     0.0470  -999.2500   -38.3910    48.3130    36.4540
 2584.0000     8.9320    60.2430     2.4330     0.0460  -999.2500   -39.8140    49.5430    37.4400
 2584.5000     8.9290    56.6120     2.4110     0.0360  -999.2500   -39.9660    50.5150    39.3700
 2585.0000     8.9260    57.1320     2.4410     0.0290  -999.2500   -39.9300    52.7080    41.4460
 2585.5000     8.9220    60.1110     2.4700     0.0290  -999.2500   -40.0510    52.7850    43.5280
 2586.0000     8.9190    64.2680     2.5000     0.0390  -999.2500   -38.7770    56.7720    45.6210
 2586.5000     8.9160    68.1940     2.5310     0.0480  -999.2500   -36.5370    58.6920    47.3340
 2587.0000     8.9110    67.7890     2.5360     0.0500  -999.2500   -36.4620    59.7640    47.7190
 2587.5000     8.8920    66.7980     2.5440     0.0490  -999.2500   -37.5840    59.5240    47.6940
 2588.0000     8.8670    65.7360     2.5700     0.0420  -999.2500   -39.0650    56.2410    47.6690
 2588.5000     8.8410    64.8800     2.5600     0.0270  -999.2500   -40.5430    53.3840    47.1060
 2589.0000     8.8330    65.7260     2.5290     0.0250  -999.2500   -41.4380    50.5950    45.6780
 2589.5000     8.8390    66.3190     2.5310     0.0220  -999.2500   -42.4020    50.1250    43.6360
 2590.0000     8.8440    68.2220     2.5270     0.0270  -999.2500   -42.2440    49.7020    40.7360
 2590.5000     8.8490    71.4330     2.5060     0.0640  -999.2500   -42.1230    48.8110    38.0790
 2591.0000     8.8530    73.6910     2.4730     0.1040  -999.2500   -41.9060    47.9540    37.8160
