~VERSION INFORMATION
 VERS.                2.0:   CWLS LOG ASCII STANDARD - VERSION 2.0
 WRAP.                 NO:   ONE LINE PER DEPTH STEP
~WELL INFORMATION
#MNEM.UNIT      DATA TYPE    INFORMATION
#----------   ------------   ------------------------------
 STRT.F          176.5000:   START DEPTH
 STOP.F         3010.0000:   STOP DEPTH
 STEP.F            0.5000:   STEP LENGTH
 NULL.          -999.2500:   NO VALUE
 COMP.    FENIX & SCISSON:   COMPANY
 WELL.   FENIX "A" #36-28:   WELL
 FLD .              NPR 3:   FIELD
 LOC .      S28 T39N R78W:   LOCATION
 CNTY.            NATRONA:   COUNTY
 STAT.            WYOMING:   STATE
 CTRY. UNITED STATES OF AMERICA:   COUNTRY
 SRVC.       SCHLUMBERGER:   SERVICE COMPANY
 DATE.        19-AUG-1977:   LOGDATE
 API .     49025104150000:   API NUMBER
~CURVE INFORMATION
#MNEM.UNIT       API CODE    CURVE DESCRIPTION
#----------   ------------   ------------------------------
 DEPT.F                  :   
 SPR .MV     07 010 01 00:   SPONTANEOUS POTENTIAL
 ILM .OHMM   07 120 44 00:   INDUCTION LOG MEDIUM RESISTIVITY
 ILD .OHMM   07 120 46 00:   INDUCTION LOG DEEP RESISTIVITY
 LL8 .OHMM   07 220 08 00:   LATEROLOG-8 RESISTIVITY
 GRD .GAPI   45 310 01 00:   GAMMA RAY FROM DENSITY LOG
 CALD.IN     45 280 60 00:   CALIPER FROM DENSITY LOG
 RHOB.G/C3   45 350 01 00:   BULK DENSITY
 DCOR.G/C3   45 356 01 00:   DENSITY CORRECTION
~PARAMETER INFORMATION
#MNEM.UNIT          VALUE    DESCRIPTION
#----------   ------------   ------------------------------
 EKB .F         5107.0000:   Kelly bushing
 EGL .F         5097.0000:   Ground level
 EDF .F            0.0000:   Drilling floor
 TD  .F         3012.0000:   Total depth
 DATE.        19-AUG-1977:   Date logged
 CLNT.            A2DTECH:   Client Code
 SL  . 1650' FSL & 1650' FWL:   Surface Location
 PD  .                 GL:   Permanent Datum
 EPD .F              5097:   Elevation Permanent Datum
 LMF .                 KB:   Log Measured From
 DMF .                 KB:   Drilling Measured From
 DAPD.F                10:   Feet Above Permanent Datum
 DD  .F              3010:   Depth driller
 DL  .F              3011:   Depth logger
 BLI .F              3005:   Bottom log interval
 TLI .F               215:   Top log interval
 CS1 .IN            8.625:   Casing size
 CBD1.      8.625" @ 205':   Casing driller 1
 CBL1.F               215:   Casing logger 1
 BS1 .IN            7.875:   Bit size
 BSD1.F              3010:   Depth drilled with bit1
 DFT .                FGM:   Type fluid in hole
 DFD .                8.8:   Density
 DFV .                 33:   Viscosity
 DFPH.               10.5:   pH
 DFL .               10.6:   Fluid loss
 MSS .            MUD PIT:   Source of sample
 RMS .OHMM            .19:   Rm
 MST .F                76:   Rm Meas. temp.
 RMF .OHMM            .17:   Rmf
 MFST.F                78:   Rmf Meas. temp.
 MFSS.               MEAS:   Source Rmf.
 RMB .OHMM            .13:   Rm. at BHT
 BHT .F               112:   BHT.
 TCS .HRS            0700:   Time Circ. stopped
 TLAB.HRS            1400:   Time logger at bottom
 MRT .F               112:   Maximum recorded temp.
 LUN .               5642:   Logging unit number
 ENGI.          CHALUPSKY:   Recorded By
 WITN.     WES PETTINGILL:   Witnessed by
 ORIG.           5" PRINT:   Origin of data
 UWI .     49025104150000:   Unique Well ID
 DICO. A2D TECHNOLOGIES, INC.:   Digitizing Company
 LUL .               CSPR:   Logging unit location
~OTHER INFORMATION
~A   DEPT      SPR        ILM        ILD        LL8        GRD       CALD       RHOB       DCOR   
# ...
 2404.0000   -90.5700     7.6380     7.1320     8.8820   136.3530     8.4510     2.5150     0.0400
 2404.5000   -90.8430     7.5660     7.0900     9.1540   133.7670     8.4590     2.4840     0.0170
 2405.0000   -90.6740     7.4940     7.0480     8.9130   131.8830     8.4690     2.4980     0.0260
 2405.5000   -90.4000     7.4220     7.0060     8.6610   130.2480     8.4780     2.5150     0.0380
 2406.0000   -90.1250     7.3500     6.9640     8.4080   129.2540     8.4870     2.5280     0.0500
 2406.5000   -89.9390     7.2780     6.8920     8.2010   131.2790     8.4970     2.5210     0.0620
 2407.0000   -90.1860     7.2060     6.8120     8.2480   133.3280     8.5060     2.5160     0.0730
 2407.5000   -90.4260     7.1350     6.7310     8.2880   133.3040     8.5150     2.5360     0.0370
 2408.0000   -90.6640     7.0630     6.6510     8.3280   134.6840     8.5250     2.5170     0.0480
 2408.5000   -90.8880     6.9910     6.5700     8.3520   136.6980     8.5340     2.5160     0.0690
 2409.0000   -90.8940     6.9190     6.4730     8.2380   135.3600     8.5430     2.5240     0.0500
 2409.5000   -90.8830     6.7980     6.3490     8.0440   133.7760     8.5530     2.5280     0.0550
 2410.0000   -91.4700     6.6460     6.2250     7.7870   136.5620     8.5600     2.5140     0.0400
 2410.5000   -92.2730     6.4930     6.1020     7.5290   138.7380     8.5640     2.5170     0.0450
 2411.0000   -92.4590     6.3460     6.0010     7.2800   139.5260     8.5670     2.5190     0.0500
 2411.5000   -92.6310     6.2550     5.9760     7.2800   140.6200     8.5710     2.4930     0.0210
 2412.0000   -92.6060     6.1180     5.9510     6.1740   142.8090     8.5740     2.4980     0.0320
 2412.5000   -92.5100     6.1450     5.9260     6.4290   144.8670     8.5780     2.5090     0.0420
 2413.0000   -92.2670     6.2070     5.9010     7.0000   147.5750     8.5820     2.4870     0.0360
 2413.5000   -91.9690     6.2680     5.9470     7.5710   149.7360     8.5850     2.4620     0.0290
 2414.0000   -91.6680     6.3300     6.0050     8.0520   146.5630     8.5890     2.4420     0.0130
 2414.5000   -91.3530     6.3910     6.0630     7.9740   143.4040     8.5920     2.4480     0.0060
 2415.0000   -91.6230     6.4530     6.1200     7.9010   140.1830     8.5960     2.4610     0.0150
 2415.5000   -92.0720     6.5140     6.1780     7.8290   137.4420     8.6010     2.4730     0.0240
 2416.0000   -91.9260     6.5760     6.2360     7.7620   134.8680     8.6080     2.4800     0.0410
 2416.5000   -91.3080     6.6370     6.2880     7.7930   134.0710     8.6140     2.4770     0.0480
 2417.0000   -90.6880     6.7040     6.2300     7.8200   133.4050     8.6210     2.4760     0.0370
 2417.5000   -90.0610     6.6230     6.1770     7.8490   133.4890     8.6280     2.4900     0.0510
 2418.0000   -89.4210     6.5340     6.1240     7.8790   136.0500     8.6340     2.5040     0.0510
 2418.5000   -89.5740     6.4450     6.0710     7.9020   134.5610     8.6410     2.5190     0.0620
 2419.0000   -89.9020     6.3550     6.0170     7.5740   135.5560     8.6470     2.5260     0.0700
 2419.5000   -90.2320     6.2660     5.9640     7.2790   139.3550     8.6540     2.5070     0.0590
 2420.0000   -90.4400     6.1760     5.9110     7.0830   143.1540     8.6550     2.4960     0.0480
 2420.5000   -90.1180     6.1180     5.8380     7.3700   144.9770     8.6490     2.5290     0.0640
 2421.0000   -89.8070     6.4170     5.7380     7.5520   145.7840     8.6430     2.5540     0.0800
 2421.5000   -89.4970     6.6390     5.8830     7.3390   146.2060     8.6380     2.5450     0.0750
 2422.0000   -89.1890     6.8620     6.1070     7.1480   146.6690     8.6320     2.5470     0.0690
 2422.5000   -88.8810     7.0840     6.3860     7.4350   145.5330     8.6260     2.5520     0.0630
 2423.0000   -88.7810     7.3070     6.6650     7.9650   143.9410     8.6200     2.5020     0.0440
 2423.5000   -88.9000     7.5300     6.9430     8.7360   142.3380     8.6150     2.4810     0.0350
 2424.0000   -88.6730     7.7520     7.2220     9.3990   139.4400     8.6090     2.5010     0.0490
 2424.5000   -88.4500     7.9750     7.5040     9.8950   135.3440     8.6030     2.5180     0.0600
 2425.0000   -88.2280     8.1970     7.7880    10.5010   131.0660     8.5970     2.5320     0.0700
 2425.5000   -88.1570     8.4200     8.1260    10.4030   129.0480     8.5920     2.5410     0.0760
 2426.0000   -88.2350     8.6010     7.9060    10.1600   128.7970     8.5860     2.5360     0.0680
 2426.5000   -88.3080     8.7560     8.2420     9.9170   129.2210     8.5800     2.5250     0.0600
 2427.0000   -88.0390     8.9110     8.4800     9.5900   128.3560     8.5750     2.5130     0.0520
 2427.5000   -87.7380     9.1540     8.6640     9.6210   126.6320     8.5690     2.5010     0.0440
 2428.0000   -87.4340     9.1330     8.3780     9.6820   127.8100     8.5630     2.4890     0.0350
 2428.5000   -87.1450     9.0850     8.2010     9.7430   130.5660     8.5580     2.4860     0.0440
 2429.0000   -87.5390     9.0370     8.2960     9.8040   133.7660     8.5560     2.4940     0.0560
 2429.5000   -87.9800     8.9890     8.3730     9.8490   136.8350     8.5550     2.5080     0.0660
 2430.0000   -88.4290     8.9410     8.4290     9.7100   139.0690     8.5530     2.4970     0.0460
 2430.5000   -88.3700     8.8690     8.3780     9.6000   141.1310     8.5510     2.4840     0.0320
 2431.0000   -88.1910     8.7330     8.3380     9.4890   141.0300     8.5490     2.4750     0.0390
 2431.5000   -88.3350     8.5970     8.2970     9.4090   140.8490     8.5470     2.4770     0.0340
 2432.0000   -88.6840     8.4610     8.1860     9.5900   139.7900     8.5450     2.4960     0.0460
 2432.5000   -89.0300     8.3250     7.9990     9.7330   137.6250     8.5430     2.5270     0.0540
 2433.0000   -89.2440     8.1890     7.8140     9.8750   133.0980     8.5420     2.5200     0.0470
 2433.5000   -88.8980     8.0530     7.6290    10.0310   129.5550     8.5400     2.5170     0.0410
 2434.0000   -88.5640     7.9160     7.4440     9.6670   130.6380     8.5430     2.5230     0.0490
 2434.5000   -88.2340     7.7800     7.2780     9.2640   131.2790     8.5480     2.5090     0.0350
 2435.0000   -87.9040     7.6440     7.2590     8.8600   131.9050     8.5530     2.4910     0.0230
 2435.5000   -87.9570     7.5520     7.2390     8.5280   136.2650     8.5580     2.4780     0.0070
 2436.0000   -88.4510     7.5620     7.2140     8.6950   140.6580     8.5630     2.4700     0.0260
 2436.5000   -88.2070     7.5700     7.2390     8.9050   142.6780     8.5680     2.4620     0.0190
 2437.0000   -87.8570     7.5780     7.2720     8.8390   142.5490     8.5730     2.4820     0.0320
 2437.5000   -87.5020     7.5860     7.3060     8.7440   142.4260     8.5780     2.5040     0.0530
 2438.0000   -87.1450     7.5930     7.3470     8.9570   141.9650     8.5830     2.5260     0.0630
 2438.5000   -87.5050     7.6010     7.3350     9.1810   141.3790     8.5870     2.5490     0.0640
 2439.0000   -87.9280     7.6090     7.3180     9.3000   140.0890     8.5920     2.5340     0.0590
 2439.5000   -88.3490     7.6170     7.3010     9.0590   137.5800     8.5970     2.5110     0.0510
 2440.0000   -88.6890     7.6330     7.2800     8.8240   135.0090     8.6050     2.4880     0.0430
 2440.5000   -88.5310     7.6620     7.3160     8.9870   138.2090     8.6130     2.4760     0.0350
 2441.0000   -88.3690     7.6920     7.3600     9.2380   139.1700     8.6210     2.4850     0.0320
 2441.5000   -88.2090     7.7210     7.4050     9.1960   139.2390     8.6290     2.4910     0.0460
 2442.0000   -88.0510     7.7510     7.4500     9.1540   139.8860     8.6370     2.5070     0.0560
 2442.5000   -87.9650     7.7770     7.4950     9.4090   140.5420     8.6460     2.5200     0.0670
 2443.0000   -88.2710     7.8000     7.5400     9.1350   141.1700     8.6540     2.5120     0.0730
 2443.5000   -88.5730     7.8240     7.5850     8.8530   141.0880     8.6620     2.5040     0.0570
 2444.0000   -88.8680     7.8480     7.6300     8.9770   137.9370     8.6700     2.5240     0.0460
