~VERSION INFORMATION
 VERS.                2.0:   CWLS LOG ASCII STANDARD - VERSION 2.0
 WRAP.                 NO:   ONE LINE PER DEPTH STEP
~WELL INFORMATION
#MNEM.UNIT      DATA TYPE    INFORMATION
#----------   ------------   ------------------------------
 STRT.F          164.0000:   START DEPTH
 STOP.F         3223.5000:   STOP DEPTH
 STEP.F            0.5000:   STEP LENGTH
 NULL.          -999.2500:   NO VALUE
 COMP.    FENIX & SCISSON:   COMPANY
 WELL. FENIX & SCISSON "AX" #64-34:   WELL
 FLD . NAVAL PETROLEUM RESERVE #3:   FIELD
 LOC .      S34 T39N R78W:   LOCATION
 CNTY.            NATRONA:   COUNTY
 STAT.            WYOMING:   STATE
 CTRY. UNITED STATES OF AMERICA:   COUNTRY
 SRVC.       SCHLUMBERGER:   SERVICE COMPANY
 DATE.        30-DEC-1980:   LOGDATE
 API .     49025108660000:   API NUMBER
~CURVE INFORMATION
#MNEM.UNIT       API CODE    CURVE DESCRIPTION
#----------   ------------   ------------------------------
 DEPT.F                  :   
 GRD .GAPI   45 310 01 00:   GAMMA RAY FROM DENSITY LOG
 RHOB.G/C3   45 350 01 00:   BULK DENSITY
 CALD.IN     45 280 60 00:   CALIPER FROM DENSITY LOG
 CORR.G/C3   45 356 01 00:   DENSITY CORRECTION
 SPR .MV     07 010 01 00:   SPONTANEOUS POTENTIAL
 TENR.LBS    06 635 01 00:   TENSION FROM RESISTIVITY
 ILD .OHMM   07 120 46 00:   DEEP INDUCTION RESISTIVITY
 ILM .OHMM   07 120 44 00:   INDUCTION LOG MEDIUM RESISTIVITY
 SFL .OHMM   07 220 01 00:   SHALLOW FOCUSED LOG RESISTIVITY
~PARAMETER INFORMATION
#MNEM.UNIT          VALUE    DESCRIPTION
#----------   ------------   ------------------------------
 EKB .F         5088.0000:   Kelly bushing
 EGL .F         5078.0000:   Ground level
 TD  .F         3225.0000:   Total depth
 CLNT.            A2DTECH:   Client Code
 SL  . 3107' FSL & 3680' FWL:   Surface Location
 PD  .                 GL:   Permanent Datum
 EPD .F              5078:   Elevation Permanent Datum
 LMF .                 KB:   Log Measured From
 DMF .                 KB:   Drilling Measured From
 DAPD.F                10:   Feet Above Permanent Datum
 DATE.        30-DEC-1980:   Date Logged [DD-MMM-YYYY]
 DD  .F              3225:   Depth driller
 DL  .F              3225:   Depth logger
 BLI .F              3219:   Bottom log interval
 TLI .F               190:   Top log interval
 CS1 .IN            8.625:   Casing size
 CBD1.      8.625" @ 205':   Casing driller 1
 CBL1.F               190:   Casing logger 1
 BS1 .IN            7.875:   Bit size
 BSD1.F              3225:   Depth drilled with bit1
 DFT .              FRESH:   Type fluid in hole
 DFD .                  9:   Density
 DFV .                 46:   Viscosity
 MSS .           MUD TANK:   Source of sample
 RMS .OHMM           2.47:   Rm
 MST .F                57:   Rm Meas. temp.
 RMF .OHMM           1.45:   Rmf
 MFST.F                57:   Rmf Meas. temp.
 MFSS.               MEAS:   Source Rmf.
 RMB .OHMM            1.2:   Rm. at BHT
 BHT .F               124:   BHT.
 TCS .HRS            0400:   Time Circ. stopped
 MRT .F               124:   Maximum recorded temp.
 LUN .               8034:   Logging unit number
 LUL .               CSPR:   Logging unit location
 ENGI.             LARSON:   Recorded By
 WITN.              FIVAS:   Witnessed by
 ORIG.        2" 5" PRINT:   Origin of data
 UWI .     49025108660000:   Unique Well ID
 DICO. A2D TECHNOLOGIES, INC:   Digitizing Company
 TLAB.HRS            2030:   Time logger at bottom
~OTHER INFORMATION
~A   DEPT       GRD      RHOB       CALD       CORR        SPR       TENR        ILD        ILM        SFL   
# ...
  200.5000    83.3148     2.4372    10.7561     0.0476   -70.7335   750.6542     7.2905     7.2038     7.2870
  201.0000    84.3950     2.4372    10.8012     0.0476   -70.9448   750.9733     7.1163     6.9955     7.1272
  201.5000    86.4786     2.4387    10.8440     0.0476   -71.1955   751.2924     6.9255     6.9419     6.9710
  202.0000    89.1091     2.4456    10.8578     0.0476   -71.4450   751.6115     6.9231     6.8391     6.9671
  202.5000    89.6374     2.4635    10.8863     0.0468   -71.6962   751.9306     6.9208     6.7860     6.9633
  203.0000    89.6230     2.4650    10.9303     0.0468   -72.0039   752.2497     6.9178     6.7340     6.9585
  203.5000    88.3993     2.4596    10.9591     0.0468   -72.5454   752.5688     6.8658     6.7307     7.0060
  204.0000    85.3575     2.4510    11.0028     0.0467   -73.0714   752.8879     6.8141     6.7275     7.0528
  204.5000    83.8279     2.4518    11.0316     0.0467   -73.5304   753.2069     6.7629     6.7242     7.0991
  205.0000    81.9982     2.4526    11.0151     0.0467   -73.5189   753.5261     6.7605     6.7202     7.0951
  205.5000    83.1988     2.4549    10.9530     0.0467   -73.5173   753.8452     6.7576     6.7664     7.1425
  206.0000    84.7024     2.4618    10.9364     0.0467   -73.5160   754.1643     6.7553     6.7624     7.1376
  206.5000    85.7514     2.4688    10.9501     0.0475   -73.5245   754.4833     6.7530     6.7591     7.1337
  207.0000    86.4975     2.4773    11.0089     0.0474   -73.6925   754.8025     6.7507     6.8047     7.1297
  207.5000    87.0891     2.4726    11.0984     0.0483   -73.8610   755.1215     6.7484     6.7526     7.0747
  208.0000    88.5928     2.4579    11.2182     0.0490   -74.0254   755.4406     6.7455     6.7982     7.1219
  208.5000    89.9448     2.4633    11.3076     0.0493   -74.0613   755.7598     6.7432     6.7941     7.1170
  209.0000    90.5394     2.4896    11.2149     0.0498   -73.6042   756.0788     6.7896     6.8895     7.2164
  209.5000    90.5250     2.5020    11.1377     0.0505   -73.1527   756.3979     6.7873     6.9360     7.2647
  210.0000    88.9983     2.5012    11.1060     0.0505   -72.8039   756.7170     6.8340     6.8821     7.2605
  210.5000    86.2623     2.4818    11.0591     0.0505   -72.5833   757.0361     6.6850     6.6831     7.2036
  211.0000    87.3085     2.4617    10.9664     0.0497   -72.3618   757.3552     6.4462     6.4900     7.0966
  211.5000    86.9924     2.4461    10.8437     0.0485   -72.1330   757.6743     6.3977     6.3939     6.9410
  212.0000    83.0402     2.4275    10.7968     0.0455   -72.0883   757.9934     6.3496     6.2993     6.6436
  212.5000    84.0892     2.4236    10.6439     0.0426   -72.1981   758.3124     6.3018     6.2503     6.3581
  213.0000    87.2595     2.4291    10.2151     0.0387   -72.3161   758.6316     6.2539     6.2473     6.4006
  213.5000    89.3692     2.4383    10.0346     0.0352   -72.4330   758.9507     6.2068     6.1994     6.4899
  214.0000    90.5698     2.4430    10.0486     0.0316   -72.5494   759.2697     6.2047     6.1519     6.5815
  214.5000    88.7372     2.4352    10.0468     0.0285   -72.6669   759.5889     6.2026     6.1489     6.5297
  215.0000    87.5164     2.4321    10.0454     0.0259   -72.8654   759.9079     6.2004     6.1452     6.4784
  215.5000    89.0171     2.4313    10.0439     0.0230   -73.0449   760.2271     6.1533     6.1423     6.3822
  216.0000    90.5207     2.4328    10.0422     0.0191   -73.3191   760.5461     6.0631     6.1393     6.2874
  216.5000    91.4183     2.4375    10.0104     0.0155   -73.7396   760.8652     6.0611     6.1364     6.2388
  217.0000    90.0403     2.4475     9.9787     0.0112   -74.1945   761.1843     6.0155     6.0893     6.2805
  217.5000    88.3621     2.4506     9.9469     0.0088   -74.6042   761.5034     6.0134     6.0419     6.2311
  218.0000    89.2596     2.4444     9.9453     0.0062   -74.7409   761.8225     5.9677     5.9956     6.0945
  218.5000    91.3693     2.4359     9.9593     0.0041   -74.5776   762.1416     6.0088     5.9928     6.0475
  219.0000    93.3546     2.4397     9.9727     0.0021   -74.3397   762.4607     6.0502     5.9899     6.0441
  219.5000    94.0735     2.4513     9.9400     0.0017   -74.0981   762.7798     6.0923     6.0740     6.0408
  220.0000    90.1197     2.4532     9.8482     0.0025   -73.6152   763.0989     6.1781     6.1585     6.0812
  220.5000    87.5324     2.4676     9.7862     0.0065   -73.0777   763.4180     6.4021     6.3357     6.3456
  221.0000    87.0663     2.4784     9.7544     0.0127   -72.7005   763.7371     6.4928     6.6128     6.7185
  221.5000    84.5722     2.4800     9.7530     0.0212   -72.2941   764.0562     6.7287     6.8523     7.0115
  222.0000    81.5858     2.4706     9.7198     0.0272   -71.9667   764.3752     7.0744     7.0495     7.1656
  222.5000    82.4834     2.4660     9.6588     0.0311   -71.7278   764.6943     7.1145     7.3568     7.2087
  223.0000    80.8052     2.5016     9.6271     0.0337   -71.4933   765.0134     7.1565     7.6233     7.3612
  223.5000    76.5512     2.5334     9.3984     0.0336   -71.2868   765.1991     7.2734     7.8426     7.6823
  224.0000    73.5757     2.5768     9.3818     0.0336   -71.6912   765.1991     7.3235     8.0683     8.7416
  224.5000    75.4646     2.5729     9.3955     0.0328   -72.1164   765.1991     7.3740     8.2408    11.1233
  225.0000    80.3016     2.5450     9.3937     0.0303   -72.4932   765.1991     7.3708     8.2965    11.9902
  225.5000    85.7446     2.5108     9.3771     0.0226   -72.4966   765.1991     7.2628     8.0557    11.4749
  226.0000    89.6725     2.4914     9.3912     0.0156   -72.4948   765.1991     7.0540     7.8795     9.6471
  226.5000    90.8730     2.4914     9.4045     0.0115   -72.4963   765.1991     6.8020     7.5967     7.8233
  227.0000    91.6162     2.4875     9.4027     0.0109   -72.5944   765.1991     6.6959     6.7655     7.3270
  227.5000    92.2107     2.4782     9.4316     0.0109   -72.8484   765.1991     6.5562     6.4757     7.0638
  228.0000    92.0477     2.4720     9.4453     0.0108   -73.1003   765.1991     6.4602     6.4254     6.9089
  228.5000    91.4301     2.4681     9.4594     0.0116   -73.3524   765.1991     6.3656     6.3304     6.7574
  229.0000    90.4899     2.4673     9.4879     0.0132   -73.6045   765.1991     6.2723     6.2367     6.7296
  229.5000    90.6466     2.4673     9.5167     0.0167   -73.9320   765.1991     6.2251     6.1889     6.6525
  230.0000    92.4532     2.4681     9.5301     0.0221   -74.3250   765.1991     6.1778     6.1414     6.6489
  230.5000    95.1689     2.4719     9.5439     0.0280   -74.7307   765.1991     6.1757     6.1378     6.5975
  231.0000    96.2180     2.4828     9.5579     0.0318   -75.2605   765.1991     6.1735     6.1348     6.5465
  231.5000    96.6610     2.5091     9.5864     0.0357   -75.3672   765.1991     6.2161     6.1763     6.5429
  232.0000    96.1921     2.5137     9.6000     0.0388   -75.3653   765.1991     6.3102     6.2180     6.6334
  232.5000    92.8472     2.5067     9.6138     0.0388   -75.0865   765.1991     6.5799     6.4022     6.6777
  233.0000    85.8660     2.4974     9.6273     0.0388   -74.7112   765.1991     6.7700     6.7241     6.8208
  233.5000    82.5211     2.4912     9.6560     0.0380   -74.1197   765.1991     6.8172     6.9176     7.0157
  234.0000    82.0550     2.4935     9.6545     0.0364   -73.8407   765.1991     6.9132     7.0147     7.2195
  234.5000    83.1012     2.4998     9.6530     0.0348   -73.4456   765.1991     7.0112     7.1133     7.3704
  235.0000    84.6048     2.5012     9.6515     0.0325   -73.0358   765.1991     7.1614     7.2182     7.4723
  235.5000    87.6236     2.5012     9.6347     0.0301   -72.8597   765.1991     7.2635     7.4207     7.5222
  236.0000    89.7333     2.4997     9.6333     0.0288   -72.8616   765.1991     7.4197     7.5249     7.5725
  236.5000    90.0247     2.4950     9.6318     0.0261   -73.0778   765.1991     7.5242     7.5757     7.6231
