~VERSION INFORMATION
 VERS.                2.0:   CWLS LOG ASCII STANDARD - VERSION 2.0
 WRAP.                 NO:   ONE LINE PER DEPTH STEP
~WELL INFORMATION
#MNEM.UNIT      DATA TYPE    INFORMATION
#----------   ------------   ------------------------------
 STRT.F         2299.0000:   START DEPTH
 STOP.F         3387.5000:   STOP DEPTH
 STEP.F            0.5000:   STEP LENGTH
 NULL.          -999.2500:   NO VALUE
 COMP. LAWRENCE ALLISON AND ASSOCIATES:   COMPANY
 WELL. 		  62-AX-3:   WELL
 FLD .                NPR:   FIELD
 LOC .       S3 T38N R78W:   LOCATION
 CNTY.            NATRONA:   COUNTY
 STAT.            WYOMING:   STATE
 CTRY. UNITED STATES OF AMERICA:   COUNTRY
 SRVC.      DRESSER ATLAS:   SERVICE COMPANY
 DATE.        14-JUN-1985:   LOGDATE
 API .     49025110330000:   API NUMBER
~CURVE INFORMATION
#MNEM.UNIT       API CODE    CURVE DESCRIPTION
#----------   ------------   ------------------------------
 DEPT.F                  :   
 NPHI.DEC    42 890 01 00:   NEUTRON POROSITY
 TEND.LBS    45 635 01 00:   TENSION
 RHOB.G/C3   45 350 01 00:   BULK DENSITY
 CORR.DEC    45 356 01 00:   CORRECTION
~PARAMETER INFORMATION
#MNEM.UNIT          VALUE    DESCRIPTION
#----------   ------------   ------------------------------
 EKB .F         5160.0000:   Kelly bushing
 EGL .F         5148.0000:   Ground level
 EDF .F            0.0000:   Drilling floor
 EPD .F         5148.0000:   Permanent datum
 TD  .F         3380.0000:   Total depth
 DATE.        14-JUN-1985:   Date logged
 CLNT.            A2DTECH:   Client Code
 PD  .                 GL:   Permanent Datum
 LMF .                 KB:   Log Measured From
 DMF .                 KB:   Drilling Measured From
 DL  .F              3380:   Depth logger
 BLI .F              3378:   Bottom log interval
 CS1 .IN            8.625:   Casing size
 CBD1.      8.625" @ 603':   Casing driller 1
 DFT .        KCL POLYMER:   Type fluid in hole
 ENGI.               MACK:   Recorded By
 WITN.             STRONG:   Witnessed by
 ORIG.       2.5"5" PRINT:   Origin of data
 UWI .     49025110330000:   Unique Well ID
 DICO. A2D TECHNOLOGIES, INC.:   Digitizing Company
 DAPD.F                12:   Feet Above Permanent Datum
 BS1 .IN            7.875:   Bit size
 DFD .                8.9:   Density
 DFV .                 46:   Viscosity
 DFPH.                8.5:   pH
 DFL .                9.6:   Fluid loss
 MSS .           FLOWLINE:   Source of sample
 RMS .OHMM           0.38:   Rm
 MST .F                74:   Rm Meas. temp.
 RMF .OHMM           0.29:   Rmf
 MFST.F                74:   Rmf Meas. temp.
 MFSS.               MEAS:   Source Rmf.
 RMC .OHMM           0.23:   Rmc
 MCST.F               120:   Rmc Meas. temp.
 MCSS.               MEAS:   Source Rmc.
 RMB .OHMM           0.23:   Rm. at BHT
 BHT .F               120:   BHT.
 TCS .                  8:   Time Circ. stopped
 MRT .                122:   Maximum recorded temp.
 LUN .            HL-6274:   Logging unit number
 LUL .               GLTE:   Logging unit location
~OTHER INFORMATION
~A     DEPTH         CORR         NPHI         RHOB         TEND
# ...
   3353.0000       0.0170       0.2752       2.4580       0.5351
   3353.5000       0.0100       0.2818       2.4540       0.5371
   3354.0000       0.0030       0.2980       2.4470       0.5392
   3354.5000       0.0120       0.3020       2.4260       0.5412
   3355.0000       0.0240       0.2959       2.4040       0.5536
   3355.5000       0.0300       0.2872       2.4030       0.5662
   3356.0000       0.0200       0.2566       2.4160       0.5787
   3356.5000       0.0000       0.2442       2.4620       0.5912
   3357.0000      -0.0030       0.2386       2.4970       0.6020
   3357.5000       0.0060       0.2440       2.5050       0.6070
   3358.0000       0.0250       0.2474       2.5110       0.6120
   3358.5000       0.0360       0.2525       2.5170       0.6170
   3359.0000       0.0230       0.2536       2.5200       0.6220
   3359.5000       0.0150       0.2494       2.5120       0.6271
   3360.0000       0.0200       0.2440       2.5030       0.6321
   3360.5000       0.0310       0.2449       2.5000       0.6371
   3361.0000       0.0380       0.2464       2.5140       0.6421
   3361.5000       0.0270       0.2470       2.5310       0.6471
   3362.0000       0.0160       0.2443       2.5360       0.6521
   3362.5000       0.0180       0.2404       2.5310       0.6572
   3363.0000       0.0220       0.2383       2.5290       0.6622
   3363.5000       0.0250       0.2404       2.5290       0.6672
   3364.0000       0.0240       0.2446       2.5270       0.6722
   3364.5000       0.0280       0.2499       2.5200       0.6772
   3365.0000       0.0320       0.2474       2.5150       0.6822
   3365.5000       0.0270       0.2413       2.5140       0.6872
   3366.0000       0.0210       0.2324       2.5150       0.6923
   3366.5000       0.0230       0.2290       2.5170       0.6973
   3367.0000       0.0330       0.2301       2.5240       0.7023
   3367.5000       0.0390       0.2366       2.5340       0.7073
   3368.0000       0.0270       0.2344       2.5400       0.7123
   3368.5000       0.0200       0.2319       2.5360       0.7173
   3369.0000       0.0220       0.2310       2.5250       0.7223
   3369.5000       0.0230       0.2392       2.5190       0.7274
   3370.0000       0.0200       0.2422       2.5220       0.7324
   3370.5000       0.0160       0.2360       2.5390       0.7374
   3371.0000       0.0180       0.2314       2.5560       0.7446
   3371.5000       0.0240       0.2202       2.5570       0.7538
   3372.0000       0.0320       0.2193       2.5470       0.7631
   3372.5000       0.0470       0.2200       2.5260       0.7723
   3373.0000       0.0480       0.2205       2.5060       0.7815
   3373.5000       0.0360       0.2214       2.4860       0.7908
   3374.0000       0.0260       0.2218       2.4790       0.8000
   3374.5000       0.0190       0.2220       2.4900       0.8093
   3375.0000       0.0320       0.2225       2.4930       0.7597
   3375.5000       0.0410       0.2224       2.4880       0.7100
   3376.0000       0.0420       0.2223       2.4810       0.5726
   3376.5000       0.0320       0.2228       2.4740       0.4364
   3377.0000       0.0230       0.2227       2.4680       0.3191
   3377.5000       0.0210       0.2226       2.4610       0.2617
   3378.0000       0.0210       0.2225       2.4540       0.2044
   3378.5000       0.0210       0.2227       2.4480       0.1712
   3379.0000       0.0190       0.2229       2.4410       0.1656
   3379.5000       0.0100       0.2228       2.4300       0.1600
   3380.0000       0.0010       0.2227       2.4210       0.1539
   3380.5000    -999.2500       0.2226    -999.2500       0.0844
   3381.0000    -999.2500       0.2225    -999.2500       0.0844
   3381.5000    -999.2500       0.2224    -999.2500       0.0645
   3382.0000    -999.2500       0.2229    -999.2500       0.0149
   3382.5000    -999.2500       0.2228    -999.2500       0.0050
   3383.0000    -999.2500       0.2227    -999.2500       0.0050
   3383.5000    -999.2500       0.2229    -999.2500       0.0050
   3384.0000    -999.2500       0.2228    -999.2500       0.0050
   3384.5000    -999.2500       0.2227    -999.2500    -999.2500
   3385.0000    -999.2500       0.2226    -999.2500    -999.2500
   3385.5000    -999.2500       0.2228    -999.2500    -999.2500
   3386.0000    -999.2500       0.2227    -999.2500    -999.2500
   3386.5000    -999.2500       0.2226    -999.2500    -999.2500
   3387.0000    -999.2500       0.2225    -999.2500    -999.2500
   3387.5000    -999.2500       0.2224    -999.2500    -999.2500
