~VERSION INFORMATION
 VERS.                2.0:   CWLS LOG ASCII STANDARD - VERSION 2.0
 WRAP.                 NO:   ONE LINE PER DEPTH STEP
~WELL INFORMATION
#MNEM.UNIT      DATA TYPE    INFORMATION
#----------   ------------   ------------------------------
 STRT.F           29.5000:   START DEPTH
 STOP.F         2719.5000:   STOP DEPTH
 STEP.F            0.5000:   STEP LENGTH
 NULL.          -999.2500:   NO VALUE
 COMP.          INTEX OIL:   COMPANY
 WELL. INTEX NPR 3 "AX" #82-20:   WELL
 FLD .             TEAPOT:   FIELD
 LOC .      S20 T39N R78W:   LOCATION
 CNTY.            NATRONA:   COUNTY
 STAT.            WYOMING:   STATE
 CTRY. UNITED STATES OF AMERICA:   COUNTRY
 SRVC.       SCHLUMBERGER:   SERVICE COMPANY
 DATE.        19-MAY-1956:   LOGDATE
 API .     49025095270000:   API NUMBER
~CURVE INFORMATION
#MNEM.UNIT       API CODE    CURVE DESCRIPTION
#----------   ------------   ------------------------------
 DEPT.F                  :   
 CALD.IN     45 280 60 00:   CALIPER FROM DENSITY LOG
 GRD .GAPI   45 310 01 00:   GAMMA RAY FROM DENSITY LOG
 CORR.G/C3   45 356 01 00:   DENSITY CORRECTION
 RHOB.G/C3   45 350 01 00:   BULK DENSITY
 SPR .MV     05 010 01 00:   SPONTANEOUS POTENTIAL
 ILD .OHMM   05 120 46 00:   DEEP INDUCTION RESISTIVITY
 SN  .OHMM   05 040 00 00:   SHORT NORMAL
~PARAMETER INFORMATION
#MNEM.UNIT          VALUE    DESCRIPTION
#----------   ------------   ------------------------------
 EKB .F         5014.3000:   Kelly bushing
 EGL .F         5004.0000:   Ground level
 EDF .F            0.0000:   Drilling floor
 TD  .F         2717.0000:   Total depth
 DATE.        19-MAY-1956:   Date logged
 CLNT.            A2DTECH:   Client Code
 PD  .                 GL:   Permanent Datum
 EPD .F              5004:   Elevation Permanent Datum
 LMF .                 KB:   Log Measured From
 DMF .                 KB:   Drilling Measured From
 DAPD.F              10.3:   Feet Above Permanent Datum
 DD  .F              2717:   Depth driller
 DL  .F              2717:   Depth logger
 BLI .F              2716:   Bottom log interval
 TLI .F               100:   Top log interval
 CS1 .IN            10.75:   Casing size
 CBD1.       10.75" @ 30':   Casing driller 1
 BS1 .IN            7.875:   Bit size
 BSD1.F              2717:   Depth drilled with bit1
 DFT .        GEL/CAUSTIC:   Type fluid in hole
 DFD .                9.7:   Density
 DFV .                 35:   Viscosity
 DFPH.                7.6:   pH
 DFL .                8.8:   Fluid loss
 MSS .           FLOWLINE:   Source of sample
 RMS .OHMM           1.68:   Rm
 MST .F                58:   Rm Meas. temp.
 RMF .OHMM           1.17:   Rmf
 MFST.F                68:   Rmf Meas. temp.
 MFSS.                 FP:   Source Rmf.
 RMB .OHMM              1:   Rm. at BHT
 BHT .F               101:   BHT.
 TCS .HRS               4:   Time Circ. stopped
 MRT .F               101:   Maximum recorded temp.
 LUN .               4507:   Logging unit number
 LUL .               CSPR:   Logging unit location
 ENGI.            MANGOLD:   Recorded By
 WITN.             TUTTLE:   Witnessed by
 ORIG.           5" PRINT:   Origin of data
 UWI .     49025095270000:   Unique Well ID
 DICO. A2D TECHNOLOGIES, INC.:   Digitizing Company
~OTHER INFORMATION
~A   DEPT     CALD         GRD      CORR       RHOB        SPR        ILD         SN   
# ...
 1804.0000     8.4170    77.0490     0.0470     2.4240   -47.4800     9.3520    12.7950
 1804.5000     8.4120    75.2230     0.0470     2.4100   -47.3900     9.2600    12.4020
 1805.0000     8.4080    73.7930     0.0490     2.3990   -47.3000     9.1670    11.9950
 1805.5000     8.4040    76.1500     0.0530     2.3930   -47.2100     9.0760    11.8800
 1806.0000     8.4010    76.1750     0.0620     2.3810   -47.1200     8.9910    11.9860
 1806.5000     8.3930    75.1770     0.0750     2.3370   -47.0300     9.1330    11.9780
 1807.0000     8.3880    74.4510     0.1310     2.3250   -46.9400     9.3230    12.0500
 1807.5000     8.4280    77.8330     0.1950     2.3350   -46.8500     9.5190    12.1590
 1808.0000     8.6090    81.4840     0.2390     2.3140   -46.7600     9.7200    12.2680
 1808.5000     8.7880    83.9270     0.1660     2.2110   -46.6700     9.6520    12.3770
 1809.0000     8.8780    79.7920     0.2150     2.2160   -46.5800     9.4360    12.4490
 1809.5000     8.9380    80.5420     0.1080     2.1020   -46.4900     9.2200    12.2120
 1810.0000     9.0260    79.0300     0.1200     2.0590   -46.4000     9.0040    11.9450
 1810.5000     9.1100    77.2690     0.1440     2.0150   -46.3100     8.7870    11.6780
 1811.0000     9.1490    73.7820     0.1650     1.9350   -46.2250     8.5700    11.4110
 1811.5000     9.1160    73.6340     0.1430     1.7970   -46.2310     8.3530    11.1450
 1812.0000     9.3100    75.4670     0.1560     1.7530   -46.2480     8.1360    10.8780
 1812.5000     9.5230    79.2450     0.1880     1.8410   -46.2640     7.9200    10.6110
 1813.0000     9.2410    83.8010     0.2060     1.9450   -46.2800     7.7020    10.3440
 1813.5000     8.9720    87.8430     0.1590     2.0040   -46.2970     7.6490    10.0980
 1814.0000     9.1500    86.5770     0.1220     2.1410   -46.3130     7.7240    10.1400
 1814.5000     9.3130    85.0850     0.1030     2.0990   -46.3300     7.7990    10.1930
 1815.0000     9.4860    83.7480     0.1350     1.9770   -46.3460     7.8740    10.3250
 1815.5000     9.4960    83.3540     0.1720     1.7910   -46.3620     7.9500    10.4560
 1816.0000     9.5080    82.1750     0.1580     1.6110   -46.3780     8.0270    10.5870
 1816.5000    11.6170    78.4760     0.1450     1.5750   -46.3930     8.0930    10.7190
 1817.0000    14.5460    74.8870     0.1390     1.5870   -46.4060     8.0020    10.7800
 1817.5000    16.0100    72.7320     0.1610     1.6050   -46.2450     7.9420    10.6450
 1818.0000    14.4740    74.2860     0.1830     1.6650   -46.1320     7.8800    10.5040
 1818.5000    12.7670    76.3890     0.2110     1.7550   -46.0350     7.8190    10.3630
 1819.0000    11.2420    78.5260     0.2240     1.8450   -46.0260     7.7580    10.2220
 1819.5000     9.8540    79.9040     0.2290     1.9340   -46.2980     7.6970    10.0810
 1820.0000     9.7320    81.1000     0.2160     1.9940   -46.6100     7.6360     9.9400
 1820.5000     9.3910    83.6840     0.2030     1.9900   -46.8260     7.5750     9.7980
 1821.0000     9.1250    87.6990     0.1930     1.9620   -46.6930     7.5140     9.7910
 1821.5000     9.0350    91.8610     0.2170     1.9350   -46.5470     7.4530     9.7910
 1822.0000     8.9530    91.7620     0.2350     1.9120   -46.4000     7.3920     9.7910
 1822.5000     8.8920    90.5140     0.2210     2.0130   -46.2530     7.3300     9.7900
 1823.0000     8.8370    84.3620     0.2070     2.1050   -46.1050     7.2690     9.7900
 1823.5000     8.8310    77.3230     0.1830     2.2160   -45.9580     7.2080     9.7130
 1824.0000     8.9680    74.7910     0.1180     2.2120   -45.8100     7.1470     9.5140
 1824.5000     9.0270    75.1410     0.0520     2.2070   -45.6580     7.0860     9.3170
 1825.0000     8.8820    78.5190     0.0710     2.2020   -45.6980     7.0250     9.1210
 1825.5000     8.7420    81.2390     0.1160     2.2010   -45.7860     6.9640     8.9230
 1826.0000     8.6100    80.4440     0.1610     2.2360   -45.8770     6.9030     8.7300
 1826.5000     8.5770    78.5560     0.1940     2.2640   -45.9670     6.8410     8.7600
 1827.0000     8.5940    76.6940     0.1640     2.2400   -46.0580     6.7810     8.9630
 1827.5000     8.6090    75.6110     0.1200     2.2240   -46.1470     6.7260     9.0990
 1828.0000     8.6290    76.3360     0.1420     2.2310   -46.1970     6.5170     9.1050
 1828.5000     8.6800    76.8280     0.1610     2.2080   -46.0420     6.2920     8.8080
 1829.0000     8.7270    75.4820     0.1040     2.1650   -45.8900     6.0640     8.5350
 1829.5000     8.7730    74.2100     0.1220     2.1730   -45.7390     5.8370     8.2610
 1830.0000     8.8200    72.9560     0.2000     2.1820   -45.5880     5.6100     7.9890
 1830.5000     8.9240    71.6620     0.1710     2.1530   -45.4370     5.3830     7.7160
 1831.0000     9.0980    72.5390     0.0980     2.0620   -45.2850     5.2130     7.4420
 1831.5000     9.3040    74.3980     0.1400     2.0630   -45.2440     5.3290     7.1580
 1832.0000     9.4830    75.2340     0.2040     2.1660   -45.3500     5.4660     7.3740
 1832.5000     9.2300    73.1700     0.1970     2.2320   -45.4570     5.6030     7.7040
 1833.0000     8.8520    70.9270     0.1530     2.2580   -45.5640     5.7410     8.0370
 1833.5000     8.6940    69.2980     0.0890     2.2900   -45.6710     5.8800     8.3730
 1834.0000     8.5810    69.0470     0.0490     2.3520   -45.7780     5.8800     8.7190
 1834.5000     8.5070    72.0390     0.0530     2.3930   -45.8230     5.7340     8.6460
 1835.0000     8.4440    75.0080     0.0440     2.3970   -45.8030     5.5880     8.3200
 1835.5000     8.4930    75.2790     0.0510     2.4030   -45.7820     5.4430     7.9460
 1836.0000     8.5410    75.5080     0.0650     2.4110   -45.7620     5.2980     7.5700
 1836.5000     8.5890    77.7270     0.0730     2.4200   -45.7410     5.1520     7.1940
 1837.0000     8.6370    83.0520     0.0740     2.4290   -45.7200     5.0070     6.8220
 1837.5000     8.6850    83.2710     0.0890     2.4310   -45.6990     4.8620     6.5240
 1838.0000     8.7300    81.7930     0.0770     2.4400   -45.6790     4.7170     6.6510
 1838.5000     8.9420    83.0110     0.0610     2.4500   -45.6580     4.5660     6.7710
 1839.0000     9.2300    81.1120     0.0650     2.4610   -45.6370     4.5230     6.8890
 1839.5000     9.4260    80.0490     0.0730     2.4680   -45.6170     4.6490     7.0050
 1840.0000     8.9370    83.1310     0.0880     2.4690   -45.5960     4.8360     7.1110
 1840.5000     8.5840    85.7920     0.1040     2.4580   -45.5750     5.0230     7.1090
 1841.0000     8.5610    85.9310     0.0830     2.4380   -45.5540     5.2110     7.1350
 1841.5000     8.5410    86.0510     0.0610     2.4180   -45.5340     5.3990     7.3310
 1842.0000     8.5460    86.6080     0.0420     2.3960   -45.5130     5.5870     7.5290
 1842.5000     8.5510    88.4900     0.0460     2.4020   -45.4920     5.7750     7.7550
 1843.0000     8.5560    90.3650     0.0520     2.4140   -45.4720     5.9630     7.9970
 1843.5000     8.5610    90.9950     0.0600     2.4260   -45.4510     6.1510     8.2400
 1844.0000     8.5660    87.7430     0.0700     2.4380   -45.4310     6.3380     8.4830
 1844.5000     8.5710    84.5940     0.0790     2.4500   -45.4660     6.5070     8.7260
 1845.0000     8.5760    81.4640     0.0870     2.4620   -45.5090     6.5110     8.9690
 1845.5000     8.5810    79.2730     0.1000     2.4740   -45.5530     6.4600     9.1800
 1846.0000     8.5850    78.0040     0.0810     2.4780   -45.5970     6.3720     8.9850
 1846.5000     8.5900    76.6720     0.0920     2.4810   -45.6400     6.2860     8.7870
 1847.0000     8.5950    77.3390     0.1060     2.4850   -45.6840     6.2000     8.5890
 1847.5000     8.5980    78.4050     0.1200     2.4880   -45.7280     6.1090     8.3920
 1848.0000     8.5550    76.7710     0.1340     2.4730   -45.7720     6.0940     8.2130
 1848.5000     8.5060    73.1630     0.1430     2.4420   -45.8150     6.2380     8.3590
 1849.0000     8.5420    73.9720     0.0940     2.4110   -45.8590     6.3810     8.5140
