~VERSION INFORMATION
 VERS.                2.0:   CWLS LOG ASCII STANDARD - VERSION 2.0
 WRAP.                 NO:   ONE LINE PER DEPTH STEP
~WELL INFORMATION
#MNEM.UNIT      DATA TYPE    INFORMATION
#----------   ------------   ------------------------------
 STRT.F            0.0000:   START DEPTH
 STOP.F          619.0000:   STOP DEPTH
 STEP.F            0.5000:   STEP LENGTH
 NULL.          -999.2500:   NO VALUE
 COMP.       FLUOR DANIEL:   COMPANY
 WELL.      FLUOR X #52-3:   WELL
 FLD .                NPR:   FIELD
 LOC .       S3 T38N R78W:   LOCATION
 CNTY.            NATRONA:   COUNTY
 STAT.            WYOMING:   STATE
 CTRY. UNITED STATES OF AMERICA:   COUNTRY
 SRVC.     ATLAS WIRELINE:   SERVICE COMPANY
 DATE.        18-AUG-1994:   LOGDATE
 API .     49025226460000:   API NUMBER
~CURVE INFORMATION
#MNEM.UNIT       API CODE    CURVE DESCRIPTION
#----------   ------------   ------------------------------
 DEPT.F                  :   
 GRR .GAPI   07 310 01 00:   GAMMA RAY FROM RESISTIVITY
 TENR.LBS    07 635 01 00:   TENSION
 RILD.OHMM   07 120 46 00:   INDUCTION LOG DEEP RESISTIVITY
 RILM.OHMM   07 120 44 00:   INDUCTION LOG MEDIUM RESISTIVITY
~PARAMETER INFORMATION
#MNEM.UNIT          VALUE    DESCRIPTION
#----------   ------------   ------------------------------
 EKB .F         5131.0000:   Kelly bushing
 EGL .F         5121.0000:   Ground level
 EDF .F         5130.0000:   Drilling floor
 EPD .F         5121.0000:   Permanent datum
 TD  .F          611.0000:   Total depth
 DATE.        18-AUG-1994:   Date logged
 CLNT.            A2DTECH:   Client Code
 SL  . 699' FNL & 2048' FEL:   Surface Location
 PD  .                 GL:   Permanent Datum
 LMF .                 KB:   Log Measured From
 DMF .                 KB:   Drilling Measured From
 DAPD.F                10:   Feet Above Permanent Datum
 DD  .F               580:   Depth driller
 DL  .F               611:   Depth logger
 BLI .F               609:   Bottom log interval
 CS1 .IN            9.625:   Casing size
 CBD1.       9.625" @ 54':   Casing driller 1
 CBL1.F                56:   Casing logger 1
 BS1 .IN             8.75:   Bit size
 BSD1.F               580:   Depth drilled with bit1
 DFT .                AIR:   Type fluid in hole
 LUN .            HL 6530:   Logging unit number
 LUL .             CASPER:   Logging unit location
 WITN.        GARY STRONG:   Witnessed by
 ORIG.           5" PRINT:   Origin of data
 UWI .     49025226460000:   Unique Well ID
 DICO. A2D TECHNOLOGIES, INC.:   Digitizing Company
~OTHER INFORMATION
~A    DEPT      GRR      TENR       RILD       RILM   
# ...
  219.0000   132.4330   -48.4620     6.4440     6.8420
  219.5000   132.4780   -49.1290     6.6100     7.0060
  220.0000   133.4040   -49.7960     6.8670     7.2420
  220.5000   134.7330   -50.4630     7.1800     7.4770
  221.0000   133.9900   -51.1300     7.5300     7.7130
  221.5000   129.8250   -51.7960     7.6720     7.8020
  222.0000   125.1360   -52.4630     7.7040     7.8190
  222.5000   124.3220   -53.1300     7.7360     7.8360
  223.0000   127.3030   -50.3930     7.7680     7.8530
  223.5000   129.1880   -44.9170     7.7940     7.8670
  224.0000   129.0030   -39.4420     7.6820     7.7430
  224.5000   128.8090   -33.9660     7.5880     7.6210
  225.0000   130.3090   -46.2270     7.4940     7.5100
  225.5000   132.0900   -53.0020     7.4000     7.3720
  226.0000   131.6780   -52.1760     7.3030     7.3020
  226.5000   131.2680   -51.3500     7.1400     7.2270
  227.0000   131.7370   -50.5250     6.9710     7.1690
  227.5000   133.7040   -49.6990     6.7660     6.9220
  228.0000   133.5910   -48.8740     6.4590     6.5370
  228.5000   133.3080   -48.0480     6.1520     6.1220
  229.0000   134.7660   -47.2220     5.8900     5.9090
  229.5000   138.3510   -46.3970     5.5790     5.6320
  230.0000   135.9520   -45.5710     5.6250     5.6800
  230.5000   131.2550   -44.7450     5.7000     5.7370
  231.0000   124.9070   -43.9200     5.7740     6.0110
  231.5000   118.9940   -43.3470     5.8490     6.2720
  232.0000   120.2730   -43.3470     5.9900     6.5320
  232.5000   125.3300   -43.3470     6.2580     6.7930
  233.0000   130.3630   -43.3470     6.5260     7.0540
  233.5000   132.9100   -43.3470     6.7940     7.3030
  234.0000   130.9290   -43.3470     7.0620     7.4560
  234.5000   127.6270   -43.3470     7.3300     7.6030
  235.0000   124.8680   -43.3470     7.5610     7.7500
  235.5000   126.1030   -43.3470     7.7220     7.8960
  236.0000   129.1980   -43.3470     7.7770     8.0220
  236.5000   131.5730   -43.3470     7.8330     8.0610
  237.0000   129.8010   -43.3470     7.8890     8.1000
  237.5000   128.4710   -43.3470     7.9450     8.1390
  238.0000   128.7150   -43.3470     8.0010     8.1770
  238.5000   131.1040   -43.3470     8.0570     8.2160
  239.0000   133.4730   -43.3470     8.1140     8.2610
  239.5000   134.9030   -43.3470     8.1700     8.3660
  240.0000   133.8990   -43.3470     8.2260     8.4720
  240.5000   132.3990   -43.3470     8.2820     8.5780
  241.0000   132.0770   -43.3470     8.3380     8.6840
  241.5000   134.6650   -43.3470     8.3950     8.7940
  242.0000   135.6700   -43.3470     8.4510     8.8370
  242.5000   133.3610   -43.3470     8.4880     8.8810
  243.0000   131.3790   -43.3470     8.5120     8.9260
  243.5000   131.6790   -43.3470     8.5360     8.9590
  244.0000   131.7860   -43.3470     8.5520     8.8310
  244.5000   130.8930   -43.3470     8.5140     8.7310
  245.0000   131.4940   -43.3470     8.4840     8.6300
  245.5000   132.2020   -43.3470     8.4540     8.5300
  246.0000   132.2420   -43.3470     8.4250     8.4560
  246.5000   132.4620   -43.3470     8.3950     8.4160
  247.0000   134.1110   -43.3470     8.3660     8.3760
  247.5000   136.6460   -43.3470     8.3360     8.3360
  248.0000   139.2480   -43.3470     8.2740     8.2960
  248.5000   138.6600   -43.3470     8.1540     8.2560
  249.0000   135.6470   -43.3470     8.0330     8.0770
  249.5000   131.6810   -43.3470     7.7610     7.8110
  250.0000   128.9010   -43.3470     7.4590     7.5450
  250.5000   130.2950   -43.3470     7.1580     7.2790
  251.0000   131.0270   -43.3470     6.8560     6.9500
  251.5000   130.5150   -43.3470     6.4120     6.4940
  252.0000   131.8680   -43.3470     5.9190     6.0220
  252.5000   136.1700   -43.3470     5.4060     5.4750
  253.0000   136.5940   -43.3470     4.8110     4.9280
  253.5000   136.2160   -43.3470     4.2170     4.3820
  254.0000   136.7010   -43.3470     3.6220     3.8350
  254.5000   135.4590   -43.3470     3.1540     3.2880
  255.0000   130.3590   -43.3470     2.8390     2.8520
  255.5000   125.0690   -43.3470     2.6680     2.6550
  256.0000   122.7720   -43.3470     2.5580     2.5820
  256.5000   121.1860   -43.3470     2.5730     2.5820
  257.0000   119.6110   -43.3470     2.6020     2.8500
  257.5000   118.2370   -43.3470     2.7000     3.3000
  258.0000   118.4960   -43.3470     2.9750     3.7510
  258.5000   122.3700   -43.3470     3.4730     4.2020
  259.0000   129.1260   -43.3470     3.9710     4.6520
  259.5000   135.9990   -43.3470     4.4680     5.1030
  260.0000   142.7940   -43.3470     4.9660     5.5540
  260.5000   146.7310   -43.3470     5.4640     5.9240
  261.0000   144.7180   -43.3470     5.8610     6.1500
  261.5000   143.3870   -43.3470     6.2270     6.3750
  262.0000   145.4940   -43.3470     6.5940     6.5940
  262.5000   150.4320   -43.3470     6.7040     6.7040
  263.0000   152.6840   -43.3470     6.7810     6.8440
  263.5000   155.0170   -43.3470     6.7520     6.7930
  264.0000   153.5000   -43.3470     6.7090     6.7180
  264.5000   150.9300   -43.3470     6.6670     6.6430
  265.0000   148.3330   -43.3470     6.4530     6.5700
  265.5000   145.7500   -43.3470     6.1800     6.4170
  266.0000   143.3310   -43.3470     5.7810     6.0410
  266.5000   143.2990   -43.3470     5.3460     5.5110
  267.0000   144.9170   -43.3470     4.9120     4.9810
  267.5000   147.7190   -43.3470     4.6170     4.5760
  268.0000   151.1240   -43.3470     4.5080     4.5190
  268.5000   157.5830   -43.3470     4.4240     4.4620
  269.0000   156.4010   -43.3470     4.3020     4.4240
  269.5000   148.9230   -43.3470     4.3160     4.5520
  270.0000   141.9740   -43.3470     4.3420     4.8420
  270.5000   137.0060   -43.3470     4.5200     5.1330
  271.0000   136.8920   -43.3470     4.7930     5.4230
  271.5000   140.8680   -43.3470     5.1240     5.7140
  272.0000   147.1460   -43.3470     5.4550     6.0040
  272.5000   153.2550   -43.3470     5.7860     6.2950
  273.0000   153.8850   -43.9520     6.1160     6.5850
  273.5000   151.5170   -45.9330     6.4470     6.8760
  274.0000   149.5090   -47.9140     6.8510     7.1670
  274.5000   150.5890   -49.8950     7.2050     7.3560
  275.0000   151.2620   -51.8770     7.5030     7.5670
  275.5000   146.1500   -52.8060     7.7940     7.7790
  276.0000   141.6010   -49.9440     7.8670     8.0140
  276.5000   142.2700   -47.0820     7.7950     7.8880
  277.0000   145.8250   -44.2200     7.6840     7.7380
  277.5000   148.7660   -44.1080     7.5540     7.5890
  278.0000   149.3070   -45.2040     7.4160     7.4400
  278.5000   149.9250   -46.3000     7.2770     7.3050
  279.0000   151.8370   -47.3960     7.1380     7.1830
  279.5000   155.3020   -48.4920     7.0000     7.0610
  280.0000   156.4410   -49.5880     6.7680     6.8270
  280.5000   157.3900   -50.6840     6.5130     6.5650
  281.0000   154.9130   -51.7800     6.1940     6.3140
  281.5000   149.3830   -52.8760     5.8650     5.9640
  282.0000   146.7470   -53.4270     5.5350     5.6130
  282.5000   149.8090   -53.4270     5.3010     5.3300
  283.0000   149.9460   -53.4270     5.1570     5.1860
  283.5000   144.0610   -53.4270     5.0380     5.0380
  284.0000   137.5050   -53.4270     5.0380     5.2930
  284.5000   130.3970   -53.4270     5.1430     5.5540
  285.0000   126.7060   -53.4270     5.2480     5.8150
  285.5000   130.0310   -53.4270     5.4250     6.0100
  286.0000   138.8020   -53.4270     5.8110     6.3790
  286.5000   146.8580   -53.4270     6.1960     6.7270
  287.0000   151.4920   -53.4270     6.5790     7.0750
  287.5000   153.3040   -53.4270     6.9400     7.3720
  288.0000   152.5380   -53.4270     7.1970     7.4390
  288.5000   152.9650   -53.4270     7.2740     7.5110
  289.0000   154.3780   -53.4270     7.3510     7.5820
  289.5000   153.9670   -53.4270     7.4280     7.6540
  290.0000   154.1520   -53.4270     7.6090     7.7250
  290.5000   155.8390   -53.4270     7.7940     7.7960
  291.0000   156.2610   -53.4270     7.7940     7.8680
  291.5000   154.5960   -53.4270     7.7940     7.9390
