~VERSION INFORMATION
 VERS.                2.0:   CWLS LOG ASCII STANDARD - VERSION 2.0
 WRAP.                 NO:   ONE LINE PER DEPTH STEP
~WELL INFORMATION
#MNEM.UNIT      DATA TYPE    INFORMATION
#----------   ------------   ------------------------------
 STRT.F          196.5000:   START DEPTH
 STOP.F         3202.0000:   STOP DEPTH
 STEP.F            0.5000:   STEP LENGTH
 NULL.          -999.2500:   NO VALUE
 COMP.    FENIX & SCISSON:   COMPANY
 WELL.   FENIX "AX" #26-3:   WELL
 FLD .              NPR-3:   FIELD
 LOC .       S3 T38N R78W:   LOCATION
 CNTY.            NATRONA:   COUNTY
 STAT.            WYOMING:   STATE
 CTRY. UNITED STATES OF AMERICA:   COUNTRY
 SRVC.              WELEX:   SERVICE COMPANY
 DATE.        19-JUN-1977:   LOGDATE
 API .     49025103800000:   API NUMBER
~CURVE INFORMATION
#MNEM.UNIT       API CODE    CURVE DESCRIPTION
#----------   ------------   ------------------------------
 DEPT.F                  :   
 CALD.IN     45 280 60 00:   CALIPER FROM DENSITY LOG
 GRD .GAPI   45 310 01 00:   GAMMA RAY FROM DENSITY LOG
 RHOB.G/C3   45 350 01 00:   BULK DENSITY
 CORR.G/C3   45 356 01 00:   DENSITY CORRECTION
 SPR .MV     07 010 01 00:   SPONTANEOUS POTENTIAL
 ILD .OHMM   07 120 46 00:   DEEP INDUCTION RESISTIVITY
 ILM .OHMM   07 120 44 00:   INDUCTION LOG MEDIUM RESISTIVITY
 SGRD.OHMM   07 220 05 00:   SHALLOW SHORT GUARD RESISTIVITY
~PARAMETER INFORMATION
#MNEM.UNIT          VALUE    DESCRIPTION
#----------   ------------   ------------------------------
 EKB .F         5231.0000:   Kelly bushing
 EGL .F         5221.0000:   Ground level
 EDF .F            0.0000:   Drilling floor
 TD  .F         3204.0000:   Total depth
 CLNT.            A2DTECH:   Client Code
 SL  . 1320' FSL & 740' FWL:   Surface Location
 PD  .                 GL:   Permanent Datum
 EPD .F              5221:   Elevation Permanent Datum
 LMF .                 KB:   Log Measured From
 DMF .                 KB:   Drilling Measured From
 DAPD.F                10:   Feet Above Permanent Datum
 DATE.        19-JUN-1977:   Date Logged [DD-MMM-YYYY]
 DD  .F              3200:   Depth driller
 DL  .F              3204:   Depth logger
 BLI .F              3202:   Bottom log interval
 TLI .F               220:   Top log interval
 CS1 .IN            8.625:   Casing size
 CBD1.      8.625" @ 220':   Casing driller 1
 CBL1.F               220:   Casing logger 1
 BS1 .IN            7.875:   Bit size
 BSD1.F              3200:   Depth drilled with bit1
 DFT .                KCL:   Type fluid in hole
 DFD .                9.1:   Density
 RMS .OHMM           1.19:   Rm
 MST .F                65:   Rm Meas. temp.
 TCS .HRS               4:   Time Circ. stopped
 MRT .F               115:   Maximum recorded temp.
 LUN .               8766:   Logging unit number
 ENGI.          T. JOYNER:   Recorded By
 WITN.         PETTINGILL:   Witnessed by
 ORIG.           5" PRINT:   Origin of data
 UWI .     49025103800000:   Unique Well ID
 DICO. A2D TECHNOLOGIES, INC.:   Digitizing Company
 DFPH.                7.5:   pH
 DFL .                4.2:   Fluid loss
 MSS .            MUD PIT:   Source of sample
 RMF .OHMM           1.19:   Rmf
 MFST.F                65:   Rmf Meas. temp.
 MFSS.               MEAS:   Source Rmf.
 RMC .OHMM           2.01:   Rmc
 MCST.F                65:   Rmc Meas. temp.
 MCSS.               MEAS:   Source Rmc.
 RMB .OHMM            .67:   Rm. at BHT
 BHT .F               115:   BHT.
~OTHER INFORMATION
~A   DEPT     CALD         GRD      RHOB       CORR        SPR        ILD        ILM       SGRD   
# ...
 2383.5000     9.2104   101.2519     2.4315     0.0076   -57.4093     7.2313     7.5232    10.0747
 2384.0000     9.2119    98.3091     2.4308     0.0077   -57.2485     7.1365     7.3244    10.1517
 2384.5000     9.2133    97.7364     2.4294     0.0078   -57.2267     6.8544     7.1796    10.2308
 2385.0000     9.2148    99.5485     2.4257     0.0086   -57.2087     6.5806     7.0842    10.2380
 2385.5000     9.2166    97.5044     2.4234     0.0102   -57.3431     6.4274     7.0397     9.0496
 2386.0000     9.2180    96.0434     2.4282     0.0110   -57.3206     6.3256     7.0939     8.2070
 2386.5000     9.2195    94.8528     2.4345     0.0126   -57.4551     6.2439     7.1471     7.7875
 2387.0000     9.2207    93.7279     2.4314     0.0134   -57.4326     6.1632     7.2510     6.4250
 2387.5000     9.2222    92.5754     2.4267     0.0135   -57.4146     6.0848     7.3291     5.8369
 2388.0000     9.2237    91.7128     2.4232     0.0120   -57.5445     6.1316     7.4635     8.7140
 2388.5000     9.2253    90.2559     2.4225     0.0106   -57.5259     6.1787     7.5721    10.1483
 2389.0000     9.2267    89.3933     2.4227     0.0099   -57.6564     6.3565     7.6831    10.2964
 2389.5000     9.2282    89.1178     2.4228     0.0100   -57.6339     6.5398     7.6877    10.0234
 2390.0000     9.2296    88.8559     2.4260     0.0093   -57.6159     6.7333     7.6383     9.7444
 2390.5000     9.2311    90.6688     2.4299     0.0102   -57.7459     6.9685     7.6440     9.3705
 2391.0000     9.2177    88.2971     2.4355     0.0110   -57.8803     7.2181     7.7551     9.2471
 2391.5000     9.2043    88.0521     2.4402     0.0118   -58.0057     7.3468     7.8136     9.4486
 2392.0000     9.2061    89.2698     2.4449     0.0126   -58.1361     7.5634     7.9796    11.0799
 2392.5000     9.2076    86.0298     2.4466     0.0127   -58.4135     7.7611     8.0433    12.0440
 2393.0000     9.2089    89.3277     2.4444     0.0128   -58.6914     7.9182     8.1913    11.7247
 2393.5000     9.2105    83.4203     2.4407     0.0121   -58.9648     8.0896     8.2780    11.2575
 2394.0000     9.2119    80.7747     2.4353     0.0114   -59.2426     8.2226     8.3414    10.7347
 2394.5000     9.2134    82.4935     2.4316     0.0115   -59.3771     8.3285     8.4043    10.0746
 2395.0000     9.2148    78.7523     2.4271     0.0101   -59.6504     8.4519     8.4677     9.4301
 2395.5000     9.2163    76.0713     2.4241     0.0087   -59.9283     8.4573     8.5316    10.1120
 2396.0000     9.2181    71.9752     2.4211     0.0087   -60.0627     8.5234     8.6555    10.9919
 2396.5000     9.2195    74.9759     2.4158     0.0066   -60.3365     8.5300     8.7208    12.3674
 2397.0000     9.2210    71.4459     2.4135     0.0074   -60.6139     8.5365     8.7261    12.9880
 2397.5000     9.2072    69.3946     2.4088     0.0082   -60.5954     8.4829     8.6712    12.4705
 2398.0000     9.2090    67.6405     2.4022     0.0091   -60.5734     8.4910     8.6778    11.3311
 2398.5000     9.2189    66.1836     2.4031     0.0091   -60.7230     8.4391     8.6233    10.4388
 2399.0000     9.2208    67.4013     2.4094     0.0092   -60.8358     8.3815     8.5101    10.0229
 2399.5000     9.2226    68.6503     2.4133     0.0100   -60.8654     8.1679     8.3405    11.7554
 2400.0000     9.2245    68.0535     2.4072     0.0108   -60.9467     8.0609     8.2869    11.5229
 2400.5000     9.2264    71.3837     2.4035     0.0109   -60.8696     7.7957     7.7395     9.7726
 2401.0000     9.2283    72.8735     2.4037     0.0110   -60.6987     7.4347     7.4297     8.7581
 2401.5000     9.2450    74.3883     2.4053     0.0111   -60.5318     7.1394     7.2315     7.8476
 2402.0000     9.2470    72.0740     2.4054     0.0104   -60.3650     6.9031     7.0336     9.5269
 2402.5000     9.2493    74.7863     2.4024     0.0105   -60.1981     6.7003     6.8048    10.3558
 2403.0000     9.2358    77.2014     2.3980     0.0106   -60.1794     6.5437     6.6692    10.6529
 2403.5000     9.2382    77.8336     2.3950     0.0115   -60.3096     6.4145     6.5817    10.1967
 2404.0000     9.2400    77.9037     2.3928     0.0116   -60.2902     6.3317     6.6313     8.7968
 2404.5000     9.2419    79.9986     2.3921     0.0124   -60.4196     6.2511     6.9162     8.1040
 2405.0000     9.2438    83.3053     2.3907     0.0132   -60.5491     6.1704     7.2633     7.9973
 2405.5000     9.2606    84.5317     2.3909     0.0133   -60.6785     6.1517     7.5232     8.0043
 2406.0000     9.2475    88.4327     2.3879     0.0134   -60.8033     6.0943     7.6325     7.9003
 2406.5000     9.2495    91.4422     2.3864     0.0135   -60.9374     6.1847     7.7435     7.3792
 2407.0000     9.2514    94.4517     2.3850     0.0136   -61.0669     6.2753     7.8571     6.9881
 2407.5000     9.2384    98.0555     2.3859     0.0129   -61.0435     6.4106     7.9712     8.3127
 2408.0000     9.2407    99.5791     2.3876     0.0123   -61.0248     6.5996     7.9761    11.7354
 2408.5000     9.2426    98.7251     2.3909     0.0116   -61.0000     6.8327     8.0362    13.3904
 2409.0000     9.2445   100.2716     2.3964     0.0117   -60.8385     7.0289     8.0411    12.8568
 2409.5000     9.2464   102.1218     2.3965     0.0110   -60.8159     7.1318     7.9893    11.3644
 2410.0000     9.2334   104.7915     2.3943     0.0111   -60.7972     7.0384     7.9403    10.2552
 2410.5000     9.2501   108.3953     2.3921     0.0097   -60.7785     6.9488     7.7821    10.4049
 2411.0000     9.2520   111.7020     2.3938     0.0098   -60.7598     6.7653     7.4663    10.4842
 2411.5000     9.2539   115.0086     2.3970     0.0092   -60.8893     6.6321     7.1233     9.6586
 2412.0000     9.2409   118.0181     2.3971     0.0093   -60.8705     6.4127     6.9354     7.5411
 2412.5000     9.2581   120.7304     2.3972     0.0094   -61.0000     5.9875     6.5526     8.9355
 2413.0000     9.2600   122.8484     2.3973     0.0094   -60.9807     5.5976     6.1602     8.0922
 2413.5000     9.2619   124.9664     2.3990     0.0095   -61.1108     5.3550     5.8250     6.3181
 2414.0000     9.2786   126.8113     2.4135     0.0096   -61.2355     4.9336     5.4848     5.5847
 2414.5000     9.2805   128.9469     2.4285     0.0112   -61.2168     4.6084     5.2286     5.2163
 2415.0000     9.2972   131.0325     2.4427     0.0120   -61.1981     4.3046     5.0190     4.6748
 2415.5000     9.3140   132.5561     2.4482     0.0121   -61.1794     4.0765     4.9865     5.7135
 2416.0000     9.3308   133.7825     2.4491     0.0115   -61.1607     3.9683     4.9898     6.0002
 2416.5000     9.3479   134.1174     2.4446     0.0101   -61.1420     3.9436     5.0271     5.8382
 2417.0000     9.3795   133.5608     2.4455     0.0094   -60.9748     3.9463     5.1181     5.4463
 2417.5000     9.4111   132.7070     2.4464     0.0095   -60.8037     3.9761     5.1736     5.3111
 2418.0000     9.4427   131.5560     2.4449     0.0096   -60.7850     3.9791     5.2484     5.5403
 2418.5000     9.4595   129.5135     2.4497     0.0104   -60.7663     4.0152     5.2694     5.7784
 2419.0000     9.4762   127.1667     2.4545     0.0105   -60.7476     4.0395     5.2906     5.9441
 2419.5000     9.4929   122.3343     2.4624     0.0121   -60.8817     4.0981     5.2570     6.0298
 2420.0000     9.4948   115.9659     2.4703     0.0122   -61.3028     4.1393     5.2605     5.7906
 2420.5000     9.4967   116.2914     2.4734     0.0123   -61.5804     4.1889     5.2634     5.5599
 2421.0000     9.4987   109.5035     2.4751     0.0124   -61.8580     4.2497     5.2662     5.4116
 2421.5000     9.5009   104.7864     2.4752     0.0117   -62.0102     4.2968     5.2328     5.4164
 2422.0000     9.5177   101.2580     2.4730     0.0118   -62.1169     4.3440     5.1988     5.6890
 2422.5000     9.5344    99.2155     2.4646     0.0119   -61.9453     4.4097     5.2022     5.9335
 2423.0000     9.5512    99.5504     2.4562     0.0120   -61.9266     4.4410     5.2052     5.9787
 2423.5000     9.5530   101.0740     2.4440     0.0128   -61.9079     4.4745     5.2079     5.6230
