~VERSION INFORMATION
 VERS.                2.0:   CWLS LOG ASCII STANDARD - VERSION 2.0
 WRAP.                 NO:   ONE LINE PER DEPTH STEP
~WELL INFORMATION
#MNEM.UNIT      DATA TYPE    INFORMATION
#----------   ------------   ------------------------------
 STRT.F          174.0000:   START DEPTH
 STOP.F         3492.0000:   STOP DEPTH
 STEP.F            0.5000:   STEP LENGTH
 NULL.          -999.2500:   NO VALUE
 COMP.    FENIX & SCISSON:   COMPANY
 WELL.   FENIX "AX" #18-3:   WELL
 FLD .        TEAPOT DOME:   FIELD
 LOC .       S3 T38N R78W:   LOCATION
 CNTY.            NATRONA:   COUNTY
 STAT.            WYOMING:   STATE
 CTRY. UNITED STATES OF AMERICA:   COUNTRY
 SRVC.       SCHLUMBERGER:   SERVICE COMPANY
 DATE.        09-FEB-1981:   LOGDATE
 API .     49025108630000:   API NUMBER
~CURVE INFORMATION
#MNEM.UNIT       API CODE    CURVE DESCRIPTION
#----------   ------------   ------------------------------
 DEPT.F                  :   
 CALD.IN     45 280 60 00:   CALIPER FROM DENSITY LOG
 GRD .GAPI   45 310 01 00:   GAMMA RAY FROM DENSITY LOG
 RHOB.G/C3   45 350 01 00:   BULK DENSITY
 DRHO.G/C3   45 356 01 00:   DENSITY CORRECTION
 TENR.LBS    07 635 01 00:   TENSION FROM RESISTIVITY
 SPR .MV     07 010 01 00:   SPONTANEOUS POTENTIAL
 ILM .OHMM   07 120 44 00:   INDUCTION LOG MEDIUM RESISTIVITY
 ILD .OHMM   07 120 46 00:   INDUCTION LOG DEEP RESISTIVITY
 SFLU.OHMM   07 220 01 00:   SPHERICALLY FOCUSED LOG UNAVERAGED RESISTIVITY
~PARAMETER INFORMATION
#MNEM.UNIT          VALUE    DESCRIPTION
#----------   ------------   ------------------------------
 EKB .F         5267.0000:   Kelly bushing
 EGL .F         5257.0000:   Ground level
 EDF .F            0.0000:   Drilling floor
 TD  .F         3472.0000:   Total depth
 DATE.        09-FEB-1981:   Date logged
 CLNT.            A2DTECH:   Client Code
 SL  . 669' FSL & 42' FWL:   Surface Location
 PD  .                 GL:   Permanent Datum
 DD  .F              3401:   Depth driller
 DL  .F              3472:   Depth logger
 BLI .F              3466:   Bottom log interval
 CS1 .IN            8.625:   Casing size
 CBD1.      8.625" @ 200':   Casing driller 1
 CBL1.F               196:   Casing logger 1
 BS1 .IN            7.875:   Bit size
 DFT .            KCL/GEL:   Type fluid in hole
 DFD .                  9:   Density
 DFV .                 60:   Viscosity
 DFPH.                8.5:   pH
 DFL .                 10:   Fluid loss
 MSS .            MUD/PIT:   Source of sample
 RMS .OHMM           1.88:   Rm
 MST .F                75:   Rm Meas. temp.
 RMF .OHMM           1.12:   Rmf
 MFST.F                75:   Rmf Meas. temp.
 MFSS.               MEAS:   Source Rmf.
 RMB .OHMM           1.21:   Rm. at BHT
 BHT .F               120:   BHT.
 TCS .HRS            1800:   Time Circ. stopped
 MRT .F               120:   Maximum recorded temp.
 LUN .               8043:   Logging unit number
 LUL .               CSPR:   Logging unit location
 ENGI.            CONNETT:   Recorded By
 WITN.              SCOTT:   Witnessed by
 ORIG.           5" PRINT:   Origin of data
 UWI .     49025108630000:   Unique Well ID
 DICO. A2D TECHNOLOGIES, INC.:   Digitizing Company
 DAPD.F                10:   Feet Above Permanent Datum
 BSD1.F              3401:   Depth drilled with bit1
 EPD .F              5257:   Elevation Permanent Datum
 LMF .                 KB:   Log Measured From
 DMF .                 KB:   Drilling Measured From
 TLI .F               196:   Top log interval
 TLAB.               0000:   Time logger at bottom
~OTHER INFORMATION
~A   DEPT     CALD         GRD      RHOB       DRHO       TENR        SPR        ILM        ILD       SFLU   
# ...
 2145.0000     8.8270   142.5570     2.6350     0.1240   837.3520   -46.5590     6.4220     6.2030     7.8560
 2145.5000     8.8270   141.6060     2.6200     0.1130   836.9920   -46.3090     6.3760     6.1270     7.7650
 2146.0000     8.8270   141.0640     2.5920     0.0930   836.6320   -46.0530     6.3090     6.0510     7.6560
 2146.5000     8.8270   144.1570     2.5680     0.0730   836.2720   -45.9710     6.1760     5.9750     7.5390
 2147.0000     8.8270   148.1370     2.5440     0.0790   835.9120   -45.8790     6.0420     5.8980     7.4580
 2147.5000     8.8270   150.0460     2.5480     0.0940   835.5520   -45.7820     5.9220     5.8220     6.9030
 2148.0000     8.8260   149.7030     2.5530     0.1000   835.1920   -45.6910     5.8580     5.7460     6.2860
 2148.5000     8.8260   146.1270     2.5490     0.0920   834.8320   -45.4260     5.7650     5.6360     5.9220
 2149.0000     8.8260   142.1180     2.5470     0.0820   834.4720   -45.4440     5.6730     5.4930     6.9450
 2149.5000     8.8260   139.6180     2.5570     0.0820   834.1120   -45.4460     5.5800     5.3500     7.8090
 2150.0000     8.8260   138.0870     2.5680     0.1000   833.7520   -45.4420     5.4540     5.2070     7.8090
 2150.5000     8.8250   138.9120     2.5750     0.1130   833.3920   -45.4460     5.3130     5.0640     7.2750
 2151.0000     8.8250   141.3260     2.5680     0.1280   833.0320   -45.2270     5.1100     4.9210     6.7380
 2151.5000     8.8250   146.6110     2.5460     0.1400   832.6730   -45.1900     5.1240     4.7910     5.8310
 2152.0000     8.8250   151.5270     2.5000     0.1240   832.3130   -45.1310     5.1440     4.8260     4.7470
 2152.5000     8.8250   155.8430     2.4500     0.0810   831.9530   -45.0690     5.1580     4.8660     5.5000
 2153.0000     8.8240   165.3270     2.4810     0.0680   831.5930   -45.1300     5.1280     4.9250     7.0340
 2153.5000     8.8240   176.6060     2.5320     0.0740   831.2330   -45.4450     5.1010     4.8880     8.5680
 2154.0000     8.8240   187.9510     2.5670     0.1290   830.8730   -45.7520     5.0740     4.8120     9.0510
 2154.5000     8.8240   199.5070     2.5590     0.1780   830.8310   -46.0580     5.0470     4.7360     7.5180
 2155.0000     8.8240   202.7770     2.5310     0.1640   830.8310   -46.3650     5.0170     4.6600     5.7840
 2155.5000     8.8230   203.4810     2.4760     0.1190   830.8310   -46.6720     5.2190     4.5840     4.5330
 2156.0000     8.8230   204.0560     2.4660     0.0850   830.8310   -47.1550     5.5160     5.1350     5.8370
 2156.5000     8.8230   204.4240     2.4950     0.0790   830.8310   -47.8310     5.8130     5.7730     7.3220
 2157.0000     8.8230   202.0560     2.5270     0.0820   830.8310   -48.5030     6.0890     6.4110     8.8070
 2157.5000     8.8230   200.4230     2.5210     0.0790   830.8310   -49.1860     7.0930     7.0480    10.2920
 2158.0000     8.8220   200.2460     2.5060     0.0770   830.8310   -49.5990     8.0300     7.6860    11.1040
 2158.5000     8.8220   198.8540     2.4910     0.0740   830.8310   -49.7370     8.9680     8.3240    11.5830
 2159.0000     8.8220   195.0070     2.4840     0.0760   830.8310   -49.8960     9.9050     8.9620    12.1780
 2159.5000     8.8220   191.1260     2.4870     0.0790   830.8310   -50.0520    10.7840     9.3050    13.1000
 2160.0000     8.8220   187.2160     2.4930     0.0820   830.8310   -50.1980    10.7840     9.9330    14.0220
 2160.5000     8.8210   186.0810     2.4980     0.0780   830.8310   -50.0410    10.7840    10.4890    14.8900
 2161.0000     8.8210   191.5910     2.4980     0.0730   830.8310   -49.8050    10.7840    10.4310    14.5220
 2161.5000     8.8210   201.1950     2.4950     0.0690   830.8310   -49.5680    10.7840    10.3630    14.1740
 2162.0000     8.8210   210.7950     2.4930     0.0670   830.8310   -49.3320    10.7840    10.2950    13.7050
 2162.5000     8.8210   220.2970     2.4910     0.0640   830.8310   -49.0810    10.7840    10.2030    14.6180
 2163.0000     8.8200   226.7380     2.4960     0.0720   830.8310   -48.9190    10.7840    10.2230    14.1850
 2163.5000     8.8200   228.8050     2.5020     0.0830   830.8310   -48.4940    10.7830    10.2690    13.5180
 2164.0000     8.8200   225.2630     2.5080     0.0930   830.8310   -48.0630    10.7830    10.3140    12.6850
 2164.5000     8.8200   221.5300     2.5090     0.0900   830.8310   -48.5770    10.7840    10.3590    13.3180
 2165.0000     8.8200   220.8160     2.5070     0.0840   830.8310   -49.2240    10.8730    10.4820    14.4130
 2165.5000     8.8190   221.8640     2.5060     0.0840   830.8310   -49.6000    11.2430    10.8490    15.0280
 2166.0000     8.8190   221.9850     2.5040     0.0830   830.8310   -49.6020    11.6130    11.2170    15.0280
 2166.5000     8.8190   212.2260     2.5030     0.0850   830.8310   -49.6040    11.9830    11.5850    14.0490
 2167.0000     8.8190   202.2720     2.4900     0.0830   830.8310   -49.6040    12.2340    11.9530    14.6880
 2167.5000     8.8190   192.4120     2.4750     0.0680   830.8310   -49.6040    12.4600    12.3200    15.8380
 2168.0000     8.8180   182.8720     2.4580     0.0600   830.8310   -49.6040    12.6860    12.3830    17.3630
 2168.5000     8.8180   173.8410     2.4690     0.0650   830.8310   -49.6040    12.9120    12.3830    17.1500
 2169.0000     8.8230   164.8490     2.4820     0.0740   830.8310   -49.6040    13.0870    12.3500    16.7250
 2169.5000     8.8330   160.0650     2.4940     0.0770   830.8310   -49.6050    12.7540    12.2050    16.2350
 2170.0000     8.9150   163.9670     2.4770     0.0740   830.8310   -49.6030    12.4820    12.0600    15.1330
 2170.5000     8.9320   168.3380     2.4880     0.0790   830.8310   -49.5240    12.2450    11.9150    14.0320
 2171.0000     8.8890   170.7520     2.5110     0.0940   830.8310   -49.1230    12.1340    11.7700    13.6130
 2171.5000     8.8640   171.2450     2.5330     0.1150   830.8310   -48.7270    12.0220    11.6250    14.1210
 2172.0000     8.8400   170.2080     2.5330     0.1080   830.8310   -48.3320    11.8930    11.4800    15.1670
 2172.5000     8.8190   167.8430     2.4990     0.0890   830.8310   -47.9360    11.6950    11.3350    15.0440
 2173.0000     8.8240   157.2300     2.4840     0.0750   830.8310   -47.5400    11.4970    11.1890    14.8920
 2173.5000     8.8300   146.6300     2.4900     0.0750   830.8310   -47.1480    11.3000    11.0440    14.7390
 2174.0000     8.8350   138.0740     2.5100     0.0840   830.8310   -46.8130    11.1020    10.8990    14.3510
 2174.5000     8.8400   131.0600     2.5300     0.0950   830.8310   -46.7750    10.9840    10.7840    13.0420
 2175.0000     8.8460   132.8480     2.5500     0.1110   830.8310   -46.7280    10.9840    10.7470    11.7340
 2175.5000     8.8510   135.2630     2.5770     0.1590   830.8310   -46.6810    10.9840    10.7020    10.6850
 2176.0000     8.8570   136.1340     2.6080     0.2070   830.8310   -46.6410    10.9840    10.6570    10.6850
 2176.5000     8.8620   130.3740     2.6360     0.2340   830.8310   -46.4360    10.9730    10.6110    12.2770
 2177.0000     8.8680   116.8680     2.6280     0.1920   830.8310   -46.1930    10.9160    10.5660    14.2790
 2177.5000     8.8730   101.9760     2.6050     0.1480   830.8310   -46.1140    10.8580    10.5210    16.2810
 2178.0000     8.8790    95.7260     2.6050     0.1410   830.8310   -46.3150    10.8010    10.4750    17.9050
 2178.5000     8.8840   105.4120     2.6240     0.1820   830.8310   -46.5120    10.7430    10.4300    17.0760
 2179.0000     8.8890   115.9650     2.6280     0.2190   830.8310   -46.7090    10.6850    10.3930    14.9330
 2179.5000     8.8950   126.5120     2.6080     0.2300   830.8310   -46.8380    10.4550    10.1590    12.7890
 2180.0000     8.9000   135.9250     2.5850     0.2170   830.8310   -46.6700    10.1610     9.9210     9.7440
 2180.5000     8.9060   138.2260     2.5600     0.1510   830.8310   -46.4660     9.8680     9.6830    10.0000
 2181.0000     8.9110   140.4990     2.5680     0.1470   830.8310   -46.2590     9.5740     9.4450    10.4420
