~VERSION INFORMATION
 VERS.                2.0:   CWLS LOG ASCII STANDARD - VERSION 2.0
 WRAP.                 NO:   ONE LINE PER DEPTH STEP
~WELL INFORMATION
#MNEM.UNIT      DATA TYPE    INFORMATION
#----------   ------------   ------------------------------
 STRT.F          220.0000:   START DEPTH
 STOP.F         3284.5000:   STOP DEPTH
 STEP.F            0.5000:   STEP LENGTH
 NULL.          -999.2500:   NO VALUE
 COMP.    FENIX & SCISSON:   COMPANY
 WELL. FENIX HARPEL "A" #85-28:   WELL
 FLD .              NPR-3:   FIELD
 LOC .      S28 T39N R78W:   LOCATION
 CNTY.            NATRONA:   COUNTY
 STAT.            WYOMING:   STATE
 CTRY. UNITED STATES OF AMERICA:   COUNTRY
 SRVC.      DRESSER ATLAS:   SERVICE COMPANY
 DATE.        07-AUG-1977:   LOGDATE
 API .     49025104040000:   API NUMBER
~CURVE INFORMATION
#MNEM.UNIT       API CODE    CURVE DESCRIPTION
#----------   ------------   ------------------------------
 DEPT.F                  :   
 GRD .GAPI   45 310 01 00:   GAMMA RAY FROM DENSITY LOG
 CALD.IN     45 280 60 00:   CALIPER FROM DENSITY LOG
 CORR.G/C3   45 356 01 00:   DENSITY CORRECTION
 RHOB.G/C3   45 350 01 00:   BULK DENSITY
 TEND.LBS    45 635 01 00:   TENSION FORM DENSITY LOG
 NPHI.DEC    42 890 03 00:   NEUTRON POROSITY SANDSTONE
 SPR .MV     11 010 01 00:   SPONTANEOUS POTENTIAL FROM RES.
 TENR.LBS    11 635 01 00:   TENSION FROM RES.
 LLD .OHMM   11 220 10 00:   LATEROLOG LOG DEEP
 LLS .OHMM   11 220 09 00:   LATEROLOG SHALLOW
 RXO .OHMM   11 270 04 00:   FLUSHED ZONE RESISTIVITY
~PARAMETER INFORMATION
#MNEM.UNIT          VALUE    DESCRIPTION
#----------   ------------   ------------------------------
 EKB .F         5059.0000:   Kelly bushing
 EGL .F         5049.0000:   Ground level
 EDF .F            0.0000:   Drilling floor
 EPD .F            0.0000:   Permanent datum
 TD  .F         3240.0000:   Total depth
 CLNT.            A2DTECH:   Client Code
 SL  . 2310' FSL & 330' FEL:   Surface Location
 PD  .                 GL:   Permanent Datum
 DAPD.F                10:   Feet Above Permanent Datum
 DATE.        07-AUG-1977:   Date Logged [DD-MMM-YYYY]
 DD  .F              3240:   Depth driller
 DL  .F              3267:   Depth logger
 BLI .F              3265:   Bottom log interval
 TLI .F               224:   Top log interval
 CS1 .IN            8.625:   Casing size
 CBD1.      8.625" @ 254':   Casing driller 1
 CBL1.F               224:   Casing logger 1
 BS1 .IN            7.875:   Bit size
 BSD1.F              3240:   Depth drilled with bit1
 DFT .                KCL:   Type fluid in hole
 DFD .                8.8:   Density
 DFV .                 36:   Viscosity
 DFPH.               10.5:   pH
 DFL .                9.6:   Fluid loss
 MSS .         CIRCULATED:   Source of sample
 RMS .OHMM           0.22:   Rm
 MST .F                78:   Rm Meas. temp.
 RMF .OHMM           0.16:   Rmf
 MFST.F                78:   Rmf Meas. temp.
 MFSS.               MEAS:   Source Rmf.
 RMC .OHMM           0.28:   Rmc
 MCST.F                78:   Rmc Meas. temp.
 MCSS.               MEAS:   Source Rmc.
 RMB .OHMM           0.14:   Rm. at BHT
 BHT .F               125:   BHT.
 TCS .HRS               7:   Time Circ. stopped
 MRT .F               125:   Maximum recorded temp.
 LUN .               6134:   Logging unit number
 LUL .              GLTTE:   Logging unit location
 ENGI.              GOULD:   Recorded By
 WITN.         HARRINGTON:   Witnessed by
 ORIG.      2.5" 5" PRINT:   Origin of data
 UWI .     49025104040000:   Unique Well ID
 DICO. A2D TECHNOLOGIES, INC.:   Digitizing Company
~OTHER INFORMATION
~A   DEPT      GRD       CALD       CORR       RHOB       TEND         NPHI      SPR       TENR        LLD        LLS        RXO   
# ...
 1623.0000    51.0343     8.5925     0.0059     2.5312  1032.4698     0.2759   -77.0599   746.1078    11.0318     9.1184     7.3725
 1623.5000    51.9518     8.6018     0.0077     2.5306  1030.2858     0.2771   -77.0689   751.1937    10.8764     9.3359     7.2682
 1624.0000    53.1678     8.6039     0.0097     2.5509  1087.8931     0.2885   -77.0778   777.2455    11.0238     9.6283     7.2653
 1624.5000    54.2290     8.6061     0.0142     2.5277  1070.7612     0.2996   -77.0868   777.8443    11.1734     9.7581     7.4656
 1625.0000    51.1167     8.6082     0.0159     2.5315  1068.5771     0.2997   -77.0958   778.4431    11.0166     9.6198     7.6713
 1625.5000    50.5416     8.6103     0.0192     2.5406  1051.4459     0.2998   -77.1048   769.8123    10.7135     9.4842     7.6465
 1626.0000    49.6716     8.6124     0.0209     2.5602  1019.3665     0.2737   -77.1155   749.7006    11.4316     9.6124     7.5604
 1626.5000    52.3993     8.6143     0.0166     2.5407  1017.1824     0.2661   -77.1240   750.2994    12.1211     9.7422     7.7093
 1627.0000    53.3401     8.6309     0.0153     2.5280  1059.8419     0.2682   -77.4318   750.9077    12.0366     9.7379     7.7648
 1627.5000    54.6630     8.6185     0.0125     2.5213  1072.6056     0.2838   -77.4403   751.4971    11.6205     9.9230     7.7611
 1628.0000    52.7502     8.6208     0.0127     2.5402  1085.3691     0.2832   -77.4491   752.0958    11.7780    10.0023     7.7581
 1628.5000    51.1303     8.6227     0.0190     2.5470  1052.7438     0.2817   -77.4581   752.6946    12.4417     9.9975     7.6489
 1629.0000    50.2513     8.6247     0.0208     2.5411  1005.7172     0.2860   -77.1662   753.2934    12.2674     9.5881     7.6459
 1629.5000    51.6220     8.6268     0.0210     2.5329   988.5855     0.2882   -77.1766   753.8922    11.5925     9.5843     7.8758
 1630.0000    51.0470     8.6289     0.0167     2.5277  1001.8950     0.2732   -77.4867   754.5853    11.1311     9.5806     7.9626
 1630.5000    50.7676     8.6312     0.0124     2.5255   999.1655     0.2720   -77.4952   755.1511    10.9755     9.8669     7.7424
 1631.0000    49.0032     8.6331     0.0095     2.5233  1011.9291     0.2785   -77.5036   755.7169    11.7358     9.9780     7.6332
 1631.5000    50.5177     8.6355     0.0098     2.5234  1054.5881     0.2869   -77.2126   726.3426    11.5712     9.8598     7.6295
 1632.0000    52.6237     8.6286     0.0115     2.5273  1017.6539     0.2926   -77.2216   756.8862    10.6648     9.5647     7.6266
 1632.5000    51.7502     8.6244     0.0149     2.5326   974.9362     0.2922   -77.3003   757.4850    10.5154     9.4290     7.4162
 1633.0000    53.2702     8.6326     0.0182     2.5389  1032.5428     0.2880   -77.5389   758.0839    11.1080     9.1686     7.3118
 1633.5000    52.6951     8.6435     0.0230     2.5487  1060.8000     0.2910   -77.5479   758.6827    11.5733     9.0393     7.4105
 1634.0000    52.0475     8.6456     0.0245     2.5530  1013.2270     0.2862   -77.8579   759.3946    10.7516     9.0283     7.5104
 1634.5000    54.3839     8.6477     0.0248     2.5468   966.2005     0.2856   -77.8664   759.8802    10.3177     9.0556     7.5069
 1635.0000    55.1472     8.6502     0.0235     2.5434   979.5099     0.2897   -77.5748   760.5261    10.6748     9.4107     7.5038
 1635.5000    52.3389     8.6517     0.0207     2.5502  1021.6739     0.2833   -77.5839   761.0920    11.0890     9.2922     7.3975
 1636.0000    51.9076     8.6389     0.0179     2.5443  1034.3872     0.2693   -77.5928   761.6767    10.7830     8.9498     7.3946
 1636.5000    53.1291     8.6415     0.0197     2.5361  1015.3924     0.2716   -77.6018   762.2754    10.4863     8.7709     7.3917
 1637.0000    54.4888     8.6432     0.0183     2.5301  1000.1237     0.2740   -77.4990   762.8743    10.3394     9.0130     7.3888
 1637.5000    53.1730     8.6457     0.0141     2.5242  1027.2891     0.2755   -77.3204   763.4730    10.7725     9.1348     7.3986
 1638.0000    49.7621     8.6474     0.0143     2.5213  1040.5990     0.2833   -77.3309   764.0718    10.9185     8.9951     7.6151
 1638.5000    52.6199     8.6495     0.0206     2.5596  1022.9214     0.2890   -77.0400   764.7697    10.5828     8.6372     7.7986
 1639.0000    51.8926     8.6519     0.0299     2.5717  1020.7374     0.2946   -77.0484   765.3355    10.3253     9.1289     7.9031
 1639.5000    52.9796     8.6539     0.0347     2.5635  1033.5015     0.2877   -76.7555   765.9012    10.9758     9.5753     7.8992
 1640.0000    54.2189     8.6557     0.0379     2.5455  1031.3174     0.2835   -76.4665   766.4670    10.9026     9.3705     7.7880
 1640.5000    55.6984     8.6581     0.0336     2.5584   999.2379     0.2889   -76.4761   767.0659    10.4574     8.9867     7.5732
 1641.0000    55.7203     8.6524     0.0293     2.5689   997.0106     0.2975   -76.4850   767.6647    10.1697     9.1308     7.3644
 1641.5000    54.9960     8.6468     0.0265     2.5585  1039.1675     0.3070   -76.4940   768.2634    10.1663     9.0830     7.2508
 1642.0000    52.0577     8.6345     0.0252     2.5406  1052.4771     0.3137   -76.5045   768.8622    10.3041     9.0806     7.1582
 1642.5000    55.1874     8.6366     0.0224     2.5294  1019.8517     0.3056   -76.5130   769.4610    10.1315     8.8299     7.0577
 1643.0000    57.2989     8.6385     0.0165     2.5212  1002.7205     0.3034   -76.5214   740.2046     9.7444     8.5576     7.1983
 1643.5000    58.2164     8.6405     0.0137     2.5273  1015.4841     0.3100   -76.5299   740.7185     9.6076     8.2373     7.2486
 1644.0000    57.6298     8.6279     0.0185     2.5386  1043.7412     0.3256   -76.5389   741.3361     9.5307     8.4368     7.2451
 1644.5000    57.0202     8.6298     0.0248     2.5461   996.1683     0.3280   -76.5479   740.4153     9.7338     8.7601     7.2423
 1645.0000    55.2972     8.6322     0.0296     2.5500  1053.8115     0.3279   -76.5569   742.5149     9.5974     9.1913     7.2395
 1645.5000    59.8023     8.6340     0.0298     2.5560  1096.4344     0.3253   -76.4871   743.1138     9.3333     8.9386     7.2438
 1646.0000    56.5352     8.6213     0.0300     2.5606   989.5366     0.3180   -76.2755   743.7125     9.7297     8.7803     7.4558
 1646.5000    57.4582     8.6142     0.0287     2.5434  1046.6772     0.3164   -76.2854   744.3114    10.0149     9.0582     7.8149
 1647.0000    59.5697     8.5955     0.0214     2.5270  1059.9873     0.3290   -76.2938   744.9102    10.2690     8.6759     8.2824
 1647.5000    57.2036     8.5828     0.0170     2.5165  1042.3097     0.3227   -76.0029   745.5797    10.0143     8.4495     8.2293
 1648.0000    54.5390     8.5849     0.0173     2.5159  1025.1780     0.2995   -76.0120   746.1077     9.6418     8.8897     7.9529
 1648.5000    53.3669     8.5869     0.0190     2.5294  1022.9944     0.2965   -76.0210   746.7112    10.1169     9.1740     7.9498
 1649.0000    53.3423     8.5890     0.0192     2.5326  1035.7579     0.2892   -76.0299   747.3054    10.3964     9.1710     7.9467
 1649.5000    55.7989     8.5911     0.0149     2.5236  1078.4170     0.2892   -76.0389   747.9042    10.2507     9.0429     7.8251
 1650.0000    56.2687     8.5931     0.0136     2.5176  1091.1812     0.2961   -76.0493   748.5030     9.9686     8.6737     7.4970
 1650.5000    54.3477     8.5952     0.0123     2.5140  1029.3330     0.3000   -76.3572   749.1018     9.5302     8.6714     7.1782
 1651.0000    55.2722     8.5973     0.0142     2.5252  1027.4340     0.2999   -76.3656   749.7005     9.1708     8.8085     6.9296
 1651.5000    55.8925     8.5994     0.0205     2.5585  1025.5603     0.2999   -76.3743   750.3889     9.8001     9.1591     6.7211
 1652.0000    54.4230     8.6015     0.0285     2.5788  1023.6174     0.2908   -76.3832   750.9548    10.4501     8.8678     6.6549
 1652.5000    55.9388     8.6185     0.0347     2.5729  1021.6743     0.2788   -76.3922   751.5206     9.8145     8.6619     7.0960
 1653.0000    55.6634     8.6355     0.0395     2.5595  1019.7311     0.2805   -76.4012   752.0958     9.5445     8.6595     7.1918
