~VERSION INFORMATION
 VERS.                2.0:   CWLS LOG ASCII STANDARD - VERSION 2.0
 WRAP.                 NO:   ONE LINE PER DEPTH STEP
~WELL INFORMATION
#MNEM.UNIT      DATA TYPE    INFORMATION
#----------   ------------   ------------------------------
 STRT.F          590.0000:   START DEPTH
 STOP.F         3123.0000:   STOP DEPTH
 STEP.F            0.5000:   STEP LENGTH
 NULL.          -999.2500:   NO VALUE
 COMP.         U. S. NAVY:   COMPANY
 WELL. U.S. NPR 3 "A" #402-33:   WELL
 FLD .             TEAPOT:   FIELD
 LOC .      S33 T39N R78W:   LOCATION
 CNTY.            NATRONA:   COUNTY
 STAT.            WYOMING:   STATE
 CTRY. UNITED STATES OF AMERICA:   COUNTRY
 SRVC.         MCCULLOUGH:   SERVICE COMPANY
 DATE.        23-OCT-1967:   LOGDATE
 API .     49025104460000:   API NUMBER
~CURVE INFORMATION
#MNEM.UNIT       API CODE    CURVE DESCRIPTION
#----------   ------------   ------------------------------
 DEPT.F                  :   
 GRN .GAPI   35 310 01 00:   GAMMA RAY FROM NEUTRON
 NEUT.NAPI   35 330 01 00:   NEUTRON
~PARAMETER INFORMATION
#MNEM.UNIT          VALUE    DESCRIPTION
#----------   ------------   ------------------------------
 EKB .F            0.0000:   Kelly bushing
 EGL .F         5160.5000:   Ground level
 EDF .F         5162.0000:   Drilling floor
 TD  .F         3123.5000:   Total depth
 CLNT.            A2DTECH:   Client Code
 PD  .                 GL:   Permanent Datum
 EPD .F            5160.5:   Elevation Permanent Datum
 LMF .                 DF:   Log Measured From
 DMF .                 DF:   Drilling Measured From
 DAPD.F               1.5:   Feet Above Permanent Datum
 DATE.        23-OCT-1967:   Date Logged [DD-MMM-YYYY]
 DL  .F            3123.5:   Depth logger
 BLI .F              3122:   Bottom log interval
 TLI .F               600:   Top log interval
 CS1 .IN           5.1875:   Casing size
 DFT .              WATER:   Type fluid in hole
 TCS .HRS             4.5:   Time Circ. stopped
 ENGI.         COWLTHORPE:   Recorded By
 WITN.           THOMASON:   Witnessed by
 ORIG.         2.5" PRINT:   Origin of data
 UWI .     49025104460000:   Unique Well ID
 DICO. A2D TECHNOLOGIES, INC.:   Digitizing Company
 LUN .               1498:   Logging unit number
~OTHER INFORMATION
~A   DEPT       GRN      NEUT   
# ...
 3020.0000    44.4265   497.0353
 3020.5000    44.5059   492.1337
 3021.0000    45.8562   512.7194
 3021.5000    46.9047   521.7387
 3022.0000    46.9739   465.3203
 3022.5000    48.2391   433.1188
 3023.0000    47.4010   513.8569
 3023.5000    47.5816   521.8362
 3024.0000    50.7132   533.5920
 3024.5000    49.2153   540.8214
 3025.0000    46.2607   527.6605
 3025.5000    46.2607   550.5043
 3026.0000    46.6776   561.3665
 3026.5000    48.3809   522.5922
 3027.0000    47.8567   487.2650
 3027.5000    47.7198   504.4673
 3028.0000    47.1751   530.9912
 3028.5000    49.5958   569.7868
 3029.0000    50.2211   580.1021
 3029.5000    45.8439   533.0609
 3030.0000    44.5583   541.0453
 3030.5000    48.3451   568.4061
 3031.0000    43.9679   582.7327
 3031.5000    39.3822   600.4332
 3032.0000    36.6725   692.2112
 3032.5000    35.2134   716.8658
 3033.0000    35.0050   697.1860
 3033.5000    36.0472   709.5255
 3034.0000    49.1789   652.9005
 3034.5000    51.6802   572.6926
 3035.0000    52.0971   502.7052
 3035.5000    54.8068   468.3123
 3036.0000    55.2237   529.8471
 3036.5000    57.3118   611.1511
 3037.0000    57.9334   636.7216
 3037.5000    54.5189   552.0875
 3038.0000    51.8761   581.6681
 3038.5000    52.1464   613.7117
 3039.0000    52.5139   611.2718
 3039.5000    53.6100   660.5578
 3040.0000    56.2659   655.6561
 3040.5000    56.5372   675.3846
 3041.0000    58.1846   709.8913
 3041.5000    63.7574   700.0636
 3042.0000    64.1866   615.8015
 3042.5000    57.0996   542.4793
 3043.0000    57.9334   589.8263
 3043.5000    56.0741   607.6594
 3044.0000    53.5561   637.2910
 3044.5000    56.5142   729.3109
 3045.0000    56.8912   793.8290
 3045.5000    55.0142   743.2892
 3046.0000    53.7646   749.5456
 3046.5000    57.7196   704.3663
 3047.0000    60.2262   783.8777
 3047.5000    60.8775   798.8770
 3048.0000    62.5495   789.0493
 3048.5000    61.4302   814.1692
 3049.0000    62.2194   859.7567
 3049.5000    62.4094   900.5854
 3050.0000    58.9756   872.8895
 3050.5000    57.6937   967.1055
 3051.0000    52.9308  1052.7384
 3051.5000    54.9686  1001.0395
 3052.0000    55.1931  1039.1947
 3052.5000    54.2283  1049.9414
 3053.0000    53.5561   978.7979
 3053.5000    54.1815   919.6909
 3054.0000    58.1418   860.0971
 3054.5000    61.4769   773.2519
 3055.0000    58.7672   729.7975
 3055.5000    54.5984   702.9453
 3056.0000    55.4321   729.4141
 3056.5000    58.7672   752.5789
 3057.0000    57.7250   775.7198
 3057.5000    59.6009   770.4683
 3058.0000    60.2766   727.3837
 3058.5000    58.1418   636.4438
 3059.0000    59.6009   637.2255
 3059.5000    63.5613   551.9367
 3060.0000    62.9360   472.4039
 3060.5000    64.6035   429.1746
 3061.0000    66.3716   459.1065
 3061.5000    60.6431   518.2189
 3062.0000    60.4347   550.2382
 3062.5000    58.9756   594.5725
 3063.0000    61.2684   633.9808
 3063.5000    59.6009   683.2411
 3064.0000    59.6116   730.0385
 3064.5000    61.0600   771.9098
 3065.0000    60.8201   799.0029
 3065.5000    58.1801   821.1701
 3066.0000    55.4140   760.1035
 3066.5000    56.0204   703.2623
 3067.0000    62.9360   650.6418
 3067.5000    62.4022   580.6498
 3068.0000    58.0086   543.6342
 3068.5000    57.0252   546.1675
 3069.0000    56.2250   577.8082
 3069.5000    56.8484   631.5104
 3070.0000    60.8380   681.2722
 3070.5000    62.2595   656.6985
 3071.0000    60.8516   637.7785
 3071.5000    61.6394   559.6478
 3072.0000    56.0104   537.2011
 3072.5000    57.0216   515.7559
 3073.0000    55.5989   464.0325
 3073.5000    51.5294   424.6243
 3074.0000    50.4796   377.8269
 3074.5000    45.6416   318.7145
 3075.0000    43.8116   328.5666
 3075.5000    55.4875   402.4571
 3076.0000    59.1091   466.4956
 3076.5000    57.2448   601.9615
 3077.0000    55.2237   693.2651
 3077.5000    57.7424   744.8117
 3078.0000    60.2484   853.4991
 3078.5000    61.3820   899.9867
 3079.0000    56.8612   864.4278
 3079.5000    54.4772   860.5784
 3080.0000    58.7672   893.2540
 3080.5000    60.0178   827.7922
 3081.0000    62.7275   774.3728
 3081.5000    61.4769   816.7087
 3082.0000    59.6009   814.1719
 3082.5000    58.3503   734.2762
 3083.0000    57.5165   686.4711
 3083.5000    56.4743   682.1434
 3084.0000    51.8886   769.4467
 3084.5000    49.1789   796.5399
 3085.0000    54.3899   850.7263
 3085.5000    52.7224   860.5784
 3086.0000    53.3477   806.3920
 3086.5000    54.1815   653.6849
 3087.0000    54.3601   587.1834
 3087.5000    58.7672   542.8491
 3088.0000    58.7672   594.5725
 3088.5000    58.7672   584.6909
 3089.0000    62.9360   579.7944
 3089.5000    67.1048   595.4574
 3090.0000    69.1892   609.3506
 3090.5000    72.1073   606.8876
 3091.0000    67.5210   647.6317
 3091.5000    67.0686   672.8729
 3092.0000    64.6035   684.7504
 3092.5000    65.0325   635.0907
 3093.0000    65.4372   581.4561
 3093.5000    63.5508   538.8522
 3094.0000    61.2684   530.3374
 3094.5000    63.2270   550.4690
 3095.0000    64.1866   547.8635
 3095.5000    58.4862   473.8846
 3096.0000    52.2037   525.6080
 3096.5000    45.5773   525.6080
 3097.0000    34.8844   491.1257
 3097.5000    29.5855   399.9941
 3098.0000    49.8595   230.0459
 3098.5000    68.4012    62.5606
 3099.0000    80.2063   200.4896
 3099.5000    84.3827   289.1583
 3100.0000    85.8644   481.2737
 3100.5000    86.7327   574.4203
 3101.0000    89.6163   611.8136
 3101.5000    82.8934   579.5670
 3102.0000    87.1150   502.2638
 3102.5000   100.4487   493.5887
 3103.0000   103.7010   568.8161
 3103.5000    98.3708   621.9636
 3104.0000    82.7378   712.2815
 3104.5000    75.4424   871.4791
 3105.0000    83.3631  1001.6237
 3105.5000    92.1176  1052.8923
 3106.0000    95.0358   952.1194
 3106.5000    94.6189   856.5848
 3107.0000    88.3657   757.9163
 3107.5000    82.3209   734.4709
 3108.0000    84.8222   708.3315
 3108.5000    85.4688   775.9712
 3109.0000    81.6956   805.7049
 3109.5000    78.7774   838.0916
 3110.0000    82.9462   882.7455
 3110.5000    85.8644   722.6494
 3111.0000    89.1994   621.6657
 3111.5000    92.1176   646.2958
 3112.0000    86.9066   629.0547
 3112.5000    89.1994   658.6110
 3113.0000    92.5345   673.3890
 3113.5000    94.6189   673.3890
 3114.0000    91.2839   762.0577
 3114.5000    97.1202   799.0029
 3115.0000   102.1227   801.4660
 3115.5000    87.5319   799.0029
 3116.0000    87.5319   700.4822
 3116.5000    87.3235   781.7618
 3117.0000  -999.2500   831.0222
 3117.5000  -999.2500   887.6716
 3118.0000  -999.2500   872.8935
 3118.5000  -999.2500   892.5977
 3119.0000  -999.2500   897.5237
 3119.5000  -999.2500   927.0799
 3120.0000  -999.2500   890.1346
 3120.5000  -999.2500   922.1539
 3121.0000  -999.2500   951.7101
 3121.5000  -999.2500   998.5074
 3122.0000  -999.2500  1005.8964
 3122.5000  -999.2500   998.5074
 3123.0000  -999.2500   998.5074
