~VERSION INFORMATION
 VERS.                2.0:   CWLS LOG ASCII STANDARD - VERSION 2.0
 WRAP.                 NO:   ONE LINE PER DEPTH STEP
~WELL INFORMATION
#MNEM.UNIT      DATA TYPE    INFORMATION
#----------   ------------   ------------------------------
 STRT.F            0.5000:   START DEPTH
 STOP.F         5663.0000:   STOP DEPTH
 STEP.F            0.5000:   STEP LENGTH
 NULL.          -999.2500:   NO VALUE
 COMP.         U. S. NAVY:   COMPANY
 WELL.         US TP #1-3:   WELL
 FLD . TEAPOT NAVAL RESERVE:   FIELD
 LOC .       S3 T38N R78W:   LOCATION
 CNTY.            NATRONA:   COUNTY
 STAT.            WYOMING:   STATE
 CTRY. UNITED STATES OF AMERICA:   COUNTRY
 SRVC.       SCHLUMBERGER:   SERVICE COMPANY
 DATE.        27-FEB-1953:   LOGDATE
 API .     49025064250000:   API NUMBER
~CURVE INFORMATION
#MNEM.UNIT       API CODE    CURVE DESCRIPTION
#----------   ------------   ------------------------------
 DEPT.F                  :   
 SPR .MV     01 010 01 00:   SPONTANEOUS POTENTIAL FROM RES.
 ASN .OHMM   01 041 16 00:   AMPLIFIED SHORT NORMAL 16"
 LAT .OHMM   01 070 00 00:   LATERAL
 LN  .OHMM   01 060 64 00:   LONG NORMAL 64"
 GRN .CPS    35 310 01 00:   GAMMA RAY
 NEUT.NAPI   35 330 01 00:   NEUTRON
~PARAMETER INFORMATION
#MNEM.UNIT          VALUE    DESCRIPTION
#----------   ------------   ------------------------------
 EKB .F            0.0000:   Kelly bushing
 EGL .F            0.0000:   Ground level
 EDF .F            0.0000:   Drilling floor
 EPD .F            0.0000:   Permanent datum
 TD  .F         5653.0000:   Total depth
 DATE.        27-FEB-1953:   Date logged
 CLNT.            A2DTECH:   Client Code
 DD  .F              5653:   Depth driller
 DL  .F              5653:   Depth logger
 BLI .F              5652:   Bottom log interval
 TLI .F               446:   Top log interval
 CBD1.F               445:   Casing driller 1
 CBL1.F               446:   Casing logger 1
 BS1 .IN                9:   Bit size
 BSD1.F              5653:   Depth drilled with bit1
 DFT .          LIMA/BASE:   Type fluid in hole
 DFD .                9.9:   Density
 DFV .                 43:   Viscosity
 RMS .OHMM            1.1:   Rm
 MST .F                55:   Rm Meas. temp.
 RMB .OHMM            .34:   Rm. at BHT
 BHT .F               166:   BHT.
 TCS .HRS               1:   Time Circ. stopped
 MRT .F               166:   Maximum recorded temp.
 LUN .                728:   Logging unit number
 LUL .               CSPR:   Logging unit location
 ENGI.            EVENSON:   Recorded By
 WITN.              MILLS:   Witnessed by
 ORIG.      1" 2.5" PRINT:   Origin of data
 UWI .     49025064250000:   Unique Well ID
 DICO. A2D TECHNOLOGIES, INC.:   Digitizing Company
~OTHER INFORMATION
~A  DEPTH      SPR        ASN        LAT         LN        GRN       NEUT
# ...
 3536.5000   -36.1413     6.3190     5.4764     6.9283    81.6586   205.6520
 3537.0000   -36.2749     6.5630     5.5466     6.9270    83.1575   200.5281
 3537.5000   -36.4130     6.6440     5.6098     6.7903    82.3750   187.7992
 3538.0000   -36.2330     6.5619     5.6846     6.7415    81.8698   157.4081
 3538.5000   -36.1413     6.3857     5.7433     6.6527    81.4036    94.1888
 3539.0000   -36.1413     6.2890     5.7426     6.6514    80.1524    86.5397
 3539.5000   -36.1413     6.2885     5.7055     6.6500    79.1513   116.7400
 3540.0000   -36.1413     6.3696     5.6064     6.6907    81.1501   126.7823
 3540.5000   -36.1413     6.5200     5.6058     6.7824    80.6305   106.4630
 3541.0000   -36.1413     6.6130     5.6050     6.8853    79.5326   101.3244
 3541.5000   -36.1413     6.6669     5.5779     6.9556    78.6461   116.7734
 3542.0000   -36.0501     6.5299     5.5453     7.1400    78.8949   156.7040
 3542.5000   -35.9302     6.3124     5.5126     7.2695    81.3937   176.8180
 3543.0000   -35.8696     6.1792     5.4800     7.3821    82.1426   166.6290
 3543.5000   -35.8608     6.0739     5.4668     7.4948    84.3912   146.3389
 3544.0000   -35.5978     6.0391     5.4663     7.6184    91.1399   158.8772
 3544.5000   -35.5978     6.1200     5.1960     7.7176    93.8887   166.3796
 3545.0000   -35.5978     6.2011     5.0921     7.7161    95.1376   151.2942
 3545.5000   -35.3261     6.2550     4.9252     7.8362    96.1364   140.9364
 3546.0000   -35.3261     6.1999     4.7897     7.9836    81.3849   155.9998
 3546.5000   -35.7214     5.8190     4.7403     8.1103    75.3837   185.0625
 3547.0000   -36.0358     5.6128     4.5733     8.2514    72.1323   211.3794
 3547.5000   -36.1413     5.4646     4.5181     8.2499    70.6314   223.7161
 3548.0000   -36.4857     5.7086     4.5175     8.4043    77.3798   235.7071
 3548.5000   -37.0006     6.0632     4.5168     8.5551    81.1285   246.4688
 3549.0000   -37.3324     6.4684     4.5384     8.6516    83.8773   226.1788
 3549.5000   -37.6805     6.7940     4.7047     8.6916    84.1299   207.2242
 3550.0000   -38.3152     6.9566     4.7844     8.7500    81.1250   188.1240
 3550.5000   -38.3152     6.9471     4.8152     8.7824    77.3736   160.2582
 3551.0000   -38.6447     6.9825     4.9178     8.8007    74.1223   157.6596
 3551.5000   -39.0231     7.3081     4.9171     8.9353    71.8713   178.1408
 3552.0000   -39.4022     7.7695     4.9164     9.0540    76.6198   205.4487
 3552.5000   -39.4022     8.2581     5.0023     9.2112    81.1186   238.1889
 3553.0000   -39.4022     8.5293     5.3193     9.3162    84.3673   248.2166
 3553.5000   -39.4022     8.7541     5.4535     9.3146    87.1161   205.1846
 3554.0000   -39.5335     8.7323     5.7546     9.3133    89.6148   164.6926
 3554.5000   -39.6739     8.6092     6.1736     9.3122    89.8638   151.9783
 3555.0000   -39.6739     8.4727     6.5925     9.3107    88.1124   146.8398
 3555.5000   -39.6739     8.4994     7.2028     8.6605    84.6111   151.8023
 3556.0000   -39.6739     8.5261     7.8813     7.6864    83.1099   192.1036
 3556.5000   -39.6739     8.5255     8.6839     6.4687    85.1086   209.6924
 3557.0000   -39.8342     8.5522    10.2426     5.2979    89.1074   222.2306
 3557.5000   -39.9457     8.5244    11.4221     3.8985    94.1061   209.5310
 3558.0000   -39.8709     8.3880    12.5526     3.0244   101.8549   166.4990
 3558.5000   -39.7311     8.0342    13.2635     2.8148   106.3536   113.3807
 3559.0000   -39.6297     7.4086    14.3409     2.8133   116.1026   110.7967
 3559.5000   -39.4022     6.8515    15.5532     3.2182   115.6012   143.5077
 3560.0000   -39.4022     5.8858    16.0916     3.5000   113.3499   173.7227
 3560.5000   -38.9826     2.8962    16.2258     3.9653   108.0987   211.5135
 3561.0000   -38.5553     2.7053    16.3599     4.2983   101.2088   231.6421
 3561.5000   -38.0435     3.0101    15.9547     4.6248    96.0962   239.1152
 3562.0000   -37.5000     3.6494    15.1455     5.2378    86.0949   218.8252
 3562.5000   -37.2283     4.2527    14.0666     5.8361    76.3437   183.3836
 3563.0000   -37.2283     4.7303    12.1792     6.7215    75.0925   147.9421
 3563.5000   -37.2283     5.5560     9.5538     7.5310    74.8414   142.8329
 3564.0000   -37.2283     6.6423     6.6523     8.2053    76.8398   188.1701
 3564.5000   -37.2283     8.3265     3.1475     9.2849    86.0885   200.7083
 3565.0000   -37.2283     9.2771     2.7425     9.7365    89.0873   203.1602
 3565.5000   -37.2283     9.4124     2.7419    10.1488    88.5860   185.3808
 3566.0000   -37.2283     9.4935     2.7412    10.1453    86.5848   169.3939
 3566.5000   -37.2283     9.3968     2.7405     9.9553    85.3335   154.9246
 3567.0000   -37.2394     9.3292     2.7399     9.9538    86.3323   142.1874
 3567.5000   -37.3919     9.2661     2.7392     9.8176    88.0875   134.5237
 3568.0000   -37.5000     9.1850     2.7385     9.8162    88.3302   142.0114
 3568.5000   -37.5000     9.0800     2.8727     9.8149    88.3286   164.6506
 3569.0000   -37.5000     8.9730     2.9579     9.9485    88.3273   179.7288
 3569.5000   -37.4672     8.8103     3.1409    10.0383    94.0761   174.5833
 3570.0000   -37.3147     8.6372     3.0053    10.2160    96.8248   183.3352
 3570.5000   -37.2283     8.3744     2.8699    10.2853    97.5736   192.0910
 3571.0000   -37.2283     8.1293     2.6624    10.4959    98.0725   181.1995
 3571.5000   -37.2283     7.9385     2.4349    10.7526    96.1755   171.6983
 3572.0000   -37.2283     7.7478     2.3288    10.9419    92.0699   171.6162
 3572.5000   -37.2283     7.6865     2.3282    11.2905    87.0686   172.0526
 3573.0000   -37.2283     7.6380     2.4622    11.5057    77.5674   181.5499
 3573.5000   -37.2283     8.0722     2.5964    11.8416    70.3161   209.2250
 3574.0000   -37.5000     8.8325     2.7305    12.1905    69.3149   221.7779
 3574.5000   -37.5000     9.9461     3.1340    12.5268    70.2731   221.6752
 3575.0000   -37.5000    11.4220     3.5377    12.9392    73.3124   221.5872
 3575.5000   -37.4569    12.3372     4.0763    13.4444    78.0611   226.5644
 3576.0000   -37.2705    13.0967     4.7492    13.9496    84.8099   249.1743
 3576.5000   -37.2283    13.5038     5.4225    14.4016    87.8087   271.8136
 3577.0000   -37.2283    13.6390     6.4999    14.6898    91.5574   281.8559
 3577.5000   -37.2283    13.7745     7.3079    14.9258    94.0562   269.1123
 3578.0000   -37.2283    13.7739     8.1861    14.9290    93.5549   263.9737
 3578.5000   -37.2283    13.7733     9.0168    14.7187    91.8761   266.4404
 3579.0000   -37.2283    13.7728     9.8092    14.2701    90.8024   271.4028
 3579.5000   -37.2283    13.6978    10.5439    13.5688    89.4549   261.1845
 3580.0000   -37.2283    13.6359    11.3476    12.4864    88.5500   248.4848
 3580.5000   -37.2283    13.4994    12.0958    11.1335    87.7985   223.1296
 3581.0000   -37.2283    13.1516    12.9636    10.3214    89.0473   200.3143
 3581.5000   -37.2283    12.6831    13.3859     9.9147    93.7960   177.2337
 3582.0000   -37.2283    11.8673    14.0404     9.7630    97.7948   157.2090
 3582.5000   -37.2283    10.6144    14.4441     9.6066    99.1228   136.9190
 3583.0000   -37.2283    10.2960    14.7129     9.3702   100.0423   119.1542
 3583.5000   -37.2283     8.3874    14.7123     9.2338    99.0410   111.5198
 3584.0000   -37.2283     6.9738    14.7115     8.8234    97.7898   129.0792
 3584.5000   -37.2283     5.9135    14.5761     8.5552    92.5386   139.1068
 3585.0000   -37.2283     5.8044    14.4407     8.2191    90.0373   161.7314
 3585.5000   -37.2283     6.2114    14.0299     7.8034    92.0361   184.3707
 3586.0000   -37.2283     7.2978    13.4472     7.4824    97.2848   239.8382
 3586.5000   -37.2283     9.3624    11.6084     7.1533   107.5336   310.4572
 3587.0000   -37.2283    10.7750    10.1253     7.0570   109.0325   313.7248
 3587.5000   -37.2283    10.7744     9.7203     6.9255   110.2813   300.1802
 3588.0000   -37.2283    10.5798     9.7816     7.7350   109.5299   204.1326
