~VERSION INFORMATION
 VERS.                2.0:   CWLS LOG ASCII STANDARD - VERSION 2.0
 WRAP.                 NO:   ONE LINE PER DEPTH STEP
~WELL INFORMATION
#MNEM.UNIT      DATA TYPE    INFORMATION
#----------   ------------   ------------------------------
 STRT.F          388.0000:   START DEPTH
 STOP.F         3166.0000:   STOP DEPTH
 STEP.F            0.5000:   STEP LENGTH
 NULL.          -999.2500:   NO VALUE
 COMP.    PENIX & SCISSON:   COMPANY
 WELL. PENIX NPR 3 "AX" #34-28:   WELL
 FLD .                NPR:   FIELD
 LOC .      S28 T39N R78W:   LOCATION
 CNTY.            NATRONA:   COUNTY
 STAT.            WYOMING:   STATE
 CTRY. UNITED STATES OF AMERICA:   COUNTRY
 SRVC.              WELEX:   SERVICE COMPANY
 DATE.        15-DEC-1978:   LOGDATE
 API .     49025107950000:   API NUMBER
~CURVE INFORMATION
#MNEM.UNIT       API CODE    CURVE DESCRIPTION
#----------   ------------   ------------------------------
 DEPT.F                  :   
 CALD.IN     45 280 60 00:   CALIPER FROM DENSITY LOG
 GRD .GAPI   45 310 01 00:   GAMMA RAY FROM DENSITY LOG
 RHOB.G/C3   45 350 01 00:   BULK DENSITY
 CORR.G/C3   45 356 01 00:   DENSITY CORRECTION
 NPHI.DEC    42 890 03 00:   NEUTRON POROSITY SANDSTONE
 SPR .MV     07 010 01 00:   SPONTANEOUS POTENTIAL
 SGRD.OHMM   07 220 05 00:   SHALLOW GUARD
 ILD .OHMM   07 120 46 00:   DEEP INDUCTION RESISTIVITY
 ILM .OHMM   07 120 44 00:   INDUCTION LOG MEDIUM RESISTIVITY
 TENR.LBS    07 635 01 00:   TENSION FROM RESISTIVITY
~PARAMETER INFORMATION
#MNEM.UNIT          VALUE    DESCRIPTION
#----------   ------------   ------------------------------
 EKB .F         5039.0000:   Kelly bushing
 EGL .F         5029.0000:   Ground level
 EDF .F            0.0000:   Drilling floor
 TD  .F         3159.0000:   Total depth
 DATE.        15-DEC-1978:   Date logged
 CLNT.            A2DTECH:   Client Code
 SL  . 2434' FNL & 1651' FWL:   Surface Location
 PD  .                 GL:   Permanent Datum
 EPD .F              5029:   Elevation Permanent Datum
 LMF .                 KB:   Log Measured From
 DMF .                 KB:   Drilling Measured From
 DAPD.F                10:   Feet Above Permanent Datum
 DD  .F              3155:   Depth driller
 DL  .F              3159:   Depth logger
 BLI .F              3157:   Bottom log interval
 TLI .F               350:   Top log interval
 CS1 .IN            8.625:   Casing size
 CBD1.      8.625" @ 383':   Casing driller 1
 CBL1.F               398:   Casing logger 1
 BS1 .IN            7.875:   Bit size
 BSD1.F              3155:   Depth drilled with bit1
 DFT .           CHEM/GEL:   Type fluid in hole
 DFD .                8.5:   Density
 DFV .                 55:   Viscosity
 DFPH.                 10:   pH
 DFL .               10.8:   Fluid loss
 MSS .           FLOWLINE:   Source of sample
 RMS .OHMM           1.65:   Rm
 MST .F                65:   Rm Meas. temp.
 RMF .OHMM           1.32:   Rmf
 MFST.F                65:   Rmf Meas. temp.
 RMC .OHMM           1.98:   Rmc
 MCST.F                65:   Rmc Meas. temp.
 MFSS.               CALC:   Source Rmf.
 RMB .OHMM              1:   Rm. at BHT
 BHT .F               107:   BHT.
 TCS .HRS               8:   Time Circ. stopped
 MRT .F               107:   Maximum recorded temp.
 LUN .               1892:   Logging unit number
 LUL .             CASPER:   Logging unit location
 ENGI.               REIN:   Recorded By
 WITN.              AMEND:   Witnessed by
 ORIG.           5" PRINT:   Origin of data
 UWI .     49025107950000:   Unique Well ID
 DICO. A2D TECHNOLOGIES, INC.:   Digitizing Company
~OTHER INFORMATION
~A   DEPT     CALD         GRD      RHOB       CORR       NPHI        SPR       SGRD        ILD        ILM       TENR   
# ...
 2029.5000     8.3015   113.6907     2.5010     0.0569     0.2465   -20.1219     6.6661     5.3135     6.1246  1532.3461
 2030.0000     8.3015   117.3151     2.5172     0.0772     0.2481   -19.5176     6.3030     5.2147     6.0134  1532.7480
 2030.5000     8.3015   118.5229     2.5091     0.0548     0.2456   -19.9255     6.1287     5.0700     5.8505  1533.1501
 2031.0000     8.3217   118.9253     2.5010     0.0203     0.2457   -19.9285     6.1855     4.9292     5.6919  1533.5522
 2031.5000     8.3035   119.3276     2.4929     0.0101     0.2457   -19.9315     7.2426     4.8826     5.7745  1513.7104
 2032.0000     8.3017   120.9381     2.4899     0.0081     0.2502   -19.5296     7.6569     4.7919     5.7738  1514.1125
 2032.5000     8.3018   119.7296     2.4879     0.0182     0.2514   -19.9375     7.8722     4.7462     5.8812  1534.7585
 2033.0000     8.3018   117.7157     2.4899     0.0203     0.2506   -20.1430     7.9449     4.7018     5.9910  1535.1606
 2033.5000     8.2831   118.1181     2.4899     0.0223     0.2510   -20.3484     7.8693     4.7005     5.9896  1535.5627
 2034.0000     8.3019   121.3391     2.4889     0.0243     0.2506   -20.9588     6.9716     4.7435     5.9890  1535.9648
 2034.5000     8.2911   124.9626     2.4899     0.0243     0.2506   -20.5569     7.1676     4.7871     5.9323  1536.3669
 2035.0000     8.2819   130.1967     2.5050     0.0365     0.2478   -20.5599     7.5074     4.8764     5.9308  1536.7690
 2035.5000     8.2820   133.0144     2.5071     0.0487     0.2466   -20.5630     7.5762     4.8754     5.9295  1537.1711
 2036.0000     8.2820   124.5585     2.5030     0.0426     0.2474   -20.5660     7.7171     4.8739     5.9288  1537.5732
 2036.5000     8.2821   121.3369     2.4959     0.0447     0.2480   -21.1763     8.1585     4.8734     6.0954  1517.9727
 2037.0000     8.2821   118.5181     2.4909     0.0304     0.2466   -21.1793     8.4663     4.9185     6.2089  1538.3774
 2037.5000     8.2822   118.5178     2.4818     0.0243     0.2462   -21.1823     9.3768     5.2005     6.5649  1518.5356
 2038.0000     8.2621   114.8965     2.4889     0.0040     0.2462   -21.1854     9.8207     5.4472     6.9413  1539.1816
 2038.5000     8.2621   110.8676     2.4646     0.0020     0.2466   -21.1884     9.6386     5.7061     7.1369  1539.5837
 2039.0000     8.2622   107.2441     2.4838     0.0040     0.2462   -21.1914     9.5476     5.9220     7.4067  1539.9858
 2039.5000     8.2623   103.2181     2.4909     0.0040     0.2430   -21.1944     8.8612     6.0323     7.3366  1540.3879
 2040.0000     8.2422    99.5974     2.4899     0.0000     0.2417   -21.1974     8.5359     6.1445     7.1334  1540.7900
 2040.5000     8.2624   104.8283     2.5020     0.0081     0.2417   -21.2005     8.4553     6.1436     7.0568  1541.1923
 2041.0000     8.2625   104.4256     2.5020     0.0101     0.2389   -21.2035     8.5328     6.1427     7.0558  1541.5944
 2041.5000     8.2625   108.8536     2.4969     0.0101     0.2365   -21.2065     8.4522     6.1413     7.0542  1541.9965
 2042.0000     8.2626   108.4509     2.4868     0.0040     0.2369   -21.2101     8.4506     6.1399     7.0527  1522.1545
 2042.5000     8.2827   109.2583     2.4747    -0.0041     0.2377   -21.2131     8.4491     6.1393     7.0519  1522.5566
 2043.0000     8.2828   106.4379     2.4737    -0.0041     0.2381   -20.6088     8.4472     6.1379     7.0504  1522.9587
 2043.5000     8.2828   102.4126     2.4848     0.0000     0.2365   -20.6119     8.8478     6.1370     7.0494  1523.4412
 2044.0000     8.2628   101.6076     2.4879     0.0040     0.2365   -20.6149     9.1812     6.1356     7.0479  1523.8433
 2044.5000     8.2830   102.8150     2.4737    -0.0183     0.2369   -20.4155     9.1801     6.1342     7.0552  1544.4894
 2045.0000     8.2644   105.2300     2.4666    -0.0346     0.2390   -20.4185     9.0931     6.1331     7.1872  1544.8915
 2045.5000     8.2831   109.6572     2.4747    -0.0285     0.2402   -20.6239     8.9238     6.1320     7.2529  1545.2936
 2046.0000     8.2831   115.2917     2.4889    -0.0082     0.2390   -21.2343     8.8396     6.1885     7.3189  1505.2076
 2046.5000     8.2832   109.2544     2.4929    -0.0021     0.2386   -21.2373     8.8386     6.2451     7.4547  1546.0978
 2047.0000     8.2832   107.2419     2.4889    -0.0041     0.2386   -20.6330     8.8366     6.2439     7.4536  1546.4999
 2047.5000     8.2833   108.0467     2.4858    -0.0122     0.2402   -21.2433     8.9176     6.2432     7.4525  1546.9020
 2048.0000     8.2834   108.8514     2.4808    -0.0122     0.2434   -21.2463     9.2540     6.3003     7.4514  1527.0601
 2048.5000     8.3035   113.2780     2.4838    -0.0204     0.2446   -21.2494    10.0587     6.2994     7.5198  1547.7062
 2049.0000     8.3036   118.9118     2.5050     0.0000     0.2495   -21.2524     9.7812     6.2977     7.5181  1548.1083
 2049.5000     8.3036   120.1187     2.5202     0.0081     0.2515   -20.8499     9.0780     6.2963     7.5168  1528.2664
 2050.0000     8.3037   125.3498     2.5283     0.0304     0.2527   -20.6493     8.1935     6.1791     7.1731  1528.6685
 2050.5000     8.3440   128.9709     2.5283     0.0406     0.2548   -20.4517     7.6755     5.9514     6.7814  1549.3145
 2051.0000     8.3440   127.3606     2.5222     0.0467     0.2568   -20.2523     7.3256     5.7329     6.5936  1549.7166
 2051.5000     8.3441   127.3602     2.5111     0.0284     0.2580   -20.4577     6.9264     5.5222     6.3593  1570.3628
 2052.0000     8.3491   130.1763     2.4980     0.0203     0.2596   -20.2583     6.8610     5.3189     6.1307  1550.5208
 2052.5000     8.3540   126.5544     2.4909     0.0101     0.2625   -20.4637     6.9238     5.2201     5.7832  1530.6790
 2053.0000     8.3589   118.5063     2.4808    -0.0021     0.2629   -20.4668     7.2521     5.0750     5.7823  1531.0811
 2053.5000     8.3644   121.3227     2.4687    -0.0102     0.2645   -20.2673     7.5257     5.0738     6.1136  1551.7271
 2054.0000     8.3444   126.1506     2.4737    -0.0102     0.2653   -20.2704     8.1814     5.0729     6.2858  1531.8853
 2054.5000     8.3532   135.8062     2.4798    -0.0082     0.2629   -20.2734     9.1456     5.1674     6.4032  1532.2874
 2055.0000     8.3620   137.4170     2.4767     0.0000     0.2552   -20.2764     8.1026     5.2143     6.4020  1552.9333
 2055.5000     8.3445   135.4024     2.4747     0.0081     0.2544   -20.0770     7.5904     5.2139     6.4008  1553.3354
 2056.0000     8.3446   132.1831     2.4747     0.0101     0.2548   -19.8776     7.5187     5.1644     6.3400  1533.4937
 2056.5000     8.3259   127.3547     2.4707     0.0203     0.2540   -20.2855     7.3104     5.1636     6.2802  1554.1396
 2057.0000     8.3044   126.9519     2.4616     0.0203     0.2536   -20.2885     7.5159     5.1624     6.2208  1554.5417
 2057.5000     8.3045   127.3539     2.4515     0.0081     0.2520   -20.2921     7.5146     5.1617     6.1045  1554.9438
 2058.0000     8.2845   130.5716     2.4666     0.0121     0.2524   -19.8902     7.5132     5.2577     6.0617  1575.5900
 2058.5000     8.3046   126.9503     2.4747     0.0243     0.2581   -20.2981     7.7244     5.3552     5.9891  1535.5845
 2059.0000     8.3047   125.7430     2.4747     0.0203     0.2605   -20.3012     7.8680     5.3546     6.1585  1535.9866
 2059.5000     8.3047   127.3515     2.4707     0.0040     0.2593   -20.1017     8.3955     5.3536     6.3911  1536.3887
 2060.0000     8.2847   126.9487     2.4656     0.0040     0.2605   -20.1048     8.7122     5.3528     6.5104  1536.7908
 2060.5000     8.3048   119.7078     2.5060     0.0223     0.2649   -20.1078     9.0405     5.3518     6.6928  1557.4369
 2061.0000     8.3049   119.7074     2.5111     0.0325     0.2682   -20.1108     8.3129     5.4008     6.5727  1557.8390
 2061.5000     8.3049   118.0981     2.5111     0.0223     0.2702   -20.1138     7.5032     5.4000     6.3273  1558.2411
 2062.0000     8.3251   117.6955     2.5202     0.0101     0.2718   -20.1168     7.2953     5.2992     6.1517  1538.3992
 2062.5000     8.3252   115.2819     2.5252     0.0060     0.2722   -20.1198     7.0278     5.2489     6.0519  1538.8013
