~VERSION INFORMATION
 VERS.                2.0:   CWLS LOG ASCII STANDARD - VERSION 2.0
 WRAP.                 NO:   ONE LINE PER DEPTH STEP
~WELL INFORMATION
#MNEM.UNIT      DATA TYPE    INFORMATION
#----------   ------------   ------------------------------
 STRT.F            0.0000:   START DEPTH
 STOP.F         1071.5000:   STOP DEPTH
 STEP.F            0.5000:   STEP LENGTH
 NULL.          -999.2500:   NO VALUE
 COMP.       FLUOR DANIEL:   COMPANY
 WELL.     FLUOR X #82-22:   WELL
 FLD .                NPR:   FIELD
 LOC .      S22 T38N R78W:   LOCATION
 CNTY.            NATRONA:   COUNTY
 STAT.            WYOMING:   STATE
 CTRY. UNITED STATES OF AMERICA:   COUNTRY
 SRVC.      WESTERN ATLAS:   SERVICE COMPANY
 DATE.        19-SEP-1994:   LOGDATE
 API .     49025226520000:   API NUMBER
~CURVE INFORMATION
#MNEM.UNIT       API CODE    CURVE DESCRIPTION
#----------   ------------   ------------------------------
 DEPT.F                  :   
 GRR .GAPI   07 310 01 00:   GAMMA RAY FROM RESISTIVITY
 TENR.LBS    07 635 01 00:   TENSION
 ILD .OHMM   07 120 46 00:   INDUCTION LOG DEEP RESISTIVITY
 ILM .OHMM   07 120 44 00:   INDUCTION LOG MEDIUM RESISTIVITY
~PARAMETER INFORMATION
#MNEM.UNIT          VALUE    DESCRIPTION
#----------   ------------   ------------------------------
 EKB .F         5288.0000:   Kelly bushing
 EGL .F         5278.0000:   Ground level
 EDF .F         5287.0000:   Drilling floor
 EPD .F         5278.0000:   Permanent datum
 TD  .F         1062.0000:   Total depth
 DATE.        19-SEP-1994:   Date logged
 CLNT.            A2DTECH:   Client Code
 SL  . 937' FNL & 347' FEL:   Surface Location
 PD  .                 GL:   Permanent Datum
 LMF .                 KB:   Log Measured From
 DMF .                 KB:   Drilling Measured From
 DAPD.F                10:   Feet Above Permanent Datum
 DD  .F              1060:   Depth driller
 DL  .F              1062:   Depth logger
 BLI .F              1054:   Bottom log interval
 CS1 .IN            9.625:   Casing size
 CBD1.       9.625" @ 77':   Casing driller 1
 CBL1.F                78:   Casing logger 1
 BS1 .IN             8.75:   Bit size
 BSD1.F              1060:   Depth drilled with bit1
 DFT .                AIR:   Type fluid in hole
 LUN .            HL 6530:   Logging unit number
 LUL .             CASPER:   Logging unit location
 ENGI.      PAT RASMUSSEN:   Recorded By
 WITN.        GARY STRONG:   Witnessed by
 ORIG.           5" PRINT:   Origin of data
 UWI .     49025226520000:   Unique Well ID
 DICO. A2D TECHNOLOGIES, INC.:   Digitizing Company
~OTHER INFORMATION
~A    DEPT      GRR      TENR        ILD        ILM   
# ...
  803.0000   119.5040   -10.0560     2.1870     2.4440
  803.5000   125.2650   -10.8480     2.3700     2.7320
  804.0000   128.1890   -11.6410     2.7090     3.1420
  804.5000   129.8750   -12.4330     3.1230     3.5520
  805.0000   132.4240   -13.2260     3.5360     3.9460
  805.5000   134.8470   -12.9510     3.9490     4.3090
  806.0000   136.2030   -11.8060     4.3630     4.6050
  806.5000   138.2580   -10.6620     4.6910     4.6320
  807.0000   140.7550    -9.5170     4.6910     4.6660
  807.5000   141.4160    -8.3720     4.6500     4.6910
  808.0000   141.3140    -7.2280     4.4900     4.4810
  808.5000   143.7550    -6.0830     4.3290     4.3130
  809.0000   148.0060    -4.9390     4.1690     4.1450
  809.5000   150.7940    -3.7940     3.9700     3.9700
  810.0000   147.7790    -3.5210     3.9830     4.0340
  810.5000   143.0240    -3.5210     4.0010     4.1060
  811.0000   138.3810    -3.5210     4.0600     4.1790
  811.5000   135.7760    -3.5210     4.1460     4.2510
  812.0000   135.2550    -3.5210     4.3510     4.4760
  812.5000   134.7130    -3.5210     4.5760     4.7790
  813.0000   135.2860    -2.1340     4.8020     5.0810
  813.5000   137.1210     0.5770     5.0270     5.3750
  814.0000   136.6100     3.2880     5.2520     5.6170
  814.5000   135.2250     5.9990     5.5110     5.8590
  815.0000   137.0310     4.4770     5.8230     6.0810
  815.5000   138.1310     1.9010     6.1350     6.3580
  816.0000   137.5320    -0.6740     6.4470     6.6710
  816.5000   136.9270    -3.2490     6.6090     6.6580
  817.0000   137.1710    -3.5210     6.6090     6.6430
  817.5000   139.0690    -3.5210     6.6090     6.6280
  818.0000   140.9270    -3.5210     6.6090     6.6130
  818.5000   141.1610    -3.5210     6.4770     6.5040
  819.0000   140.9870    -3.5210     6.3400     6.3660
  819.5000   140.8170    -3.5210     6.2030     6.2290
  820.0000   140.5600    -3.5210     6.0650     6.0920
  820.5000   143.8480    -3.5210     5.9280     5.9550
  821.0000   147.8280    -3.5210     5.7910     5.8040
  821.5000   150.0400    -4.3770     5.6680     5.6220
  822.0000   149.2790    -5.5750     5.4320     5.4390
  822.5000   146.1770    -6.7730     5.1970     5.2570
  823.0000   142.8540    -7.9710     4.8820     4.9930
  823.5000   141.5670    -9.1690     4.5440     4.6050
  824.0000   144.0220   -10.3670     4.2070     4.2360
  824.5000   146.9030   -11.5650     4.0760     3.9780
  825.0000   147.7350   -12.7630     3.9800     3.7210
  825.5000   148.2510   -13.4970     3.9340     3.8720
  826.0000   148.7760   -13.2320     4.0320     4.1660
  826.5000   149.2620   -12.9660     4.1070     4.4610
  827.0000   148.0390   -12.7010     4.1820     4.7560
  827.5000   144.8450   -12.4350     4.4910     5.0510
  828.0000   141.5930   -12.1700     4.8570     5.3450
  828.5000   139.4010   -11.9040     5.3150     5.6900
  829.0000   141.7000   -11.6390     5.7890     6.0430
  829.5000   145.2630   -11.3730     6.1300     6.1580
  830.0000   148.9560   -11.1080     6.3150     6.2450
  830.5000   147.5640   -10.8420     6.3530     6.3320
  831.0000   145.0330   -10.5770     6.4020     6.3970
  831.5000   146.0400   -10.3110     6.4600     6.4470
  832.0000   148.8850   -10.0460     6.5190     6.4970
  832.5000   147.9180    -9.7800     6.5770     6.5470
  833.0000   143.4990    -9.5150     6.6350     6.5970
  833.5000   139.3070    -9.2490     6.6930     6.6470
  834.0000   139.9870    -8.9840     6.7330     6.6710
  834.5000   141.1030    -8.7180     6.6990     6.6600
  835.0000   141.7620    -8.4530     6.6730     6.6510
  835.5000   139.9690    -8.1870     6.6480     6.6430
  836.0000   138.1790    -7.9220     6.6220     6.6350
  836.5000   137.9640    -7.6560     6.5960     6.6270
  837.0000   139.3470    -7.3910     6.5710     6.6180
  837.5000   143.6350    -7.1250     6.5450     6.6090
  838.0000   147.9280    -6.8600     6.5200     6.5980
  838.5000   149.0070    -6.5940     6.4870     6.5860
  839.0000   149.1790    -6.3290     6.4880     6.5740
  839.5000   149.1440    -6.0630     6.4880     6.5630
  840.0000   148.2380    -5.7980     6.4880     6.5510
  840.5000   147.3530    -5.5320     6.4880     6.5390
  841.0000   146.8660    -5.2670     6.4880     6.5270
  841.5000   146.8680    -5.0010     6.4760     6.5150
  842.0000   146.3900    -4.7360     6.4590     6.5030
  842.5000   145.4690    -4.4700     6.4420     6.4910
  843.0000   145.3640    -4.2050     6.4050     6.3980
  843.5000   146.8870    -3.9390     6.2630     6.2770
  844.0000   148.1600    -3.6740     6.1210     6.1380
  844.5000   148.4710    -3.5210     5.9790     5.9950
  845.0000   150.1930    -3.5210     5.8370     5.8530
  845.5000   154.0670    -3.5210     5.6960     5.7020
  846.0000   157.9940    -3.5210     5.5540     5.5870
  846.5000   157.4390    -3.5210     5.4120     5.5630
  847.0000   154.5630    -3.5210     5.2660     5.5070
  847.5000   151.6660    -3.5210     5.0990     5.2770
  848.0000   150.5280    -3.5210     4.9410     5.0470
  848.5000   150.4740    -3.5210     4.7810     4.8340
  849.0000   149.7300    -3.5210     4.6910     4.6910
  849.5000   148.9630    -3.5210     4.7790     4.7940
  850.0000   149.4920    -3.5210     4.8410     4.8920
  850.5000   150.1210    -3.5210     4.9020     5.0210
  851.0000   149.7610    -3.5210     4.9640     5.2200
  851.5000   149.3360    -3.5210     5.0250     5.4180
  852.0000   150.7140    -3.5210     5.2080     5.6170
  852.5000   150.2540    -3.5210     5.4830     5.7760
  853.0000   148.5160    -3.5210     5.7570     5.9070
  853.5000   146.8030    -3.5210     5.9690     6.0390
  854.0000   143.7550    -3.5210     5.8620     6.1370
  854.5000   140.5340    -3.5210     5.7140     5.9000
  855.0000   137.1650    -3.5210     5.3820     5.6560
  855.5000   136.3140    -3.5210     5.0490     5.2280
  856.0000   138.8730    -3.5210     4.7170     4.7990
  856.5000   142.3480    -3.5210     4.4100     4.4240
  857.0000   143.5490    -3.5210     4.2360     4.3380
  857.5000   139.9100    -3.5210     4.2060     4.2530
  858.0000   132.6460    -3.5210     4.1760     4.2360
  858.5000   126.0460    -3.5210     4.1590     4.4460
  859.0000   127.2610    -3.5210     4.2540     4.6510
  859.5000   134.1360    -3.5210     4.3160     4.8570
  860.0000   139.1450    -3.5210     4.5840     5.0630
  860.5000   138.9850    -3.5210     4.8330     5.2680
  861.0000   139.0390    -3.5210     5.0820     5.4740
  861.5000   140.9460    -3.5210     5.3110     5.6790
  862.0000   142.8870    -3.5210     5.5140     5.8850
  862.5000   143.5250    -3.5210     5.7410     6.0900
  863.0000   140.0530    -3.5210     5.9680     6.2520
  863.5000   136.4170    -3.5210     6.1950     6.4100
  864.0000   132.8420    -3.5210     6.4220     6.5660
  864.5000   132.8770    -3.5210     6.6490     6.7210
  865.0000   134.9710    -3.5210     6.8760     6.8770
  865.5000   137.0790    -3.5210     6.9870     6.9310
  866.0000   136.8830    -3.2860     6.9870     6.9440
  866.5000   134.5970    -1.5760     6.9870     6.9570
  867.0000   132.6980     0.1340     6.9870     6.9690
  867.5000   133.6500     1.8440     6.9870     6.9820
  868.0000   135.4720     3.5550     6.9870     7.0260
  868.5000   134.7160     5.2650     6.9870     7.0890
  869.0000   133.9780     5.8320     7.0620     7.1530
  869.5000   135.7090     3.0590     7.1510     7.2170
  870.0000   137.7770     0.2850     7.2400     7.2800
  870.5000   139.8300    -2.4880     7.3180     7.3440
  871.0000   141.2030    -5.2610     7.3180     7.3860
  871.5000   139.1010    -8.0350     7.3180     7.3630
  872.0000   136.8080   -10.8080     7.3180     7.3460
  872.5000   135.9050   -13.5810     7.3180     7.3290
  873.0000   135.6760    -5.4800     7.3180     7.3180
  873.5000   136.0030     2.6210     7.4280     7.5510
  874.0000   136.3210    10.7220     7.5610     7.7160
  874.5000   136.6410    16.0580     7.6950     7.8800
  875.0000   136.9490    14.0850     7.7870     8.0450
  875.5000   136.7170    12.1110     7.9550     8.2550
