~VERSION INFORMATION
 VERS.                2.0:   CWLS LOG ASCII STANDARD - VERSION 2.0
 WRAP.                 NO:   ONE LINE PER DEPTH STEP
~WELL INFORMATION
#MNEM.UNIT      DATA TYPE    INFORMATION
#----------   ------------   ------------------------------
 STRT.F          637.0000:   START DEPTH
 STOP.F         3158.0000:   STOP DEPTH
 STEP.F            0.5000:   STEP LENGTH
 NULL.          -999.2500:   NO VALUE
 COMP.    FENIX & SCISSON:   COMPANY
 WELL.  FENIX "AX" #34-33:   WELL
 FLD .             NPR #3:   FIELD
 LOC .      S33 T39N R78W:   LOCATION
 CNTY.            NATRONA:   COUNTY
 STAT.            WYOMING:   STATE
 CTRY. UNITED STATES OF AMERICA:   COUNTRY
 SRVC.       SCHLUMBERGER:   SERVICE COMPANY
 DATE.        15-APR-1977:   LOGDATE
 API .     49025103450000:   API NUMBER
~CURVE INFORMATION
#MNEM.UNIT       API CODE    CURVE DESCRIPTION
#----------   ------------   ------------------------------
 DEPT.F                  :   
 CALD.IN     45 280 60 00:   CALIPER FROM DENSITY LOG
 GRD .GAPI   45 310 01 00:   GAMMA RAY FROM DENSITY LOG
 RHOB.G/C3   45 350 01 00:   BULK DENSITY
 CORR.G/C3   45 356 01 00:   DENSITY CORRECTION
 SPR .MV     07 010 01 00:   SPONTANEOUS POTENTIAL
 SFLU.OHMM   07 220 01 00:   SPHERICALLY FOCUSED LOG UNAVERAGED RESISTIVITY
 ILD .OHMM   07 120 46 00:   INDUCTION LOG DEEP RESISTIVITY
 ILM .OHMM   07 120 44 00:   INDUCTION LOG MEDIUM RESISTIVITY
~PARAMETER INFORMATION
#MNEM.UNIT          VALUE    DESCRIPTION
#----------   ------------   ------------------------------
 EKB .F         5196.0000:   Kelly bushing
 EGL .F         5185.0000:   Ground level
 EDF .F            0.0000:   Drilling floor
 TD  .F         3159.0000:   Total depth
 DATE.        15-APR-1977:   Date logged
 CLNT.            A2DTECH:   Client Code
 SL  . 2132' FNL & 1750' FWL:   Surface Location
 PD  .                 GL:   Permanent Datum
 EPD .F              5185:   Elevation Permanent Datum
 LMF .                 KB:   Log Measured From
 DMF .                 KB:   Drilling Measured From
 DAPD.F                11:   Feet Above Permanent Datum
 DD  .F              3156:   Depth driller
 DL  .F              3159:   Depth logger
 BLI .F              3153:   Bottom log interval
 TLI .F               637:   Top log interval
 CS1 .IN            8.625:   Casing size
 CBD1.      8.625" @ 637':   Casing driller 1
 CBL1.F               637:   Casing logger 1
 BS1 .IN            7.875:   Bit size
 BSD1.F              3156:   Depth drilled with bit1
 DFT .                FGM:   Type fluid in hole
 DFD .                7.5:   Density
 DFV .                 35:   Viscosity
 DFPH.                8.5:   pH
 DFL .                  9:   Fluid loss
 MSS .                PIT:   Source of sample
 RMS .OHMM            .48:   Rm
 MST .F                60:   Rm Meas. temp.
 RMF .OHMM            .28:   Rmf
 MFST.F                60:   Rmf Meas. temp.
 MFSS.               MEAS:   Source Rmf.
 RMB .OHMM            .24:   Rm. at BHT
 BHT .F               120:   BHT.
 TCS .HRS            0200:   Time Circ. stopped
 MRT .F               120:   Maximum recorded temp.
 LUN .               7680:   Logging unit number
 LUL .               CSPR:   Logging unit location
 ENGI.             TAYLOR:   Recorded By
 WITN.         PETTINGILL:   Witnessed by
 ORIG.           5" PRINT:   Origin of data
 UWI .     49025103450000:   Unique Well ID
 DICO. A2D TECHNOLOGIES, INC.:   Digitizing Company
 TLAB.               0530:   Time logger at bottom
~OTHER INFORMATION
~A   DEPT       CALD      GRD       RHOB       CORR        SPR         SFLU        ILD        ILM 
# ...
 1123.0000     9.0326    94.7351     2.5910     0.0675   -56.8165     9.3361     8.4363     7.2156
 1123.5000     9.0328    95.1312     2.5851     0.0665   -56.8163     9.2508     8.2827     7.1497
 1124.0000     9.0330    96.7214     2.5631     0.0415   -56.8160     9.1663     8.3593     7.1498
 1124.5000     9.0332    97.9133     2.5362     0.0485   -56.6174     8.9995     8.3682     7.1500
 1125.0000     9.0334    93.9316     2.5451     0.0505   -56.4188     8.9997     8.3770     7.1501
 1125.5000     9.0336    91.5418     2.5571     0.0595   -56.2202     8.9998     8.3858     7.1502
 1126.0000     9.0338    90.5447     2.5741     0.0595   -56.0216     9.0000     8.3947     7.2164
 1126.5000     9.0339    90.9409     2.5880     0.0944   -56.4179     9.0002     8.4036     7.2165
 1127.0000     9.0341    90.9391     2.5790     0.1034   -56.2193     9.0834     8.4124     7.2166
 1127.5000     9.0343    90.7383     2.5810     0.1093   -56.2190     9.0837     8.4213     7.2167
 1128.0000     9.0345    90.9355     2.5790     0.1163   -56.2187     9.1677     8.4302     7.2169
 1128.5000     9.0347    92.7248     2.5820     0.1293   -56.0200     9.1679     8.4380     7.2170
 1129.0000     9.0349    96.3044     2.5840     0.1323   -56.2180     9.1681     8.3610     7.3512
 1129.5000     9.0351    98.4889     2.5890     0.1423   -56.4161     9.1683     8.3611     7.3513
 1130.0000     9.0353    91.5252     2.6139     0.1453   -56.4158     8.7563     7.9676     7.3514
 1130.5000     9.0355    91.1255     2.5640     0.1123   -56.4155     8.5971     7.5926     7.2175
 1131.0000     9.0357    90.7258     2.5341     0.1073   -56.2168     8.5972     7.2353     6.7689
 1131.5000     9.0358    90.5250     2.5401     0.1004   -56.2165     8.6768     6.8949     6.3482
 1132.0000     9.0360    90.7222     2.5481     0.1203   -56.2162     8.6769     6.5236     5.9537
 1132.5000     9.0362    91.5144     2.4952     0.1353   -56.2159     8.5977     6.4048     5.5837
 1133.0000     9.0364    87.9335     2.4952     0.1732   -56.0171     7.6292     6.1737     5.4279
 1133.5000     9.0366    82.3614     2.4742     0.1852   -55.8184     6.0069     6.1737     4.9969
 1134.0000     9.0171    80.5694     2.4632     0.2420   -55.4211     5.2814     6.2308     4.9970
 1134.5000     9.0180    80.7667     2.4293     0.2380   -55.8178     5.2814     6.4427     5.3785
 1135.0000     9.0190    85.3403     2.4014     0.2301   -56.0159     6.7700     6.7687     5.5608
 1135.5000     9.0199    92.4992     2.4423     0.1542   -56.0156     8.2881     6.8313     5.9512
 1136.0000     9.0208    93.8905     2.5600     0.1780   -56.2138     8.2883     7.0474     6.0063
 1136.5000     9.0217    94.2865     2.5680     0.1409   -56.2135     8.5990     7.2703     6.1179
 1137.0000     9.0226    94.6824     2.5570     0.1038   -56.2132     8.5992     7.5002     6.4058
 1137.5000     9.0235    91.1003     2.5570     0.0714   -56.0144     8.5993     7.7705     6.5851
 1138.0000     9.0244    86.5225     2.5610     0.0704   -55.6171     8.5995     7.7706     6.7075
 1138.5000     9.0254    87.9145     2.5909     0.0894   -56.0138     8.5209     7.7707     6.8321
 1139.0000     9.0263    88.3105     2.5839     0.0684   -56.0135     8.5211     7.7709     6.8322
 1139.5000     9.0272    89.1043     2.5789     0.0744   -56.2116     8.6000     7.7710     6.8323
 1140.0000     9.0281    90.4958     2.6079     0.1033   -55.8143     8.5214     7.7712     6.7699
 1140.5000     9.0290    98.8457     2.5959     0.0943   -56.2110     8.6003     7.0886     6.7080
 1141.0000     9.0299    99.2415     2.5919     0.0764   -56.4092     8.5217     7.1541     6.6468
 1141.5000     9.0308    99.0407     2.6029     0.0684   -56.6074     8.6006     7.2871     6.5860
 1142.0000     9.0318    95.2603     2.6248     0.1253   -56.8056     8.6008     7.3545     6.4069
 1142.5000     9.0327    93.6668     2.6019     0.0764   -57.2023     8.6804     7.3547     6.3484
 1143.0000     9.0336    95.8531     2.5899     0.0594   -57.2021     8.6011     7.3548     6.2328
 1143.5000     9.0345    97.2421     2.5659     0.0524   -57.2018     8.4445     7.3549     6.1759
 1144.0000     9.0354    98.4332     2.5490     0.0265   -57.2015     8.2907     7.3550     6.1194
 1144.5000     9.0363    95.4498     2.5539     0.0295   -57.3998     8.2150     7.4231     6.1196
 1145.0000     9.0373    94.2537     2.5549     0.0305   -57.3995     8.1399     7.5611     6.1197
 1145.5000     9.0382    96.2414     2.5549     0.0205   -57.2007     8.2153     7.6311     6.1763
 1146.0000     9.0391    98.8243     2.5659     0.0145   -57.2004     8.4453     7.7629     6.3227
 1146.5000     9.0400    97.8282     2.5779     0.0285   -57.0016     8.6022     7.9228     6.4861
 1147.0000     9.0409    94.2471     2.5849     0.0255   -57.0013     8.9247     8.0860     6.7096
 1147.5000     9.0418    91.6605     2.5639     0.0175   -57.0010     9.1746     8.2902     6.7717
 1148.0000     9.0427    89.0741     2.5509     0.0125   -57.0008     9.3451     8.3668     6.9612
 1148.5000     9.0437    91.0605     2.5739     0.0215   -56.8019     9.5187     8.5184     7.0850
 1149.0000     9.0446    93.8420     2.5809     0.0574   -56.6030     9.6068     8.6728     7.2110
 1149.5000     9.0455    95.8262     2.5888     0.0464   -56.6027     9.6070     9.0063     7.3393
 1150.0000     9.0464    93.8387     2.5759     0.0464   -56.2052     9.6072     9.0063     7.4698
 1150.5000     9.0473    92.0473     2.5549     0.0434   -56.6021     9.6074     9.0064     7.6027
 1151.0000     9.0482    89.2601     2.5499     0.0344   -56.6018     9.6964     9.0353     7.7379
 1151.5000     9.0491    88.8618     2.5459     0.0304   -56.4029     9.6965     9.0643     7.8755
 1152.0000     9.0501    86.0767     2.5309     0.0324   -56.2040     9.7863     9.0934     8.0660
 1152.5000     9.0510    84.0872     2.5539     0.0474   -56.4023     9.8769     9.1226     7.9922
 1153.0000     9.0519    84.4838     2.5788     0.0773   -56.6007    10.3397     9.1519     7.9923
 1153.5000     9.0528    85.2765     2.5928     0.0793   -56.7990    10.0607     9.0908     7.9171
 1154.0000     9.0537    86.6662     2.5718     0.0893   -56.9974     9.8775     9.0076     7.9195
 1154.5000     9.0546    86.2666     2.5908     0.0943   -57.1958     9.6977     8.9398     7.8471
 1155.0000     9.0556    85.2715     2.5618     0.0793   -56.9968     9.6091     8.8724     7.7754
 1155.5000     9.0565    84.2760     2.5658     0.0823   -56.7979     9.6092     8.8055     7.7107
 1156.0000     9.0574    83.2806     2.5628     0.0893   -56.9962     9.5899     8.7392     7.7044
 1156.5000     9.0583    82.0864     2.5588     0.0843   -57.1946     9.5707     8.6733     7.6885
 1157.0000     9.0592    81.6873     2.5588     0.0773   -57.5917     9.5515     8.6080     7.6726
 1157.5000     9.0601    83.0775     2.5458     0.0624   -57.3928     9.5323     8.5431     7.6567
 1158.0000     9.0610    86.3766     2.5279     0.0633   -57.1938     9.5222     8.4474     7.6408
 1158.5000     9.0620    85.9879     2.5428     0.0703   -57.1935     9.4352     8.4476     7.6250
 1159.0000     9.0629    89.2332     2.5498     0.0943   -56.9945     9.4353     8.4477     7.6092
 1159.5000     9.0638    90.8219     2.5538     0.1053   -56.9943     9.2635     8.4479     7.5935
 1160.0000     9.0647    91.8137     2.5488     0.0993   -56.5965     9.3475     8.4481     7.5778
 1160.5000     9.0484    90.8183     2.5398     0.1023   -56.5962     9.2620     8.4482     7.5621
 1161.0000     9.0483    90.4191     2.5648     0.1132   -56.3972     9.2621     8.4484     7.5465
 1161.5000     9.0486    91.4109     2.5628     0.1043   -56.1981     9.1665     8.4485     7.5308
 1162.0000     9.0488    93.5949     2.5598     0.0943   -56.1978     9.0719     8.4487     7.5152
 1162.5000     9.0490    93.3943     2.5787     0.0953   -56.3963     9.0106     8.4488     7.4967
 1163.0000     9.0492    91.2068     2.5927     0.1142   -56.3960     9.0671     8.4490     7.4281
