~VERSION INFORMATION
 VERS.                2.0:   CWLS LOG ASCII STANDARD - VERSION 2.0
 WRAP.                 NO:   ONE LINE PER DEPTH STEP
~WELL INFORMATION
#MNEM.UNIT      DATA TYPE    INFORMATION
#----------   ------------   ------------------------------
 STRT.F          200.0000:   START DEPTH
 STOP.F         3038.0000:   STOP DEPTH
 STEP.F            0.5000:   STEP LENGTH
 NULL.          -999.2500:   NO VALUE
 COMP.    FENIX & SCISSON:   COMPANY
 WELL. FENIX NPR 3 "A" #63-28:   WELL
 FLD .            WILDCAT:   FIELD
 LOC .      S28 T39N R78W:   LOCATION
 CNTY.            NATRONA:   COUNTY
 STAT.            WYOMING:   STATE
 CTRY. UNITED STATES OF AMERICA:   COUNTRY
 SRVC.              WELEX:   SERVICE COMPANY
 DATE.        29-MAY-1977:   LOGDATE
 API .     49025103740000:   API NUMBER
~CURVE INFORMATION
#MNEM.UNIT       API CODE    CURVE DESCRIPTION
#----------   ------------   ------------------------------
 DEPT.F                  :   
 SPR .MV     07 010 01 00:   SPONTANEOUS POTENTIAL
 ILM .OHMM   07 120 44 00:   INDUCTION LOG MEDIUM RESISTIVITY
 ILD .OHMM   07 120 46 00:   DEEP INDUCTION RESISTIVITY
 SGRD.OHMM   07 220 05 00:   SHALLOW SHORT GUARD RESISTIVITY
 GRD .GAPI   45 310 01 00:   GAMMA RAY FROM DENSITY LOG
 CALD.IN     45 280 60 00:   CALIPER FROM DENSITY LOG
 RHOB.G/C3   45 350 01 00:   BULK DENSITY
 CORR.G/C3   45 356 01 00:   DENSITY CORRECTION
~PARAMETER INFORMATION
#MNEM.UNIT          VALUE    DESCRIPTION
#----------   ------------   ------------------------------
 EKB .F         5040.0000:   Kelly bushing
 EGL .F         5029.0000:   Ground level
 EDF .F            0.0000:   Drilling floor
 EPD .F         5029.0000:   Permanent datum
 TD  .F         3040.0000:   Total depth
 DATE.        29-MAY-1977:   Date logged
 CLNT.            A2DTECH:   Client Code
 SL  . 1650' FNL & 1650' FEL:   Surface Location
 PD  .                 GL:   Permanent Datum
 LMF .                 KB:   Log Measured From
 DMF .                 KB:   Drilling Measured From
 DD  .F              3040:   Depth driller
 DL  .F              3038:   Depth logger
 BLI .F              3036:   Bottom log interval
 TLI .F               200:   Top log interval
 CS1 .IN            8.625:   Casing size
 BSD1.F              3040:   Depth drilled with bit1
 DFT .            KCL MUD:   Type fluid in hole
 ORIG.     2.5", 5" PRINT:   Origin of data
 UWI .     49025103740000:   Unique Well ID
 DICO. A2D TECHNOLOGIES, INC.:   Digitizing Company
 DAPD.                 11:   Feet Above Permanent Datum
 CBD1.      8.625" @ 220':   Casing driller 1
 BS1 .              7.875:   Bit size
 DFD .                8.7:   Density
 MRT .                108:   Maximum recorded temp.
 ENGI.            C. DOAK:   Recorded By
 WITN.      W. PETTINGILL:   Witnessed by
~OTHER INFORMATION
~A   DEPT      SPR        ILM          ILD     SGRD         GRD        CALD       RHOB      CORR  
# ...
 1496.0000   -65.4670     8.0140     7.3950    10.2580    94.1840     9.5580     2.5100     0.0340
 1496.5000   -65.4760     8.3900     7.3770    10.2200    94.0400     9.5570     2.5000     0.0300
 1497.0000   -65.4860     8.4130     7.3850    10.1820    93.3090     9.5560     2.4940     0.0260
 1497.5000   -65.4950     8.4390     7.3930    10.2180    93.5130     9.5550     2.4940     0.0220
 1498.0000   -65.5050     8.4650     7.4010    10.2650    92.6330     9.5530     2.4950     0.0190
 1498.5000   -65.5150     8.4680     7.4080    10.2710    91.0480     9.5520     2.5020     0.0190
 1499.0000   -65.5240     8.3640     7.4160    10.9930    89.6200     9.5510     2.5090     0.0190
 1499.5000   -65.5340     8.2830     7.4230    11.8120    88.0880     9.5500     2.5110     0.0190
 1500.0000   -65.5430     8.1620     7.4310    10.2710    87.9410     9.5490     2.5000     0.0190
 1500.5000   -65.5530     8.1840     7.4390    10.0840    88.6420     9.5470     2.4890     0.0190
 1501.0000   -65.5630     8.2280     7.4510    10.2380    91.1160     9.5460     2.4830     0.0190
 1501.5000   -65.5720     8.2720     7.4960    10.3660    93.9710     9.5420     2.4860     0.0190
 1502.0000   -65.5820     8.3160     7.5420    10.2370    93.3310     9.5390     2.4870     0.0190
 1502.5000   -65.5850     8.3600     7.5880    10.0840    92.5280     9.5360     2.4960     0.0210
 1503.0000   -65.5730     8.4050     7.6330    10.2340    91.5820     9.5330     2.5050     0.0270
 1503.5000   -65.5610     8.4490     7.6870    10.4970    91.1300     9.5290     2.5160     0.0330
 1504.0000   -65.5500     8.4680     7.7470    10.9540    92.9260     9.5260     2.5260     0.0390
 1504.5000   -65.5380     8.4680     7.8060    10.3660    94.8000     9.5230     2.5370     0.0430
 1505.0000   -65.5260     8.4680     7.8680    10.3660    96.7510     9.5190     2.5350     0.0420
 1505.5000   -65.5150     8.5610     7.8880    10.4610    98.6830     9.5160     2.5330     0.0420
 1506.0000   -65.5030     8.7210     7.9140    10.6280   100.5400     9.5150     2.5300     0.0420
 1506.5000   -65.4920     8.9480     7.9400    10.9540   102.7120     9.5050     2.5290     0.0410
 1507.0000   -65.4800     8.9480     7.9180    10.7860   103.5810     9.5390     2.5270     0.0410
 1507.5000   -65.4680     8.6760     7.8900    10.5110   102.9730     9.5490     2.5250     0.0410
 1508.0000   -65.4570     8.4680     7.8620    10.3740   101.1860     9.5510     2.5230     0.0400
 1508.5000   -65.4450     8.4680     7.8340    10.2710    99.4600     9.5520     2.5220     0.0400
 1509.0000   -65.4340     8.5040     7.8050    10.3360    97.6410     9.5550     2.5200     0.0400
 1509.5000   -65.4220     8.5380     7.7960    10.3990    95.9130     9.5560     2.5180     0.0390
 1510.0000   -65.4110     8.5720     7.7960    10.4620    94.2370     9.5580     2.5150     0.0390
 1510.5000   -65.4010     8.6070     7.8260    10.5250    94.2800     9.5600     2.5120     0.0380
 1511.0000   -65.5370     8.6250     7.8720    10.6070    93.5610     9.5620     2.5080     0.0370
 1511.5000   -65.5130     8.7130     7.9170    10.7120    93.3710     9.5640     2.5050     0.0350
 1512.0000   -65.4250     8.7950     7.9630    10.8160    93.9680     9.5660     2.5020     0.0340
 1512.5000   -65.3350     8.8770     8.0140    10.9200    95.6950     9.5680     2.4980     0.0320
 1513.0000   -65.2460     8.9580     8.0300    11.0240    96.6350     9.5700     2.4960     0.0310
 1513.5000   -65.2150     9.0310     8.0490    11.0550    95.7820     9.5720     2.4980     0.0290
 1514.0000   -65.2540     9.1450     8.0680    10.8620    94.2260     9.5740     2.5070     0.0280
 1514.5000   -65.2930     9.2830     8.0880    10.3430    93.4880     9.5760     2.5140     0.0270
 1515.0000   -65.3320     9.1480     8.0110    10.8970    92.7670     9.5770     2.5210     0.0280
 1515.5000   -65.3720     8.9990     7.9300    11.2600    92.0530     9.5790     2.5180     0.0290
 1516.0000   -65.3970     8.8510     7.8480    10.1770    92.2750     9.5810     2.5140     0.0310
 1516.5000   -65.4080     8.7850     7.6860    10.4380    92.8710     9.5830     2.5140     0.0320
 1517.0000   -65.4190     8.7140     7.7250    10.6560    93.4380     9.5850     2.5160     0.0330
 1517.5000   -65.4290     8.6410     7.6540    10.4870    94.0470     9.5850     2.5120     0.0340
 1518.0000   -65.4400     8.6250     7.6540    10.3660    94.1440     9.5850     2.5040     0.0350
 1518.5000   -65.4500     8.7390     7.6540    10.5580    94.2250     9.5850     2.4980     0.0320
 1519.0000   -65.4610     8.7850     7.6540    10.2710    92.8430     9.5850     2.4960     0.0290
 1519.5000   -65.4720     8.7850     7.6540    10.5390    92.5840     9.5850     2.5020     0.0270
 1520.0000   -65.4820     8.7850     7.6540    11.1970    93.2900     9.5850     2.5010     0.0270
 1520.5000   -65.4930     8.6440     7.6540    11.6810    94.5520     9.5850     2.4990     0.0270
 1521.0000   -65.5030     8.5000     7.6540    11.2820    95.6630     9.5860     2.4980     0.0270
 1521.5000   -65.5140     8.3900     7.6530    10.6050    96.7340     9.5790     2.4970     0.0270
 1522.0000   -65.5250     8.2730     7.6600    10.3660    97.9710     9.5640     2.5050     0.0270
 1522.5000   -65.5350     8.1340     7.6690    10.5580    98.0490     9.5490     2.5140     0.0280
 1523.0000   -65.5460     8.0880     7.6790    10.2980    98.0780     9.5340     2.5230     0.0320
 1523.5000   -65.5560     8.1540     7.6890    10.9540    98.0520     9.5210     2.5260     0.0360
 1524.0000   -65.5670     8.2320     7.6980    10.8930    98.0650     9.5040     2.5200     0.0380
 1524.5000   -65.5770     8.3090     7.7080    10.7540    98.0620     9.5390     2.5170     0.0390
 1525.0000   -65.5890     8.3860     7.7170    10.8530    98.0610     9.5470     2.5190     0.0350
 1525.5000   -65.6280     8.4630     7.7240    10.7280    98.0610     9.5470     2.5160     0.0290
 1526.0000   -65.6670     8.5460     7.6810    10.5580    98.0650     9.5460     2.5070     0.0250
 1526.5000   -65.7070     8.4680     7.6480    10.8530    98.0560     9.5470     2.4970     0.0200
 1527.0000   -65.7460     8.4680     7.6150    10.5580    98.0560     9.5480     2.4880     0.0160
 1527.5000   -65.7830     8.4680     7.5820    10.6110    97.6490     9.5510     2.4780     0.0100
 1528.0000   -65.7850     8.4580     7.5490    10.7540    97.0910     9.5540     2.4740     0.0070
 1528.5000   -65.7840     8.4410     7.5140    10.4610    96.5430     9.5560     2.4740     0.0070
 1529.0000   -65.7840     8.4230     7.5240    11.0550    95.9920     9.5590     2.4740     0.0070
 1529.5000   -65.7840     8.4050     7.5360    10.8430    95.4420     9.5620     2.4780     0.0070
 1530.0000   -65.7840     8.3900     7.5490    10.4610    94.9800     9.5650     2.4800     0.0090
 1530.5000   -65.7840     8.4260     7.5610    11.0550    94.9670     9.5670     2.4830     0.0140
 1531.0000   -65.7840     8.4560     7.5740    10.5580    94.9570     9.5700     2.4860     0.0190
 1531.5000   -65.7840     8.4680     7.5860    10.4300    94.9640     9.5730     2.4890     0.0240
 1532.0000   -65.7840     8.3660     7.5990    10.1770    94.9610     9.5760     2.4950     0.0290
 1532.5000   -65.7840     8.3250     7.6110    10.5040    94.9590     9.5780     2.5040     0.0320
 1533.0000   -65.7840     8.2850     7.6240    10.6560    94.9670     9.5810     2.5120     0.0350
 1533.5000   -65.7840     8.2440     7.6370    10.5610    94.9040     9.5830     2.5180     0.0340
 1534.0000   -65.7840     8.2380     7.6490    10.1770    94.7990     9.5940     2.5180     0.0350
 1534.5000   -65.7840     8.4000     7.7030    10.5730    94.7050     9.6140     2.5150     0.0320
 1535.0000   -65.7840     8.5460     7.7790    10.9530    94.6080     9.6310     2.5050     0.0270
 1535.5000   -65.7840     8.3400     7.8550    11.3640    94.5130     9.6570     2.4960     0.0230
 1536.0000   -65.7840     8.1620     7.9400    10.7540    94.4170     9.6330     2.4870     0.0180
