~VERSION INFORMATION
 VERS.                2.0:   CWLS LOG ASCII STANDARD - VERSION 2.0
 WRAP.                 NO:   ONE LINE PER DEPTH STEP
~WELL INFORMATION
#MNEM.UNIT      DATA TYPE    INFORMATION
#----------   ------------   ------------------------------
 STRT.F           50.0000:   START DEPTH
 STOP.F         2832.5000:   STOP DEPTH
 STEP.F            0.5000:   STEP LENGTH
 NULL.          -999.2500:   NO VALUE
 COMP.    FENIX & SCISSON:   COMPANY
 WELL. FENIX NPR 3 "AX" #87-20:   WELL
 FLD .              N P R:   FIELD
 LOC .      S20 T39N R78W:   LOCATION
 CNTY.            NATRONA:   COUNTY
 STAT.            WYOMING:   STATE
 CTRY. UNITED STATES OF AMERICA:   COUNTRY
 SRVC.           BIRDWELL:   SERVICE COMPANY
 DATE.        01-AUG-1978:   LOGDATE
 API .     49025106780000:   API NUMBER
~CURVE INFORMATION
#MNEM.UNIT       API CODE    CURVE DESCRIPTION
#----------   ------------   ------------------------------
 DEPT.F                  :   
 CALD.IN     45 280 60 00:   CALIPER FROM DENSITY LOG
 CORR.G/C3   45 356 01 00:   DENSITY CORRECTION
 GRD .GAPI   45 310 01 00:   GAMMA RAY FROM DENSITY LOG
 RHOB.G/C3   45 350 01 00:   BULK DENSITY
 SPR .MV     05 010 01 00:   SPONTANEOUS POTENTIAL
 ILD .OHMM   05 120 46 00:   DEEP INDUCTION RESISTIVITY
 SN  .OHMM   05 040 00 00:   SHORT NORMAL
~PARAMETER INFORMATION
#MNEM.UNIT          VALUE    DESCRIPTION
#----------   ------------   ------------------------------
 EKB .F         5007.0000:   Kelly bushing
 EGL .F         4997.0000:   Ground level
 EDF .F            0.0000:   Drilling floor
 EPD .F            0.0000:   Permanent datum
 TD  .F         2832.0000:   Total depth
 DATE.        01-AUG-1978:   Date logged
 CLNT.            A2DTECH:   Client Code
 SL  . 940' FSL & 200' FEL:   Surface Location
 PD  .                 GL:   Permanent Datum
 DD  .F              2825:   Depth driller
 DL  .F              2832:   Depth logger
 BLI .F              2826:   Bottom log interval
 CS1 .IN            8.625:   Casing size
 CBD1.      8.625" @ 140':   Casing driller 1
 CBL1.F               240:   Casing logger 1
 BS1 .IN            7.875:   Bit size
 DFT .            KCL/GEL:   Type fluid in hole
 DFD .                  9:   Density
 DFV .                 34:   Viscosity
 DFL .                  8:   Fluid loss
 MSS .           FLOWLINE:   Source of sample
 RMS .OHMM            1.5:   Rm
 MST .F                70:   Rm Meas. temp.
 RMF .OHMM            .70:   Rmf
 MFST.F                72:   Rmf Meas. temp.
 RMC .OHMM            2.2:   Rmc
 MCST.F                75:   Rmc Meas. temp.
 MFSS.               MEAS:   Source Rmf.
 TCS .HRS               6:   Time Circ. stopped
 LUN .               3007:   Logging unit number
 LUL .               CASP:   Logging unit location
 ENGI.            POINTER:   Recorded By
 WITN.              AMEND:   Witnessed by
 ORIG.           5" PRINT:   Origin of data
 UWI .     49025106780000:   Unique Well ID
 DICO. A2D TECHNOLOGIES, INC.:   Digitizing Company
 DAPD.                 10:   Feet Above Permanent Datum
 BSD1.F              2825:   Depth drilled with bit1
 LMF .                 KB:   Log Measured From
 DMF .                 KB:   Drilling Measured From
 TLI .F               140:   Top log interval
~OTHER INFORMATION
~A   DEPT     CALD       CORR         GRD      RHOB        SPR        ILD         SN   
# ...
 1187.5000     9.1520     0.0890   105.7780     2.5760   -23.2670     7.1400     6.8590
 1188.0000     9.1540     0.0900   110.5940     2.5770   -23.2670     7.1310     6.8600
 1188.5000     9.1570     0.0910   111.3550     2.5720   -23.2670     7.1220     6.8590
 1189.0000     9.1610     0.0950   116.9490     2.5630   -23.2680     7.1150     6.8590
 1189.5000     9.1640     0.0990   118.9700     2.5550   -23.2670     7.2110     6.8890
 1190.0000     9.1670     0.1050   120.1980     2.5530   -23.2670     7.3030     7.0080
 1190.5000     9.1710     0.1160   119.1290     2.5610   -23.2780     7.3950     7.1280
 1191.0000     9.1720     0.1170   122.5350     2.5670   -22.7550     7.4870     7.2480
 1191.5000     9.1720     0.1190   123.5010     2.5680   -22.2760     7.5980     7.3680
 1192.0000     9.1720     0.1270   116.8850     2.5690   -22.6510     7.6240     7.3840
 1192.5000     9.1680     0.1270   117.0560     2.5800   -23.2120     7.6510     7.3880
 1193.0000     9.1360     0.1240   109.5700     2.5930   -23.1200     7.6770     7.3930
 1193.5000     9.1040     0.1210   105.6380     2.6030   -23.0260     7.7030     7.3970
 1194.0000     9.0730     0.1100   101.3850     2.6040   -22.9310     7.7260     7.4020
 1194.5000     9.0940     0.1000    98.9550     2.6020   -22.9130     7.7250     7.4060
 1195.0000     9.1190     0.0960    99.3730     2.5890   -23.0250     7.7250     7.4100
 1195.5000     9.1440     0.0940    99.9430     2.5710   -23.1370     7.7250     7.4150
 1196.0000     9.1750     0.1150   101.2870     2.5520   -23.2500     7.7250     7.4190
 1196.5000     9.1880     0.1370   100.9940     2.5450   -23.2190     7.7250     7.4240
 1197.0000     9.1760     0.1380   102.2980     2.5670   -23.1610     7.7250     7.4280
 1197.5000     9.1650     0.1370   107.2380     2.6030   -23.1020     7.7250     7.4320
 1198.0000     9.1530     0.1260   109.6770     2.6100   -23.0700     7.7250     7.4370
 1198.5000     9.1410     0.1130    99.9150     2.6040   -23.0690     7.7260     7.4410
 1199.0000     9.1320     0.1070    99.8290     2.5940   -23.0690     7.7380     7.4450
 1199.5000     9.1470     0.1050   102.5360     2.5840   -23.0690     7.7490     7.4490
 1200.0000     9.1690     0.1050   104.0010     2.5760   -23.0690     7.7610     7.4700
 1200.5000     9.1920     0.1060   108.2890     2.5810   -23.0690     7.7730     7.4910
 1201.0000     9.2120     0.1070   108.9360     2.5750   -23.0690     7.7840     7.5110
 1201.5000     9.2120     0.1130   108.8070     2.5690   -23.0690     7.7960     7.5320
 1202.0000     9.1710     0.1140   101.7640     2.5670   -23.0700     7.7830     7.5520
 1202.5000     9.1320     0.1140   100.6830     2.5640   -23.1170     7.7700     7.5730
 1203.0000     9.1390     0.1170   101.4030     2.5520   -23.1680     7.7560     7.5850
 1203.5000     9.1490     0.1310   107.5860     2.5390   -23.2180     7.7420     7.5810
 1204.0000     9.1580     0.1460   110.1000     2.5380   -23.2660     7.7260     7.5770
 1204.5000     9.1670     0.1460   112.5310     2.5810   -23.2680     7.7330     7.5730
 1205.0000     9.1770     0.1450   113.8210     2.5860   -23.2670     7.7410     7.5690
 1205.5000     9.1860     0.1440   114.9700     2.5950   -23.2670     7.7500     7.5650
 1206.0000     9.1950     0.1240   113.8580     2.6110   -23.2670     7.7590     7.5610
 1206.5000     9.1110     0.0970   111.5650     2.6220   -23.2670     7.7680     7.5570
 1207.0000     9.1400     0.0920   109.6550     2.5930   -23.2670     7.7770     7.5530
 1207.5000     9.1850     0.0920   109.9950     2.5730   -23.2670     7.7860     7.5490
 1208.0000     9.2110     0.0940   112.6000     2.5710   -23.2670     7.7940     7.5450
 1208.5000     9.1980     0.1000   116.3990     2.5570   -23.2670     7.8030     7.5410
 1209.0000     9.1840     0.1030   117.4320     2.5610   -23.2670     7.8120     7.5370
 1209.5000     9.1700     0.1040   119.1180     2.5680   -23.2670     7.8210     7.5330
 1210.0000     9.1560     0.1050   120.3980     2.5720   -23.2670     7.8300     7.5290
 1210.5000     9.1810     0.1120   113.9460     2.5600   -23.2670     7.8380     7.5250
 1211.0000     9.2120     0.1130   112.2610     2.5560   -23.2670     7.8470     7.5210
 1211.5000     9.2110     0.1120   110.1030     2.5670   -23.2680     7.8560     7.5160
 1212.0000     9.2110     0.1120   110.4380     2.5590   -23.2660     7.8650     7.5400
 1212.5000     9.2110     0.1130   117.5510     2.5580   -23.2140     7.8680     7.5690
 1213.0000     9.2120     0.1310   116.8930     2.5520   -23.1630     7.8680     7.5980
 1213.5000     9.2120     0.1650   115.8050     2.5460   -23.1110     7.8680     7.6270
 1214.0000     9.2110     0.1640   114.4520     2.6500   -23.0600     7.8680     7.6560
 1214.5000     9.1720     0.1320   115.1560     2.6380   -23.0080     7.8820     7.6850
 1215.0000     9.1530     0.1020   108.3710     2.6200   -22.9560     7.9100     7.7140
 1215.5000     9.1640     0.0970   110.1880     2.6020   -22.9050     7.9390     7.7430
 1216.0000     9.1850     0.0990   108.6050     2.5950   -22.8700     7.9670     7.7720
 1216.5000     9.2070     0.1010   106.9420     2.5890   -22.8720     7.9950     7.8010
 1217.0000     9.2080     0.1020   109.7080     2.5950   -22.9620     8.0240     7.8300
 1217.5000     9.2000     0.0990   107.3020     2.6030   -23.2160     8.0520     7.8590
 1218.0000     9.1920     0.0970   110.5470     2.6060   -23.4650     8.0800     7.8880
 1218.5000     9.1840     0.0960   104.6300     2.5830   -23.6760     8.1080     7.9170
 1219.0000     9.1750     0.1030   105.2410     2.5710   -23.7040     8.1370     7.9460
 1219.5000     9.1790     0.1050   115.6750     2.5740   -23.7370     8.1650     7.9750
 1220.0000     9.1890     0.1060   116.8200     2.5760   -23.7710     8.1930     8.0130
 1220.5000     9.2000     0.1060   121.7060     2.5740   -23.8040     8.2220     7.9690
 1221.0000     9.2100     0.1070   118.6440     2.5720   -23.8380     8.2360     7.9030
 1221.5000     9.2210     0.1080   112.6570     2.5720   -23.8710     8.1880     7.8370
 1222.0000     9.2320     0.1080   101.3560     2.5820   -23.9050     8.1500     7.7700
 1222.5000     9.1960     0.1020   102.3690     2.5950   -23.9380     8.1120     7.7250
 1223.0000     9.1540     0.0930   101.7650     2.6020   -23.9720     8.0750     7.7250
 1223.5000     9.1330     0.0820   102.5280     2.5830   -24.0050     8.0370     7.7250
 1224.0000     9.1520     0.0720   102.6940     2.5520   -24.0370     8.0100     7.7250
 1224.5000     9.1700     0.0850   101.6120     2.5340   -23.9190     8.0020     7.7250
 1225.0000     9.1720     0.0980   102.2770     2.5380   -23.5350     7.9930     7.7250
 1225.5000     9.1660     0.1070   105.9940     2.5460   -23.4190     7.9840     7.7250
 1226.0000     9.1590     0.1070   113.6750     2.5650   -23.3400     7.9760     7.7250
 1226.5000     9.1530     0.1070   115.4750     2.5780   -23.2630     7.9670     7.7250
 1227.0000     9.1460     0.1070   111.8190     2.5830   -23.1890     7.9590     7.7250
 1227.5000     9.1380     0.1070   114.3820     2.5880   -23.1180     7.9500     7.7080
 1228.0000     9.1370     0.1060   114.6420     2.5920   -23.5470     7.9420     7.6880
 1228.5000     9.1500     0.0990    99.7920     2.5880   -23.6670     7.9330     7.6670
 1229.0000     9.1620     0.1020    99.4200     2.5780   -23.6640     7.9250     7.6470
 1229.5000     9.1750     0.1050    97.6300     2.5680   -23.6630     7.9160     7.6260
 1230.0000     9.1880     0.1050    96.1810     2.5700   -23.6630     7.9070     7.6060
 1230.5000     9.2010     0.1050   101.9640     2.5680   -23.6630     7.8990     7.5860
 1231.0000     9.2130     0.1060   104.0770     2.5650   -23.6590     7.8900     7.5650
 1231.5000     9.2260     0.1060   104.9860     2.5720   -23.6280     7.8820     7.5450
 1232.0000     9.2310     0.1060   106.2020     2.5760   -23.5970     7.8730     7.5240
 1232.5000     9.2310     0.1060   108.6840     2.5690   -23.5670     7.8640     7.5040
