~VERSION INFORMATION
 VERS.                2.0:   CWLS LOG ASCII STANDARD - VERSION 2.0
 WRAP.                 NO:   ONE LINE PER DEPTH STEP
~WELL INFORMATION
#MNEM.UNIT      DATA TYPE    INFORMATION
#----------   ------------   ------------------------------
 STRT.F          520.0000:   START DEPTH
 STOP.F         3092.0000:   STOP DEPTH
 STEP.F            0.5000:   STEP LENGTH
 NULL.          -999.2500:   NO VALUE
 COMP.    FENIX & SCISSON:   COMPANY
 WELL. FENIX 87 "AX" #3-3:   WELL
 FLD .              N P R:   FIELD
 LOC .       S3 T38N R78W:   LOCATION
 CNTY.            NATRONA:   COUNTY
 STAT.            WYOMING:   STATE
 CTRY. UNITED STATES OF AMERICA:   COUNTRY
 SRVC.              WELEX:   SERVICE COMPANY
 DATE.        30-OCT-1980:   LOGDATE
 API .     49025108510000:   API NUMBER
~CURVE INFORMATION
#MNEM.UNIT       API CODE    CURVE DESCRIPTION
#----------   ------------   ------------------------------
 DEPT.F                  :   
 CALD.IN     45 280 60 00:   CALIPER FROM DENSITY LOG
 GRD .GAPI   45 310 01 00:   GAMMA RAY FROM DENSITY LOG
 RHOB.G/C3   45 350 01 00:   BULK DENSITY
 CORR.G/C3   45 356 01 00:   DENSITY CORRECTION
 SPR .MV     07 010 01 00:   SPONTANEOUS POTENTIAL
 ILD .OHMM   07 120 46 00:   DEEP INDUCTION RESISTIVITY
 ILM .OHMM   07 120 44 00:   INDUCTION LOG MEDIUM RESISTIVITY
 SGRD.OHMM   07 220 05 00:   SHALLOW SHORT GUARD RESISTIVITY
~PARAMETER INFORMATION
#MNEM.UNIT          VALUE    DESCRIPTION
#----------   ------------   ------------------------------
 EKB .F         5131.0000:   Kelly bushing
 EGL .F         5121.0000:   Ground level
 TD  .F         3095.0000:   Total depth
 DATE.        30-OCT-1980:   Date logged
 CLNT.            A2DTECH:   Client Code
 SL  . 910' FWL & 95' FEL:   Surface Location
 PD  .                 GL:   Permanent Datum
 EPD .F              5121:   Elevation Permanent Datum
 LMF .                 KB:   Log Measured From
 DMF .                 KB:   Drilling Measured From
 DD  .F              3095:   Depth driller
 DL  .F              3094:   Depth logger
 BLI .F              3092:   Bottom log interval
 TLI .F               525:   Top log interval
 CS1 .IN            9.625:   Casing size
 CBD1.      9.625" @ 525':   Casing driller 1
 CBL1.F               525:   Casing logger 1
 BS1 .IN            7.875:   Bit size
 DFT .          DISPERSED:   Type fluid in hole
 DFD .                  9:   Density
 DFV .                 40:   Viscosity
 DFPH.                 10:   pH
 DFL .                  8:   Fluid loss
 MSS .             MUDPIT:   Source of sample
 RMS .OHMM           2.40:   Rm
 MST .F                68:   Rm Meas. temp.
 MFST.F                68:   Rmf Meas. temp.
 RMC .OHMM            2.8:   Rmc
 MCST.F                68:   Rmc Meas. temp.
 MFSS.F              MEAS:   Source Rmf.
 RMB .OHMM           1.36:   Rm. at BHT
 BHT .F               120:   BHT.
 TCS .HRS             5.5:   Time Circ. stopped
 MRT .F               120:   Maximum recorded temp.
 LUN .               1891:   Logging unit number
 LUL .             CASPER:   Logging unit location
 ENGI.          PFERIMMER:   Recorded By
 WITN.              FIVAS:   Witnessed by
 ORIG.           5" PRINT:   Origin of data
 UWI .     49025108510000:   Unique Well ID
 DICO. A2D TECHNOLOGIES, INC.:   Digitizing Company
 DAPD.F                10:   Feet Above Permanent Datum
 BSD1.F              3095:   Depth drilled with bit1
 RMF .OHMM           1.92:   Rmf
 MCSS.               MEAS:   Source Rmc.
~OTHER INFORMATION
~A   DEPT     CALD        GRD       RHOB       CORR        SPR          ILD        ILM      SGRD  
# ...
 3071.5000     7.9840    89.6240     2.5630     0.0400   -27.4600     2.6760     4.3510     5.0660
 3072.0000     7.9800    90.6610     2.5560     0.0330   -27.4530     2.7430     4.5370     5.2130
 3072.5000     7.9770    91.3540     2.5650     0.0260   -27.4470     2.8110     4.7240     5.4410
 3073.0000     7.9730    90.8530     2.5770     0.0190   -27.4410     2.8780     4.9100     5.6690
 3073.5000     7.9690    90.2200     2.5850     0.0130   -27.4340     2.9450     5.0960     5.8960
 3074.0000     7.9660    89.5700     2.5740     0.0060   -27.4280     3.0130     5.2080     6.1240
 3074.5000     7.9620    89.2360     2.5600     0.0060   -27.4220     3.0800     5.2620     6.2660
 3075.0000     7.9580    89.8290     2.5580     0.0080   -27.4160     3.1470     5.2750     6.3250
 3075.5000     7.9550    90.6200     2.5630     0.0090   -27.4090     3.2150     5.2870     6.3250
 3076.0000     7.9510    91.3960     2.5600     0.0110   -27.4030     3.2820     5.3050     6.2660
 3076.5000     7.9470    92.1750     2.5500     0.0130   -27.3970     3.3110     5.2570     6.1520
 3077.0000     7.9440    92.9660     2.5390     0.0140   -27.3900     3.2570     5.2080     5.9830
 3077.5000     7.9400    93.4230     2.5290     0.0190   -27.3880     3.1890     5.1130     5.8180
 3078.0000     7.9360  -999.2500     2.5180     0.0230   -27.3880     3.1220     4.8980     5.6570
 3078.5000     7.9330  -999.2500     2.5120     0.0280   -27.3880     3.0550     4.6950     5.4960
 3079.0000     7.9290  -999.2500     2.5220     0.0320   -27.3880     2.9870     4.4920     5.3350
 3079.5000     7.9250  -999.2500     2.5320     0.0370   -27.3880     2.9200     4.3290     5.1750
 3080.0000     7.9220  -999.2500     2.5420     0.0420   -27.3880     2.8550     4.3290     5.0140
 3080.5000     7.9180  -999.2500     2.5500     0.0460   -27.3880     2.8290     4.3290     4.9270
 3081.0000     7.9140  -999.2500     2.5340     0.0510   -27.3880     2.8290     4.5270     4.9460
 3081.5000     7.9110  -999.2500     2.5230     0.0530   -27.3880     2.8290     4.7120     5.1200
 3082.0000     7.9070  -999.2500     2.5340     0.0470   -27.3880     2.8580     4.8960     5.2940
 3082.5000     7.9030  -999.2500     2.5450     0.0400   -27.3880     2.8820     5.0810     5.4680
 3083.0000     7.9000  -999.2500     2.5550     0.0340   -27.3880     2.9090     5.1130     5.6410
 3083.5000     7.8960  -999.2500     2.5580     0.0270   -27.3880     2.9090     5.0970     5.7660
 3084.0000     7.8930  -999.2500     2.5610     0.0200   -27.3880     2.8820     5.0390     5.7510
 3084.5000     7.8740  -999.2500     2.5530     0.0140   -27.3880     2.8540     4.9820     5.6340
 3085.0000     7.8490  -999.2500     2.5410     0.0130   -27.3880     2.8040     4.9250     5.5170
 3085.5000     7.8240  -999.2500     2.5320     0.0180   -27.3880     2.7530     4.8680     5.4000
 3086.0000     7.7990  -999.2500     2.5350     0.0240   -27.3880     2.7020     4.8100     5.2830
 3086.5000     7.7750  -999.2500     2.5360     0.0290   -27.3880     2.6510     4.7480     5.1650
 3087.0000     7.7500  -999.2500     2.5260     0.0340   -27.3880     2.6270     4.7480     5.0480
 3087.5000     7.7250  -999.2500     2.5200     0.0270   -27.3860     2.6030     4.6940     5.0190
 3088.0000     7.7000  -999.2500     2.5300     0.0180   -27.3980     2.6030     4.6660     5.0190
 3088.5000     7.6760  -999.2500     2.5250     0.0100   -27.2000     2.6030     4.6390     5.0190
 3089.0000     7.6560  -999.2500     2.5180     0.0150   -27.0260     2.6760     4.6180     5.0190
 3089.5000     7.6520  -999.2500     2.5240     0.0230   -26.4240     2.9030     4.6180     5.0660
 3090.0000     7.6470  -999.2500     2.5290     0.0340   -22.8990     3.1930     4.6610     5.1600
 3090.5000     7.6420  -999.2500     2.5200     0.0390   -16.6110     3.5720     4.7050     5.4160
 3091.0000     7.6360  -999.2500     2.5130     0.0390    -2.6190     4.0990     4.7480     5.9640
 3091.5000     7.6040  -999.2500     2.5130     0.0390    -0.2860     4.5340     4.7480     6.4430
 3092.0000     7.5750  -999.2500     2.5130     0.0390  -999.2500     4.5340     4.7480     6.5020
