~VERSION INFORMATION
 VERS.                2.0:   CWLS LOG ASCII STANDARD - VERSION 2.0
 WRAP.                 NO:   ONE LINE PER DEPTH STEP
~WELL INFORMATION
#MNEM.UNIT      DATA TYPE    INFORMATION
#----------   ------------   ------------------------------
 STRT.F           10.0000:   START DEPTH
 STOP.F         2950.0000:   STOP DEPTH
 STEP.F            0.5000:   STEP LENGTH
 NULL.          -999.2500:   NO VALUE
 COMP.    FENIX & SCISSON:   COMPANY
 WELL.   PENIX SHX #11-23:   WELL
 FLD .  TEAPOT DOME NPR-3:   FIELD
 LOC .      S23 T38N R78W:   LOCATION
 CNTY.            NATRONA:   COUNTY
 STAT.            WYOMING:   STATE
 CTRY. UNITED STATES OF AMERICA:   COUNTRY
 SRVC.           BIRDWELL:   SERVICE COMPANY
 DATE.        19-MAY-1979:   LOGDATE
 API .     49025107790000:   API NUMBER
~CURVE INFORMATION
#MNEM.UNIT       API CODE    CURVE DESCRIPTION
#----------   ------------   ------------------------------
 DEPT.F                  :   
 ILD .OHMM   05 120 46 00:   INDUCTION LOG DEEP
 SN  .OHMM   05 040 16 00:   SHORT NORMAL 16"
 CALD.IN     45 280 60 00:   CALIPER FROM DENSITY LOG
 GRD .GAPI   45 310 01 00:   GAMMA RAY FROM DENSITY LOG
 RHOB.G/C3   45 350 01 00:   BULK DENSITY
 CORR.G/C3   45 356 01 00:   DENSITY CORRECTION
~PARAMETER INFORMATION
#MNEM.UNIT          VALUE    DESCRIPTION
#----------   ------------   ------------------------------
 EKB .F         5275.0000:   Kelly bushing
 EGL .F         5265.0000:   Ground level
 EDF .F            0.0000:   Drilling floor
 TD  .F         2995.0000:   Total depth
 DATE.        19-MAY-1979:   Date logged
 CLNT.            A2DTECH:   Client Code
 SL  . 337' FNL & 237' FWL:   Surface Location
 PD  .                 GL:   Permanent Datum
 EPD .F              5265:   Elevation Permanent Datum
 LMF .                 KB:   Log Measured From
 DMF .                 KB:   Drilling Measured From
 DAPD.F                10:   Feet Above Permanent Datum
 DD  .F              2995:   Depth driller
 DL  .F              2950:   Depth logger
 BLI .F              2944:   Bottom log interval
 TLI .F              1050:   Top log interval
 CS1 .IN            9.625:   Casing size
 CBD1.     9.625" @ 2050':   Casing driller 1
 CBL1.F              1050:   Casing logger 1
 BS1 .IN             8.75:   Bit size
 BSD1.F              2995:   Depth drilled with bit1
 DFT . AIR/FORRATION FLUIDS:   Type fluid in hole
 TCS .HRS              12:   Time Circ. stopped
 LUN .               3029:   Logging unit number
 LUL .             CASPER:   Logging unit location
 ENGI.         B. ROLLINS:   Recorded By
 ORIG.         2.5" PRINT:   Origin of data
 UWI .     49025107790000:   Unique Well ID
 DICO. A2D TECHNOLOGIES, INC.:   Digitizing Company
~OTHER INFORMATION
~A   DEPT      ILD         SN       CALD        GRD       RHOB         CORR 
# ...
  374.0000  -999.2500  -999.2500    12.2300    85.2980     2.2490     0.2290
  374.5000  -999.2500  -999.2500    12.1940    83.2340     2.2090     0.1640
  375.0000  -999.2500  -999.2500    12.1590    81.5610     2.1170     0.0670
  375.5000  -999.2500  -999.2500    12.1220    82.7650     2.1680    -0.0130
  376.0000  -999.2500  -999.2500    12.1060    83.8850     2.2530    -0.0290
  376.5000  -999.2500  -999.2500    12.1080    89.8020     2.3380     0.0050
  377.0000  -999.2500  -999.2500    12.1080    92.6850     2.4250     0.0430
  377.5000  -999.2500  -999.2500    12.1080    93.4320     2.4430     0.0400
  378.0000  -999.2500  -999.2500    12.1080    93.1380     2.4270     0.0270
  378.5000  -999.2500  -999.2500    12.1080    92.3010     2.4080     0.0140
  379.0000  -999.2500  -999.2500    12.1080    89.9880     2.4160     0.0290
  379.5000  -999.2500  -999.2500    12.1080    87.7950     2.4290     0.0560
  380.0000  -999.2500  -999.2500    12.1070    86.1420     2.4560     0.1150
  380.5000  -999.2500  -999.2500    12.1080    87.9320     2.5600     0.2380
  381.0000  -999.2500  -999.2500    12.1100    90.1350     2.6440     0.3680
  381.5000  -999.2500  -999.2500    12.1400    92.7600     2.6300     0.4770
  382.0000  -999.2500  -999.2500    12.1700    93.7290     2.5620     0.4600
  382.5000  -999.2500  -999.2500    12.2000    94.3050     2.3200     0.4120
  383.0000  -999.2500  -999.2500    12.2220    96.0540     2.0320     0.2550
  383.5000  -999.2500  -999.2500    12.1840    95.1440     2.0320     0.0140
  384.0000  -999.2500  -999.2500    12.1460    94.1830     2.0870    -0.0620
  384.5000  -999.2500  -999.2500    12.1050    92.7770     2.1780    -0.0300
  385.0000  -999.2500  -999.2500    12.0700    90.1440     2.2690    -0.0260
  385.5000  -999.2500  -999.2500    12.0730    87.6190     2.3460    -0.0130
  386.0000  -999.2500  -999.2500    12.0780    85.1860     2.4080     0.0070
  386.5000  -999.2500  -999.2500    12.0840    85.7900     2.4430     0.0180
  387.0000  -999.2500  -999.2500    12.0890    88.6180     2.4490     0.0200
  387.5000  -999.2500  -999.2500    12.0940    91.8730     2.4480     0.0210
  388.0000  -999.2500  -999.2500    12.0990    93.0480     2.4460     0.0230
  388.5000  -999.2500  -999.2500    12.1050    90.8880     2.4500     0.0290
  389.0000  -999.2500  -999.2500    12.1080    88.5190     2.4560     0.0370
  389.5000  -999.2500  -999.2500    12.1070    89.6910     2.4570     0.0310
  390.0000  -999.2500  -999.2500    12.1080    91.5160     2.4500     0.0180
  390.5000  -999.2500  -999.2500    12.1080    93.4890     2.4420     0.0040
  391.0000  -999.2500  -999.2500    12.1080    95.1300     2.4410    -0.0010
  391.5000  -999.2500  -999.2500    12.1080    94.2810     2.4510     0.0040
  392.0000  -999.2500  -999.2500    12.1080    92.9450     2.4590     0.0070
  392.5000  -999.2500  -999.2500    12.1080    95.6470     2.4680     0.0100
  393.0000  -999.2500  -999.2500    12.1080    95.6030     2.4640     0.0070
  393.5000  -999.2500  -999.2500    12.1080    95.4950     2.4550     0.0040
  394.0000  -999.2500  -999.2500    12.1080    96.2570     2.4460     0.0010
  394.5000  -999.2500  -999.2500    12.1080    99.3380     2.4420    -0.0020
  395.0000  -999.2500  -999.2500    12.1080    98.4340     2.4430     0.0030
  395.5000  -999.2500  -999.2500    12.1080    95.3980     2.4440     0.0080
  396.0000  -999.2500  -999.2500    12.1080    93.3430     2.4510     0.0120
  396.5000  -999.2500  -999.2500    12.1080    94.5320     2.4560     0.0170
  397.0000  -999.2500  -999.2500    12.1080    95.8420     2.4620     0.0160
  397.5000  -999.2500  -999.2500    12.1080    95.1080     2.4590     0.0130
  398.0000  -999.2500  -999.2500    12.1080    93.9780     2.4560     0.0090
  398.5000  -999.2500  -999.2500    12.1080    95.9060     2.4520     0.0060
  399.0000  -999.2500  -999.2500    12.1080    97.5910     2.4530     0.0060
  399.5000  -999.2500  -999.2500    12.1080    95.5540     2.4540     0.0060
  400.0000  -999.2500  -999.2500    12.1080    94.3450     2.4560     0.0060
  400.5000  -999.2500  -999.2500    12.1080    92.9580     2.4550     0.0060
  401.0000  -999.2500  -999.2500    12.1080    93.6000     2.4520     0.0060
  401.5000  -999.2500  -999.2500    12.1080    95.7290     2.4490     0.0090
  402.0000  -999.2500  -999.2500    12.1080    99.1850     2.4520     0.0130
  402.5000  -999.2500  -999.2500    12.1080   103.1030     2.4650     0.0170
  403.0000  -999.2500  -999.2500    12.1080   103.6380     2.4600     0.0180
  403.5000  -999.2500  -999.2500    12.1080   104.2330     2.4450     0.0170
  404.0000  -999.2500  -999.2500    12.1080   102.5800     2.4400     0.0150
  404.5000  -999.2500  -999.2500    12.1080   101.2850     2.4410     0.0140
  405.0000  -999.2500  -999.2500    12.1080   100.0970     2.4250     0.0090
  405.5000  -999.2500  -999.2500    12.1070    99.5050     2.4070     0.0030
  406.0000  -999.2500  -999.2500    12.1080    97.3650     2.4060    -0.0010
  406.5000  -999.2500  -999.2500    12.1040    95.0270     2.4130     0.0040
  407.0000  -999.2500  -999.2500    12.0990    94.7720     2.4200     0.0080
  407.5000  -999.2500  -999.2500    12.0940    94.0820     2.4270     0.0140
  408.0000  -999.2500  -999.2500    12.0890    93.7940     2.4290     0.0080
  408.5000  -999.2500  -999.2500    12.0840    93.8640     2.4340     0.0010
  409.0000  -999.2500  -999.2500    12.0790    92.9130     2.4410    -0.0010
  409.5000  -999.2500  -999.2500    12.0740    90.0080     2.4480     0.0030
  410.0000  -999.2500  -999.2500    12.0690    90.8230     2.4550     0.0050
  410.5000  -999.2500  -999.2500    12.0630    87.1010     2.4600     0.0090
  411.0000  -999.2500  -999.2500    12.0580    88.0820     2.4590     0.0120
  411.5000  -999.2500  -999.2500    12.0530    89.0490     2.4580     0.0150
  412.0000  -999.2500  -999.2500    12.0480    89.6750     2.4570     0.0190
  412.5000  -999.2500  -999.2500    12.0430    84.2330     2.4560     0.0220
  413.0000  -999.2500  -999.2500    12.0380    82.8830     2.4480     0.0220
  413.5000  -999.2500  -999.2500    12.0330    81.5670     2.4400     0.0280
  414.0000  -999.2500  -999.2500    12.0290    80.4820     2.4550     0.0300
  414.5000  -999.2500  -999.2500    12.0390    85.0480     2.4770     0.0890
  415.0000  -999.2500  -999.2500    12.0510    91.2750     2.4890     0.1650
  415.5000  -999.2500  -999.2500    12.0630    95.1620     2.4830     0.2100
  416.0000  -999.2500  -999.2500    12.0730    97.1070     2.3870     0.2310
  416.5000  -999.2500  -999.2500    12.0860   100.0570     2.2610     0.2040
  417.0000  -999.2500  -999.2500    12.0970   103.6620     2.1350     0.1940
  417.5000  -999.2500  -999.2500    12.1030   102.5590     2.0270     0.1840
  418.0000  -999.2500  -999.2500    12.0510    99.2700     1.9340     0.0770
  418.5000  -999.2500  -999.2500    12.0010    96.0740     1.7530    -0.0230
  419.0000  -999.2500  -999.2500    11.9540    96.8250     1.8750    -0.0650
  419.5000  -999.2500  -999.2500    11.9710    89.4360     1.9260    -0.0540
  420.0000  -999.2500  -999.2500    11.9850    84.6440     2.0090    -0.0470
  420.5000  -999.2500  -999.2500    12.0030    81.2250     2.2110    -0.0310
  421.0000  -999.2500  -999.2500    12.0190    80.3740     2.3910    -0.0100
  421.5000  -999.2500  -999.2500    12.0360    80.0100     2.4140     0.0170
  422.0000  -999.2500  -999.2500    12.0520    80.8900     2.4300     0.0200
  422.5000  -999.2500  -999.2500    12.0660    75.4840     2.4410     0.0230
  423.0000  -999.2500  -999.2500    12.0720    73.3900     2.4420     0.0220
  423.5000  -999.2500  -999.2500    12.0810    72.9700     2.4380     0.0230
  424.0000  -999.2500  -999.2500    12.0900    75.5830     2.4340     0.0230
  424.5000  -999.2500  -999.2500    12.0970    77.6220     2.4340     0.0310
  425.0000  -999.2500  -999.2500    12.1070    76.7600     2.4420     0.0400
  425.5000  -999.2500  -999.2500    12.1090    77.3870     2.4420     0.0520
