~VERSION INFORMATION
 VERS.                2.0:   CWLS LOG ASCII STANDARD - VERSION 2.0
 WRAP.                 NO:   ONE LINE PER DEPTH STEP
~WELL INFORMATION
#MNEM.UNIT      DATA TYPE    INFORMATION
#----------   ------------   ------------------------------
 STRT.F            0.0000:   START DEPTH
 STOP.F         5786.0000:   STOP DEPTH
 STEP.F            0.5000:   STEP LENGTH
 NULL.          -999.2500:   NO VALUE
 COMP. U.S. DEPARTMENT OF ENERGY:   COMPANY
 WELL. DEPARTMENT "X" #2-3:   WELL
 FLD .           N P R #3:   FIELD
 LOC .       S3 T38N R78W:   LOCATION
 CNTY.            NATRONA:   COUNTY
 STAT.            WYOMING:   STATE
 CTRY. UNITED STATES OF AMERICA:   COUNTRY
 SRVC.       BAKER HUHGES:   SERVICE COMPANY
 DATE.        14-JUL-2002:   LOGDATE
 API .     49025230540000:   API NUMBER
~CURVE INFORMATION
#MNEM.UNIT       API CODE    CURVE DESCRIPTION
#----------   ------------   ------------------------------
 DEPT.F                  :   
 TEND.LBS    45 635 01 00:   TENSION FROM DENSITY LOG
 CALD.IN     45 280 60 00:   CALIPER FROM DENSITY LOG
 ZCOR.G/C3   45 356 01 00:   DENSITY CORRECTION
 PE  .B/E    45 358 01 00:   PHOTOELECTRIC FACTOR
 ZDEN.G/C3   45 350 01 00:   BULK DENSITY
 CNCF.DEC    42 890 03 00:   NEUTRON POROSITY
 TENS.LBS    60 635 01 00:   TENSION FROM SONIC
 DT  .US/F   60 520 00 00:   DELTA TIME
 RD  .OHMM   11 220 10 00:   RESISTIVITY DEEP
 TENR.LBS    11 635 01 00:   TENSION FROM RES. LOG
 RS  .OHMM   11 220 09 00:   RESISTIVITY SHALLOW
 GRR .GAPI   11 310 01 00:   GAMMA RAY FROM RES.
 RMLL.OHMM   11 270 04 00:   MICRO LATEROLOG
 SPR .MV     11 010 01 00:   SPONTANEOUS POTENTIAL FROM RES.
~PARAMETER INFORMATION
#MNEM.UNIT          VALUE    DESCRIPTION
#----------   ------------   ------------------------------
 EKB .F         5164.7000:   Kelly bushing
 EGL .F         5154.7000:   Ground level
 EDF .F         5163.7000:   Drilling floor
 TD  .F         5773.0000:   Total depth
 DATE.        14-JUL-2002:   Date logged
 CLNT.            A2DTECH:   Client Code
 SL  . 838' FNL & 2128' FWL:   Surface Location
 PD  .                 GL:   Permanent Datum
 EPD .F            5154.7:   Elevation Permanent Datum
 LMF .                 KB:   Log Measured From
 DMF .                 KB:   Drilling Measured From
 DD  .F              5770:   Depth driller
 DL  .F              5773:   Depth logger
 BLI .F              5770:   Bottom log interval
 CS1 .IN            9.625:   Casing size
 CBD1.       9.625 @ 578':   Casing driller 1
 CBL1.F               578:   Casing logger 1
 BS1 .IN             8.75:   Bit size
 DFT .       GEL/CHEMICAL:   Type fluid in hole
 DFD .                  9:   Density
 DFV .                 45:   Viscosity
 DFPH.                8.5:   pH
 DFL .                9.6:   Fluid loss
 MSS .           FLOWLINE:   Source of sample
 RMS .OHMM          0.568:   Rm
 MST .F                91:   Rm Meas. temp.
 RMF .OHMM          0.490:   Rmf
 MFST.F                92:   Rmf Meas. temp.
 RMC .OHMM          1.072:   Rmc
 MCST.F                90:   Rmc Meas. temp.
 MFSS.               MEAS:   Source Rmf.
 RMB .OHMM          0.291:   Rm. at BHT
 BHT .F               184:   BHT.
 TCS .HRS               8:   Time Circ. stopped
 MRT .F               184:   Maximum recorded temp.
 LUN .            HL-6530:   Logging unit number
 LUL .             CASPER:   Logging unit location
 ENGI.           VERCIMAK:   Recorded By
 WITN.              HARDY:   Witnessed by
 ORIG.           5" PRINT:   Origin of data
 UWI .     49025230540000:   Unique Well ID
 DICO. A2D TECHNOLOGIES, INC.:   Digitizing Company
~OTHER INFORMATION
~A    DEPT    TEND       CALD       ZCOR         PE       ZDEN       CNCF       TENS         DT         RD       TENR         RS         GRR      RMLL        SPR   
# ...
 2621.5000   -73.7250     9.4260     0.0350     2.4570     2.5140     0.1980   -34.5690    76.8590     5.1400     2.2150     5.8880   109.7380  -999.2500    -3.7510
 2622.0000   -50.8910     9.4280     0.0390     2.5760     2.5190     0.1910   -34.5690    75.7210     5.6320     1.1460     6.3560   105.2740  -999.2500    -3.7480
 2622.5000   -24.0000     9.4300     0.0270     2.8830     2.5160     0.1910   -34.5690    76.6590     6.1380     0.0760     6.7920   101.6880  -999.2500    -3.7470
 2623.0000   -15.0000     9.4320     0.0190     3.0010     2.5050     0.1950   -34.5690    77.6380     6.1380    -0.9940     6.9180   103.3190  -999.2500    -3.7480
 2623.5000   -15.0000     9.4340     0.0200     3.0450     2.4930     0.1990   -34.5690    78.2870     5.7600    -2.0630     6.7220   103.7310  -999.2500    -3.7560
 2624.0000   -15.0000     9.4360     0.0260     2.9420     2.4940     0.2030   -34.5690    78.8280     5.4550    -3.1330     6.4380   103.8980  -999.2500    -3.5090
 2624.5000   -15.0000     9.4380     0.0310     2.8360     2.5010     0.2070   -34.5690    78.3890     5.1550    -4.2020     6.1550   104.4430  -999.2500    -3.2280
 2625.0000   -15.0000     9.4400     0.0270     2.7340     2.5070     0.2060   -34.5690    78.0690     4.9690    -5.2720     5.8710   106.6140  -999.2500    -2.9540
 2625.5000   -20.6140     9.4420     0.0280     2.6400     2.5070     0.2050   -34.5690    78.2260     4.8780   -15.4690     5.5480   108.8180  -999.2500    -2.9440
 2626.0000   -27.6570     9.4440     0.0340     2.6210     2.5070     0.2030   -34.5690    77.4650     4.9460   -15.4690     5.5260   108.2080  -999.2500    -2.9460
 2626.5000   -34.7000     9.4460     0.0430     2.6000     2.5080     0.1980   -34.5690    76.2850     5.1250   -15.4690     5.4970   106.9440  -999.2500    -2.9510
 2627.0000   -41.7430     9.4480     0.0370     2.6040     2.5030     0.2020   -34.5690    76.0220     5.3050   -14.7540     5.6180   105.6890  -999.2500    -2.7650
 2627.5000   -52.7940     9.4510     0.0350     2.6280     2.4960     0.2120   -34.5690    78.1430     5.4970   -12.7040     5.7490   106.8470  -999.2500    -2.5280
 2628.0000   -67.2940     9.4530     0.0430     2.6540     2.4840     0.2210   -34.5690    80.3810     5.4970   -10.6540     5.9710   107.8700  -999.2500    -2.2890
 2628.5000   -81.7940     9.4550     0.0490     2.6830     2.4630     0.2290   -34.5690    82.1340     5.1830    -8.6040     5.8150   106.4440  -999.2500    -2.0500
 2629.0000   -95.0000     9.4570     0.0380     2.7090     2.4410     0.2340   -34.5690    80.9210     5.0150    -6.5540     5.5070   103.5890  -999.2500    -1.8100
 2629.5000   -86.0500     9.4590     0.0350     2.6980     2.4160     0.2330   -34.5690    79.9300     5.1420    -5.4890     5.3480   100.8590  -999.2500    -1.5750
 2630.0000   -77.8330     9.4610     0.0430     2.6910     2.4240     0.2310   -44.5890    80.4440     5.2610    -0.7840     5.3840    99.3350  -999.2500    -1.8470
 2630.5000   -69.6170     9.4620     0.0430     2.6950     2.4400     0.2290   -37.6900    81.0030     5.3800     6.2450     5.4390   101.9240  -999.2500    -2.1940
 2631.0000   -65.0000     9.4210     0.0290     2.6990     2.4720     0.2260   -30.3610    80.6300     5.4970    13.2730     5.4470   104.4200  -999.2500    -2.5390
 2631.5000   -65.0000     9.3740     0.0280     2.7020     2.4990     0.2170   -23.0320    79.3050     5.0890    20.3020     5.2120   104.4550  -999.2500    -2.6480
 2632.0000   -65.0000     9.3280     0.0320     2.7060     2.5080     0.2110   -15.7030    78.0260     4.7580    22.5310     4.9840   104.0370  -999.2500    -2.4190
 2632.5000   -56.3330     9.3050     0.0370     2.7100     2.5080     0.2110   -15.0960    78.3270     4.4910    17.8450     4.7570   103.5460  -999.2500    -2.1900
 2633.0000   -34.4220     9.3080     0.0360     2.7010     2.5050     0.2150   -15.7710    80.6850     4.1890    13.1590     4.5290   106.0130  -999.2500    -2.1450
 2633.5000   -12.5110     9.3100     0.0280     2.6920     2.5000     0.2220   -16.4460    81.9340     3.8840     8.4740     4.3010   109.0500  -999.2500    -2.1440
 2634.0000     9.4000     9.3130     0.0210     2.6820     2.5000     0.2280   -17.1210    81.0000     3.5800     4.4910     4.0730   109.7590  -999.2500    -2.1460
 2634.5000    14.3810     9.3160     0.0250     2.6730     2.5010     0.2310   -17.7960    80.4380     3.4350     1.3840     3.8770   108.8260  -999.2500    -2.1470
 2635.0000    12.5560     9.3190     0.0220     2.6640     2.5020     0.2260   -18.4710    80.7310     3.4210    -1.8960     3.8770   109.4820  -999.2500    -2.4070
 2635.5000    10.7300     9.3220     0.0170     2.6550     2.4980     0.2280   -19.1460    83.3510     3.4090    -5.4890     3.8770   112.1100  -999.2500    -2.8960
 2636.0000     8.9040     9.3240     0.0150     2.6430     2.4850     0.2480   -19.8210    86.9420     3.1830    -5.4890     3.6480   116.4280  -999.2500    -3.1480
 2636.5000     7.0780     9.3270     0.0150     2.6280     2.4620     0.2790   -20.4960    90.5330     2.8610    -5.4890     3.3310   120.4790  -999.2500    -2.8880
 2637.0000     5.2520     9.3300     0.0200     2.6130     2.4460     0.3130   -21.1710    92.8470     2.5390    -5.4890     3.0140   122.7570  -999.2500    -2.6180
 2637.5000    12.0830     9.3330     0.0310     2.5980     2.4310     0.3260   -21.8460    94.1580     2.2170    -5.4890     2.6960   124.9090  -999.2500    -2.4140
 2638.0000     9.7000     9.3360     0.0420     2.5900     2.4160     0.3410   -22.5210    98.1180     1.8950    -5.4890     2.3790   127.0470  -999.2500    -2.3810
 2638.5000     1.4830     9.3380     0.0520     2.5900     2.4010     0.3550   -23.1960   106.1980     1.5730    -5.4890     2.0620   129.1770  -999.2500    -2.5480
 2639.0000    -6.7330     9.3410     0.0910     2.5900     2.3940     0.3530   -23.8710   108.1860     1.4500    -5.4890     1.7450   130.4920  -999.2500    -2.7240
 2639.5000   -15.0000     9.3410     0.1350     2.5900     2.4020     0.3130   -24.5490   102.4840     1.4680    -5.4890     1.5750   126.5170  -999.2500    -2.9030
 2640.0000   -15.0000     9.3300     0.1170     2.5960     2.4500     0.2730   -30.0740    92.9150     1.5040    -5.4890     2.4560   116.9890  -999.2500    -3.1050
 2640.5000   -15.0000     9.3200     0.0700     2.6130     2.5100     0.2070   -35.6200    80.9320     3.6210   -14.3100     4.7410   102.3100  -999.2500    -3.2840
 2641.0000   -15.0000     9.3100     0.0450     2.6290     2.5440     0.1760   -41.1660    68.9490     6.0160   -25.6640     7.0260    95.3790  -999.2500    -3.6100
 2641.5000   -15.0000     9.3040     0.0310     2.6300     2.5540     0.1590   -46.7120    66.8040     9.3100   -35.4290     9.4550    93.3030  -999.2500    -4.0430
 2642.0000   -14.7550     9.3060     0.0290     2.6310     2.5520     0.1620   -52.2590    69.3070    11.0550   -35.4290    11.5130    95.0050  -999.2500    -4.0840
 2642.5000   -14.2950     9.3080     0.0270     2.6980     2.5470     0.1690   -57.8050    72.1050    10.3900   -35.4290    12.5730    96.6430  -999.2500    -4.0100
 2643.0000   -13.8340     9.3110     0.0250     2.7510     2.5420     0.1770   -63.3510    74.0680     9.4670   -35.4290    11.2520    98.2960  -999.2500    -4.0360
 2643.5000   -13.3740     9.3130     0.0220     2.7500     2.5370     0.1860   -64.6290    75.7470     8.5440   -35.4290    10.0640   100.9350  -999.2500    -4.3760
 2644.0000   -12.9130     9.3150     0.0260     2.7480     2.5330     0.1970   -64.6290    76.8770     7.6210   -38.9820     8.9480   103.9910  -999.2500    -4.7200
 2644.5000   -12.4530     9.3170     0.0270     2.7020     2.5280     0.1970   -64.6290    77.5250     6.9810   -42.2620     8.5080   104.8220  -999.2500    -5.0760
 2645.0000   -11.9920     9.3190     0.0270     2.6560     2.5230     0.1930   -64.6290    77.0690     7.1110   -45.4090     8.1620   104.8100  -999.2500    -5.3260
 2645.5000   -11.5320     9.3210     0.0270     2.6210     2.5190     0.1920   -64.6290    76.5260     7.4690   -43.1190     8.4130   104.8160  -999.2500    -5.1690
