~VERSION INFORMATION
 VERS.                2.0:   CWLS LOG ASCII STANDARD - VERSION 2.0
 WRAP.                 NO:   ONE LINE PER DEPTH STEP
~WELL INFORMATION
#MNEM.UNIT      DATA TYPE    INFORMATION
#----------   ------------   ------------------------------
 STRT.F          200.0000:   START DEPTH
 STOP.F         3142.0000:   STOP DEPTH
 STEP.F            0.5000:   STEP LENGTH
 NULL.          -999.2500:   NO VALUE
 COMP.    FENIX & SCISSON:   COMPANY
 WELL.  FENIX "AX" #37-10:   WELL
 FLD .              NPR-3:   FIELD
 LOC .      S10 T38N R78W:   LOCATION
 CNTY.            NATRONA:   COUNTY
 STAT.            WYOMING:   STATE
 CTRY. UNITED STATES OF AMERICA:   COUNTRY
 SRVC.              WELEX:   SERVICE COMPANY
 DATE.        19-SEP-1977:   LOGDATE
 API .     49025104190000:   API NUMBER
~CURVE INFORMATION
#MNEM.UNIT       API CODE    CURVE DESCRIPTION
#----------   ------------   ------------------------------
 DEPT.F                  :   
 CALD.IN     45 280 60 00:   CALIPER FROM DENSITY LOG
 GRD .GAPI   45 310 01 00:   GAMMA RAY FROM DENSITY LOG
 RHOB.G/C3   45 350 01 00:   BULK DENSITY
 CORR.G/C3   45 356 01 00:   DENSITY CORRECTION
 NPHI.DEC    42 890 03 00:   NEUTRON POROSITY SANDSTONE
 SPR .MV     07 010 01 00:   SPONTANEOUS POTENTIAL
 SGRD.OHMM   07 220 05 00:   SHALLOW GUARD RESISTIVITY
 ILD .OHMM   07 120 46 00:   INDUCTION LOG DEEP RESISTIVITY
 ILM .OHMM   07 120 44 00:   INDUCTION LOG MEDIUM RESISTIVITY
 TENR.LBS    07 635 01 00:   TENSION FROM RESISTIVITY
~PARAMETER INFORMATION
#MNEM.UNIT          VALUE    DESCRIPTION
#----------   ------------   ------------------------------
 EKB .F         5221.0000:   Kelly bushing
 EGL .F         5211.0000:   Ground level
 EDF .F            0.0000:   Drilling floor
 TD  .F         3150.0000:   Total depth
 DATE.        19-SEP-1977:   Date logged
 CLNT.            A2DTECH:   Client Code
 SL  . 1190' FSL & 1750' FWL:   Surface Location
 PD  .                 GL:   Permanent Datum
 DD  .F              3150:   Depth driller
 DL  .F              3146:   Depth logger
 BLI .F              3144:   Bottom log interval
 CS1 .IN            8.625:   Casing size
 CBD1.      8.625" @ 215':   Casing driller 1
 BS1 .IN            7.875:   Bit size
 DFT .            KCL/MUD:   Type fluid in hole
 DFD .                8.9:   Density
 TCS .HRS               2:   Time Circ. stopped
 MRT .F               116:   Maximum recorded temp.
 ENGI.            C. DOAK:   Recorded By
 WITN.      B. HARRINGTON:   Witnessed by
 ORIG.           5" PRINT:   Origin of data
 UWI .     49025104190000:   Unique Well ID
 DICO. A2D TECHNOLOGIES, INC.:   Digitizing Company
 DAPD.F                10:   Feet Above Permanent Datum
 BSD1.F              3150:   Depth drilled with bit1
 EPD .F              5211:   Elevation Permanent Datum
 LMF .                 KB:   Log Measured From
 DMF .                 KB:   Drilling Measured From
 TLI .F               200:   Top log interval
 CBL1.                213:   Casing logger 1
 DFV .                 37:   Viscosity
 DFPH.                 11:   pH
 DFL .                5.8:   Fluid loss
 MSS .           MEASURED:   Source of sample
 RMS .               2.82:   Rm
 MST .                 94:   Rm Meas. temp.
 RMF .               1.61:   Rmf
 MFST.                 94:   Rmf Meas. temp.
 MFSS.               MEAS:   Source Rmf.
 RMC .               3.12:   Rmc
 MCST.                 94:   Rmc Meas. temp.
 MCSS.               MEAS:   Source Rmc.
 RMB .               2.28:   Rm. at BHT
 BHT .                116:   BHT.
 LUN .               8611:   Logging unit number
 LUL .             CASPER:   Logging unit location
~OTHER INFORMATION
~A   DEPT       CALD       GRD        RHOB      CORR      NPHI        SPR       SGRD        ILD        ILM       TENR   
# ...
 1741.0000    11.8161    55.7876     2.5623     0.0727     0.2563   -74.7016     8.6087     5.4387     7.0340  1521.8038
 1741.5000    11.7178    56.9800     2.5643     0.0767     0.2684   -74.7016     8.7686     5.4890     7.3654  1521.6187
 1742.0000    11.6194    58.5680     2.5623     0.0907     0.2740   -74.7016     9.0139     5.6946     7.5025  1521.4336
 1742.5000    11.4617    59.7593     2.5584     0.0968     0.2716   -74.7016     8.8502     5.8004     8.3785  1521.2485
 1743.0000    11.1659    60.3583     2.5564     0.1048     0.2708   -74.7016     9.1817     5.9627     8.7731  1521.0634
 1743.5000    11.1860    60.5628     2.5544     0.1145     0.2672   -74.7016     9.3523     6.0734     8.7734  1540.8562
 1744.0000    11.1863    60.5695     2.5465     0.1228     0.2757   -74.7016     9.4389     6.0736     8.5350  1520.6931
 1744.5000    11.1672    60.5706     2.5405     0.1355     0.2813   -74.7016     9.4393     5.9633     8.0030  1520.5079
 1745.0000    11.1480    60.5762     2.5306     0.1481     0.2841   -74.7016     9.2678     5.9635     7.7854  1520.3228
 1745.5000    11.1683    60.1894     2.5247     0.1668     0.2938   -74.7016     8.9338     5.9637     7.7144  1520.1379
 1746.0000    11.2480    59.9972     2.5147     0.1729     0.3040   -74.7016     8.8525     5.8018     7.4359  1539.9318
 1746.5000    11.2880    59.8049     2.5088     0.1629     0.3109   -74.6192     8.8527     5.9096     7.3681  1519.7677
 1747.0000    11.3677    59.6127     2.5148     0.1570     0.3109   -74.5367     8.8531     5.8557     7.1677  1519.5825
 1747.5000    11.4277    59.6182     2.5188     0.1570     0.2986   -74.4543     8.5341     5.8024     7.1023  1519.3975
 1748.0000    11.5271    60.2173     2.5288     0.1531     0.2938   -74.3719     8.4564     5.8026     7.0375  1519.2122
 1748.5000    11.7058    61.4087     2.5368     0.1574     0.2894   -74.2894     8.4566     5.7497     7.0378  1539.0070
 1749.0000    12.4978    62.7981     2.5488     0.1612     0.2834   -74.2070     8.4570     5.6973     7.0380  1518.8419
 1749.5000    12.4584    62.4091     2.5528     0.1673     0.2822   -74.1246     8.4572     5.5426     7.3697  1538.6371
 1750.0000    11.8854    61.2265     2.5568     0.1733     0.2746   -74.0421     8.4576     5.6456     7.6462  1518.4716
 1750.5000    11.4508    60.0462     2.5000     0.1531     0.2653   -73.9597     8.4579     5.4923     7.8605  1538.2671
 1751.0000    11.3128    59.0636     2.5130     0.1455     0.2597   -73.9079     8.3809     5.5432     7.4385  1518.1011
 1751.5000    11.1947    59.2649     2.5270     0.1476     0.2706   -73.9418     8.3812     5.7509     6.7228  1517.9160
 1752.0000    11.2148    59.4672     2.5350     0.1596     0.2778   -73.9757     8.5370     5.8041     6.6004  1537.7122
 1752.5000    11.4530    59.6706     2.5370     0.1636     0.2823   -74.0096     8.3819     5.8579     6.6007  1517.5457
 1753.0000    11.7505    59.8740     2.5330     0.1517     0.2831   -74.0435     8.6164     5.8581     6.9756  1517.3604
 1753.5000    11.3552    59.8796     2.5310     0.1478     0.2867   -74.0774     8.6166     5.9124     7.5087  1517.1752
 1754.0000    11.2370    59.8852     2.5291     0.1439     0.2939   -74.1063     8.8578     5.9126     7.6484  1516.9900
 1754.5000    11.1782    59.8907     2.5311     0.1419     0.2871   -74.5032     8.9399     5.9673     7.4404  1516.8048
 1755.0000    11.3172    59.6985     2.5331     0.1420     0.2827   -74.4706     9.0227     5.9130     7.2381  1516.6195
 1755.5000    11.2189    59.1104     2.5351     0.1281     0.2803   -74.4380     9.0231     5.9131     6.8495  1536.4175
 1756.0000    11.4371    58.5224     2.5372     0.1242     0.2771   -74.4054     8.8591     6.0786     6.4819  1576.1985
 1756.5000    11.6156    57.9344     2.5312     0.1182     0.2727   -74.3728     8.6981     5.9681     6.1906  1536.0474
 1757.0000    11.5766    57.5442     2.5233     0.1123     0.2675   -74.3402     8.5401     5.8061     6.0222  1535.8624
 1757.5000    11.3596    56.9561     2.5153     0.1184     0.2675   -74.3048     8.3850     5.7006     5.9672  1535.7144
 1758.0000    11.1425    56.7638     2.4944     0.1224     0.2771   -74.7016     8.1573     5.4950     5.9675  1535.5293
 1758.5000    11.3804    56.9672     2.4865     0.1165     0.2852   -74.7016     8.0091     5.7009     6.1346  1555.3282
 1759.0000    11.5194    57.5664     2.4596     0.1106     0.2824   -74.7016     7.8635     5.5461     6.6036  1535.1592
 1759.5000    11.8563    58.3634     2.4596     0.0867     0.2776   -74.7016     8.1583     5.4956     7.3749  1534.9742
 1760.0000    12.3515    59.5563     2.4726     0.0827     0.2720   -74.7016     8.3097     5.4958     7.8660  1534.7892
 1760.5000    11.9168    59.5639     2.4876     0.0689     0.2708   -74.7016     8.7008     5.4959     7.8661  1534.6041
 1761.0000    11.4699    58.7780     2.4816     0.0689     0.2700   -74.7016     8.5427     5.4961     7.8666  1534.4189
 1761.5000    10.9485    58.1899     2.4757     0.0929     0.2643   -74.7016     8.2348     5.5452     6.6658  1554.2192
 1762.0000    11.4105    57.7985     2.4617     0.0969     0.2575   -74.7016     8.0850     5.5966     6.9800  1594.0051
 1762.5000    11.8725    57.4094     2.4399     0.0990     0.2495   -74.7016     8.0854     5.8082     7.7953  1553.8494
 1763.0000    12.3345    57.2160     2.4518     0.0990     0.2431   -74.7016     8.5439     5.8620     8.1628  1533.6788
 1763.5000    12.7314    57.0236     2.4688     0.0971     0.2394   -74.7016     9.1119     5.8622     8.2385  1533.4937
 1764.0000    11.2872    57.0292     2.4977     0.1211     0.2535   -74.7016     9.5407     6.0262     7.9410  1593.2672
 1764.5000    10.9712    57.2326     2.5117     0.1231     0.2708   -74.7016     9.7180     5.9713     7.5147  1533.1235
 1765.0000    10.9717    57.6350     2.4958     0.1371     0.2914   -74.7016     9.8987     5.9715     7.1112  1552.9250
 1765.5000    10.9525    57.8374     2.4808     0.1472     0.2998   -74.7016     9.9906     6.0269     6.7916  1532.7537
 1766.0000    11.2103    58.0408     2.4460     0.1452     0.3096   -74.7016     9.4549     6.0271     6.3098  1592.5295
 1766.5000    12.0907    58.2454     2.4191     0.1353     0.3129   -74.7016     9.4553     6.0272     6.7920  1552.3707
 1767.0000    12.0823    58.6468     2.4321     0.1134     0.3101   -74.7016     9.3692     5.8622     7.3113  1532.1984
 1767.5000    12.1026    59.2449     2.4690     0.1036     0.2833   -74.9000     9.3695     5.7044     7.6560  1532.0133
 1768.0000    11.8260    59.8431     2.5089     0.1076     0.2713   -74.9000     8.8672     5.8103     8.0910  1551.8160
 1768.5000    11.5330    60.6415     2.5448     0.1216     0.2593   -74.9000     9.1996     5.7574     8.5507  1531.6429
 1769.0000    11.2139    61.4400     2.5597     0.1356     0.2552   -74.9000     9.4570     5.7576     7.9440  1551.4460
 1769.5000    11.1153    61.6401     2.5637     0.1516     0.2552   -74.9000     9.8115     5.8109     7.2457  1551.2612
 1770.0000    11.0763    62.0415     2.5678     0.1776     0.2637   -74.9000     9.4578     5.8111     7.2459  1531.0876
 1770.5000    11.0768    62.2451     2.5618     0.1896     0.2798   -74.9000     9.3716     5.8113     7.2462  1550.8914
 1771.0000    11.0773    62.2507     2.5453     0.1976     0.2875   -74.9000     9.3720     5.8115     7.2464  1550.7064
 1771.5000    11.2166    61.8604     2.5289     0.1997     0.2895   -74.9000     9.3723     5.7585     7.0493  1530.5323
 1772.0000    11.6324    61.2722     2.5124     0.1877     0.2839   -74.9000     9.4592     5.7587     7.0495  1530.3472
 1772.5000    12.1478    60.4861     2.4959     0.1798     0.2802   -74.9000     9.7240     5.7589     6.8578  1530.1620
 1773.0000    12.1479    59.5020     2.4794     0.1779     0.2754   -74.9000     9.6355     5.7591     6.7329  1509.9871
 1773.5000    11.5929    58.3200     2.4630     0.1760     0.2682   -74.9000     9.0354     5.8125     6.7332  1509.8018
 1774.0000    11.0609    57.5338     2.4465     0.1840     0.2638   -74.9000     9.1192     6.0303     7.1816  1529.6066
