~VERSION INFORMATION
 VERS.                2.0:   CWLS LOG ASCII STANDARD - VERSION 2.0
 WRAP.                 NO:   ONE LINE PER DEPTH STEP
~WELL INFORMATION
#MNEM.UNIT      DATA TYPE    INFORMATION
#----------   ------------   ------------------------------
 STRT.F          192.0000:   START DEPTH
 STOP.F         3016.0000:   STOP DEPTH
 STEP.F            0.5000:   STEP LENGTH
 NULL.          -999.2500:   NO VALUE
 COMP. FENIX & SCISSON U.S. NAVY:   COMPANY
 WELL.  FENIX "AX" #81-33:   WELL
 FLD .              NPR-3:   FIELD
 LOC .      S33 T39N R78W:   LOCATION
 CNTY.            NATRONA:   COUNTY
 STAT.            WYOMING:   STATE
 CTRY. UNITED STATES OF AMERICA:   COUNTRY
 SRVC.              WELEX:   SERVICE COMPANY
 DATE.        12-MAY-1977:   LOGDATE
 API .     49025109850000:   API NUMBER
~CURVE INFORMATION
#MNEM.UNIT       API CODE    CURVE DESCRIPTION
#----------   ------------   ------------------------------
 DEPT.F                  :   
 SPR .MV     07 010 01 00:   SPONTANEOUS POTENTIAL
 RILM.OHMM   07 120 44 00:   INDUCTION LOG MEDIUM RESISTIVITY
 RILD.OHMM   07 120 46 00:   DEEP INDUCTION RESISTIVITY
 SGRD.OHMM   07 220 05 00:   SHALLOW GUARD LOG RESISTIVITY
 NPHI.DEC    42 890 03 00:   NEUTRON POROSITY SANDSTONE
 GRD .GAPI   45 310 01 00:   GAMMA RAY FROM DENSITY LOG
 CALD.IN     45 280 60 00:   CALIPER FROM DENSITY LOG
 RHOB.G/C3   45 350 01 00:   BULK DENSITY
 DCOR.G/C3   45 356 01 00:   DENSITY CORRECTION
~PARAMETER INFORMATION
#MNEM.UNIT          VALUE    DESCRIPTION
#----------   ------------   ------------------------------
 EKB .F         5114.0000:   Kelly bushing
 EGL .F         5100.0000:   Ground level
 EDF .F         5112.0000:   Drilling floor
 TD  .F         3014.0000:   Total depth
 DATE.        12-MAY-1977:   Date logged
 CLNT.            A2DTECH:   Client Code
 SL  . 660' FEL & 660' FNL:   Surface Location
 PD  .                 GL:   Permanent Datum
 EPD .F              5100:   Elevation Permanent Datum
 LMF .                 KB:   Log Measured From
 DMF .                 KB:   Drilling Measured From
 DD  .F              3000:   Depth driller
 DL  .F              3014:   Depth logger
 BLI .F              3012:   Bottom log interval
 TLI .F              1500:   Top log interval
 CS1 .IN            8.625:   Casing size
 CBD1.      8.625" @ 217':   Casing driller 1
 CBL1.F               209:   Casing logger 1
 BS1 .IN            7.875:   Bit size
 BSD1.F              3000:   Depth drilled with bit1
 DFT .            KCL MUD:   Type fluid in hole
 DFD .                  9:   Density
 DFV .                 33:   Viscosity
 DFPH.                7.5:   pH
 DFL .                7.8:   Fluid loss
 MSS .           FLOWLINE:   Source of sample
 RMS .OHMM           0.69:   Rm
 MST .F                68:   Rm Meas. temp.
 RMF .OHMM           0.66:   Rmf
 MFST.F                68:   Rmf Meas. temp.
 RMC .OHMM           1.27:   Rmc
 MCST.F                68:   Rmc Meas. temp.
 MFSS.                 BK:   Source Rmf.
 MCSS.                 BK:   Source Rmc.
 RMB .OHMM           0.39:   Rm. at BHT
 BHT .F               118:   BHT.
 TCS .HRS               6:   Time Circ. stopped
 MRT .F               118:   Maximum recorded temp.
 LUN .               9685:   Logging unit number
 LUL .           BRIGHTON:   Logging unit location
 ENGI.          T. JOYNER:   Recorded By
 WITN.            K. JAPP:   Witnessed by
 ORIG.           5" PRINT:   Origin of data
 UWI .     49025109850000:   Unique Well ID
 DICO. A2D TECHNOLOGIES, INC.:   Digitizing Company
~OTHER INFORMATION
~A   DEPT      SPR       RILM       RILD       SGRD       NPHI         GRD        CALD       RHOB     DCOR   
# ...
  922.0000   -39.3340     6.3230     6.9510    11.2790  -999.2500   126.8570     8.3900     2.5480     0.0620
  922.5000   -39.3140     6.0820     6.9810    11.3420  -999.2500   127.0650     8.4020     2.5520     0.0680
  923.0000   -39.3140     6.3200     6.8900    11.4050  -999.2500   127.2630     8.4150     2.5560     0.0760
  923.5000   -39.3140     6.5350     6.7830    11.4680  -999.2500   126.7530     8.4280     2.5600     0.0820
  924.0000   -39.3140     6.7290     6.6400    11.5310  -999.2500   126.1450     8.4410     2.5620     0.0990
  924.5000   -39.3140     6.4730     6.4960    11.5750  -999.2500   125.5350     8.4530     2.5550     0.0780
  925.0000   -39.3140     6.2670     6.3530    11.4620  -999.2500   124.9260     8.4660     2.5480     0.0690
  925.5000   -39.3140     6.1380     6.1380    11.3750  -999.2500   124.3180     8.4790     2.5400     0.0600
  926.0000   -39.3140     6.2560     6.2560    11.2890  -999.2500   123.7090     8.4680     2.5330     0.0540
  926.5000   -39.3140     6.6070     6.4900    11.2020  -999.2500   123.1020     8.4540     2.5310     0.0510
  927.0000   -39.3140     6.5460     6.6420    11.1150  -999.2500   122.4920     8.4410     2.5330     0.0470
  927.5000   -39.3140     6.3220     6.7130    11.0550  -999.2500   121.8480     8.4280     2.5340     0.0440
  928.0000   -39.3140     6.1380     6.7920    11.1130  -999.2500   122.5030     8.4140     2.5410     0.0460
  928.5000   -39.3120     6.3990     6.7740    11.1570  -999.2500   123.5720     8.4010     2.5480     0.0510
  929.0000   -39.4000     6.5330     6.7550    11.2020  -999.2500   124.6540     8.3870     2.5500     0.0560
  929.5000   -39.5220     6.6070     6.7290    11.2600  -999.2500   125.7360     8.3740     2.5530     0.0600
  930.0000   -39.6450     6.3920     6.8540    11.2330  -999.2500   126.8170     8.3600     2.5650     0.0570
  930.5000   -39.7670     6.1540     6.8330    11.1950  -999.2500   127.8970     8.3470     2.5760     0.0540
  931.0000   -39.8900     6.0820     6.7920    11.1570  -999.2500   128.9780     8.3490     2.5770     0.0510
  931.5000   -40.0120     6.2110     6.7500    11.1190  -999.2500   129.8170     8.3640     2.5720     0.0480
  932.0000   -40.1350     6.4860     6.6470    11.0810  -999.2500   130.2210     8.3790     2.5670     0.0450
  932.5000   -40.2620     6.3710     6.4830    11.0550  -999.2500   130.6220     8.3930     2.5630     0.0430
  933.0000   -40.2550     6.0270     6.3190    11.0920  -999.2500   131.0230     8.4080     2.5650     0.0400
  933.5000   -40.2030     6.0690     6.1380    11.1200  -999.2500   131.5020     8.4230     2.5660     0.0370
  934.0000   -40.1500     6.1530     6.4040    11.1570  -999.2500   132.1290     8.4380     2.5680     0.0340
  934.5000   -40.0960     6.2530     6.7290    11.0890  -999.2500   132.7540     8.4530     2.5700     0.0370
  935.0000   -40.0430     6.4270     6.6260    10.9930  -999.2500   133.3790     8.4680     2.5710     0.0400
  935.5000   -39.9890     6.3210     6.5460    10.8970  -999.2500   134.0040     8.4790     2.5700     0.0440
  936.0000   -39.9360     6.1080     6.6120    10.8010  -999.2500   134.6290     8.4670     2.5690     0.0460
  936.5000   -39.8820     5.9170     6.6680    10.7050  -999.2500   135.2540     8.4560     2.5680     0.0420
  937.0000   -39.8290     5.9780     6.5910    10.6090  -999.2500   135.8790     8.4450     2.5660     0.0390
  937.5000   -39.7750     6.0330     6.5060    10.5130  -999.2500   136.5040     8.4350     2.5650     0.0360
  938.0000   -39.7190     6.0890     6.4210    10.4170  -999.2500   137.1240     8.4240     2.5640     0.0360
  938.5000   -39.7510     6.1380     6.3360    10.3210  -999.2500   137.6010     8.4130     2.5640     0.0400
  939.0000   -39.8130     5.9540     6.3100    10.2250  -999.2500   138.0360     8.4020     2.5660     0.0430
  939.5000   -39.8770     5.7030     6.3100    10.1480  -999.2500   138.4710     8.3910     2.5680     0.0470
  940.0000   -39.9400     5.7480     6.2110    10.0910  -999.2500   138.9040     8.3810     2.5690     0.0510
  940.5000   -40.0030     5.8370     6.0700    10.0330  -999.2500   139.2860     8.3910     2.5680     0.0480
  941.0000   -40.0660     5.9170     5.9710     9.9760  -999.2500   139.4390     8.4020     2.5620     0.0420
  941.5000   -40.0430     5.6970     6.0370     9.9190  -999.2500   139.5990     8.4120     2.5550     0.0360
  942.0000   -39.9340     5.4970     6.0820     9.8610  -999.2500   139.7600     8.4220     2.5490     0.0300
  942.5000   -39.8250     5.3480     5.9440     9.8100  -999.2500   139.9140     8.4330     2.5430     0.0230
  943.0000   -39.7110     5.3950     5.8190     9.7470  -999.2500   139.8640     8.4430     2.5370     0.0170
  943.5000   -39.7230     5.4970     5.7560     9.6900  -999.2500   139.0460     8.4540     2.5340     0.0110
  944.0000   -39.7440     5.4410     5.7560     9.6320  -999.2500   138.2430     8.4640     2.5340     0.0060
  944.5000   -39.7650     5.3270     5.7560     9.5750  -999.2500   137.4080     8.4740     2.5350     0.0060
  945.0000   -39.7860     5.2020     5.6780     9.5180  -999.2500   136.4380     8.4740     2.5390     0.0110
  945.5000   -39.8060     5.2910     5.5990     9.4550  -999.2500   135.4720     8.4620     2.5430     0.0160
  946.0000   -39.8260     5.3890     5.6080     9.5020  -999.2500   134.5060     8.4500     2.5480     0.0210
  946.5000   -39.8470     5.4970     5.6180     9.5530  -999.2500   133.5430     8.4380     2.5500     0.0230
  947.0000   -39.8670     5.3880     5.6270     9.6310  -999.2500   132.5800     8.4250     2.5490     0.0250
  947.5000   -39.8870     5.2660     5.6370     9.5800  -999.2500   131.8540     8.4130     2.5510     0.0270
  948.0000   -39.8990     5.1080     5.6510     9.4770  -999.2500   131.3860     8.4010     2.5560     0.0290
  948.5000   -39.8870     5.2790     5.6390     9.3750  -999.2500   130.9380     8.3890     2.5550     0.0300
  949.0000   -39.8760     5.5480     5.6160     9.2830  -999.2500   131.9400     8.3770     2.5530     0.0320
  949.5000   -39.8650     5.3040     5.5990     9.3840  -999.2500   133.1360     8.3640     2.5520     0.0280
  950.0000   -39.8540     5.0610     5.7510     9.4760  -999.2500   134.3370     8.3680     2.5550     0.0220
  950.5000   -39.8430     5.0330     5.8670     9.5670  -999.2500   135.5450     8.3840     2.5590     0.0320
  951.0000   -39.8320     5.0150     5.9760     9.6590  -999.2500   136.7980     8.3990     2.5600     0.0290
  951.5000   -39.8210     5.2500     6.0200     9.7500  -999.2500   137.1830     8.4140     2.5590     0.0260
  952.0000   -39.8090     5.4470     6.0640     9.8420  -999.2500   136.6810     8.4300     2.5570     0.0240
  952.5000   -39.7980     5.4150     6.1080     9.9340  -999.2500   135.6670     8.4450     2.5560     0.0210
  953.0000   -39.7870     5.3790     6.1520    10.0250  -999.2500   134.5400     8.4600     2.5550     0.0180
  953.5000   -39.7760     5.3530     6.1960    10.1170  -999.2500   133.4120     8.4760     2.5540     0.0150
  954.0000   -39.7650     5.5620     6.2400    10.2080  -999.2500   132.2850     8.4690     2.5570     0.0160
  954.5000   -39.7540     5.7550     6.2840    10.2710  -999.2500   131.2940     8.4540     2.5610     0.0190
  955.0000   -39.7420     5.8630     6.3270    10.2030  -999.2500   131.5160     8.4380     2.5640     0.0220
  955.5000   -39.7310     5.7860     6.3710    10.1510  -999.2500   131.8320     8.4230     2.5680     0.0260
  956.0000   -39.7200     5.6510     6.4270    10.1000  -999.2500   132.4240     8.4070     2.5680     0.0290
  956.5000   -39.7070     5.7470     6.3970    10.0480  -999.2500   133.0000     8.3920     2.5640     0.0320
  957.0000   -39.7540     5.8980     6.3540     9.9970  -999.2500   133.5760     8.3760     2.5590     0.0350
  957.5000   -39.8190     6.1150     6.3120     9.9450  -999.2500   134.1530     8.3610     2.5550     0.0390
  958.0000   -39.8880     5.9310     6.2700     9.9020  -999.2500   134.7280     8.3450     2.5540     0.0420
