~VERSION INFORMATION
 VERS.                2.0:   CWLS LOG ASCII STANDARD - VERSION 2.0
 WRAP.                 NO:   ONE LINE PER DEPTH STEP
~WELL INFORMATION
#MNEM.UNIT      DATA TYPE    INFORMATION
#----------   ------------   ------------------------------
 STRT.F          200.0000:   START DEPTH
 STOP.F         3014.0000:   STOP DEPTH
 STEP.F            0.5000:   STEP LENGTH
 NULL.          -999.2500:   NO VALUE
 COMP.    FENIX & SCISSON:   COMPANY
 WELL. FENIX NPR 3 "AX" #45-28:   WELL
 FLD .                NPR:   FIELD
 LOC .      S28 T39N R78W:   LOCATION
 CNTY.            NATRONA:   COUNTY
 STAT.            WYOMING:   STATE
 CTRY. UNITED STATES OF AMERICA:   COUNTRY
 SRVC.              WELEX:   SERVICE COMPANY
 DATE.        30-SEP-1977:   LOGDATE
 API .     49025104230000:   API NUMBER
~CURVE INFORMATION
#MNEM.UNIT       API CODE    CURVE DESCRIPTION
#----------   ------------   ------------------------------
 DEPT.F                  :   
 SPR .MV     07 010 01 00:   SPONTANEOUS POTENTIAL
 TENR.LBS    07 635 01 00:   TENSION
 SFL .OHMM   07 220 01 00:   SHALLOW FOCUSED LOG RESISTIVITY
 ILD .OHMM   07 120 46 00:   INDUCTION LOG DEEP RESISTIVITY
 ILM .OHMM   07 120 44 00:   INDUCTION LOG MEDIUM RESISTIVITY
 TEND.LBS    45 635 01 00:   TENSION FROM DENSITY LOG
 CALD.IN     45 280 60 00:   CALIPER FROM DENSITY LOG
 RHOB.G/C3   45 350 01 00:   BULK DENSITY
 CORR.G/C3   45 356 01 00:   DENSITY CORRECTION
 GRD .GAPI   45 310 01 00:   GAMMA RAY FROM DENSITY LOG
~PARAMETER INFORMATION
#MNEM.UNIT          VALUE    DESCRIPTION
#----------   ------------   ------------------------------
 EKB .F         5075.0000:   Kelly bushing
 EGL .F         5065.0000:   Ground level
 EDF .F            0.0000:   Drilling floor
 E TD.F         3008.0000:   Total depth
 DATE.        30-SEP-1977:   Date logged
 CLNT.            A2DTECH:   Client Code
 SL  . 2210' FSL & 2310' FWL:   Surface Location
 PD  .                 GL:   Permanent Datum
 EPD .F              5065:   Elevation Permanent Datum
 LMF .                 KB:   Log Measured From
 DMF .                 KB:   Drilling Measured From
 DAPD.F                10:   Feet Above Permanent Datum
 DD  .F              3005:   Depth driller
 DL  .F              3008:   Depth logger
 BLI .F              3006:   Bottom log interval
 TLI .F               200:   Top log interval
 CS1 .IN            8.625:   Casing size
 CBD1.      8.625" @ 205':   Casing driller 1
 CBL1.F               220:   Casing logger 1
 BS1 .IN            7.875:   Bit size
 BSD1.F              3005:   Depth drilled with bit1
 DFT .            KCL/MUD:   Type fluid in hole
 DFD .                9.1:   Density
 DFV .                 38:   Viscosity
 DFPH.                 11:   pH
 DFL .                6.8:   Fluid loss
 MSS .           FLOWLINE:   Source of sample
 RMS .OHMM            .31:   Rm
 MST .F                78:   Rm Meas. temp.
 RMF .OHMM            .15:   Rmf
 MFST.F                78:   Rmf Meas. temp.
 RMC .OHMM           1.02:   Rmc
 MCST.F                78:   Rmc Meas. temp.
 MFSS.               FANN:   Source Rmf.
 MCSS.                KIT:   Source Rmc.
 RMB .OHMM            .20:   Rm. at BHT
 BHT .F               117:   BHT.
 TCS .HRS               3:   Time Circ. stopped
 MRT .F               117:   Maximum recorded temp.
 LUN .               8611:   Logging unit number
 LUL .             CASPER:   Logging unit location
 ENGI.         G. BENTSEN:   Recorded By
 WITN.         HARRINGTON:   Witnessed by
 ORIG.           5" PRINT:   Origin of data
 UWI .     49025104230000:   Unique Well ID
 DICO. A2D TECHNOLOGIES, INC.:   Digitizing Company
~OTHER INFORMATION
~A   DEPT      SPR        TENR       SFL        ILD        ILM       TEND       CALD       RHOB       CORR        GRD   
# ...
  401.0000   -59.4130   410.0810    10.8400     8.5960     9.4040   597.6650    10.2130     2.4720    -0.0010    94.6130
  401.5000   -58.3250   410.3190    10.6910     8.5360     9.3560   597.7890    10.1260     2.4640    -0.0010    93.2510
  402.0000   -58.4010   410.5570    10.5380     8.4890     9.3090   597.9130    10.0470     2.4560    -0.0010    91.9510
  402.5000   -58.4500   410.7950    10.3860     8.4420     9.2620   598.0360    10.0730     2.4480    -0.0010    90.6580
  403.0000   -58.4960   411.0330    10.2330     8.3960     9.2140   598.1600    10.1040     2.4430     0.0000    89.3700
  403.5000   -58.5430   411.2710    10.0800     8.3180     9.1700   598.2840    10.1360     2.4480     0.0000    88.0830
  404.0000   -58.5680   411.5090     9.9270     8.1500     9.0170   598.4080    10.1270     2.4520     0.0010    87.6890
  404.5000   -58.5900   411.7470     9.7820     7.9830     8.8720   598.5320    10.1010     2.4560     0.0010    89.8410
  405.0000   -58.6120   411.9850     9.8360     7.8150     8.7280   598.6560    10.0740     2.4610     0.0020    91.5030
  405.5000   -58.6340   412.2230     9.8880     7.6470     8.5500   598.7800    10.0470     2.4650     0.0020    93.1710
  406.0000   -58.6560   412.4610     9.9410     7.4800     8.3530   598.9030    10.0210     2.4670     0.0020    94.8490
  406.5000   -58.6780   412.6990     9.9930     7.3120     8.1550   599.0270    10.0060     2.4600     0.0030    96.5370
  407.0000   -58.7000   412.9360    10.0450     7.1470     7.9580   599.1510    10.0160     2.4530     0.0030    97.9720
  407.5000   -58.7220   413.1740    10.0970     6.7880     7.7610   599.2750    10.0260     2.4550     0.0040    95.1830
  408.0000   -58.7460   413.4120    10.1490     6.2230     7.4850   599.3990    10.0360     2.4580     0.0040    92.3420
  408.5000   -58.6950   413.6500    10.2010     6.4160     7.6980   599.5230    10.0450     2.4560     0.0050    89.7850
  409.0000   -58.6340   413.8880    10.2760     6.8990     8.0530   599.6470    10.0550     2.4540     0.0050    88.3820
  409.5000   -58.5720   414.1260    10.4410     7.3810     8.4080   599.7710    10.0650     2.4590     0.0060    86.7260
  410.0000   -58.5100   414.3640    10.6070     7.7170     8.7620   599.8940    10.0750     2.4730     0.0060    88.0680
  410.5000   -58.4500   414.6020    10.7720     8.0140     9.1170   600.0180    10.0850     2.4800     0.0060    90.7290
  411.0000   -58.3900   414.8400    10.9380     8.3100     9.3880   600.1420    10.0940     2.4840     0.0070    93.2380
  411.5000   -58.5640   415.0780    11.1040     8.5300     9.5180   600.2660    10.1040     2.4880     0.0070    92.3580
  412.0000   -59.1040   415.3160    11.2690     8.6900     9.6480   600.3900    10.1140     2.4880     0.0080    91.3620
  412.5000   -59.6650   415.5540    11.4430     8.8510     9.7780   600.5140    10.1240     2.4830     0.0080    90.3610
  413.0000   -58.9410   415.7920    11.5690     9.0120     9.9070   600.6380    10.1330     2.4780     0.0080    91.0920
  413.5000   -57.9600   416.0290    11.7640     9.1230    10.0370   600.7610    10.1430     2.4730     0.0080    92.9050
  414.0000   -56.9800   416.2670    11.7550     9.1910    10.1550   600.8850    10.1390     2.4680     0.0070    94.7560
  414.5000   -56.2620   416.5050    11.7360     9.2600    10.1980   601.0090    10.1300     2.4620     0.0060    94.4850
  415.0000   -56.9990   416.7050    11.7180     9.3290    10.2420   601.1330    10.1210     2.4570     0.0050    93.4400
  415.5000   -57.7110   416.8240    11.6990     9.3980    10.2850   601.2570    10.1120     2.4550     0.0040    92.3720
  416.0000   -58.4150   416.9440    11.6810     9.4670    10.3280   601.3810    10.1030     2.4640     0.0040    91.9330
  416.5000   -59.1160   417.0630    11.6620     9.5140    10.3720   601.5050    10.0930     2.4720     0.0030    91.9380
  417.0000   -59.8260   417.1820    11.6440     9.5960    10.4150   601.6290    10.0840     2.4810     0.0030    91.9780
  417.5000   -59.5920   417.3020    11.6250     9.6700    10.4580   601.7520    10.0750     2.4860     0.0040    92.9010
  418.0000   -58.6540   417.4210    11.6070     9.7820    10.5020   601.8760    10.0650     2.4830     0.0050    94.4670
  418.5000   -57.7120   417.5400    11.5890     9.7660    10.5450   602.0000    10.0560     2.4810     0.0070    94.3930
  419.0000   -56.7580   417.6590    11.5700     9.7350    10.5880   602.1240    10.0470     2.4780     0.0080    93.2710
  419.5000   -55.8090   417.7790    11.5520     9.7030    10.6290   602.2480    10.0380     2.4760     0.0090    92.0140
  420.0000   -56.0630   417.8980    11.4320     9.6710    10.4830   602.3720    10.0280     2.4790     0.0100    89.7260
  420.5000   -56.3900   418.0170    11.2970     9.6390    10.3470   602.4960    10.0310     2.4820     0.0110    87.4110
  421.0000   -56.7150   418.1370    11.1620     9.6080    10.2110   602.6190    10.0380     2.4850     0.0120    85.1550
  421.5000   -57.0370   418.2560    11.0270     9.4550    10.0750   602.7430    10.0460     2.4880     0.0130    86.1810
  422.0000   -57.3590   418.3750    10.8920     9.2810     9.9390   602.8670    10.0530     2.4890     0.0140    87.4950
  422.5000   -57.6810   418.4950    10.7570     9.1070     9.8020   602.9910    10.0600     2.4840     0.0140    88.8280
  423.0000   -58.0040   418.6140    10.6210     8.9330     9.6660   603.1150    10.0680     2.4800     0.0130    89.4560
  423.5000   -58.3240   418.7330    10.4860     8.7590     9.5300   603.2390    10.0750     2.4750     0.0120    89.8790
  424.0000   -58.5530   418.8520    10.2430     8.5850     9.3940   603.3630    10.0820     2.4650     0.0120    90.2920
  424.5000   -58.5480   418.9720     9.9330     8.2370     9.0330   603.4870    10.0890     2.4500     0.0110    90.7060
  425.0000   -58.5480   419.0910     9.4500     7.7430     8.5280   603.6100    10.0970     2.4330     0.0100    91.1210
  425.5000   -58.5490   419.2100     8.9250     7.2500     8.0230   603.7340    10.1040     2.4170     0.0090    91.5350
  426.0000   -58.5490   419.3300     8.4000     6.8310     7.5190   603.8580    10.1110     2.4000     0.0090    91.9510
  426.5000   -58.5490   419.4490     7.8750     6.4320     7.0140   603.9820    10.1190     2.3830     0.0130    92.3680
  427.0000   -58.5490   419.5680     7.3500     6.0330     6.5090   604.1060    10.1250     2.3660     0.0170    92.7160
  427.5000   -58.5490   419.6880     6.8250     5.5280     6.0050   604.2300    10.1430     2.3420     0.0210    92.2130
  428.0000   -58.5490   419.8070     6.2810     4.9930     5.4630   604.3540    10.1720     2.3000     0.0250    91.7110
  428.5000   -58.5070   419.9260     5.6920     4.4570     4.9100   604.4770    10.2030     2.2570     0.0290    91.1990
  429.0000   -58.4450   420.0450     5.0820     3.9220     4.3580   604.6010    10.2330     2.2110     0.0330    90.6380
  429.5000   -58.3830   420.1650     4.4710     3.3870     3.8050   604.7250    10.3690     2.1540     0.0360    88.7070
  430.0000   -58.3210   420.2840     3.8600     2.8510     3.2520   604.8490    10.5540     2.0970     0.0350    85.1660
  430.5000   -58.2580   420.4030     3.2490     2.4750     2.6620   604.9730    10.7530     2.0390     0.0340    81.6370
  431.0000   -58.1940   420.5230     2.8400     2.3830     2.6420   605.0970    11.0380     2.0160     0.0220    78.1210
  431.5000   -58.1310   420.6420     3.3420     2.7680     3.3070   605.2210    11.4420     2.0270     0.0100    75.0470
  432.0000   -58.0680   420.7610     4.9990     3.4680     4.1430   605.3450    11.8560     2.0830    -0.0030    75.5870
  432.5000   -58.0050   420.8810     7.3480     3.9140     5.6220   605.4680    12.1410     2.1620    -0.0090    76.9910
  433.0000   -57.9420   421.0000     8.4390     4.3590     5.8390   605.5920    12.1650     2.2600    -0.0070    78.4170
  433.5000   -57.8780   421.1190     8.8000     4.8510     6.0530   605.7160    12.0780     2.4200    -0.0050    79.8600
  434.0000   -57.8140   421.2380     9.2000     5.8360     7.0230   605.8400    11.1700     2.4580    -0.0020    82.8740
