~VERSION INFORMATION
 VERS.                2.0:   CWLS LOG ASCII STANDARD - VERSION 2.0
 WRAP.                 NO:   ONE LINE PER DEPTH STEP
~WELL INFORMATION
#MNEM.UNIT      DATA TYPE    INFORMATION
#----------   ------------   ------------------------------
 STRT.F          450.0000:   START DEPTH
 STOP.F         3098.0000:   STOP DEPTH
 STEP.F            0.5000:   STEP LENGTH
 NULL.          -999.2500:   NO VALUE
 COMP. FENIX & SCISSON - U.S NAVY:   COMPANY
 WELL. FENIX NPR 3 "AX" #11-33:   WELL
 FLD .              N P R:   FIELD
 LOC .      S33 T39N R78W:   LOCATION
 CNTY.            NATRONA:   COUNTY
 STAT.            WYOMING:   STATE
 CTRY. UNITED STATES OF AMERICA:   COUNTRY
 SRVC.              WELEX:   SERVICE COMPANY
 DATE.        12-MAR-1977:   LOGDATE
 API .     49025103210000:   API NUMBER
~CURVE INFORMATION
#MNEM.UNIT       API CODE    CURVE DESCRIPTION
#----------   ------------   ------------------------------
 DEPT.F                  :   
 CALD.IN     45 280 60 00:   CALIPER FROM DENSITY LOG
 GRD .GAPI   45 310 01 00:   GAMMA RAY FROM DENSITY LOG
 RHOB.G/C3   45 350 01 00:   BULK DENSITY
 CORR.G/C3   45 356 01 00:   DENSITY CORRECTION
 SPR .MV     07 010 01 00:   SPONTANEOUS POTENTIAL
 SGRD.MV     07 010 01 00:   SHALLOW GUARD RESISTIVITY
 ILD .OHMM   07 120 46 00:   DEEP INDUCTION RESISTIVITY
 ILM .OHMM   07 120 44 00:   INDUCTION LOG MEDIUM RESISTIVITY
~PARAMETER INFORMATION
#MNEM.UNIT          VALUE    DESCRIPTION
#----------   ------------   ------------------------------
 EKB .F         5133.0000:   Kelly bushing
 EGL .F         5122.0000:   Ground level
 TD  .F         3130.0000:   Total depth
 DATE.        12-MAR-1977:   Date logged
 CLNT.            A2DTECH:   Client Code
 SL  . 331' FNL & 430' FWL:   Surface Location
 PD  .                 GL:   Permanent Datum
 DD  .F              3130:   Depth driller
 DL  .F              3102:   Depth logger
 BLI .F              3100:   Bottom log interval
 CS1 .IN            8.625:   Casing size
 CBD1.      8.625" @ 459':   Casing driller 1
 CBL1.F               455:   Casing logger 1
 BS1 .IN            7.875:   Bit size
 DFT .                KCL:   Type fluid in hole
 DFD .                9.3:   Density
 DFV .                 36:   Viscosity
 DFL .               16.2:   Fluid loss
 MSS .           FLOWLINE:   Source of sample
 RMS .OHMM           0.37:   Rm
 MST .F                50:   Rm Meas. temp.
 RMF .OHMM           0.32:   Rmf
 MFST.F                55:   Rmf Meas. temp.
 RMC .OHMM           0.58:   Rmc
 MCST.F                55:   Rmc Meas. temp.
 MFSS.               MEAS:   Source Rmf.
 RMB .OHMM           .168:   Rm. at BHT
 BHT .F               110:   BHT.
 TCS .HRS               4:   Time Circ. stopped
 MRT .F               110:   Maximum recorded temp.
 LUN .               0716:   Logging unit number
 LUL .             VERNAT:   Logging unit location
 ENGI.        E. CALLAHAN:   Recorded By
 WITN.            K. JAPP:   Witnessed by
 ORIG.           5" PRINT:   Origin of data
 UWI .     49025103210000:   Unique Well ID
 DICO. A2D TECHNOLOGIES, INC.:   Digitizing Company
 DAPD.F                11:   Feet Above Permanent Datum
 BSD1.               3950:   Depth drilled with bit1
 MCSS.               CALC:   Source Rmc.
 EPD .F              5122:   Elevation Permanent Datum
 LMF .                 KB:   Log Measured From
 DMF .                 KB:   Drilling Measured From
 TLI .F               455:   Top log interval
~OTHER INFORMATION
~A   DEPT       CALD       GRD        RHOB      CORR       SPR       SGRD        ILD        ILM   
# ...
  814.5000    10.1049   112.1870     2.4134     0.0960   -60.1573     5.5907     6.6570     7.2338
  815.0000    10.2041   113.5755     2.4284     0.1060   -60.3615     7.2313     6.6543     7.5717
  815.5000    10.2439   112.7854     2.4374     0.0760   -60.1712     8.7694     6.7135     7.8528
  816.0000    10.2837   110.2126     2.4554     0.0611   -60.3753     8.7664     6.8358     7.9959
  816.5000    10.2839   114.1755     2.4684     0.0551   -60.1850     8.9261     6.7705     8.0682
  817.0000    10.2841   114.7716     2.4524     0.0781   -60.1919     9.6039     6.7691     8.1388
  817.5000    10.2645   115.1696     2.4749     0.0661   -60.0016     9.7763     6.8293     8.1361
  818.0000    10.2449   115.9637     2.4809     0.0582   -59.8113     9.7729     6.8901     8.1333
  818.5000    10.2253   119.5297     2.4659     0.0562   -59.8182     9.7696     7.1464     8.2056
  819.0000    10.1067   119.5321     2.4994     0.0642   -59.8252     9.5882     7.9796     8.2786
  819.5000    10.0871   119.5341     2.5154     0.0722   -59.8321     9.4109     8.0511     8.5062
  820.0000    10.0279   118.1498     2.5034     0.0902   -59.8390     9.3209     8.3500     8.7425
  820.5000    10.0281   120.7262     2.4934     0.0643   -60.0431     9.3177     8.3477     8.9840
  821.0000    10.0283   119.1439     2.4854     0.0623   -60.0501     9.4874     8.1916     9.0639
  821.5000    10.0483   116.7707     2.5034     0.0663   -60.0570     9.6603     7.8930     9.0615
  822.0000    10.0485   118.7518     2.4895     0.0783   -60.2611     9.7469     7.8186     8.4929
  822.5000    10.0685   119.3471     2.4865     0.0603   -60.2680     9.8329     7.4641     8.1833
  823.0000    10.0687   117.1715     2.4535     0.0524   -60.2749     9.8302     7.3937     8.1056
  823.5000    10.0887   117.3723     2.4525     0.0484   -60.2819     9.7362     7.7386     8.1028
  824.0000    10.1286   117.3735     2.4525     0.0504   -60.2888     9.0460     7.7359     8.2510
  824.5000    10.1881   116.1869     2.4635     0.0544   -60.2957     8.9601     8.0231     8.4008
  825.0000    10.2278   113.2192     2.4765     0.0624   -60.1054     8.8750     8.0209     8.3979
  825.5000    10.2281   111.4393     2.4845     0.0665   -60.1123     8.8720     7.7994     8.3950
  826.0000    10.2283   110.2528     2.5015     0.0805   -60.3165     8.8684     7.3781     8.0890
  826.5000    10.2087   112.8291     2.4945     0.0645   -60.1262     8.8659     7.3081     8.0127
  827.0000    10.1693   110.0598     2.4786     0.0605   -60.1331     9.0275     7.5100     7.9361
  827.5000    10.1101   110.0606     2.4646     0.0466   -60.1400     9.3626     7.7180     8.0073
  828.0000    10.1103   107.2902     2.4636     0.0506   -60.1469     9.5338     8.0785     8.3813
  828.5000    10.0907   106.6985     2.4696     0.0506   -59.9566     9.7965     8.1504     8.7727
  829.0000    10.1107   106.5024     2.4756     0.0506   -59.9635     9.8844     8.2229     8.8508
  829.5000    10.1109   106.1083     2.4816     0.0586   -59.9705    10.0644     8.5281     8.9301
  830.0000    10.1705   105.1202     2.4986     0.0706   -59.9774    10.0617     8.6040     8.9265
  830.5000    10.2697   103.5379     2.4846     0.0607   -59.7871    10.2436     8.7607     8.9234
  831.0000    10.2897   103.1438     2.4627     0.0587   -59.7940    10.3347     8.7584     8.9204
  831.5000    10.2899   102.5517     2.4657     0.0607   -59.9981    10.3304     8.5952     8.9997
  832.0000    10.3099   101.7616     2.4797     0.0567   -60.2023    10.3276     8.5136     9.4201
  832.5000    10.3101   101.7643     2.4537     0.0468   -60.0120    10.3241     8.9112     9.7704
  833.0000    10.2905   102.1612     2.4727     0.0648   -60.0189    10.4159     8.9905    10.0403
  833.5000    10.3105   102.5596     2.4977     0.0688   -60.0258    10.7037     9.0711    10.1289
  834.0000    10.2909   100.3837     2.4807     0.0788   -60.0327    10.7007     9.4072    10.1255
  834.5000    10.2911   100.3856     2.4877     0.0668   -60.0383    10.7937     9.4908    10.0293
  835.0000    10.3309   100.3868     2.4617     0.0588   -60.0452    10.5948     9.4876    10.0259
  835.5000    10.3311   101.3793     2.4518     0.0469   -60.0521    10.7826     9.4850     9.8405
  836.0000    10.3313   101.9754     2.4658     0.0529   -60.0590    10.6809     9.2237     9.5687
  836.5000    10.3116   104.1556     2.4818     0.0549   -59.8687    10.4834     9.0519     9.4779
  837.0000    10.2920   104.9497     2.4658     0.0509   -59.8757    10.3839     9.0494     9.3879
  837.5000    10.3318   107.3280     2.4568     0.0470   -60.0798    10.2846     8.8808     9.2988
  838.0000    10.3122   110.1020     2.4568     0.0510   -60.0867    10.0978     8.6368     9.2105
  838.5000    10.3125   109.7083     2.4588     0.0490   -59.8964    10.0957     8.5548     9.2086
  839.0000    10.3325   109.7102     2.4638     0.0490   -59.9033     9.9999     8.5518     9.2886
  839.5000    10.3525   109.5142     2.4648     0.0470   -59.9102     9.9951     8.4707     9.2023
  840.0000    10.3329   109.9122     2.4678     0.0530   -60.3116     9.9923     8.3902     9.4559
  840.5000    10.3529   109.3201     2.4818     0.0531   -59.9255    10.0758     8.2334     9.5393
  841.0000    10.3333   109.5201     2.4818     0.0551   -59.7338    10.0737     8.2317     9.5373
  841.5000    10.3137   109.5221     2.4838     0.0591   -59.9379    10.2579     8.3049     9.4442
  842.0000    10.2742   109.5240     2.4779     0.0771   -59.9448    10.3484     8.3015     9.1853
  842.5000    10.2348   110.3181     2.4939     0.0731   -59.9518    10.3448     8.3754     9.1828
  843.0000    10.1756   110.7161     2.4979     0.0731   -60.1559    10.3406     8.3725     9.0956
  843.5000    10.0372   111.9059     2.5069     0.0971   -60.1628    10.3370     8.2177     9.0919
  844.0000     9.9780   110.3240     2.4923     0.0772   -59.9725    10.0571     8.2154     9.0888
  844.5000     9.9782   109.9299     2.4749     0.0633   -59.9794    10.1458     8.2121     9.0857
  845.0000     9.9982   108.9425     2.4679     0.0532   -59.9864    10.1424     8.2093     9.0826
  845.5000    10.0380   108.5477     2.4580     0.0513   -59.9933    10.1389     8.2064     9.0801
  846.0000    10.0580   110.1339     2.4620     0.0533   -60.0002    10.1361     8.3554     9.0770
  846.5000    10.0978   107.7595     2.4790     0.0573   -60.0071    10.2200     8.5862     9.2417
  847.0000    10.1970   107.9599     2.4720     0.0553   -60.0140    10.2179     8.5832     9.2385
  847.5000    10.2170   109.1496     2.4890     0.0633   -60.0210    10.2144     8.5018     9.2354
  848.0000    10.2568   109.7457     2.5090     0.0724   -60.0279    10.3052     8.4216     8.9810
  848.5000    10.2570   107.7678     2.4940     0.0624   -60.0348    10.3976     8.3423     8.8957
  849.0000    10.2176   107.3737     2.4960     0.0714   -60.0417    10.4900     8.3388     8.8933
  849.5000    10.0989   106.7816     2.4950     0.0694   -60.0486    10.4872     8.3360     8.8903
  850.0000    10.0200   106.3871     2.4980     0.0594   -59.8583    10.4829     8.6448     9.0522
  850.5000    10.0035   103.5849     2.5014     0.0667   -59.8653    10.3876     8.9663     9.3022
  851.0000    10.0208   102.6326     2.5050     0.0735   -59.8722    10.3847     9.0454     9.5585
  851.5000    10.0212   100.0636     2.5120     0.0835   -60.0763    10.3812     9.0423     9.5553
  852.0000    10.0413   102.2468     2.4841     0.0695   -60.0832    10.5703     9.0392     9.5520
  852.5000    10.0417   100.4660     2.4741     0.0576   -60.0901    10.5659     9.0361     9.3747
  853.0000    10.0421   100.2728     2.4571     0.0576   -60.2943    10.4663     8.8684     9.2007
  853.5000    10.0623   100.2767     2.4621     0.0596   -60.3012    10.3649     8.6247     9.0300
  854.0000    10.0627   100.4779     2.4771     0.0636   -60.3081    10.1739     8.3872     9.0269
  854.5000    10.0829   101.4720     2.4612     0.0617   -60.1178    10.2643     8.8593     9.1078
