~VERSION INFORMATION
 VERS.                2.0:   CWLS LOG ASCII STANDARD - VERSION 2.0
 WRAP.                 NO:   ONE LINE PER DEPTH STEP
~WELL INFORMATION
#MNEM.UNIT      DATA TYPE    INFORMATION
#----------   ------------   ------------------------------
 STRT.F            0.0000:   START DEPTH
 STOP.F         4152.0000:   STOP DEPTH
 STEP.F            0.5000:   STEP LENGTH
 NULL.          -999.2500:   NO VALUE
 COMP. LAWRENCE ALLISON & ASSOCIATES:   COMPANY
 WELL. LAWRENCE "X" #28-27:   WELL
 FLD .             NPR #3:   FIELD
 LOC .      S27 T39N R78W:   LOCATION
 CNTY.            NATRONA:   COUNTY
 STAT.            WYOMING:   STATE
 CTRY. UNITED STATES OF AMERICA:   COUNTRY
 SRVC.      DRESSER ATLAS:   SERVICE COMPANY
 DATE.        26-FEB-1984:   LOGDATE
 API .     49025109630000:   API NUMBER
~CURVE INFORMATION
#MNEM.UNIT       API CODE    CURVE DESCRIPTION
#----------   ------------   ------------------------------
 DEPT.F                  :   
 GRR .GAPI   07 310 01 00:   GAMMA RAY FROM RES.
 TENR.LBS    07 635 01 00:   TENSION FROM RES.
 SPR .MV     07 010 01 00:   SPONTANEOUS POTENTIAL
 RILD.OHMM   07 120 46 00:   RESISTIVITY INDUCTION LOG DEEP
 RILM.OHMM   07 120 44 00:   RESISTIIVTY INDUCTION LOG MEDIUM
 RFOC.OHMM   07 220 04 00:   RESISTIVITY FOCUSED LOG
 DT  .US/F   60 520 00 00:   DELTA TIME
 TENS.LBS    60 635 01 00:   TENSION FROM SONIC
 CALD.IN     45 280 60 00:   CALIPER FROM DENSITY LOG
 TEND.LBS    45 635 01 00:   TENSION FORM DENSITY LOG
 CNC .DEC    42 890 03 00:   NEUTRON POROSITY SANDSTONE
 CORR.G/C3   45 356 01 00:   DENSITY CORRECTION
 DENS.G/C3   45 350 01 00:   DENSITY
~PARAMETER INFORMATION
#MNEM.UNIT          VALUE    DESCRIPTION
#----------   ------------   ------------------------------
 EKB .F         5088.0000:   Kelly bushing
 EGL .F         5078.0000:   Ground level
 EDF .F            0.0000:   Drilling floor
 TD  .F         4154.0000:   Total depth
 CLNT.            A2DTECH:   Client Code
 SL  . 250' FSL & 810' FWL:   Surface Location
 PD  .                 GL:   Permanent Datum
 EPD .F              5078:   Elevation Permanent Datum
 LMF .                 KB:   Log Measured From
 DMF .                 KB:   Drilling Measured From
 DAPD.F                10:   Feet Above Permanent Datum
 DATE.        26-FEB-1984:   Date Logged [DD-MMM-YYYY]
 DD  .F              4154:   Depth driller
 DL  .F              4148:   Depth logger
 BLI .F              4146:   Bottom log interval
 TLI .F                 0:   Top log interval
 CS1 .IN            8.625:   Casing size
 CBD1.      8.625" @ 537':   Casing driller 1
 CBL1.F               540:   Casing logger 1
 BS1 .IN            7.875:   Bit size
 BSD1.F              4154:   Depth drilled with bit1
 DFT .            GEL KCL:   Type fluid in hole
 DFD .                  9:   Density
 DFV .                 45:   Viscosity
 DFPH.                  8:   pH
 DFL .                 14:   Fluid loss
 MSS .           FLOWLINE:   Source of sample
 RMS .OHMM          0.595:   Rm
 MST .F                60:   Rm Meas. temp.
 RMF .OHMM          0.446:   Rmf
 MFST.F                60:   Rmf Meas. temp.
 MFSS.               CALC:   Source Rmf.
 RMC .OHMM          0.744:   Rmc
 MCST.F                60:   Rmc Meas. temp.
 MCSS.               CALC:   Source Rmc.
 RMB .OHMM           0.26:   Rm. at BHT
 BHT .F               138:   BHT.
 TCS .HRS               4:   Time Circ. stopped
 MRT .F               138:   Maximum recorded temp.
 LUN .               6307:   Logging unit number
 LUL .               GLTE:   Logging unit location
 ENGI.           FAHLSING:   Recorded By
 WITN.           JENNINGS:   Witnessed by
 ORIG.      1" 2.5" PRINT:   Origin of data
 UWI .     49025109630000:   Unique Well ID
 DICO. A2D TECHNOLOGIES, INC.:   Digitizing Company
~OTHER INFORMATION
~A    DEPT       GRR     TENR        SPR       RILD       RILM       RFOC         DT       TENS       CALD       TEND        CNC       CORR       DENS   
# ...
 1742.0000   113.5783   -49.4880   -23.9365     4.7763     4.6331     5.1777  -999.2500  -999.2500     8.6490   -20.0000     0.2657     0.1007     2.5274
 1742.5000   116.7604   -50.0318   -24.4946     4.3470     3.9519     5.1081  -999.2500  -999.2500     8.6805   -20.0000     0.2845     0.1007     2.5309
 1743.0000   119.9424   -50.5882   -24.4881     3.6930     3.3692     4.8585  -999.2500  -999.2500     8.7221   -20.0000     0.2966     0.0736     2.5173
 1743.5000   120.5811   -48.0923   -24.4821     3.0495     2.9020     3.7940  -999.2500  -999.2500     8.8232   -20.0000     0.3201     0.0189     2.4872
 1744.0000   116.4405   -36.9574   -23.8801     2.8006     2.4632     2.6453  -999.2500  -999.2500     8.9087   -20.0000     0.3104     0.0037     2.4465
 1744.5000   112.8933   -37.6471   -23.2794     2.7401     2.3361     2.2655  -999.2500  -999.2500     8.9844   -20.0000     0.3038     0.0169     2.2942
 1745.0000   106.6865   -38.2353   -22.9762     2.7417     2.3729     2.0055  -999.2500  -999.2500     8.8339   -20.0000     0.2990     0.1083     2.2534
 1745.5000   106.9905   -38.8235   -23.0287     2.7808     2.5904     1.9261  -999.2500  -999.2500     8.7434   -20.0000     0.2755     0.1100     2.2869
 1746.0000   111.1585   -39.4117   -23.8807     3.0604     2.7168     2.4779  -999.2500  -999.2500     8.6839   -20.0000     0.2589     0.0917     2.4137
 1746.5000   118.8873   -39.9999   -24.6022     3.6098     2.7550     3.7268  -999.2500  -999.2500     8.6543   -20.0000     0.2523     0.0827     2.5053
 1747.0000   120.0880   -40.5882   -25.0357     4.4087     2.8386     5.2408  -999.2500  -999.2500     8.6550   -20.0000     0.2537     0.0797     2.5354
 1747.5000   116.7507   -41.1765   -25.3270     4.8071     3.5777     5.6429  -999.2500  -999.2500     8.6557   -20.0000     0.2565     0.0797     2.5339
 1748.0000   113.5984   -41.8518   -25.3175     5.2918     4.6342     5.5688  -999.2500  -999.2500     8.6562   -20.0000     0.2521     0.0840     2.5358
 1748.5000   111.8272   -42.3956   -24.9653     5.7414     5.3449     5.4957  -999.2500  -999.2500     8.6568   -20.0000     0.2461     0.0921     2.5500
 1749.0000   112.4344   -42.9411   -24.6131     5.9026     5.8343     5.4980  -999.2500  -999.2500     8.6574   -20.0000     0.2430     0.1009     2.5592
 1749.5000   114.2285   -43.5294   -24.4107     6.0685     6.0797     5.5002  -999.2500  -999.2500     8.6882   -20.0000     0.2413     0.0979     2.5649
 1750.0000   118.1010   -44.1177   -23.8086     6.2390     6.2497     5.5025  -999.2500  -999.2500     8.6888   -20.0000     0.2413     0.0919     2.5626
 1750.5000   122.5699   -44.7059   -23.2079     6.4144     6.3521     5.5804  -999.2500  -999.2500     8.7197   -20.0000     0.2428     0.0681     2.5596
 1751.0000   122.2787   -45.3866   -23.2024     6.5055     6.4273     5.6588  -999.2500  -999.2500     8.7203   -20.0000     0.2437     0.0467     2.5641
 1751.5000   117.8509   -45.9304   -22.8992     6.5091     6.5618     5.8169  -999.2500  -999.2500     8.7208   -20.0000     0.2438     0.0612     2.5703
 1752.0000   113.1168   -46.4742   -23.1914     6.5119     6.6105     5.8320  -999.2500  -999.2500     8.7215   -20.0000     0.2311     0.0889     2.5716
 1752.5000   113.7391   -47.0588   -23.3284     6.6042     6.6129     5.9819  -999.2500  -999.2500     8.7221   -20.0000     0.2293     0.1040     2.5716
 1753.0000   116.1115   -47.6470   -23.4762     6.6073     6.6154     6.0245  -999.2500  -999.2500     8.7079   -20.0000     0.2338     0.1130     2.5708
 1753.5000   113.3230   -48.2353   -23.4697     6.6105     6.6181     6.1521  -999.2500  -999.2500     8.6931   -20.0000     0.2403     0.1128     2.5701
 1754.0000   108.7160   -48.9214   -23.1666     6.6810     6.5043     6.1544  -999.2500  -999.2500     8.6937   -20.0000     0.2413     0.1070     2.5716
 1754.5000   109.0378   -49.4652   -23.0793     6.7080     6.3183     6.1567  -999.2500  -999.2500     8.6943   -20.0000     0.2365     0.1071     2.5732
 1755.0000   112.0188   -50.0091   -22.4702     6.7110     6.1909     6.1592  -999.2500  -999.2500     8.6949   -20.0000     0.2323     0.1086     2.5802
 1755.5000   115.0220   -50.5882   -22.2559     6.7140     6.1093     6.1617  -999.2500  -999.2500     8.6955   -20.0000     0.2293     0.1131     2.5897
 1756.0000   116.9062   -51.1764   -22.5466     6.7171     6.1119     6.1642  -999.2500  -999.2500     8.6961   -20.0000     0.2287     0.1131     2.5869
 1756.5000   117.4011   -51.7647   -23.1363     6.7203     6.1981     6.1672  -999.2500  -999.2500     8.6968   -20.0000     0.2289     0.1162     2.5762
 1757.0000   115.6380   -52.4563   -23.4284     6.6326     6.2855     6.1695  -999.2500  -999.2500     8.6671   -20.0000     0.2314     0.1132     2.5701
 1757.5000   116.2484   -53.0001   -24.0526     6.6362     6.2881     6.1718  -999.2500  -999.2500     8.6677   -20.0000     0.2372     0.1177     2.5701
 1758.0000   119.2294   -38.8235   -24.3103     6.6392     6.4646     6.1743  -999.2500  -999.2500     8.6683   -20.0000     0.2408     0.1295     2.5732
 1758.5000   120.4303   -39.4117   -24.3036     6.6863     6.5557     6.1768  -999.2500  -999.2500     8.6689   -20.0000     0.2438     0.1340     2.5729
 1759.0000   120.2115   -40.0000   -24.2965     6.7364     6.6480     6.1793  -999.2500  -999.2500     8.6695   -20.0000     0.2401     0.0891     2.5662
 1759.5000   116.4662   -40.5883   -24.2910     6.7396     6.6506     6.4394  -999.2500  -999.2500     8.6702   -20.0000     0.2384     0.0681     2.5597
 1760.0000   114.5401   -41.2852   -24.2855     6.7428     6.6533     6.5300  -999.2500  -999.2500     8.7010   -20.0000     0.2433     0.0681     2.5520
 1760.5000   114.5569   -41.8290   -24.2798     6.7466     6.6560     6.3573  -999.2500  -999.2500     8.7015   -20.0000     0.2511     0.0676     2.5460
 1761.0000   115.1641   -42.3728   -24.2738     6.8421     6.6593     6.1786  -999.2500  -999.2500     8.7323   -20.0000     0.2523     0.0642     2.5370
 1761.5000   116.9582   -42.9412   -24.2679     6.8451     6.6618     6.0020  -999.2500  -999.2500     8.7329   -20.0000     0.2547     0.0591     2.5339
 1762.0000   111.5095   -43.5294   -23.9631     6.8484     6.6643     5.9101  -999.2500  -999.2500     8.7335   -20.0000     0.2559     0.0862     2.5354
 1762.5000   111.0508   -29.2984   -23.6600     6.8516     6.5767     5.8692  -999.2500  -999.2500     8.7342   -20.0000     0.2566     0.1073     2.5380
 1763.0000   112.6287   -30.1142   -23.3569     6.8549     6.4903     5.8719  -999.2500  -999.2500     8.7650   -20.0000     0.2552     0.0983     2.5437
 1763.5000   118.2067   -30.6580   -23.0536     6.8938     6.4573     5.8741  -999.2500  -999.2500     8.7353   -20.0000     0.2510     0.0796     2.5520
 1764.0000   120.0008   -31.1764   -22.6786     6.8614     6.3215     5.7877  -999.2500  -999.2500     8.7323   -20.0000     0.2433     0.0555     2.5520
 1764.5000   120.0148   -31.7647   -22.3265     6.8648     6.3244     5.5676  -999.2500  -999.2500     8.7063   -20.0000     0.2524     0.0471     2.5475
 1765.0000   120.0297   -32.3529   -22.3115     6.7643     6.4135     5.5702  -999.2500  -999.2500     8.6933   -20.0000     0.2554     0.0562     2.5460
 1765.5000   120.8664   -32.9412   -22.7314     6.6861     6.4216     5.5728  -999.2500  -999.2500     8.6773   -20.0000     0.2553     0.0713     2.5493
 1766.0000   122.7615   -33.5294   -23.0238     6.6897     6.5065     5.6512  -999.2500  -999.2500     8.6780   -20.0000     0.2548     0.0924     2.5485
 1766.5000   123.6369   -34.1176   -23.0010     6.6029     6.5092     5.8885  -999.2500  -999.2500     8.6786   -20.0000     0.2548     0.1014     2.5399
 1767.0000   121.2767   -34.7366   -22.4167     6.5164     6.4238     6.0530  -999.2500  -999.2500     8.6758   -20.0000     0.2558     0.1011     2.5309
 1767.5000   111.7261   -50.0000   -21.9991     6.5193     6.3396     6.1383  -999.2500  -999.2500     8.6495   -20.0000     0.2560     0.0954     2.5309
