~VERSION INFORMATION
 VERS.                2.0:   CWLS LOG ASCII STANDARD - VERSION 2.0
 WRAP.                 NO:   ONE LINE PER DEPTH STEP
~WELL INFORMATION
#MNEM.UNIT      DATA TYPE    INFORMATION
#----------   ------------   ------------------------------
 STRT.F          176.0000:   START DEPTH
 STOP.F         3400.0000:   STOP DEPTH
 STEP.F            0.5000:   STEP LENGTH
 NULL.          -999.2500:   NO VALUE
 COMP.    PENIX & SCISSON:   COMPANY
 WELL. FENIX NPR 3 "AX" #64-4:   WELL
 FLD .                NPR:   FIELD
 LOC .       S4 T38N R78W:   LOCATION
 CNTY.            NATRONA:   COUNTY
 STAT.            WYOMING:   STATE
 CTRY. UNITED STATES OF AMERICA:   COUNTRY
 SRVC.       SCHLUMBERGER:   SERVICE COMPANY
 DATE.        25-JAN-1981:   LOGDATE
 API .     49025108640000:   API NUMBER
~CURVE INFORMATION
#MNEM.UNIT       API CODE    CURVE DESCRIPTION
#----------   ------------   ------------------------------
 DEPT.F                  :   
 SPR .MV     07 010 01 00:   SPONTANEOUS POTENTIAL
 RFOC.OHMM   07 220 01 00:   RESISTIVITY FOCUSED LOG RES.
 ILD .OHMM   07 120 46 00:   DEEP INDUCTION RESISTIVITY
 TENR.LBS    07 635 01 00:   TENSION
 ILM .OHMM   07 120 44 00:   INDUCTION LOG MEDIUM RESISTIVITY
 GRD .GAPI   45 310 01 00:   GAMMA RAY FROM DENSITY LOG
 CALD.IN     45 280 60 00:   CALIPER FROM DENSITY LOG
 RHOB.G/C3   45 350 01 00:   BULK DENSITY
 TEND.LBS    45 635 01 00:   TENSION FROM DENSITY LOG
 CORR.G/C3   45 356 01 00:   DENSITY CORRECTION
~PARAMETER INFORMATION
#MNEM.UNIT          VALUE    DESCRIPTION
#----------   ------------   ------------------------------
 EKB .F         5257.0000:   Kelly bushing
 EGL .F         5247.0000:   Ground level
 EDF .F            0.0000:   Drilling floor
 TD  .F         3388.0000:   Total depth
 DATE.        25-JAN-1981:   Date logged
 CLNT.            A2DTECH:   Client Code
 SL  . 2289' FNL & 1495' FEL:   Surface Location
 PD  .                 GL:   Permanent Datum
 EPD .F              5247:   Elevation Permanent Datum
 LMF .                 KB:   Log Measured From
 DMF .                 KB:   Drilling Measured From
 DAPD.F                10:   Feet Above Permanent Datum
 DD  .F              3388:   Depth driller
 DL  .F              3386:   Depth logger
 BLI .F              3380:   Bottom log interval
 TLI .F               192:   Top log interval
 CS1 .IN            8.625:   Casing size
 CBD1.      8.625" @ 191':   Casing driller 1
 CBL1.F               192:   Casing logger 1
 BS1 .IN            7.875:   Bit size
 BSD1.F              3388:   Depth drilled with bit1
 DFT .                FGM:   Type fluid in hole
 DFD .                8.7:   Density
 DFV .                 32:   Viscosity
 DFPH.                9.5:   pH
 DFL .                 18:   Fluid loss
 MSS .           FLOWLINE:   Source of sample
 RMS .OHMM           1.60:   Rm
 MST .F                60:   Rm Meas. temp.
 RMF .OHMM           1.33:   Rmf
 MFST.F                60:   Rmf Meas. temp.
 MFSS.               MEAS:   Source Rmf.
 RMB .OHMM            .83:   Rm. at BHT
 BHT .F               115:   BHT.
 TCS .HRS            1700:   Time Circ. stopped
 TLAB.HRS            2200:   Time logger at bottom
 MRT .F               115:   Maximum recorded temp.
 LUN .               8039:   Logging unit number
 LUL .               CSPR:   Logging unit location
 ENGI.           C. PFARR:   Recorded By
 WITN.           L. FIVAS:   Witnessed by
 ORIG.           5" PRINT:   Origin of data
 UWI .     49025108640000:   Unique Well ID
 DICO. A2D TECHNOLOGIES, INC.:   Digitizing Company
~OTHER INFORMATION
~A   DEPT      SPR       RFOC        ILD       TENR        ILM         GRD      CALD         RHOB      TEND      CORR   
# ...
 2286.5000   -14.7640    12.9730    10.2100   858.2830    10.0390   140.6350     8.8370     2.5510  1055.4189     0.0340
 2287.0000   -14.7640    13.1320    10.2100   858.2830    10.0320   138.2860     8.8370     2.5450  1055.6180     0.0280
 2287.5000   -14.7640    13.4600    10.2640   858.2830    10.1190   136.1460     8.8370     2.5360  1055.7770     0.0250
 2288.0000   -14.7640    13.3130    10.3180   858.2830    10.1720   134.0130     8.8370     2.5280  1055.9709     0.0160
 2288.5000   -14.7640    13.1900    10.3720   858.2830    10.2250   132.0370     8.8370     2.5220  1056.1331     0.0080
 2289.0000   -14.7640    13.0670    10.4260   858.2830    10.2780   130.0950     8.8370     2.5160  1056.2939    -0.0010
 2289.5000   -14.7640    13.0080    10.4800   858.2830    10.3310   127.9510     8.8370     2.5110  1056.4561    -0.0030
 2290.0000   -14.7640    13.1630    10.5350   858.2830    10.3840   127.3260     8.8370     2.5060  1056.6180     0.0030
 2290.5000   -14.7640    13.3180    10.5890   858.2830    10.4380   128.8790     8.8370     2.5190  1056.7800     0.0080
 2291.0000   -14.7640    13.4730    10.6430   858.2830    10.4910   131.6910     8.8370     2.5380  1056.9420     0.0140
 2291.5000   -14.7640    13.6270    10.6970   858.2830    10.5440   134.6110     8.8370     2.5480  1057.1030     0.0180
 2292.0000   -14.7640    13.8860    10.7510   858.2830    10.5930   137.4280     8.8370     2.5490  1057.2650     0.0120
 2292.5000   -14.7640    14.2640    10.8190   858.2830    10.7010   140.1210     8.8370     2.5310  1057.4270     0.0090
 2293.0000   -14.7640    14.7580    10.9210   858.2830    10.8020   139.0080     8.8370     2.5280  1057.5890     0.0090
 2293.5000   -14.7640    14.6640    11.0240   858.2830    10.9020   136.3960     8.8370     2.5310  1057.7510     0.0070
 2294.0000   -14.7640    14.5290    11.1260   858.2830    11.0030   131.4830     8.8370     2.5300  1057.9120     0.0000
 2294.5000   -14.7640    14.6680    11.2290   858.2830    11.1040   132.4390     8.8370     2.5230  1058.0740    -0.0060
 2295.0000   -14.7640    14.9220    11.3310   858.2830    11.2040   137.2130     8.8370     2.5170  1058.2360    -0.0010
 2295.5000   -14.7640    15.1760    11.4340   858.2830    11.3050   140.0230     8.8370     2.5260  1058.3979     0.0080
 2296.0000   -14.7640    15.5970    11.5360   858.2830    11.4060   140.1560     8.8370     2.5390  1058.5601     0.0170
 2296.5000   -14.7640    15.5150    11.6390   858.2830    11.5060   139.1270     8.8370     2.5460  1058.7209     0.0190
 2297.0000   -14.7640    15.3120    11.7410   858.2830    11.6070   138.1970     8.8370     2.5390  1058.8831     0.0170
 2297.5000   -14.7640    15.7970    11.8440   858.2830    11.7070   137.3310     8.8370     2.5340  1059.0450     0.0150
 2298.0000   -14.7640    16.4830    11.9460   858.2830    11.8080   133.4680     8.8370     2.5290  1059.2070     0.0130
 2298.5000   -14.7640    16.4260    12.0510   858.2830    11.7360   131.3310     8.8370     2.5230  1059.3690     0.0110
 2299.0000   -14.7640    16.2750    11.9280   858.2830    11.6120   131.7680     8.8370     2.5180  1059.5300     0.0090
 2299.5000   -14.7640    15.9830    11.8020   858.2830    11.4870   135.1670     8.8370     2.5140  1059.6920     0.0070
 2300.0000   -14.7640    15.4730    11.6750   858.2830    11.3630   137.4660     8.8370     2.5190  1059.8540     0.0050
 2300.5000   -14.7640    14.9620    11.5490   858.2830    11.2390   139.9000     8.8370     2.5240  1060.0160     0.0030
 2301.0000   -14.7640    13.7100    11.4230   858.2830    11.1150   140.6030     8.8370     2.5180  1060.1780     0.0010
 2301.5000   -14.7640    13.4600    11.2960   858.2830    10.7900   140.6740     8.8370     2.5110  1060.3390    -0.0010
 2302.0000   -14.7640    13.7100    11.0360   858.2830    10.8790   139.7380     8.8370     2.5060  1060.5010    -0.0030
 2302.5000   -14.7630    15.3120    11.1110   858.2830    11.0260   137.2660     8.8370     2.5200  1060.6630    -0.0040
 2303.0000   -14.7650    15.2080    11.2610   858.2830    11.1730   135.0610     8.8370     2.5230  1060.8250    -0.0020
 2303.5000   -14.7630    15.0350    11.4110   858.2830    11.3210   134.8430     8.8370     2.5170  1060.9871     0.0010
 2304.0000   -14.7630    14.7580    11.5610   858.2830    11.4680   134.4650     8.8370     2.5160  1061.1479     0.0030
 2304.5000   -14.7720    14.9190    11.7110   858.2830    11.6160   132.9070     8.8370     2.5190  1061.3101     0.0080
 2305.0000   -14.6640    15.3220    11.8620   858.2830    11.7630   131.2770     8.8370     2.5320  1061.4720     0.0150
 2305.5000   -14.2660    15.7250    12.0120   858.2830    11.9100   130.2610     8.8370     2.5270  1061.6340     0.0160
 2306.0000   -13.9000    16.3420    12.1620   858.2830    12.0580   135.7420     8.8370     2.5140  1061.7960     0.0080
 2306.5000   -13.4350    17.1010    12.3120   858.2830    12.2050   143.4260     8.8370     2.5020  1061.9570     0.0000
 2307.0000   -13.5060    17.0460    12.4620   858.2830    12.3530   147.6460     8.8370     2.4920  1062.1190     0.0020
 2307.5000   -13.4950    16.9900    12.6120   858.2830    12.5000   153.1010     8.8370     2.5010  1062.2810     0.0070
 2308.0000   -13.3860    16.9340    12.7620   858.2830    12.7360   152.2150     8.8370     2.5090  1062.4430     0.0130
 2308.5000   -13.2620    16.8780    12.9730   858.2830    12.7150   147.5880     8.8370     2.5180  1062.6050     0.0150
 2309.0000   -13.1630    16.7890    12.8960   858.2830    12.6630   145.4880     8.8370     2.5190  1062.7670     0.0100
 2309.5000   -13.0480    16.9250    12.7680   858.2830    12.6100   143.2650     8.8370     2.5190  1062.9280     0.0040
 2310.0000   -12.9410    17.2660    12.6400   858.2830    12.5580   140.5040     8.8370     2.5190  1063.0900     0.0030
 2310.5000   -12.8290    17.6070    12.5120   858.2830    12.5060   140.5730     8.8370     2.5210  1063.2520     0.0070
 2311.0000   -12.8010    17.7430    12.3840   858.2830    12.4530   142.4110     8.8370     2.5240  1063.4139     0.0110
 2311.5000   -12.8190    17.1130    12.2560   858.2830    12.4010   143.4080     8.8370     2.5260  1063.5760     0.0140
 2312.0000   -12.8330    16.4830    12.0510   858.2830    12.3490   142.0670     8.8370     2.5280  1063.7371     0.0180
 2312.5000   -12.8460    15.8870    12.0910   858.2830    12.2750   141.6140     8.8370     2.5310  1063.8990     0.0140
 2313.0000   -12.8610    16.3660    12.1920   858.2830    12.3170   141.0400     8.8370     2.5320  1064.0610     0.0110
 2313.5000   -12.8740    16.8450    12.2920   858.2830    12.3870   145.9320     8.8370     2.5240  1064.2230     0.0080
 2314.0000   -12.8880    17.4190    12.3920   858.2830    12.4570   149.1810     8.8370     2.5150  1064.3850     0.0050
 2314.5000   -12.9020    17.2750    12.4920   858.2830    12.5260   147.8480     8.8370     2.5110  1064.5460     0.0030
 2315.0000   -12.9160    17.0950    12.5920   858.2830    12.5960   148.0030     8.8370     2.5200  1064.7080     0.0110
 2315.5000   -12.9300    16.9150    12.6930   858.6770    12.6660   150.0510     8.8370     2.5270  1064.8700     0.0180
 2316.0000   -12.9440    16.7350    12.7930   859.1690    12.7360   148.7510     8.8370     2.5230  1065.0320     0.0160
 2316.5000   -12.9580    16.4830    12.8930   859.6620    12.8070   143.6840     8.8360     2.5150  1065.1940     0.0110
 2317.0000   -12.9720    16.8960    12.9930   860.1540    12.8770   140.1810     8.8360     2.5060  1065.3550     0.0050
 2317.5000   -12.9860    17.5830    13.0940   860.6460    12.9720   138.8150     8.8350     2.4980  1065.5170    -0.0010
 2318.0000   -13.0000    18.4090    13.2140   861.1380    12.9200   137.8800     8.8350     2.4900  1065.6790    -0.0040
 2318.5000   -13.0140    18.4090    13.0850   861.6300    12.8260   138.2310     8.8340     2.5010  1065.8409     0.0060
 2319.0000   -13.0280    18.4090    12.9230   862.1220    12.7340   138.8010     8.8340     2.5140  1066.0031     0.0140
 2319.5000   -13.0410    18.0090    12.7620   862.6150    12.6420   139.2100     8.8330     2.5140  1066.1639     0.0110
