~VERSION INFORMATION
 VERS.                2.0:   CWLS LOG ASCII STANDARD - VERSION 2.0
 WRAP.                 NO:   ONE LINE PER DEPTH STEP
~WELL INFORMATION
#MNEM.UNIT      DATA TYPE    INFORMATION
#----------   ------------   ------------------------------
 STRT.F            0.0000:   START DEPTH
 STOP.F         2775.5000:   STOP DEPTH
 STEP.F            0.5000:   STEP LENGTH
 NULL.          -999.2500:   NO VALUE
 COMP.          U.S. NAVY:   COMPANY
 WELL.   U.S. "A" #107-29:   WELL
 FLD .        TEAPOT DOME:   FIELD
 LOC .      S29 T39N R78W:   LOCATION
 CNTY.            NATRONA:   COUNTY
 STAT.            WYOMING:   STATE
 CTRY. UNITED STATES OF AMERICA:   COUNTRY
 SRVC.         MCCULLOUGH:   SERVICE COMPANY
 DATE.        07-SEP-1966:   LOGDATE
 API .     49025095920000:   API NUMBER
~CURVE INFORMATION
#MNEM.UNIT       API CODE    CURVE DESCRIPTION
#----------   ------------   ------------------------------
 DEPT.F                  :   
 GR  .GAPI   30 310 01 00:   GAMMA RAY
 CALI.IN     70 280 01 00:   CALIPER
~PARAMETER INFORMATION
#MNEM.UNIT          VALUE    DESCRIPTION
#----------   ------------   ------------------------------
 EKB .F            0.0000:   Kelly bushing
 EGL .F            0.0000:   Ground level
 EDF .F            0.0000:   Drilling floor
 EPD .F            0.0000:   Permanent datum
 TD  .F         2777.5000:   Total depth
 DATE.        07-SEP-1966:   Date logged
 CLNT.            A2DTECH:   Client Code
 PD  .                 GL:   Permanent Datum
 LMF .                 GL:   Log Measured From
 DMF .                 GL:   Drilling Measured From
 DL  .F            2777.5:   Depth logger
 BLI .F              2776:   Bottom log interval
 TLI .F              2200:   Top log interval
 CS1 .IN                5:   Casing size
 CBD1.         5" @ 2722':   Casing driller 1
 DFT .              WATER:   Type fluid in hole
 RMB .OHMM           .053:   Rm. at BHT
 TCS .HRS             1.5:   Time Circ. stopped
 LUN .               1460:   Logging unit number
 ENGI.        FITZSIMMONS:   Recorded By
 WITN.             TUTTLE:   Witnessed by
 ORIG.           5" PRINT:   Origin of data
 UWI .     49025095920000:   Unique Well ID
 DICO. A2D TECHNOLOGIES, INC.:   Digitizing Company
~OTHER INFORMATION
~A    DEPT      GR         CALI 
# ...
 1215.0000  -999.2500     6.9160
 1215.5000  -999.2500     6.9180
 1216.0000  -999.2500     6.9190
 1216.5000  -999.2500     6.9200
 1217.0000  -999.2500     6.9210
 1217.5000  -999.2500     6.9220
 1218.0000  -999.2500     6.9240
 1218.5000  -999.2500     6.9280
 1219.0000  -999.2500     6.9330
 1219.5000  -999.2500     6.9380
 1220.0000  -999.2500     6.9440
 1220.5000  -999.2500     6.9660
 1221.0000  -999.2500     6.9890
 1221.5000  -999.2500     6.9820
 1222.0000  -999.2500     6.9680
 1222.5000  -999.2500     6.9540
 1223.0000  -999.2500     6.9400
 1223.5000  -999.2500     6.9260
 1224.0000  -999.2500     6.9240
 1224.5000  -999.2500     6.9240
 1225.0000  -999.2500     6.9240
 1225.5000  -999.2500     6.9240
 1226.0000  -999.2500     6.9240
 1226.5000  -999.2500     6.9240
 1227.0000  -999.2500     6.9240
 1227.5000  -999.2500     6.9240
 1228.0000  -999.2500     6.9240
 1228.5000  -999.2500     6.9240
 1229.0000  -999.2500     6.9240
 1229.5000  -999.2500     6.9480
 1230.0000  -999.2500     6.9460
 1230.5000  -999.2500     6.9360
 1231.0000  -999.2500     6.9400
 1231.5000  -999.2500     6.9430
 1232.0000  -999.2500     6.9470
 1232.5000  -999.2500     6.9510
 1233.0000  -999.2500     6.9580
 1233.5000  -999.2500     6.9820
 1234.0000  -999.2500     7.0070
 1234.5000  -999.2500     7.0250
 1235.0000  -999.2500     7.0300
 1235.5000  -999.2500     7.0360
 1236.0000  -999.2500     7.0410
 1236.5000  -999.2500     7.0640
 1237.0000  -999.2500     7.0920
 1237.5000  -999.2500     7.1200
 1238.0000  -999.2500     7.1080
 1238.5000  -999.2500     7.0900
 1239.0000  -999.2500     6.9960
 1239.5000  -999.2500     6.9580
 1240.0000  -999.2500     6.9340
 1240.5000  -999.2500     6.9390
 1241.0000  -999.2500     6.9430
 1241.5000  -999.2500     6.9470
 1242.0000  -999.2500     6.9510
 1242.5000  -999.2500     6.9590
 1243.0000  -999.2500     6.9790
 1243.5000  -999.2500     6.9980
 1244.0000  -999.2500     7.0180
 1244.5000  -999.2500     7.0150
 1245.0000  -999.2500     7.0060
 1245.5000  -999.2500     6.9960
 1246.0000  -999.2500     6.9860
 1246.5000  -999.2500     6.9870
 1247.0000  -999.2500     6.9920
 1247.5000  -999.2500     6.9730
 1248.0000  -999.2500     6.9450
 1248.5000  -999.2500     6.9440
 1249.0000  -999.2500     6.9460
 1249.5000  -999.2500     6.9470
 1250.0000  -999.2500     6.9480
 1250.5000  -999.2500     6.9490
 1251.0000  -999.2500     6.9500
 1251.5000  -999.2500     6.9510
 1252.0000  -999.2500     6.9520
 1252.5000  -999.2500     6.9530
 1253.0000  -999.2500     6.9480
 1253.5000  -999.2500     6.9370
 1254.0000  -999.2500     6.9260
 1254.5000  -999.2500     6.9150
 1255.0000  -999.2500     6.9040
 1255.5000  -999.2500     6.8940
 1256.0000  -999.2500     6.8960
 1256.5000  -999.2500     6.8980
 1257.0000  -999.2500     6.9000
 1257.5000  -999.2500     6.9020
 1258.0000  -999.2500     6.9030
 1258.5000  -999.2500     6.9050
 1259.0000  -999.2500     6.9070
 1259.5000  -999.2500     6.9090
 1260.0000  -999.2500     6.9100
 1260.5000  -999.2500     6.9120
 1261.0000  -999.2500     6.9140
 1261.5000  -999.2500     6.9160
 1262.0000  -999.2500     6.9180
 1262.5000  -999.2500     6.9190
 1263.0000  -999.2500     6.9210
 1263.5000  -999.2500     6.9230
 1264.0000  -999.2500     6.9270
 1264.5000  -999.2500     6.9340
 1265.0000  -999.2500     6.9400
 1265.5000  -999.2500     6.9470
 1266.0000  -999.2500     6.9540
 1266.5000  -999.2500     6.9640
 1267.0000  -999.2500     6.9750
 1267.5000  -999.2500     6.9910
 1268.0000  -999.2500     7.0220
 1268.5000  -999.2500     7.0230
 1269.0000  -999.2500     7.0240
 1269.5000  -999.2500     7.0240
 1270.0000  -999.2500     7.0240
 1270.5000  -999.2500     7.0250
 1271.0000  -999.2500     7.0250
 1271.5000  -999.2500     7.0260
 1272.0000  -999.2500     7.0260
 1272.5000  -999.2500     7.0260
 1273.0000  -999.2500     7.0270
 1273.5000  -999.2500     7.0270
 1274.0000  -999.2500     7.0280
 1274.5000  -999.2500     7.0280
 1275.0000  -999.2500     7.0280
 1275.5000  -999.2500     7.0290
 1276.0000  -999.2500     7.0290
 1276.5000  -999.2500     7.0300
 1277.0000  -999.2500     7.0300
 1277.5000  -999.2500     7.0300
 1278.0000  -999.2500     7.0310
 1278.5000  -999.2500     7.0310
 1279.0000  -999.2500     7.0320
 1279.5000  -999.2500     7.0320
 1280.0000  -999.2500     7.0320
 1280.5000  -999.2500     7.0410
 1281.0000  -999.2500     7.0650
 1281.5000  -999.2500     7.0890
 1282.0000  -999.2500     7.1120
 1282.5000  -999.2500     7.1320
 1283.0000  -999.2500     7.1280
 1283.5000  -999.2500     7.1240
 1284.0000  -999.2500     7.1210
 1284.5000  -999.2500     7.1180
 1285.0000  -999.2500     7.1150
 1285.5000  -999.2500     7.1110
 1286.0000  -999.2500     7.0680
 1286.5000  -999.2500     7.0210
 1287.0000  -999.2500     6.9750
 1287.5000  -999.2500     6.9730
 1288.0000  -999.2500     6.9760
 1288.5000  -999.2500     6.9810
 1289.0000  -999.2500     6.9870
 1289.5000  -999.2500     6.9920
 1290.0000  -999.2500     6.9770
 1290.5000  -999.2500     6.9630
 1291.0000  -999.2500     6.9630
 1291.5000  -999.2500     6.9630
 1292.0000  -999.2500     6.9630
 1292.5000  -999.2500     6.9630
 1293.0000  -999.2500     6.9630
 1293.5000  -999.2500     6.9630
 1294.0000  -999.2500     6.9630
 1294.5000  -999.2500     6.9630
 1295.0000  -999.2500     6.9650
 1295.5000  -999.2500     6.9670
 1296.0000  -999.2500     6.9700
 1296.5000  -999.2500     6.9720
 1297.0000  -999.2500     6.9910
 1297.5000  -999.2500     7.0240
 1298.0000  -999.2500     7.0570
 1298.5000  -999.2500     7.0910
 1299.0000  -999.2500     7.1250
 1299.5000  -999.2500     7.1600
 1300.0000  -999.2500     7.1630
 1300.5000  -999.2500     7.1660
 1301.0000  -999.2500     7.1680
 1301.5000  -999.2500     7.1710
 1302.0000  -999.2500     7.1480
 1302.5000  -999.2500     7.1160
 1303.0000  -999.2500     7.0830
 1303.5000  -999.2500     7.0500
 1304.0000  -999.2500     7.0170
 1304.5000  -999.2500     6.9840
 1305.0000  -999.2500     6.9540
 1305.5000  -999.2500     6.9530
 1306.0000  -999.2500     6.9540
 1306.5000  -999.2500     6.9540
 1307.0000  -999.2500     6.9540
 1307.5000  -999.2500     6.9580
 1308.0000  -999.2500     6.9700
 1308.5000  -999.2500     6.9810
 1309.0000  -999.2500     6.9920
 1309.5000  -999.2500     7.0030
 1310.0000  -999.2500     7.0010
 1310.5000  -999.2500     6.9990
 1311.0000  -999.2500     6.9970
 1311.5000  -999.2500     6.9950
 1312.0000  -999.2500     6.9930
 1312.5000  -999.2500     6.9860
 1313.0000  -999.2500     6.9790
 1313.5000  -999.2500     6.9740
 1314.0000  -999.2500     6.9780
 1314.5000  -999.2500     6.9820
 1315.0000  -999.2500     6.9860
 1315.5000  -999.2500     6.9900
 1316.0000  -999.2500     6.9940
 1316.5000  -999.2500     6.9980
 1317.0000  -999.2500     7.0020
 1317.5000  -999.2500     6.9980
 1318.0000  -999.2500     6.9920
 1318.5000  -999.2500     6.9850
 1319.0000  -999.2500     6.9790
 1319.5000  -999.2500     6.9740
 1320.0000  -999.2500     6.9820
 1320.5000  -999.2500     6.9900
 1321.0000  -999.2500     6.9970
 1321.5000  -999.2500     7.0050
 1322.0000  -999.2500     7.0120
 1322.5000  -999.2500     7.0050
 1323.0000  -999.2500     6.9970
 1323.5000  -999.2500     6.9890
 1324.0000  -999.2500     6.9830
 1324.5000  -999.2500     6.9850
 1325.0000  -999.2500     6.9860
 1325.5000  -999.2500     6.9870
 1326.0000  -999.2500     6.9880
 1326.5000  -999.2500     6.9890
 1327.0000  -999.2500     6.9900
 1327.5000  -999.2500     6.9910
 1328.0000  -999.2500     6.9920
 1328.5000  -999.2500     6.9930
 1329.0000  -999.2500     6.9850
 1329.5000  -999.2500     6.9770
 1330.0000  -999.2500     6.9690
 1330.5000  -999.2500     6.9610
 1331.0000  -999.2500     6.9530
 1331.5000  -999.2500     6.9460
 1332.0000  -999.2500     6.9380
 1332.5000  -999.2500     6.9300
 1333.0000  -999.2500     6.9230
 1333.5000  -999.2500     6.9220
 1334.0000  -999.2500     6.9200
 1334.5000  -999.2500     6.9180
 1335.0000  -999.2500     6.9160
 1335.5000  -999.2500     6.9150
 1336.0000  -999.2500     6.9150
