~VERSION INFORMATION
 VERS.                2.0:   CWLS LOG ASCII STANDARD - VERSION 2.0
 WRAP.                 NO:   ONE LINE PER DEPTH STEP
~WELL INFORMATION
#MNEM.UNIT      DATA TYPE    INFORMATION
#----------   ------------   ------------------------------
 STRT.F            0.0000:   START DEPTH
 STOP.F         5673.0000:   STOP DEPTH
 STEP.F            0.5000:   STEP LENGTH
 NULL.          -999.2500:   NO VALUE
 COMP.       FLUOR DANIEL:   COMPANY
 WELL.   FLUOR "X" #63-10:   WELL
 FLD .             NPR #3:   FIELD
 LOC .      S10 T38N R78W:   LOCATION
 CNTY.            NATRONA:   COUNTY
 STAT.            WYOMING:   STATE
 CTRY. UNITED STATES OF AMERICA:   COUNTRY
 SRVC.      WESTERN ATLAS:   SERVICE COMPANY
 DATE.        02-MAR-1996:   LOGDATE
 API .     49025227690000:   API NUMBER
~CURVE INFORMATION
#MNEM.UNIT       API CODE    CURVE DESCRIPTION
#----------   ------------   ------------------------------
 DEPT.F                  :   
 GRD .GAPI   45 310 01 00:   GAMMA RAY FROM DENSITY LOG
 TEND.LBS    45 635 01 00:   TENSION FROM DENSITY LOG
 CALD.IN     45 280 60 00:   CALIPER FROM DENSITY LOG
 ZCOR.G/C3   45 356 01 00:   DENSITY CORRECTION
 ZDEN.G/C3   45 350 01 00:   BULK DENSITY
 CNC .DEC    42 890 03 00:   COMPENSATED NEUTRON POROSITY SANDSTONE
 SPR .MV     11 010 01 00:   SPONTANEOUS POTENTIAL FROM RESISTIVITY
 RD  .OHMM   11 220 10 00:   RESISTIVITY DEEP
 RS  .OHMM   11 220 09 00:   RESISTIVITY SHALLOW
~PARAMETER INFORMATION
#MNEM.UNIT          VALUE    DESCRIPTION
#----------   ------------   ------------------------------
 EKB .F         5196.0000:   Kelly bushing
 EGL .F         5186.0000:   Ground level
 EDF .F         5195.0000:   Drilling floor
 TD  .F         5674.0000:   Total depth
 CLNT.            A2DTECH:   Client Code
 SL  . 1688' FNL & 1730' FEL:   Surface Location
 PD  .                 GL:   Permanent Datum
 EPD .F              5186:   Elevation Permanent Datum
 LMF .                 KB:   Log Measured From
 DMF .                 KB:   Drilling Measured From
 DAPD.F                10:   Feet Above Permanent Datum
 DATE.        02-MAR-1996:   Date Logged [DD-MMM-YYYY]
 DD  .F              5674:   Depth driller
 DL  .F              5674:   Depth logger
 BLI .F              5663:   Bottom log interval
 CS1 .IN            9.625:   Casing size
 CBD1.      9.625" @ 448':   Casing driller 1
 CBL1.F               448:   Casing logger 1
 BS1 .IN             8.75:   Bit size
 BSD1.F              5674:   Depth drilled with bit1
 DFT .               CHEM:   Type fluid in hole
 DFD .                9.7:   Density
 DFV .                 53:   Viscosity
 DFPH.                9.0:   pH
 DFL .                9.2:   Fluid loss
 MSS .           FLOWLINE:   Source of sample
 RMS .OHMM          0.628:   Rm
 MST .F                71:   Rm Meas. temp.
 RMF .OHMM          0.477:   Rmf
 MFST.F                71:   Rmf Meas. temp.
 MFSS.               MEAS:   Source Rmf.
 RMC .OHMM          0.779:   Rmc
 MCST.F                71:   Rmc Meas. temp.
 MCSS.               MEAS:   Source Rmc.
 RMB .OHMM          0.251:   Rm. at BHT
 BHT .F               178:   BHT.
 TCS .F               4.5:   Time Circ. stopped
 MRT .HRS             178:   Maximum recorded temp.
 LUN .            HL-6530:   Logging unit number
 LUL .             CASPER:   Logging unit location
 ENGI.      PAT RASMUSSEN:   Recorded By
 ORIG.           5" PRINT:   Origin of data
 UWI .     49025227690000:   Unique Well ID
 WITN.         LAFRENIERE:   Witnessed by
 DICO.   A2D TECHNOLOGIES:   Digitizing Company
~OTHER INFORMATION
~A  DEPTH      GRD       TEND       CALD       ZCOR       ZDEN        CNC        SPR         RD         RS
# ...
 2153.5000   112.9730   -77.0723     9.8451     0.0678     2.5304     0.3318   -78.8079     7.7268     5.9671
 2154.0000   110.5663   -76.9837     9.8449     0.0333     2.5349     0.3195   -79.2281     8.2785     6.5271
 2154.5000   106.3530   -69.4153     9.8448     0.0257     2.5274     0.3087   -79.6079     9.2450     7.1035
 2155.0000   105.7527   -61.8317     9.8446     0.0302     2.5222     0.2994   -79.4890    10.3955     7.9346
 2155.5000   105.7563   -46.7683     9.8445     0.0332     2.5162     0.2958   -79.3609    11.2400     8.6425
 2156.0000   105.4572   -31.7049     9.8443     0.0332     2.5094     0.2943   -79.2353    11.8743     9.0482
 2156.5000   105.1596   -31.6340     9.8442     0.0302     2.5026     0.2904   -79.1100    12.5431     9.3016
 2157.0000   105.7656   -31.5454     9.8289     0.0242     2.4989     0.2904   -78.9847    12.7135     9.4961
 2157.5000   107.8769   -38.9708     9.8288     0.0212     2.4966     0.2967   -78.8594    12.7063     9.5614
 2158.0000   108.7834   -46.3961     9.8286     0.0166     2.4958     0.2997   -78.7346    12.3537     9.1718
 2158.5000   108.1838   -46.3252     9.8285     0.0121     2.4982     0.2948   -78.6096    12.3479     9.1712
 2159.0000   106.9658   -31.2594     9.8284     0.0140     2.5019     0.2933   -78.4766    12.5999     9.3629
 2159.5000   102.7686   -31.1732     9.8282     0.0256     2.5056     0.2943   -78.1077    12.8584     9.6448
 2160.0000   100.6630   -31.1024     9.8432     0.0316     2.5109     0.2972   -77.6490    13.1221    10.1721
 2160.5000    99.7616   -23.5352     9.8279     0.0316     2.5124     0.3005   -77.8671    13.0255    10.2423
 2161.0000   104.5844   -15.9670     9.8278     0.0331     2.5101     0.3179   -78.0657    12.8393    10.1708
 2161.5000   109.2095   -15.8795     9.8276     0.0345     2.5094     0.3341   -78.2645    12.2266     9.6223
 2162.0000   114.5306   -23.3049     9.8275     0.0360     2.5079     0.3428   -78.4170    11.8874     9.2944
 2162.5000   118.7504   -30.7479     9.8273     0.0330     2.5049     0.3455   -78.4135    11.3200     9.1029
 2163.0000   119.0537   -45.6522     9.8271     0.0285     2.5002     0.3431   -78.4111    11.4727     9.2932
 2163.5000   115.1416   -53.0772     9.8270     0.0210     2.4914     0.3401   -78.4239    12.2029     9.7537
 2164.0000   113.6385   -52.9886     9.8268     0.0180     2.4816     0.3371   -78.8522    13.1620    10.1665
 2164.5000   113.9425   -45.4214     9.8267     0.0179     2.4748     0.3365   -79.2992    13.6244    10.5968
 2165.0000   113.3437   -45.3506     9.8265     0.0224     2.4749     0.3374   -79.5217    13.8027    11.0453
 2165.5000   112.4422   -45.2774     9.8284     0.0284     2.4899     0.3383   -79.0799    13.7948    10.4496
 2166.0000   112.1446   -52.6873     9.8413     0.0254     2.4996     0.3329   -78.6621    13.3196     9.9549
 2166.5000   111.1524   -60.1127     9.8412     0.0209     2.5041     0.3203   -78.2463    12.5021     9.5494
 2167.0000   108.6510   -67.5380     9.8410     0.0164     2.5041     0.3155   -78.0289    10.9622     9.2881
 2167.5000   101.6118   -67.8380     9.8409     0.0119     2.5026     0.3134   -78.1165    10.8816     9.5480
 2168.0000    98.6026   -82.3888     9.8407     0.0133     2.5004     0.3107   -78.1999    11.1819     9.8153
 2168.5000    96.4970   -89.8141     9.8406     0.0163     2.4951     0.3047   -78.2840    11.6508    10.0206
 2169.0000    94.0910   -82.2293     9.8404     0.0148     2.4853     0.2993   -78.3649    12.0553    10.2301
 2169.5000    93.4907   -67.1659     9.8325     0.0148     2.4786     0.2920   -78.3223    12.3866    10.4440
 2170.0000    94.0967   -59.5810     9.8401     0.0148     2.4771     0.2939   -78.1122    12.5534    10.7364
 2170.5000    96.8104   -59.5102     9.8399     0.0163     2.4778     0.3026   -78.1148    12.5477    10.8103
 2171.0000    98.6248   -59.4392     9.8247     0.0222     2.4786     0.3020   -78.3053    12.5406    10.6608
 2171.5000    96.8168   -59.3684     9.8246     0.0297     2.4899     0.2996   -78.4990    12.5348    10.1559
 2172.0000    91.3980   -67.6881     9.8395     0.0327     2.5056     0.2948   -78.6931    11.7726     9.8780
 2172.5000    88.9912   -89.1939     9.8393     0.0252     2.5139     0.2905   -78.8841    11.5255     9.6746
 2173.0000    87.7886   -89.1230     9.8392     0.0162     2.5124     0.2900   -79.0182    12.2591    10.2245
 2173.5000    89.6539   -81.5559     9.8391     0.0117     2.5026     0.2945   -79.0144    13.5937    11.0322
 2174.0000    97.4343   -66.4918     9.8389     0.0132     2.4875     0.3191   -78.9589    14.1635    11.4992
 2174.5000   106.7745   -58.9076     9.8387     0.0161     2.4696     0.3365   -78.8996    14.2555    11.8211
 2175.0000   112.1990   -58.8367     9.8386     0.0161     2.4455     0.3392   -78.8407    14.0514    11.9024
 2175.5000   113.7079   -58.7658     9.8385     0.0176     2.4425     0.3352   -78.7819    13.5674    11.3387
 2176.0000   111.7830   -51.1987     9.8383     0.0191     2.4433     0.3293   -78.7231    12.7424    10.8769
 2176.5000   107.9908   -51.1101     9.8381     0.0206     2.4455     0.3244   -78.6642    11.9675    10.4338
 2177.0000   107.6924   -51.0392     9.8229     0.0191     2.4493     0.3208   -78.6054    11.9736    10.4331
 2177.5000   108.2984   -50.9683     9.8228     0.0206     2.4568     0.3163   -78.5466    12.3761    10.7253
 2178.0000   109.2049   -50.8974     9.8226     0.0175     2.4560     0.3136   -78.4878    12.4578    11.0254
 2178.5000   110.4467   -35.8321     9.8225     0.0100     2.4553     0.3145   -78.4289    12.4507    11.0247
 2179.0000   111.9222   -28.2492     9.8223     0.0115     2.4560     0.3154   -78.3701    11.9200    10.7954
 2179.5000   113.1299   -20.6820     9.8222     0.0160     2.4651     0.3163   -78.3111    11.6869    10.4294
 2180.0000   113.1327   -13.1326     9.8220     0.0190     2.4703     0.3133   -78.2530    11.7627    10.2854
 2180.5000   112.8343   -13.0435     9.8219     0.0205     2.4718     0.3145   -78.2124    12.0040    10.7207
 2181.0000   113.5288   -27.9479     9.8368     0.0234     2.4741     0.3148   -78.2148    12.2574    11.0209
 2181.5000   115.2505   -35.3910     9.8366     0.0234     2.4748     0.3136   -78.2136    12.4152    11.0200
 2182.0000   114.6509   -20.3099     9.8365     0.0234     2.4763     0.3121   -78.0731    11.7399    10.7185
 2182.5000   110.4369   -12.7427     9.8363     0.0219     2.4786     0.3128   -77.4096    11.5732    10.4252
 2183.0000   108.9337   -12.6541     9.8362     0.0234     2.4785     0.3157   -76.7462    11.3255     9.9931
 2183.5000   109.2470   -12.5833     9.8360     0.0234     2.4658     0.3187   -76.6057    11.0912     9.5931
 2184.0000   109.4612   -20.0263     9.8510     0.0234     2.4591     0.3232   -76.6045    10.8583     9.3953
 2184.5000   109.6754   -19.9377     9.8659     0.0248     2.4636     0.3241   -76.6063    10.6316     9.4601
 2185.0000   109.8495   -19.8651     9.8959     0.0250     2.4786     0.3199   -76.6064    10.7762     9.6622
 2185.5000   111.0610   -19.7782     9.9109     0.0278     2.4966     0.3130   -76.6064    10.3296     9.8597
 2186.0000   113.1692   -27.2213     9.9107     0.0308     2.5109     0.3026   -76.6053     9.3715     9.9275
 2186.5000   114.0750   -27.1327     9.9257     0.0338     2.5147     0.2890   -76.6508     8.9863     9.6557
 2187.0000   109.8617   -27.0618     9.9255     0.0398     2.5071     0.2809   -76.7072     8.7973     9.0574
 2187.5000   107.4549   -34.4872     9.9253     0.0443     2.5026     0.2857   -76.7638     8.2624     8.5829
 2188.0000   105.9271   -34.3986     9.9252     0.0397     2.5049     0.2883   -76.8203     8.4904     8.5823
 2188.5000   102.9433   -41.8417     9.9250     0.0412     2.5079     0.2983   -76.8768     8.4855     8.7013
 2189.0000    98.7293   -34.2568     9.9249     0.0427     2.5101     0.3001   -76.9330     8.4817     8.7612
 2189.5000    94.8165   -41.6644     9.9096     0.0382     2.5116     0.3003   -76.9911     8.4778     8.7001
