~VERSION INFORMATION
 VERS.                2.0:   CWLS LOG ASCII STANDARD - VERSION 2.0
 WRAP.                 NO:   ONE LINE PER DEPTH STEP
~WELL INFORMATION
#MNEM.UNIT      DATA TYPE    INFORMATION
#----------   ------------   ------------------------------
 STRT.F          720.0000:   START DEPTH
 STOP.F         3416.0000:   STOP DEPTH
 STEP.F            0.5000:   STEP LENGTH
 NULL.          -999.2500:   NO VALUE
 COMP.    FENIX & SCISSON:   COMPANY
 WELL.  FENIX "AX" #31-14:   WELL
 FLD .                NPR:   FIELD
 LOC .      S14 T38N R78W:   LOCATION
 CNTY.            NATRONA:   COUNTY
 STAT.            WYOMING:   STATE
 CTRY. UNITED STATES OF AMERICA:   COUNTRY
 SRVC.       SCHLUMBERGER:   SERVICE COMPANY
 DATE.        04-JUN-1981:   LOGDATE
 API .     49025108730000:   API NUMBER
~CURVE INFORMATION
#MNEM.UNIT       API CODE    CURVE DESCRIPTION
#----------   ------------   ------------------------------
 DEPT.F                  :   
 TEND.LBS    45 635 01 00:   TENSION FROM DENSITY LOG
 CORR.G/C3   45 356 01 00:   DENSITY CORRECTION
 RHOB.G/C3   45 350 01 00:   BULK DENSITY
 CALD.IN     45 280 60 00:   CALIPER FROM DENSITY LOG
 GRD .GAPI   45 310 01 00:   GAMMA RAY FROM DENSITY LOG
 SPR .MV     07 010 01 00:   SPONTANEOUS POTENTIAL
 SFL .OHMM   07 220 01 00:   SHALLOW FOCUSED LOG RESISTIVITY
 ILD .OHMM   07 120 46 00:   INDUCTION LOG DEEP RESISTIVITY
 ILM .OHMM   07 120 44 00:   INDUCTION LOG MEDIUM RESISTIVITY
 TENR.LBS    07 635 01 00:   TENSION FROM RESISTIVITY
~PARAMETER INFORMATION
#MNEM.UNIT          VALUE    DESCRIPTION
#----------   ------------   ------------------------------
 EKB .F         5196.0000:   Kelly bushing
 EGL .F         5186.0000:   Ground level
 EDF .F            0.0000:   Drilling floor
 TD  .F         3402.0000:   Total depth
 DATE.        04-JUN-1981:   Date logged
 CLNT.            A2DTECH:   Client Code
 SL  . 377' FWL & 1733' FWL:   Surface Location
 PD  .                 GL:   Permanent Datum
 DD  .F              3400:   Depth driller
 DL  .F              3402:   Depth logger
 BLI .F              3395:   Bottom log interval
 TLI .F               720:   Top log interval
 CS1 .IN            8.625:   Casing size
 CBD1.      8.625" @ 707':   Casing driller 1
 CBL1.F               751:   Casing logger 1
 BS1 .IN            7.875:   Bit size
 BSD1.F              3400:   Depth drilled with bit1
 DFT .                FGM:   Type fluid in hole
 DFD .                8.8:   Density
 DFV .                 55:   Viscosity
 DFPH.                9.5:   pH
 DFL .                  9:   Fluid loss
 MSS .           MUD TANK:   Source of sample
 RMS .OHMM            1.7:   Rm
 MST .F                78:   Rm Meas. temp.
 RMF .OHMM           1.45:   Rmf
 MFST.F                78:   Rmf Meas. temp.
 MFSS.               MEAS:   Source Rmf.
 RMB .OHMM           1.12:   Rm. at BHT
 BHT .F               118:   BHT.
 TCS .HRS            1200:   Time Circ. stopped
 TLAB.HRS            1600:   Time logger at bottom
 MRT .F               118:   Maximum recorded temp.
 LUN .               8043:   Logging unit number
 LUL .             CASPER:   Logging unit location
 ENGI.             LARSON:   Recorded By
 WITN.              FIVAS:   Witnessed by
 ORIG.      2.5" 5" PRINT:   Origin of data
 UWI .     49025108730000:   Unique Well ID
 DICO. A2D TECHNOLOGIES, INC.:   Digitizing Company
 EPD .               5186:   Elevation Permanent Datum
 LMF .                 KB:   Log Measured From
 DMF .                 KB:   Drilling Measured From
 DAPD.                 10:   Feet Above Permanent Datum
~OTHER INFORMATION
~A   DEPT     TEND       CORR       RHOB       CALD         GRD       SPR        SFL        ILD        ILM       TENR   
# ...
 3031.5000  1644.2230     0.0130     2.5740     8.1940   111.7190    19.5440    10.4060     8.5830     8.4060  1704.3120
 3032.0000  1646.3790     0.0170     2.5750     8.1880   111.5940    19.6630    10.8860     8.7640     8.5920  1704.3120
 3032.5000  1648.5350     0.0180     2.5710     8.1820   108.8210    20.4530    11.2470     8.9670     8.8000  1704.3120
 3033.0000  1650.6910     0.0180     2.5740     8.1760   108.0810    21.1600    10.9770     9.1380     8.6560  1704.3120
 3033.5000  1652.8470     0.0190     2.5710     8.1710   107.1580    21.2960    10.6280     8.9390     8.4920  1704.3120
 3034.0000  1655.0031     0.0140     2.5620     8.1650   106.6330    21.4730    10.6740     8.7540     8.3280  1704.3120
 3034.5000  1657.1591     0.0100     2.5600     8.1590   104.5340    21.7100    10.8300     8.5680     8.1650  1704.3120
 3035.0000  1659.3149     0.0130     2.5700     8.1600   103.4750    21.8440    10.6030     8.3830     8.0070  1704.3120
 3035.5000  1661.4709     0.0120     2.5710     8.1700   104.2040    22.0430    10.0890     8.3150     8.0070  1704.3120
 3036.0000  1663.4700     0.0070     2.5600     8.1800   105.9280    22.5140     9.5760     8.3150     8.0070  1704.3120
 3036.5000  1664.5710     0.0010     2.5470     8.1900   107.1170    23.6280     8.9670     8.5240     8.0540  1704.3120
 3037.0000  1665.6710     0.0000     2.5410     8.2000   105.9060    23.9650     8.9670     8.7530     8.2700  1704.3120
 3037.5000  1666.7720     0.0000     2.5480     8.2100   104.0430    24.3450    10.4690     8.9820     8.4860  1704.3120
 3038.0000  1667.8719     0.0010     2.5550     8.2200    99.7450    24.3610    11.9590     9.2110     8.7020  1704.3120
 3038.5000  1668.9730     0.0010     2.5520     8.2310    95.1950    24.3960    13.4490     9.4400     8.9170  1704.3120
 3039.0000  1670.0730     0.0010     2.5470     8.2410    91.8870    24.4580    14.3740     9.3290     9.1380  1704.3120
 3039.5000  1671.1740     0.0000     2.5480     8.2510    91.0870    24.4940    14.3740     9.1220     9.0170  1704.3120
 3040.0000  1672.2740     0.0000     2.5500     8.2610    91.1920    24.5460    13.6710     8.9160     8.8050  1704.3120
 3040.5000  1673.3740     0.0000     2.5530     8.2710    92.6630    24.5890    12.4750     8.7100     8.5940  1704.3120
 3041.0000  1674.4750    -0.0010     2.5440     8.2770    92.6130    24.6330    11.2790     8.5040     8.3820  1704.3120
 3041.5000  1675.5750    -0.0010     2.5330     8.2750    92.5700    24.6940    10.0830     8.2980     8.1700  1704.3120
 3042.0000  1676.6760     0.0000     2.5340     8.2740    93.4920    24.6600     8.8000     8.1600     7.9580  1704.3120
 3042.5000  1677.7760     0.0000     2.5370     8.2720    93.0470    25.0710     8.8000     8.1450     7.8580  1704.3120
 3043.0000  1678.8770     0.0010     2.5390     8.2710    92.0810    25.9700     9.9050     8.1160     7.9930  1704.3120
 3043.5000  1679.9771     0.0020     2.5380     8.2700    91.7160    26.3590    11.2120     8.0860     7.8920  1704.3120
 3044.0000  1681.0780     0.0030     2.5370     8.2680    92.4280    26.3140    12.1290     8.0570     7.8260  1704.3120
 3044.5000  1682.1780     0.0040     2.5360     8.2670    93.3390    26.3290    11.5290     8.0280     7.7590  1704.3120
 3045.0000  1683.2791     0.0070     2.5350     8.2650    93.9000    26.3270    10.3100     7.8580     7.7110  1704.3120
 3045.5000  1685.3290     0.0090     2.5330     8.2640    96.3080    26.3240     9.4960     7.7110     7.4250  1704.3120
 3046.0000  1687.5770     0.0100     2.5310     8.2620    99.6880    26.3270     9.1290     7.2850     7.1500  1704.3120
 3046.5000  1689.8250     0.0070     2.5270     8.2610   103.3500    26.3260     8.7620     6.7570     7.0160  1704.3120
 3047.0000  1692.0730     0.0030     2.5230     8.2600   109.1190    26.3270     8.0340     6.1480     6.5060  1704.3120
 3047.5000  1694.3210     0.0020     2.5160     8.2580   131.2580    26.3260     7.1500     5.5070     6.0200  1704.3120
 3048.0000  1696.5680     0.0050     2.4920     8.2570   140.2440    26.3280     5.9000     4.7490     5.4450  1704.3120
 3048.5000  1698.8160     0.0150     2.4470     8.2590   155.6380    26.3260     4.6980     3.9920     4.8710  1704.3120
 3049.0000  1701.0640     0.0160     2.4080     8.2610   182.2060    26.3270     3.4960     3.2340     4.2970  1704.3120
 3049.5000  1703.3120     0.0160     2.3970     8.2620   204.9800    26.3300     2.3040     2.4770     3.7220  1704.3120
 3050.0000  1702.9010     0.0120     2.3820     8.2640   212.5710    26.3130     2.2300     2.1370     3.1480  1704.3120
 3050.5000  1702.0540     0.0080     2.3680     8.2660   217.5580    26.4800     2.1770     1.9520     2.5730  1704.3120
 3051.0000  1701.2070     0.0040     2.3540     8.2670   222.2260    26.8960     2.0970     1.7980     1.9990  1704.3120
 3051.5000  1700.3600     0.0010     2.3400     8.2690   223.8980    27.2910     1.6620     1.6400     1.4110  1704.3120
 3052.0000  1699.5129    -0.0020     2.3320     8.2710   223.6480    27.7250     1.3580     1.6400     1.4110  1704.3120
 3052.5000  1698.6660     0.0020     2.3410     8.2720   205.1400    28.0240     1.4910     1.6240     1.4110  1704.3120
 3053.0000  1697.8180     0.0190     2.3750     8.2740   203.4120    28.1150     1.7140     1.6110     1.4110  1704.3120
 3053.5000  1696.9709     0.0440     2.4150     8.2760   202.4130    28.2420     2.1770     1.5970     1.7260  1704.3120
 3054.0000  1696.1240     0.0640     2.3950     8.2780   201.8780    28.3600     2.0840     1.5800     2.3180  1704.3120
 3054.5000  1695.2770     0.0440     2.3610     8.2590   178.8230    28.4780     2.0190     1.8080     2.9100  1704.3120
 3055.0000  1694.4301     0.0160     2.3520     8.2380   153.8260    28.6020     2.1770     2.5000     3.5020  1704.3120
 3055.5000  1693.5820     0.0020     2.4070     8.2160   136.3550    28.7050     4.1830     3.1920     4.0940  1704.3120
 3056.0000  1692.7350    -0.0020     2.4640     8.1940   116.1660    28.9640     6.5060     3.8840     4.6860  1704.3120
 3056.5000  1691.8879     0.0030     2.5090     8.1730   107.1160    29.3730     6.2190     4.5760     5.2780  1704.3120
 3057.0000  1691.0410     0.0070     2.5090     8.1510   101.7770    29.7620     5.8110     5.2680     5.8700  1704.3120
 3057.5000  1690.1940     0.0050     2.5130     8.1290    97.8080    30.1570     5.4020     5.9600     6.4620  1704.3120
 3058.0000  1689.3459     0.0040     2.5190     8.1160    93.8130    30.5490     5.1880     6.6520     7.0540  1704.3120
 3058.5000  1688.4990     0.0090     2.5330     8.1310    87.9410    30.9430     5.9200     7.3440     7.6460  1704.3120
 3059.0000  1687.6520     0.0130     2.5580     8.1380    81.5970    31.3440    10.4970     8.0360     8.2380  1704.3120
 3059.5000  1686.8051     0.0110     2.5850     8.1460    74.9880    31.6080    15.8010     8.7280     8.8300  1704.3120
 3060.0000  1685.9580     0.0100     2.5940     8.1540    74.8240    31.5210    21.1050     9.4200     9.4220  1704.3120
 3060.5000  1685.1110     0.0150     2.6020     8.1620    78.0140    31.4460    27.3070    10.3050    10.0140  1704.3120
 3061.0000  1684.2629     0.0180     2.6020     8.1700    81.6110    31.3600    25.3210    11.3020    10.6060  1704.3120
 3061.5000  1683.4160     0.0100     2.5980     8.1780    85.2060    31.2640    22.0910    12.0350    11.6790  1704.3120
 3062.0000  1682.5690     0.0020     2.5800     8.1860    85.3980    31.2810    17.6910    12.6090    11.9820  1704.3120
 3062.5000  1681.7220     0.0010     2.5630     8.1940    85.0920    31.4480    18.0280    13.0800    12.3600  1704.3120
 3063.0000  1680.8750     0.0010     2.5600     8.2020    84.7830    31.5990    18.3720    12.0330    11.4420  1704.3120
 3063.5000  1680.0270     0.0010     2.5610     8.2100    84.4970    31.7550    17.8750    11.1610    10.6780  1704.3120
 3064.0000  1679.1801    -0.0010     2.5530     8.2180    84.1620    31.9140    16.6610    10.2900     9.9140  1704.3120
 3064.5000  1678.3330    -0.0030     2.5370     8.2260    87.8940    32.0410    15.0380     9.4180     9.1500  1704.3120
