~VERSION INFORMATION
 VERS.                2.0:   CWLS LOG ASCII STANDARD - VERSION 2.0
 WRAP.                 NO:   ONE LINE PER DEPTH STEP
~WELL INFORMATION
#MNEM.UNIT      DATA TYPE    INFORMATION
#----------   ------------   ------------------------------
 STRT.F          197.0000:   START DEPTH
 STOP.F         3074.5000:   STOP DEPTH
 STEP.F            0.5000:   STEP LENGTH
 NULL.          -999.2500:   NO VALUE
 COMP.    FENIX & SCISSON:   COMPANY
 WELL.   FENIX "A" #36-21:   WELL
 FLD .             NPR #3:   FIELD
 LOC .      S21 T39N R78W:   LOCATION
 CNTY.            NATRONA:   COUNTY
 STAT.            WYOMING:   STATE
 CTRY. UNITED STATES OF AMERICA:   COUNTRY
 SRVC.              WELEX:   SERVICE COMPANY
 DATE.        06-JUL-1977:   LOGDATE
 API .     49025103920000:   API NUMBER
~CURVE INFORMATION
#MNEM.UNIT       API CODE    CURVE DESCRIPTION
#----------   ------------   ------------------------------
 DEPT.F                  :   
 CALD.IN     45 280 60 00:   CALIPER FROM DENSITY LOG
 GRD .GAPI   45 310 01 00:   GAMMA RAY FROM DENSITY LOG
 CORR.G/C3   45 356 01 00:   DENSITY CORRECTION
 RHOB.G/C3   45 350 01 00:   BULK DENSITY
 SPR .MV     11 010 01 00:   SPONTANEOUS POTENTIAL FROM RES.
 FORX.OHMM   11 000 00 00:   FORMATION FACTOR
 GURD.OHMM   11 220 05 00:   GUARD LOG RESISTIVITY
 NPHI.DEC    42 890 03 00:   NEUTRON POROSITY SANDSTONE
~PARAMETER INFORMATION
#MNEM.UNIT          VALUE    DESCRIPTION
#----------   ------------   ------------------------------
 EKB .F         4960.0000:   Kelly bushing
 EGL .F         4950.0000:   Ground level
 EDF .F            0.0000:   Drilling floor
 EPD .F         4950.0000:   Permanent datum
 TD  .F         3078.0000:   Total depth
 CLNT.            A2DTECH:   Client Code
 SL  . 1650' FSL & 1650' FWL:   Surface Location
 PD  .                 GL:   Permanent Datum
 DAPD.F                10:   Feet Above Permanent Datum
 DATE.        06-JUL-1977:   Date Logged [DD-MMM-YYYY]
 DD  .F              3066:   Depth driller
 DL  .F              3078:   Depth logger
 BLI .F              3076:   Bottom log interval
 TLI .F               200:   Top log interval
 CS1 .IN            8.625:   Casing size
 BS1 .IN            7.875:   Bit size
 BSD1.F              3066:   Depth drilled with bit1
 DFT .            KCL MUD:   Type fluid in hole
 DFD .                9.2:   Density
 DFV .                 35:   Viscosity
 DFPH.                7.5:   pH
 DFL .                 18:   Fluid loss
 MSS .           FLOWLINE:   Source of sample
 RMS .OHMM            0.9:   Rm
 MST .F                80:   Rm Meas. temp.
 RMF .OHMM           0.81:   Rmf
 MFST.F                80:   Rmf Meas. temp.
 MFSS.               FANN:   Source Rmf.
 RMC .OHMM           1.06:   Rmc
 MCST.F                80:   Rmc Meas. temp.
 MCSS.                KIT:   Source Rmc.
 RMB .OHMM           0.60:   Rm. at BHT
 BHT .F               119:   BHT.
 TCS .HRS               3:   Time Circ. stopped
 MRT .F               119:   Maximum recorded temp.
 LUN .               8611:   Logging unit number
 LUL .             CASPER:   Logging unit location
 ENGI.             C DOAK:   Recorded By
 WITN.         HARRINGTON:   Witnessed by
 ORIG.           5" PRINT:   Origin of data
 UWI .     49025103920000:   Unique Well ID
 DICO. A2D TECHNOLOGIES,INC.:   Digitizing Company
~OTHER INFORMATION
~A   DEPT     CALD         GRD      CORR       RHOB        SPR       FORX       GURD       NPHI   
# ...
 2667.5000     8.1768   136.7392     0.0517     2.5399   -68.3965     6.8866     4.9242     0.3201
 2668.0000     8.1846   134.7075     0.0519     2.5363   -68.3877     7.0797     4.9927     0.3144
 2668.5000     8.1866   133.2658     0.0506     2.5304   -68.3789     7.2782     5.0621     0.3105
 2669.0000     8.1885   132.4057     0.0508     2.5246   -68.3701     7.5339     5.1680     0.3009
 2669.5000     8.1904   131.5622     0.0509     2.5239   -68.5131     7.6390     5.2038     0.2991
 2670.0000     8.1927   131.0054     0.0512     2.5218   -68.5021     7.6924     5.1680     0.2952
 2670.5000     8.1946   131.0386     0.0513     2.5208   -68.6452     7.7461     5.0621     0.2880
 2671.0000     8.1962   130.7758     0.0515     2.5276   -68.6342     7.6934     5.0630     0.2847
 2671.5000     8.1983   130.8100     0.0517     2.5255   -68.6254     7.6940     5.2038     0.2858
 2672.0000     8.2002   131.1386     0.0519     2.5159   -68.6165     7.5349     5.1325     0.2811
 2672.5000     8.2019   131.4676     0.0520     2.5093   -68.6077     7.3832     4.8903     0.2787
 2673.0000     8.2040   132.0978     0.0522     2.5041   -68.5988     7.3330     4.8232     0.2811
 2673.5000     8.2059   133.0160     0.0554     2.5165   -68.5898     7.2831     4.8232     0.2988
 2674.0000     8.2078   134.0493     0.0570     2.5536   -68.5790     7.2335     4.8567     0.3045
 2674.5000     8.2097   135.4423     0.0602     2.5490   -68.5702     7.2842     4.7571     0.3078
 2675.0000     8.2115   136.9504     0.0589     2.5372   -68.5629     7.2847     4.5641     0.3093
 2675.5000     8.2135   138.4585     0.0545     2.5254   -68.5526     7.0870     4.4705     0.3105
 2676.0000     8.2240   139.9666     0.0503     2.5128   -68.5438     6.9424     4.3487     0.3138
 2676.5000     8.2473   141.1797     0.0505     2.5107   -68.5349     6.8477     4.2596     0.3177
 2677.0000     8.2491   142.0979     0.0491     2.5085   -68.5261     6.8957     4.2303     0.3213
 2677.5000     8.2510   143.0239     0.0494     2.5064   -68.5173     6.8961     4.2596     0.3216
 2678.0000     8.2677   143.6401     0.0480     2.5042   -68.5090     6.8966     4.2596     0.3225
 2678.5000     8.2696   144.2706     0.0482     2.5021   -68.4997     6.8009     4.1722     0.3268
 2679.0000     8.2715   142.2389     0.0484     2.5006   -68.4908     6.7099     4.0586     0.3341
 2679.5000     8.2586   139.6173     0.0486     2.4992   -68.4820     6.6185     4.0307     0.3383
 2680.0000     8.2604   137.2906     0.0472     2.5038   -68.5062     6.5735     3.9480     0.3395
 2680.5000     8.2771   135.5538     0.0474     2.5136   -68.5626     6.6195     4.0029     0.3359
 2681.0000     8.2790   134.1121     0.0476     2.5211   -68.6189     6.7119     4.1722     0.3329
 2681.5000     8.2809   132.6704     0.0493     2.5189   -68.6753     6.7123     4.2303     0.3344
 2682.0000     8.2828   131.8186     0.0509     2.5242   -68.7358     6.8060     4.2012     0.3422
 2682.5000     8.2851   131.5560     0.0541     2.5406   -68.7270     6.7595     4.2303     0.3476
 2683.0000     8.2870   131.8850     0.0573     2.5571   -68.5685     6.8069     4.2891     0.3488
 2683.5000     8.2889   132.5341     0.0604     2.5556   -68.4100     6.8073     4.3495     0.3467
 2684.0000     8.2755   132.8378     0.0621     2.5511   -68.4012     6.9023     4.4705     0.3449
 2684.5000     8.2779   131.9846     0.0593     2.5447   -68.2425     7.2441     4.5957     0.3455
 2685.0000     8.2502   131.0325     0.0565     2.5358   -68.2136     7.7100     4.5641     0.3470
 2685.5000     8.2521   129.4044     0.0537     2.5218   -68.0731     7.7621     4.4397     0.3488
 2686.0000     8.2540   128.2576     0.0494     2.5130   -68.0643     7.0973     4.4092     0.3521
 2686.5000     8.2558   126.5209     0.0496     2.5071   -68.0555     6.9525     4.4092     0.3551
 2687.0000     8.2577   125.3741     0.0498     2.5064   -68.0466     6.9051     4.4705     0.3572
 2687.5000     8.2448   124.9939     0.0499     2.5132   -68.0378     7.0016     4.5957     0.3575
 2688.0000     8.2467   124.8496     0.0486     2.5274   -68.0290     7.0993     4.8567     0.3566
 2688.5000     8.2486   124.8837     0.0488     2.5402   -68.0202     7.2983     4.9927     0.3571
 2689.0000     8.2357   125.2124     0.0475     2.5383   -68.1633     7.5028     5.1325     0.3595
 2689.5000     8.2232   124.9501     0.0477     2.5277   -68.3019     7.7131     5.2762     0.3582
 2690.0000     8.2249   125.2866     0.0463     2.5218   -68.2931     7.9293     5.2762     0.3532
 2690.5000     8.2122   128.2697     0.0465     2.5196   -68.2843     8.3795     5.4239     0.3419
 2691.0000     8.2141   131.2527     0.0452     2.5190   -68.4252     8.8552     4.7901     0.3353
 2691.5000     8.2160   135.1207     0.0454     2.5191   -68.4164     8.2558     4.9927     0.3260
 2692.0000     8.2179   137.5137     0.0456     2.5229   -68.5572     7.3308     4.1150     0.3191
 2692.5000     8.2198   137.8419     0.0452     2.5378   -68.6959     6.5067     3.7618     0.3140
 2693.0000     8.2217   137.2769     0.0444     2.5453   -68.8390     6.1891     3.7878     0.3176
 2693.5000     8.2087   136.1384     0.0446     2.5424   -68.8280     6.1896     3.8405     0.3218
 2694.0000     8.1958   135.2866     0.0448     2.5333   -68.8192     6.4071     3.8939     0.3292
 2694.5000     8.1978   133.8286     0.0465     2.5255   -68.8103     6.8177     3.8939     0.3367
 2695.0000     8.2001   131.4167     0.0482     2.5233   -68.8015     7.0088     3.9209     0.3435
 2695.5000     8.2020   127.7249     0.0498     2.5316   -68.7927     6.9132     3.9754     0.3478
 2696.0000     8.2039   124.8082     0.0515     2.5228   -68.7839     7.0098     4.1755     0.3487
 2696.5000     8.2057   123.3665     0.0501     2.5273   -68.7751     7.3063     4.7164     0.3460
 2697.0000     8.2076   122.5064     0.0504     2.5303   -68.7662     7.6680     5.0971     0.3391
 2697.5000     8.2095   128.1526     0.0490     2.5245   -68.7574     7.7777     4.9242     0.3319
 2698.0000     8.2114   131.1357     0.0477     2.5201   -68.7485     7.7206     4.9583     0.3148
 2698.5000     8.2133   129.3990     0.0464     2.5142   -68.7395     7.6115     5.0272     0.3044
 2699.0000     8.2152   127.9572     0.0451     2.5012   -68.7287     7.5651     5.2762     0.3000
 2699.5000     8.2170   128.2854     0.0423     2.4750   -68.7021     7.6708     5.4993     0.2975
 2700.0000     8.2488   129.7998     0.0410     2.4699   -68.2618     8.0506     5.5374     0.2960
 2700.5000     8.2505   130.7223     0.0381     2.4759   -67.9521     8.7456     5.3495     0.2939
 2701.0000     8.2519   131.9399     0.0336     2.4582   -67.6425     8.0522     5.1325     0.2930
 2701.5000     8.2538   133.7474     0.0281     2.4129   -67.3329     7.4649     4.8567     0.2962
 2702.0000     8.2555   136.7348     0.0224     2.3922   -66.8735     7.1632     4.6596     0.2998
 2702.5000     8.2571   141.7872     0.0121     2.3722   -66.7136     6.7795     4.4092     0.3048
 2703.0000     8.2735   148.0195     0.0004     2.3180   -66.4040     6.3285     4.0586     0.3087
 2703.5000     8.2900   153.0718    -0.0129     2.2679   -66.3937     6.1570     3.8405     0.3151
 2704.0000     8.2917   158.1241    -0.0217     2.2151   -66.6985     6.1086     3.5255     0.3188
 2704.5000     8.2934   155.3487    -0.0274     2.1881   -67.4186     5.0796     2.9368     0.3221
 2705.0000     8.2951   143.3920    -0.0288     2.2091   -67.8575     3.8541     2.0631     0.3263
 2705.5000     8.2968   132.5826    -0.0241     2.2717   -68.1492     3.3580     1.6315     0.3304
 2706.0000     8.3136   122.8857    -0.0090     2.3670   -68.2887     2.9870     1.7724     0.3340
 2706.5000     8.3301   116.4336     0.0152     2.4937   -68.2759     3.7763     2.5379     0.3436
 2707.0000     8.3318   114.1113     0.0505     2.5456   -68.2665     7.1213     4.4705     0.3525
 2707.5000     8.3334   115.3289     0.0596     2.5754   -68.2554     7.2209     4.8903     0.3579
