~VERSION INFORMATION
 VERS.                2.0:   CWLS LOG ASCII STANDARD - VERSION 2.0
 WRAP.                 NO:   ONE LINE PER DEPTH STEP
~WELL INFORMATION
#MNEM.UNIT      DATA TYPE    INFORMATION
#----------   ------------   ------------------------------
 STRT.F           96.5000:   START DEPTH
 STOP.F         2720.0000:   STOP DEPTH
 STEP.F            0.5000:   STEP LENGTH
 NULL.          -999.2500:   NO VALUE
 COMP.          INTEX OIL:   COMPANY
 WELL. INTEX NPR 65 "AX" #3-20:   WELL
 FLD .             TEAPOT:   FIELD
 LOC .      S20 T39N R78W:   LOCATION
 CNTY.            NATRONA:   COUNTY
 STAT.            WYOMING:   STATE
 CTRY. UNITED STATES OF AMERICA:   COUNTRY
 SRVC.       SCHLUMBERGER:   SERVICE COMPANY
 DATE.        04-MAY-1966:   LOGDATE
 API .     49025094910000:   API NUMBER
~CURVE INFORMATION
#MNEM.UNIT       API CODE    CURVE DESCRIPTION
#----------   ------------   ------------------------------
 DEPT.F                  :   
 SPR .MV     05 010 01 00:   SPONTANEOUS POTENTIAL FROM RES.
 SN  .OHMM   05 040 16 00:   SHORT NORMAL 16"
 ILD .OHMM   05 120 46 00:   INDUCTION LOG DEEP
 CALD.IN     45 280 60 00:   CALIPER FROM DENSITY LOG
 CORR.G/C3   45 356 01 00:   DENSITY CORRECTION
 GRD .GAPI   45 310 01 00:   GAMMA RAY FROM DENSITY LOG
 RHOB.G/C3   45 350 01 00:   BULK DENSITY
~PARAMETER INFORMATION
#MNEM.UNIT          VALUE    DESCRIPTION
#----------   ------------   ------------------------------
 EKB .F         5053.3000:   Kelly bushing
 EGL .F         5043.0000:   Ground level
 EDF .F            0.0000:   Drilling floor
 TD  .F         2720.0000:   Total depth
 DATE.        04-MAY-1966:   Date logged
 CLNT.            A2DTECH:   Client Code
 PD  .                 GL:   Permanent Datum
 EPD .F              5043:   Elevation Permanent Datum
 LMF .                 KB:   Log Measured From
 DMF .                 KB:   Drilling Measured From
 DAPD.F              10.3:   Feet Above Permanent Datum
 DD  .F              2720:   Depth driller
 DL  .F              2720:   Depth logger
 BLI .F              2719:   Bottom log interval
 TLI .F                97:   Top log interval
 CS1 .IN            10.75:   Casing size
 CBD1.       10.75" @ 30':   Casing driller 1
 BS1 .IN            7.875:   Bit size
 BSD1.F              2720:   Depth drilled with bit1
 DFT . GEL/Q-BROX/OIL/DAKOLITE:   Type fluid in hole
 DFD .               10.3:   Density
 DFV .                 41:   Viscosity
 DFPH.                7.2:   pH
 DFL .                8.8:   Fluid loss
 MSS .           FLOWLINE:   Source of sample
 RMS .OHMM              2:   Rm
 MST .F                61:   Rm Meas. temp.
 RMF .OHMM           1.31:   Rmf
 MFST.F                65:   Rmf Meas. temp.
 MFSS.                 FP:   Source Rmf.
 RMB .OHMM           1.15:   Rm. at BHT
 BHT .F               110:   BHT.
 TCS .HRS               2:   Time Circ. stopped
 MRT .F               110:   Maximum recorded temp.
 LUN .               4507:   Logging unit number
 LUL .               CSPR:   Logging unit location
 ENGI.            MANGOLD:   Recorded By
 WITN.             TUTTLE:   Witnessed by
 ORIG.       2", 5" PRINT:   Origin of data
 UWI .     49025094910000:   Unique Well ID
 DICO. A2D TECHNOLOGIES, INC.:   Digitizing Company
~OTHER INFORMATION
~A   DEPT      SPR         SN         ILD      CALD       CORR        GRD       RHOB   
# ...
 2144.0000   -32.5910    10.3880     8.3330     9.0490     0.0360   133.6770     2.5380
 2144.5000   -32.5450    11.0260     8.6450     9.0350     0.0250   129.8250     2.5310
 2145.0000   -32.4970    11.7160     8.8690     9.0210     0.0150   126.0010     2.5260
 2145.5000   -32.4950    12.4070     8.9690     9.0060     0.0040   121.8890     2.5190
 2146.0000   -32.5150    12.8840     8.9560     8.9920    -0.0020   120.8110     2.5290
 2146.5000   -32.4720    12.8480     8.8150     8.9770     0.0050   127.3260     2.5440
 2147.0000   -32.3570    12.2440     8.5110     8.9640     0.0050   134.1890     2.5370
 2147.5000   -32.2920    11.3650     8.0630     8.9520     0.0030   139.0910     2.5250
 2148.0000   -32.3560    10.5760     7.5920     8.9740     0.0040   140.0440     2.5190
 2148.5000   -32.4730    10.0190     7.2490     8.9980     0.0100   140.7380     2.5210
 2149.0000   -32.5170     9.6500     7.0890     9.0230     0.0080   141.4360     2.5130
 2149.5000   -32.4900     9.4460     7.0460     9.0470     0.0030   139.0620     2.5120
 2150.0000   -32.4780     9.4610     7.0100     9.0660     0.0100   137.1240     2.5270
 2150.5000   -32.5110     9.6920     6.9420     9.0690     0.0180   135.6520     2.5400
 2151.0000   -32.5450     9.9660     6.8700     9.0710     0.0140   136.6370     2.5430
 2151.5000   -32.5570    10.0660     6.8150     9.0730     0.0100   139.1360     2.5370
 2152.0000   -32.5660     9.9420     6.7560     9.0750     0.0150   142.7560     2.5370
 2152.5000   -32.5870     9.7040     6.6850     9.0770     0.0180   147.6340     2.5400
 2153.0000   -32.6100     9.4260     6.6270     9.0790     0.0180   152.2550     2.5430
 2153.5000   -32.6270     9.1040     6.6010     9.0810     0.0120   157.1840     2.5310
 2154.0000   -32.6430     8.8390     6.6070     9.0830     0.0090   155.0590     2.5150
 2154.5000   -32.6620     8.8800     6.6750     9.0850     0.0090   144.7790     2.5010
 2155.0000   -32.6810     9.3480     6.8550     9.0870     0.0050   135.5830     2.5060
 2155.5000   -32.7000    10.0390     7.1650     9.0890     0.0090   125.1940     2.5140
 2156.0000   -32.7180    10.6000     7.5660     9.0910     0.0140   121.0420     2.5240
 2156.5000   -32.7340    10.8510     8.0010     9.0930     0.0100   122.5000     2.5300
 2157.0000   -32.7530    10.8670     8.3950     9.0950     0.0070   123.6510     2.5260
 2157.5000   -32.7740    10.8120     8.6430     9.0970     0.0080   125.7300     2.5260
 2158.0000   -32.7920    10.7830     8.6710     9.0990     0.0110   126.7820     2.5290
 2158.5000   -32.8050    10.7760     8.5280     9.1010     0.0140   126.9240     2.5310
 2159.0000   -32.8230    10.7370     8.3440     9.1030     0.0160   127.3350     2.5320
 2159.5000   -32.8510    10.6420     8.2040     9.1050     0.0190   129.2160     2.5310
 2160.0000   -32.8720    10.5360     8.0940     9.1070     0.0220   130.9840     2.5320
 2160.5000   -32.8520    10.4790     7.9580     9.1090     0.0250   133.1750     2.5310
 2161.0000   -32.7870    10.4760     7.7870     9.1110     0.0240   133.0610     2.5360
 2161.5000   -32.7090    10.4930     7.6380     9.1130     0.0170   129.8640     2.5290
 2162.0000   -32.6360    10.5010     7.5930     9.1150     0.0110   127.9020     2.5230
 2162.5000   -32.5590    10.4940     7.6780     9.1170     0.0100   127.2850     2.5240
 2163.0000   -32.4830    10.4770     7.8320     9.1190     0.0100   127.5450     2.5200
 2163.5000   -32.4320    10.4760     7.9730     9.1210     0.0100   127.8820     2.5120
 2164.0000   -32.3790    10.5290     8.0840     9.1230     0.0050   128.1780     2.5030
 2164.5000   -32.2710    10.6600     8.2140     9.1250     0.0010   128.3380     2.5050
 2165.0000   -32.1610    10.8680     8.3730     9.1270    -0.0020   127.2530     2.5180
 2165.5000   -32.1860    11.1330     8.5010     9.1290     0.0000   127.6210     2.5200
 2166.0000   -32.3420    11.4040     8.5370     9.1310     0.0040   127.7090     2.5200
 2166.5000   -32.4080    11.5920     8.4960     9.1330     0.0070   127.3850     2.5310
 2167.0000   -32.2360    11.6220     8.4400     9.1350     0.0100   126.9370     2.5350
 2167.5000   -31.9610    11.5070     8.4030     9.1370     0.0130   126.1460     2.5340
 2168.0000   -31.8100    11.3440     8.3740     9.1390     0.0170   125.3930     2.5330
 2168.5000   -31.8150    11.2240     8.3360     9.1410     0.0190   124.8310     2.5310
 2169.0000   -31.8660    11.1490     8.2950     9.1430     0.0170   126.5000     2.5300
 2169.5000   -31.9190    11.0420     8.2560     9.1440     0.0140   127.2300     2.5290
 2170.0000   -32.0040    10.8690     8.2200     9.1430     0.0120   127.1850     2.5170
 2170.5000   -32.0910    10.7300     8.1810     9.1410     0.0090   127.1790     2.5120
 2171.0000   -32.1190    10.7840     8.1430     9.1400     0.0090   127.2040     2.5120
 2171.5000   -32.0920    11.0310     8.1040     9.1380     0.0110   127.1430     2.5030
 2172.0000   -32.0660    11.2610     8.0660     9.1370     0.0130   127.5380     2.5080
 2172.5000   -32.0740    11.2730     8.0320     9.1350     0.0150   128.2400     2.5140
 2173.0000   -32.1040    11.0910     7.9990     9.1330     0.0190   128.7660     2.5220
 2173.5000   -32.1120    10.8800     7.9430     9.1320     0.0240   129.5850     2.5290
 2174.0000   -32.0430    10.7270     7.8400     9.1300     0.0300   128.5730     2.5320
 2174.5000   -31.8900    10.5920     7.6990     9.1290     0.0310   126.4570     2.5340
 2175.0000   -31.7340    10.4340     7.5470     9.1270     0.0260   124.2940     2.5430
 2175.5000   -31.6670    10.2710     7.3940     9.1260     0.0220   124.1290     2.5400
 2176.0000   -31.6820    10.1130     7.2280     9.1240     0.0180   125.0160     2.5320
 2176.5000   -31.7060     9.9480     7.0730     9.1230     0.0150   125.9940     2.5250
 2177.0000   -31.6990     9.7980     6.9900     9.1210     0.0170   126.9670     2.5210
 2177.5000   -31.6850     9.7270     7.0210     9.1190     0.0200   127.1680     2.5160
 2178.0000   -31.6890     9.7740     7.1310     9.1180     0.0230   127.7740     2.5130
 2178.5000   -31.6990     9.9070     7.2480     9.1160     0.0230   129.2050     2.5120
 2179.0000   -31.6960    10.0640     7.3350     9.1150     0.0200   129.3030     2.5150
 2179.5000   -31.6860    10.1980     7.4190     9.1130     0.0210   128.1090     2.5240
 2180.0000   -31.6960    10.2790     7.5300     9.1120     0.0240   128.4330     2.5310
 2180.5000   -31.7440    10.2920     7.6490     9.1100     0.0200   129.8190     2.5380
 2181.0000   -31.8160    10.2530     7.7180     9.1080     0.0150   131.2020     2.5220
 2181.5000   -31.8780    10.2010     7.7050     9.1070     0.0090   130.7160     2.5050
 2182.0000   -31.9300    10.1610     7.6360     9.1050     0.0110   128.1550     2.5140
 2182.5000   -32.0070    10.1300     7.5610     9.1010     0.0140   125.0640     2.5290
 2183.0000   -32.0990    10.0930     7.5000     9.0970     0.0180   122.4290     2.5420
 2183.5000   -32.1160    10.0520     7.4410     9.0930     0.0130   123.5500     2.5350
 2184.0000   -31.9900    10.0130     7.3740     9.0890     0.0030   123.8780     2.5100
 2184.5000   -31.7910     9.9770     7.3090     9.0850     0.0040   123.0490     2.5040
 2185.0000   -31.6580     9.9420     7.2470     9.0810     0.0090   123.7120     2.5100
 2185.5000   -31.6380     9.8990     7.1630     9.0770     0.0050   125.9870     2.5160
 2186.0000   -31.6560     9.8380     7.0380     9.0730     0.0010   128.9560     2.5140
 2186.5000   -31.6420     9.7590     6.8900     9.0690    -0.0020   133.6210     2.5030
 2187.0000   -31.6060     9.6840     6.7470     9.0650    -0.0060   136.4600     2.4900
 2187.5000   -31.5850     9.6290     6.6250     9.0610    -0.0010   136.9260     2.4940
 2188.0000   -31.5760     9.5710     6.5160     9.0570     0.0070   137.6990     2.5060
 2188.5000   -31.5610     9.4690     6.4100     9.0530     0.0140   136.2170     2.5130
 2189.0000   -31.5390     9.3020     6.2890     9.0480     0.0140   134.7740     2.5030
