~VERSION INFORMATION
 VERS.                2.0:   CWLS LOG ASCII STANDARD - VERSION 2.0
 WRAP.                 NO:   ONE LINE PER DEPTH STEP
~WELL INFORMATION
#MNEM.UNIT      DATA TYPE    INFORMATION
#----------   ------------   ------------------------------
 STRT.F          150.0000:   START DEPTH
 STOP.F         2929.0000:   STOP DEPTH
 STEP.F            0.5000:   STEP LENGTH
 NULL.          -999.2500:   NO VALUE
 COMP.    FENIX & SCISSON:   COMPANY
 WELL.    FENIX AX #12-28:   WELL
 FLD .        TEAPOT DOME:   FIELD
 LOC .      S28 T39N R78W:   LOCATION
 CNTY.            NATRONA:   COUNTY
 STAT.            WYOMING:   STATE
 CTRY. UNITED STATES OF AMERICA:   COUNTRY
 SRVC.           BIRDWELL:   SERVICE COMPANY
 DATE.        06-JUN-1978:   LOGDATE
 API .     49025106420000:   API NUMBER
~CURVE INFORMATION
#MNEM.UNIT       API CODE    CURVE DESCRIPTION
#----------   ------------   ------------------------------
 DEPT.F                  :   
 SPR .MV     05 010 01 00:   SPONTANEOUS POTENTIAL
 SN  .OHMM   05 040 16 00:   SHORT NORMAL 16"
 ILD .OHMM   05 120 46 00:   INDUCTION LOG DEEP RESISTIVITY
 RHOB.G/C3   45 350 01 00:   BULK DENSITY
 CORR.G/C3   45 356 01 00:   DENSITY CORRECTION
 GRD .GAPI   45 310 01 00:   GAMMA RAY FROM DENSITY LOG
 CALD.IN     45 280 60 00:   CALIPER FROM DENSITY LOG
~PARAMETER INFORMATION
#MNEM.UNIT          VALUE    DESCRIPTION
#----------   ------------   ------------------------------
 EKB .F         5000.0000:   Kelly bushing
 EGL .F         4990.0000:   Ground level
 EDF .F            0.0000:   Drilling floor
 EPD .F         5005.0000:   Permanent datum
 TD  .F         2911.0000:   Total depth
 DATE.        06-JUN-1978:   Date logged
 CLNT.            A2DTECH:   Client Code
 SL  . 1250' FNL & 225' FWL:   Surface Location
 PD  .                 GL:   Permanent Datum
 LMF .                 KB:   Log Measured From
 DMF .                 KB:   Drilling Measured From
 DAPD.F                10:   Feet Above Permanent Datum
 DD  .F              2911:   Depth driller
 DL  .F              2912:   Depth logger
 BLI .F              2906:   Bottom log interval
 TLI .F               200:   Top log interval
 CS1 .IN            8.625:   Casing size
 CBD1.      8.625" @ 225':   Casing driller 1
 CBL1.F               225:   Casing logger 1
 BS1 .IN            7.875:   Bit size
 BSD1.F              2911:   Depth drilled with bit1
 DFT .       OIL BASE MUD:   Type fluid in hole
 DFD .                9.2:   Density
 DFV .                 35:   Viscosity
 DFPH.               10.5:   pH
 DFL .                  2:   Fluid loss
 TCS .HRS             3.5:   Time Circ. stopped
 LUN .               2958:   Logging unit number
 LUL .               CASP:   Logging unit location
 ENGI.            POINTER:   Recorded By
 WITN.           MCGINLEY:   Witnessed by
 ORIG.           5" PRINT:   Origin of data
 UWI .     49025106420000:   Unique Well ID
 DICO. A2D TECHNOLOGIES, INC.:   Digitizing Company
~OTHER INFORMATION
~A   DEPT      SPR         SN        ILD       RHOB       CORR         GRD      CALD   
# ...
 2698.0000   -25.0820     5.9220     4.1720     2.5040     0.0130   105.2210     9.2000
 2698.5000   -24.8840     5.9180     4.2400     2.5090     0.0140   107.0790     9.2070
 2699.0000   -24.6660     5.9130     4.2650     2.5110     0.0140   107.5350     9.2140
 2699.5000   -24.4580     5.9090     4.3070     2.5110     0.0140   109.0730     9.2210
 2700.0000   -24.4180     5.9040     4.3070     2.5150     0.0150   110.8670     9.2270
 2700.5000   -24.8670     5.9000     4.3070     2.5230     0.0150   108.0850     9.2340
 2701.0000   -25.3010     5.8950     4.3070     2.5300     0.0160   108.3000     9.2410
 2701.5000   -25.2430     5.8910     4.2280     2.5340     0.0160   109.0690     9.2480
 2702.0000   -24.8060     5.7540     4.1200     2.5330     0.0170   110.0420     9.2540
 2702.5000   -24.3700     5.5760     4.0760     2.5310     0.0160   111.2130     9.2610
 2703.0000   -24.0310     5.3970     4.0210     2.5190     0.0100   110.3740     9.2680
 2703.5000   -24.2370     5.2260     3.9780     2.5120     0.0120   115.6280     9.2750
 2704.0000   -24.8810     5.2470     3.9350     2.5090     0.0150   114.1530     9.2810
 2704.5000   -24.5440     5.2680     3.9290     2.5060     0.0180   111.9780     9.2880
 2705.0000   -24.1990     5.2740     3.9380     2.5060     0.0210   109.7920     9.2950
 2705.5000   -23.8560     5.2540     3.9460     2.5070     0.0230   107.7670     9.3020
 2706.0000   -23.5310     5.2390     3.9550     2.5070     0.0220   106.2400     9.3130
 2706.5000   -23.9270     5.2260     3.9630     2.5110     0.0220   106.6940     9.3330
 2707.0000   -24.3630     5.2630     4.0110     2.5170     0.0210   107.0120     9.3520
 2707.5000   -24.7140     5.3630     4.0700     2.5230     0.0220   107.3090     9.3720
 2708.0000   -24.7070     5.4720     4.1300     2.5290     0.0230   107.3710     9.3920
 2708.5000   -24.6780     5.5480     4.1900     2.5350     0.0250   106.5260     9.4110
 2709.0000   -24.1080     5.6540     4.1900     2.5360     0.0260   105.3590     9.4310
 2709.5000   -23.8090     5.7610     4.2290     2.5370     0.0280   102.8920     9.4510
 2710.0000   -24.2180     5.8630     4.2050     2.5390     0.0270   100.5130     9.4700
 2710.5000   -24.6060     5.9330     4.1690     2.5400     0.0250   101.0120     9.4900
 2711.0000   -24.9860     5.6180     4.1340     2.5390     0.0220   103.7590     9.5100
 2711.5000   -25.2100     5.3250     4.0980     2.5380     0.0200   105.9750     9.5290
 2712.0000   -24.6920     5.0250     3.8990     2.5320     0.0170   106.1640     9.5490
 2712.5000   -24.3300     4.6950     3.4220     2.5190     0.0150   111.2750     9.5690
 2713.0000   -24.5050     4.3640     3.1410     2.5070     0.0170   112.9980     9.5880
 2713.5000   -24.6640     4.0330     2.9750     2.5000     0.0190   114.2830     9.6080
 2714.0000   -24.8230     3.7030     2.9260     2.4930     0.0200   118.9740     9.6180
 2714.5000   -24.7410     3.2680     2.9440     2.4870     0.0220   123.5890     9.6050
 2715.0000   -24.4430     3.3900     2.9810     2.4810     0.0250   127.9620     9.5920
 2715.5000   -24.1490     3.5660     3.0190     2.4800     0.0290   125.7210     9.5820
 2716.0000   -23.9480     3.8780     3.1140     2.4820     0.0320   121.9740     9.5660
 2716.5000   -24.2130     4.3080     3.2730     2.4770     0.0360   113.5080     9.9790
 2717.0000   -24.4690     4.7380     3.4930     2.5050     0.0380   105.1710     9.8270
 2717.5000   -24.6940     5.1390     4.0790     2.5310     0.0300    99.8420    10.2750
 2718.0000   -24.5690     5.4180     4.3870     2.5340     0.0230    98.0330     9.8460
 2718.5000   -24.4370     5.5320     4.4400     2.5430     0.0220    96.9910     9.8750
 2719.0000   -24.3170     5.5480     4.4770     2.5460     0.0240    97.5080     9.8890
 2719.5000   -24.7770     5.5630     4.5070     2.5490     0.0270    93.9880     9.8930
 2720.0000   -25.2890     5.5740     4.3890     2.5510     0.0250    91.8250     9.8980
 2720.5000   -25.4750     5.4490     4.2580     2.5530     0.0220    94.1360     9.9030
 2721.0000   -25.4470     5.3530     4.1700     2.5550     0.0190    97.3970     9.9070
 2721.5000   -25.4170     5.2570     4.1140     2.5530     0.0170    97.5890     9.9120
 2722.0000   -25.3860     5.1780     4.1210     2.5460     0.0150   100.3630     9.9170
 2722.5000   -25.3560     5.2640     4.1260     2.5400     0.0160   103.5280     9.9220
 2723.0000   -25.3250     5.3380     4.1310     2.5360     0.0160   106.4860     9.9260
 2723.5000   -25.2230     5.4110     4.1370     2.5330     0.0160   106.8430     9.9310
 2724.0000   -24.6650     5.5230     4.1420     2.5300     0.0170   106.3390     9.9360
 2724.5000   -24.3140     5.4700     4.1500     2.5320     0.0170   103.9280     9.9410
 2725.0000   -24.3590     5.3590     4.1520     2.5330     0.0180   101.5080     9.9450
 2725.5000   -24.3980     5.2480     3.9940     2.5350     0.0180   100.7940     9.9500
 2726.0000   -24.4380     5.1310     3.8510     2.5340     0.0190   105.1760     9.9550
 2726.5000   -24.4740     4.8210     3.6790     2.5320     0.0190   109.6940     9.9600
 2727.0000   -24.4120     4.4870     3.4540     2.5300     0.0200   114.1820     9.9640
 2727.5000   -24.0410     4.1490     3.3600     2.5280     0.0210   118.9780     9.9690
 2728.0000   -23.6790     3.7520     3.3760     2.5250     0.0220   124.9040     9.9740
 2728.5000   -23.7530     3.8640     3.3930     2.5220     0.0270   130.9510     9.9790
 2729.0000   -24.1840     4.0140     3.4100     2.5180     0.0310   136.6200     9.9840
 2729.5000   -24.6140     4.2060     3.4600     2.5130     0.0270   130.3450     9.9880
 2730.0000   -25.0440     4.7100     3.5830     2.5110     0.0250   120.2620     9.9930
 2730.5000   -25.0060     5.1620     3.7760     2.5170     0.0270   110.1460     9.9920
 2731.0000   -24.3030     5.4140     4.0290     2.5250     0.0300   103.3210     9.9680
 2731.5000   -24.1120     5.6490     4.4380     2.5320     0.0310   100.6390     9.9440
 2732.0000   -24.0920     5.8010     4.8550     2.5400     0.0280    99.0370     9.9200
 2732.5000   -24.6710     5.9530     4.9040     2.5480     0.0260    97.9220     9.8970
 2733.0000   -25.4400     6.1050     4.9670     2.5550     0.0240    98.4310     9.8730
 2733.5000   -26.0170     6.2570     4.9910     2.5520     0.0220    98.9710     9.8490
 2734.0000   -25.4000     6.4080     4.9910     2.5470     0.0190    97.0040     9.8260
 2734.5000   -24.8070     6.4410     5.0330     2.5430     0.0190    94.5730     9.8020
 2735.0000   -24.5870     6.4750     5.0720     2.5390     0.0190    96.3620     9.7810
 2735.5000   -24.7580     6.5090     5.1120     2.5340     0.0180    98.9610     9.7540
 2736.0000   -25.3440     6.7140     5.1430     2.5340     0.0180    98.1950     9.7240
 2736.5000   -25.4050     6.8900     5.1660     2.5350     0.0180    97.3540     9.6940
 2737.0000   -25.2200     6.8970     5.1890     2.5360     0.0180    96.5170     9.6630
 2737.5000   -24.6000     6.9030     5.2260     2.5380     0.0170    96.4730     9.6330
 2738.0000   -23.9720     6.9090     5.2200     2.5390     0.0170    96.5760     9.6030
 2738.5000   -24.0380     6.9160     5.2040     2.5410     0.0160    97.2080     9.5960
 2739.0000   -24.5800     6.9220     5.1880     2.5400     0.0150    97.8370     9.5900
 2739.5000   -25.0790     6.9290     5.1730     2.5390     0.0130    98.4700     9.5840
 2740.0000   -24.8160     6.9350     5.1570     2.5370     0.0110    98.9870     9.5780
 2740.5000   -24.5390     6.9410     5.1410     2.5320     0.0100    97.8560     9.5720
 2741.0000   -24.7170     6.9510     5.1250     2.5280     0.0080    96.6970     9.5670
 2741.5000   -24.9590     6.8760     5.1080     2.5240     0.0080    95.5520     9.5610
 2742.0000   -25.1970     6.6620     5.0910     2.5270     0.0110    96.1930     9.5550
 2742.5000   -25.4220     6.4480     5.0740     2.5300     0.0130    97.8980     9.5490
 2743.0000   -25.4220     6.2340     5.0570     2.5280     0.0160   101.3760     9.5430
