~VERSION INFORMATION
 VERS.                2.0:   CWLS LOG ASCII STANDARD - VERSION 2.0
 WRAP.                 NO:   ONE LINE PER DEPTH STEP
~WELL INFORMATION
#MNEM.UNIT      DATA TYPE    INFORMATION
#----------   ------------   ------------------------------
 STRT.F           36.0000:   START DEPTH
 STOP.F         3014.5000:   STOP DEPTH
 STEP.F            0.5000:   STEP LENGTH
 NULL.          -999.2500:   NO VALUE
 COMP.    TESRO PETROLEUM:   COMPANY
 WELL. TESORO N.P.R. "A" #6-21:   WELL
 FLD .             TEAPOT:   FIELD
 LOC .      S21 T39N R78W:   LOCATION
 CNTY.            NATRONA:   COUNTY
 STAT.            WYOMING:   STATE
 CTRY. UNITED STATES OF AMERICA:   COUNTRY
 SRVC.              WELEX:   SERVICE COMPANY
 DATE.        16-JUL-1968:   LOGDATE
 API .     49025100180000:   API NUMBER
~CURVE INFORMATION
#MNEM.UNIT       API CODE    CURVE DESCRIPTION
#----------   ------------   ------------------------------
 DEPT.F                  :   
 SPR .MV     05 010 01 00:   SPONTANEOUS POTENTIAL FROM RES.
 ASN .OHMM   05 041 18 00:   AMPLIFIED SHORT NORMAL 18"
 IL  .OHMM   05 120 00 00:   INDUCTION LOG
 GRD .GAPI   45 310 01 00:   GAMMA RAY FROM DENSITY LOG
 CALD.IN     45 280 60 00:   CALIPER FROM DENSITY LOG
 GDEN.CPS    45 350 30 00:   GAMMA DENS
~PARAMETER INFORMATION
#MNEM.UNIT          VALUE    DESCRIPTION
#----------   ------------   ------------------------------
 EKB .F         5002.0000:   Kelly bushing
 EGL .F         4991.0000:   Ground level
 EDF .F         5001.0000:   Drilling floor
 TD  .F         3025.0000:   Total depth
 DATE.        16-JUL-1968:   Date logged
 CLNT.            A2DTECH:   Client Code
 PD  .                 GL:   Permanent Datum
 EPD .F              4991:   Elevation Permanent Datum
 LMF .                 KB:   Log Measured From
 DMF .                 KB:   Drilling Measured From
 DD  .F              3025:   Depth driller
 DL  .F              3019:   Depth logger
 BLI .F              3014:   Bottom log interval
 TLI .F              2670:   Top log interval
 CS1 .IN            10.75:   Casing size
 CBD1.      10.75" @ 325':   Casing driller 1
 CBL1.F               325:   Casing logger 1
 BS1 .IN                9:   Bit size
 BSD1.F              3025:   Depth drilled with bit1
 DFT .     WATER BASE MUD:   Type fluid in hole
 DFD .                9.7:   Density
 DFV .                 60:   Viscosity
 DFL .                6.4:   Fluid loss
 MSS .              CIRC.:   Source of sample
 RMS .OHMM            2.2:   Rm
 MST .F                84:   Rm Meas. temp.
 RMF .OHMM            1.6:   Rmf
 MFST.F                70:   Rmf Meas. temp.
 RMC .OHMM            3.3:   Rmc
 MCST.F                68:   Rmc Meas. temp.
 MFSS.               MEAS:   Source Rmf.
 RMB .OHMM           1.55:   Rm. at BHT
 BHT .F               120:   BHT.
 MRT .F               120:   Maximum recorded temp.
 LUN .               6869:   Logging unit number
 LUL .                 NC:   Logging unit location
 ENGI.          H. STEITZ:   Recorded By
 WITN.                MAY:   Witnessed by
 ORIG.           5" PRINT:   Origin of data
 UWI .     49025100180000:   Unique Well ID
 DICO. A2D TECHNOLOGIES, INC.:   Digitizing Company
~OTHER INFORMATION
~A   DEPT      SPR        ASN           IL      GRD       CALD       GDEN   
# ...
   88.0000   -25.4440     4.6960     3.6000  -999.2500  -999.2500  -999.2500
   88.5000   -25.0740     4.4080     3.4680  -999.2500  -999.2500  -999.2500
   89.0000   -24.7050     4.3800     3.3520  -999.2500  -999.2500  -999.2500
   89.5000   -24.3700     4.6480     3.2350  -999.2500  -999.2500  -999.2500
   90.0000   -24.3620     4.9780     3.1190  -999.2500  -999.2500  -999.2500
   90.5000   -24.3610     5.2600     3.0240  -999.2500  -999.2500  -999.2500
   91.0000   -24.3550     5.5220     3.3150  -999.2500  -999.2500  -999.2500
   91.5000   -24.6130     5.5950     3.6110  -999.2500  -999.2500  -999.2500
   92.0000   -25.0100     5.4210     3.9080  -999.2500  -999.2500  -999.2500
   92.5000   -25.3440     5.2790     4.2040  -999.2500  -999.2500  -999.2500
   93.0000   -25.5510     5.4580     4.5000  -999.2500  -999.2500  -999.2500
   93.5000   -25.0870     5.2900     4.6870  -999.2500  -999.2500  -999.2500
   94.0000   -24.3720     5.2170     4.7930  -999.2500  -999.2500  -999.2500
   94.5000   -23.6250     5.2290     4.9730  -999.2500  -999.2500  -999.2500
   95.0000   -23.5800     5.3290     5.1710  -999.2500  -999.2500  -999.2500
   95.5000   -23.5770     5.6490     5.4210  -999.2500  -999.2500  -999.2500
   96.0000   -23.7270     5.8960     5.5630  -999.2500  -999.2500  -999.2500
   96.5000   -23.9810     6.0720     5.5690  -999.2500  -999.2500  -999.2500
   97.0000   -23.9810     6.2530     5.5710  -999.2500  -999.2500  -999.2500
   97.5000   -24.1790     6.4780     5.5720  -999.2500  -999.2500  -999.2500
   98.0000   -24.3890     6.5300     5.5710  -999.2500  -999.2500  -999.2500
   98.5000   -24.5970     6.1690     5.5700  -999.2500  -999.2500  -999.2500
   99.0000   -24.7630     6.0980     5.6440  -999.2500  -999.2500  -999.2500
   99.5000   -24.2930     6.0550     5.7290  -999.2500  -999.2500  -999.2500
  100.0000   -23.2920     6.0050     5.7790  -999.2500  -999.2500  -999.2500
  100.5000   -22.4300     5.9310     5.5730  -999.2500  -999.2500  -999.2500
  101.0000   -22.7440     5.9490     5.5190  -999.2500  -999.2500  -999.2500
  101.5000   -23.9010     6.1030     5.6840  -999.2500  -999.2500  -999.2500
  102.0000   -23.5960     6.5240     5.8960  -999.2500  -999.2500  -999.2500
  102.5000   -21.6910     6.5200     6.1020  -999.2500  -999.2500  -999.2500
  103.0000   -21.6210     6.7780     6.2680  -999.2500  -999.2500  -999.2500
  103.5000   -20.9610     6.8030     6.1560  -999.2500  -999.2500  -999.2500
  104.0000   -17.9280     6.5850     5.9110  -999.2500  -999.2500  -999.2500
  104.5000   -20.5490     6.1480     5.6690  -999.2500  -999.2500  -999.2500
  105.0000   -24.2510     6.0840     5.4270  -999.2500  -999.2500  -999.2500
  105.5000   -23.9070     5.8010     5.1830  -999.2500  -999.2500  -999.2500
  106.0000   -23.1130     5.5240     5.0140  -999.2500  -999.2500  -999.2500
  106.5000   -22.3380     5.5130     4.8460  -999.2500  -999.2500  -999.2500
  107.0000   -22.3100     5.5080     4.6950  -999.2500  -999.2500  -999.2500
  107.5000   -22.7220     5.4110     4.8440  -999.2500  -999.2500  -999.2500
  108.0000   -23.1590     5.5140     5.0000  -999.2500  -999.2500  -999.2500
  108.5000   -23.3360     5.7110     5.1560  -999.2500  -999.2500  -999.2500
  109.0000   -23.3310     5.8620     5.3120  -999.2500  -999.2500  -999.2500
  109.5000   -23.1600     5.8640     5.4650  -999.2500  -999.2500  -999.2500
  110.0000   -22.9910     5.6820     5.4140  -999.2500  -999.2500  -999.2500
  110.5000   -22.8220     5.4880     5.0600  -999.2500  -999.2500  -999.2500
  111.0000   -22.6490     5.3130     4.7050  -999.2500  -999.2500  -999.2500
  111.5000   -22.6050     5.3920     4.3530  -999.2500  -999.2500  -999.2500
  112.0000   -22.6230     5.4920     4.0820  -999.2500  -999.2500  -999.2500
  112.5000   -22.6970     5.4580     4.2360  -999.2500  -999.2500  -999.2500
  113.0000   -22.7690     5.5260     4.2890  -999.2500  -999.2500  -999.2500
  113.5000   -22.8400     5.6660     4.3440  -999.2500  -999.2500  -999.2500
  114.0000   -22.9120     5.8110     4.7210  -999.2500  -999.2500  -999.2500
  114.5000   -22.9840     5.9560     5.1010  -999.2500  -999.2500  -999.2500
  115.0000   -23.0560     6.1010     5.4800  -999.2500  -999.2500  -999.2500
  115.5000   -23.1270     6.2450     5.8600  -999.2500  -999.2500  -999.2500
  116.0000   -23.1990     6.3810     6.2450  -999.2500  -999.2500  -999.2500
  116.5000   -23.2710     6.4440     6.6140  -999.2500  -999.2500  -999.2500
  117.0000   -23.3420     6.5040     6.7510  -999.2500  -999.2500  -999.2500
  117.5000   -23.3710     6.5640     6.7550  -999.2500  -999.2500  -999.2500
  118.0000   -23.3310     6.5620     6.7450  -999.2500  -999.2500  -999.2500
  118.5000   -23.2920     6.4430     6.3730  -999.2500  -999.2500  -999.2500
  119.0000   -23.2530     6.2620     5.9760  -999.2500  -999.2500  -999.2500
  119.5000   -23.2130     5.9730     5.5610  -999.2500  -999.2500  -999.2500
  120.0000   -23.1740     5.6770     5.2450  -999.2500  -999.2500  -999.2500
  120.5000   -23.1350     5.5350     4.9740  -999.2500  -999.2500  -999.2500
  121.0000   -23.0960     5.4930     4.6760  -999.2500  -999.2500  -999.2500
  121.5000   -23.0570     5.4930     4.5530  -999.2500  -999.2500  -999.2500
  122.0000   -23.0180     5.5150     4.4880  -999.2500  -999.2500  -999.2500
  122.5000   -22.9790     5.6650     4.5960  -999.2500  -999.2500  -999.2500
  123.0000   -22.9400     5.9430     4.7890  -999.2500  -999.2500  -999.2500
  123.5000   -22.9000     6.2380     5.3350  -999.2500  -999.2500  -999.2500
  124.0000   -22.8600     6.5180     5.8690  -999.2500  -999.2500  -999.2500
  124.5000   -22.8130     6.7300     6.4350  -999.2500  -999.2500  -999.2500
  125.0000   -23.0220     6.9990     6.9700  -999.2500  -999.2500  -999.2500
  125.5000   -23.0790     7.1180     7.4430  -999.2500  -999.2500  -999.2500
  126.0000   -23.1430     7.2340     7.4490  -999.2500  -999.2500  -999.2500
  126.5000   -23.2080     7.3220     7.4650  -999.2500  -999.2500  -999.2500
  127.0000   -23.2750     7.3600     7.4830  -999.2500  -999.2500  -999.2500
  127.5000   -23.3410     7.3980     7.5010  -999.2500  -999.2500  -999.2500
  128.0000   -23.3700     7.4360     7.5200  -999.2500  -999.2500  -999.2500
  128.5000   -23.3130     7.4740     7.5380  -999.2500  -999.2500  -999.2500
  129.0000   -23.2580     7.5120     7.5570  -999.2500  -999.2500  -999.2500
  129.5000   -23.2040     7.5500     7.5760  -999.2500  -999.2500  -999.2500
  130.0000   -23.1500     7.5860     7.5940  -999.2500  -999.2500  -999.2500
  130.5000   -23.0950     7.6090     7.6130  -999.2500  -999.2500  -999.2500
  131.0000   -23.0420     7.6350     7.6320  -999.2500  -999.2500  -999.2500
  131.5000   -22.9950     7.6610     7.6510  -999.2500  -999.2500  -999.2500
  132.0000   -23.0200     7.6880     7.6690  -999.2500  -999.2500  -999.2500
  132.5000   -23.0440     7.7000     7.6880  -999.2500  -999.2500  -999.2500
  133.0000   -23.0670     7.6910     7.7070  -999.2500  -999.2500  -999.2500
  133.5000   -23.0910     7.6810     7.7250  -999.2500  -999.2500  -999.2500
  134.0000   -23.1140     7.6480     7.7440  -999.2500  -999.2500  -999.2500
  134.5000   -23.1370     7.6170     7.7630  -999.2500  -999.2500  -999.2500
  135.0000   -23.1610     7.5790     7.7820  -999.2500  -999.2500  -999.2500
  135.5000   -23.1850     7.5110     7.8010  -999.2500  -999.2500  -999.2500
  136.0000   -23.1940     7.4470     7.8200  -999.2500  -999.2500  -999.2500
  136.5000   -23.2070     7.4580     7.8410  -999.2500  -999.2500  -999.2500
  137.0000   -23.2190     7.4050     7.6120  -999.2500  -999.2500  -999.2500
  137.5000   -23.2320     7.3100     6.9100  -999.2500  -999.2500  -999.2500
  138.0000   -23.2450     7.0930     6.4860  -999.2500  -999.2500  -999.2500
  138.5000   -23.2570     6.8580     5.5200  -999.2500  -999.2500  -999.2500
  139.0000   -23.2700     6.6470     5.5290  -999.2500  -999.2500  -999.2500
  139.5000   -23.2820     6.7720     5.6290  -999.2500  -999.2500  -999.2500
