~VERSION INFORMATION
 VERS.                2.0:   CWLS LOG ASCII STANDARD - VERSION 2.0
 WRAP.                 NO:   ONE LINE PER DEPTH STEP
~WELL INFORMATION
#MNEM.UNIT      DATA TYPE    INFORMATION
#----------   ------------   ------------------------------
 STRT.F            0.0000:   START DEPTH
 STOP.F         3964.0000:   STOP DEPTH
 STEP.F            0.5000:   STEP LENGTH
 NULL.          -999.2500:   NO VALUE
 COMP. LAWRENCE ALLISON & ASSOCIATES:   COMPANY
 WELL. LAWRENCE NPR 3 "X" #43-10:   WELL
 FLD .              N P R:   FIELD
 LOC .      S10 T38N R78W:   LOCATION
 CNTY.            NATRONA:   COUNTY
 STAT.            WYOMING:   STATE
 CTRY. UNITED STATES OF AMERICA:   COUNTRY
 SRVC.      DRESSER ATLAS:   SERVICE COMPANY
 DATE.        07-AUG-1985:   LOGDATE
 API .     49025111390000:   API NUMBER
~CURVE INFORMATION
#MNEM.UNIT       API CODE    CURVE DESCRIPTION
#----------   ------------   ------------------------------
 DEPT.F                  :   
 CNC .DEC    42 890 03 00:   NEUTRON PORISITY SANDSTONE
 RHOB.G/C3   45 350 01 00:   BULK DENSITY
 CORR.G/C3   45 356 01 00:   DENSITY CORRECTION
 TEND.LBS    45 635 01 00:   TENSION FROM DENSITY LOG
 GRR .GAPI   07 310 01 00:   GAMMA RAY FROM RESISTIVITY
 CALR.IN     07 280 01 00:   CALIPER FROM RESISTIVITY
 SPR .MV     07 010 01 00:   SPONTANEOUS POTENTIAL
 TENR.LBS    07 635 01 00:   TENSION FROM RESISTIVITY
 RILD.OHMM   07 120 46 00:   DEEP INDUCTION RESISTIVITY
 RILM.OHMM   07 120 44 00:   INDUCTION LOG MEDIUM RESISTIVITY
 RFOC.OHMM   07 220 04 00:   RESISTIVITY FOCUSED LOG RES.
 DT  .US/F   60 520 00 00:   DELTA TIME
 TENS.LBS    60 635 01 00:   TENSION FROM SONIC
~PARAMETER INFORMATION
#MNEM.UNIT          VALUE    DESCRIPTION
#----------   ------------   ------------------------------
 EKB .F         5223.0000:   Kelly bushing
 EGL .F         5211.0000:   Ground level
 EDF .F            0.0000:   Drilling floor
 EPD .F         5211.0000:   Permanent datum
 TD  .F         3950.0000:   Total depth
 DATE.        07-AUG-1985:   Date logged
 CLNT.            A2DTECH:   Client Code
 SL  . 2016' FNL & 2230' FWL:   Surface Location
 PD  .                 GL:   Permanent Datum
 DD  .F              3950:   Depth driller
 DL  .F              3950:   Depth logger
 BLI .F              3948:   Bottom log interval
 CS1 .IN            8.625:   Casing size
 CBD1.      8.625" @ 518':   Casing driller 1
 CBL1.F               520:   Casing logger 1
 BS1 .IN            7.875:   Bit size
 DFT .            KCL-GEL:   Type fluid in hole
 DFD .                8.9:   Density
 DFV .                 40:   Viscosity
 DFPH.                  9:   pH
 DFL .                 12:   Fluid loss
 MSS .           FLOWLINE:   Source of sample
 RMS .OHMM           .318:   Rm
 MST .F                82:   Rm Meas. temp.
 RMF .OHMM            .24:   Rmf
 MFST.F                82:   Rmf Meas. temp.
 RMC .OHMM            .40:   Rmc
 MCST.F                82:   Rmc Meas. temp.
 MFSS.               CALC:   Source Rmf.
 RMB .OHMM            .19:   Rm. at BHT
 BHT .F               140:   BHT.
 TCS .HRS               4:   Time Circ. stopped
 MRT .F               140:   Maximum recorded temp.
 LUN .               6264:   Logging unit number
 LUL .               GLTE:   Logging unit location
 ENGI.           FAHLSING:   Recorded By
 WITN.             STRONG:   Witnessed by
 ORIG.           5" PRINT:   Origin of data
 UWI .     49025111390000:   Unique Well ID
 DICO. A2D TECHNOLOGIES, INC.:   Digitizing Company
 DAPD.                 12:   Feet Above Permanent Datum
 BSD1.               3950:   Depth drilled with bit1
 MCSS.               CALC:   Source Rmc.
~OTHER INFORMATION
~A    DEPT     CNC       RHOB       CORR       TEND         GRR      CALR        SPR       TENR       RILD       RILM       RFOC         DT       TENS   
# ...
 3016.0000     0.2290     2.4750     0.0210   -26.3420   105.7570     8.9920   -75.2390   -46.2230     3.3180     3.6200     4.4360    82.0340  -106.9950
 3016.5000     0.2270     2.4710     0.0270   -26.3420   108.0950     8.9940   -75.3310   -46.2230     3.2770     3.5610     4.2930    82.5640  -107.4070
 3017.0000     0.2340     2.4690     0.0430   -26.3420   108.9260     8.9720   -75.2660   -46.2230     3.2390     3.5120     4.1540    83.1090  -107.8200
 3017.5000     0.2440     2.4750     0.0710   -26.3420   109.7950     8.8920   -75.2060   -46.2230     3.2000     3.4740     4.0150    83.5190  -108.2330
 3018.0000     0.2520     2.4850     0.0820   -26.3420   111.6250     8.8570   -75.1460   -46.2230     3.1610     3.4370     3.9380    83.3430  -108.6450
 3018.5000     0.2450     2.4840     0.0530   -26.3890   113.6770     8.8630   -75.0860   -46.2230     3.1320     3.4010     3.9710    83.1750  -109.0580
 3019.0000     0.2300     2.4790     0.0390   -26.7170   115.2770     8.8990   -75.0270   -46.2230     3.2170     3.4740     4.0100    82.9210  -109.4710
 3019.5000     0.2260     2.4770     0.0360   -27.0460   114.0510     8.9350   -74.9640   -46.2230     3.2860     3.5440     4.0480    83.0840  -109.8830
 3020.0000     0.2210     2.4830     0.0370   -27.3750   110.2630     8.9710   -75.0350   -46.7320     3.3670     3.6140     3.9650    83.4200  -110.2960
 3020.5000     0.2090     2.4930     0.0410   -27.7040   106.3970     9.0080   -75.1900   -47.3260     3.4540     3.6840     3.9380    83.1210  -110.7090
 3021.0000     0.2010     2.5060     0.0480   -28.0320   103.1990     9.0160   -75.3470   -47.9200     3.5420     3.8250     4.1970    82.3560  -111.1220
 3021.5000     0.1960     2.5250     0.0560   -28.3610    99.8860     9.0160   -75.5090   -48.5140     3.6290     3.9760     4.5410    81.5170  -111.5340
 3022.0000     0.1990     2.5300     0.0620   -28.6900    99.8180     9.0160   -75.4880   -49.1080     3.7170     4.1280     4.9060    80.6780  -111.9470
 3022.5000     0.2060     2.5290     0.0420   -29.0190   103.7850     9.0160   -75.4210   -49.7020     3.8360     4.2430     4.9060    80.1300  -112.3600
 3023.0000     0.2120     2.5200     0.0470   -29.3470   107.7820     9.0160   -75.3520   -50.2960     3.9600     4.2650     4.7870    80.0100  -112.7720
 3023.5000     0.2170     2.5120     0.0610   -29.6760   109.4150     9.0210   -75.2840   -50.8900     3.9740     4.2760     4.7210    79.8440  -113.1850
 3024.0000     0.2290     2.5050     0.0760   -30.0050   108.3980     9.0340   -75.2160   -51.4840     3.9740     4.2480     4.6860    79.9230  -113.5980
 3024.5000     0.2320     2.5110     0.0830   -30.3340   106.6460     9.0470   -75.1470   -52.0780     3.9410     4.1530     4.7620    80.0030  -114.0100
 3025.0000     0.2250     2.5130     0.0800   -30.6620   104.8770     9.0570   -75.0750   -52.6720     3.9110     4.0570     4.8610    80.0820  -114.4230
 3025.5000     0.2210     2.5040     0.0760   -30.9910   103.2110     9.0610   -75.0010   -53.2660     3.8110     3.9610     4.8610    80.5710  -114.8360
 3026.0000     0.2280     2.4930     0.0710   -31.3200   104.3740     9.0650   -74.9280   -53.8600     3.6820     3.8660     4.5600    81.6570  -115.2490
 3026.5000     0.2380     2.4830     0.0480   -31.6490   107.4800     9.0700   -74.8550   -54.4540     3.5520     3.7620     4.3360    82.7440  -116.1180
 3027.0000     0.2470     2.4860     0.0310   -31.9770   110.6500     9.0740   -74.7790   -55.0480     3.4230     3.6250     4.1620    83.8300  -117.2620
 3027.5000     0.2400     2.4930     0.0240   -32.3060   113.7380     9.0900   -74.8950   -55.6420     3.3020     3.4640     3.9740    84.6160  -118.4060
 3028.0000     0.2300     2.5030     0.0480   -32.6350   115.2490     9.1100   -75.1140   -56.1630     3.2450     3.4290     3.9350    84.7160  -119.5500
 3028.5000     0.2210     2.5080     0.0970   -32.9640   115.6000     9.1290   -75.1470   -56.1630     3.1610     3.3700     3.8920    84.7160  -120.6950
 3029.0000     0.2270     2.5130     0.0900   -33.2920   112.7790     9.1480   -75.1480   -56.1630     3.1690     3.4450     3.8500    84.7760  -121.8390
 3029.5000     0.2320     2.5150     0.0840   -33.6210   109.9090     9.1670   -75.1470   -56.1630     3.1830     3.5120     3.7960    84.9020  -122.9830
 3030.0000     0.2290     2.5160     0.0890   -33.9500   107.0640     9.1860   -75.1470   -56.1630     3.2180     3.5780     3.8400    84.7160  -124.1280
 3030.5000     0.2210     2.5160     0.1130   -34.2790   106.8520     9.1890   -75.1860   -56.1630     3.2990     3.6440     3.9000    84.1600  -125.3740
 3031.0000     0.2250     2.5170     0.1100   -34.6070   107.1920     9.1850   -75.2430   -56.1630     3.3800     3.7110     3.9600    83.5430  -123.9410
 3031.5000     0.2360     2.5260     0.0940   -34.9360   106.4960     9.1800   -75.3020   -56.1630     3.4600     3.7740     4.0410    82.9250  -122.3670
 3032.0000     0.2470     2.5430     0.0680   -35.2650   102.2240     9.1750   -75.3890   -56.1630     3.5410     3.8370     4.2390    82.3080  -120.7940
 3032.5000     0.2410     2.5450     0.0440   -35.5940    98.0660     9.1660   -75.5770   -56.1630     3.6040     3.9020     4.4380    81.6910  -119.2200
 3033.0000     0.2290     2.5320     0.0330   -35.9220    96.9020     9.1510   -75.7240   -56.1630     3.6340     3.9020     4.6430    81.0740  -117.6470
 3033.5000     0.2170     2.5190     0.0320   -36.2820    99.2040     9.1370   -75.4850   -56.1630     3.6630     3.9020     4.6430    80.8280  -116.0740
 3034.0000     0.2210     2.5160     0.0500   -37.1930   103.7360     9.1220   -75.2500   -56.1630     3.6930     3.8760     4.4280    80.9690  -115.4040
 3034.5000     0.2370     2.5210     0.1010   -38.1990   106.8650     9.1080   -75.0060   -56.1630     3.6430     3.8310     4.2740    81.7600  -115.4040
 3035.0000     0.2370     2.5240     0.1210   -39.2050   108.8860     9.0930   -74.9990   -56.1630     3.5910     3.7860     4.2600    82.0840  -115.4040
 3035.5000     0.2320     2.5110     0.1140   -40.2110   110.8410     9.0780   -75.0630   -56.1630     3.5380     3.7410     4.2460    82.2850  -115.4040
 3036.0000     0.2360     2.4950     0.0990   -41.2170   112.2120     9.0680   -75.1330   -56.1630     3.4860     3.6960     4.1800    82.4870  -110.2530
 3036.5000     0.2460     2.4960     0.0810   -42.2230   112.0880     9.0580   -75.1450   -56.1630     3.4330     3.6520     3.9740    82.6880  -101.8610
 3037.0000     0.2530     2.5010     0.0610   -43.2290   111.7900     9.0490   -75.0450   -56.1630     3.3790     3.6080     3.9810    82.8890   -93.4700
 3037.5000     0.2460     2.4940     0.0420   -44.2350   110.5470     9.0400   -74.9580   -56.1630     3.3260     3.5650     3.9920    83.0910   -85.4940
 3038.0000     0.2350     2.4830     0.0230   -45.2410   108.4210     9.0370   -75.0310   -56.1630     3.2720     3.5220     4.0040    83.2770   -88.3500
 3038.5000     0.2260     2.4720     0.0060   -46.2230   107.4990     9.0400   -75.1020   -56.1630     3.2200     3.4790     4.0110    83.4600   -91.0710
 3039.0000     0.2310     2.4620    -0.0040   -46.5930   107.4640     9.0430   -75.1830   -56.1630     3.2090     3.4350     3.9400    83.9040   -93.7930
 3039.5000     0.2410     2.4610     0.0000   -46.9550   108.0460     9.0460   -75.2820   -56.1630     3.1980     3.3900     3.8900    84.4740   -96.5150
 3040.0000     0.2500     2.4710     0.0420   -47.3170   109.6690     9.0490   -75.3810   -56.1630     3.1790     3.3360     3.8310    85.0450   -99.2360
 3040.5000     0.2550     2.4740     0.0560   -47.6790   111.2750     9.0520   -75.4790   -56.1630     3.1270     3.2820     3.8600    85.2140  -101.9580
 3041.0000     0.2580     2.4690     0.0520   -48.0410   112.9020     9.0550   -75.5810   -56.1630     3.0760     3.2280     3.9020    85.2140  -104.6790
 3041.5000     0.2700     2.4630     0.0420   -48.4020   114.4940     9.0710   -75.8170   -56.1630     3.0250     3.1740     3.7960    85.2140  -105.0430
