~VERSION INFORMATION
 VERS.                2.0:   CWLS LOG ASCII STANDARD - VERSION 2.0
 WRAP.                 NO:   ONE LINE PER DEPTH STEP
~WELL INFORMATION
#MNEM.UNIT      DATA TYPE    INFORMATION
#----------   ------------   ------------------------------
 STRT.F           30.0000:   START DEPTH
 STOP.F         5698.0000:   STOP DEPTH
 STEP.F            0.5000:   STEP LENGTH
 NULL.          -999.2500:   NO VALUE
 COMP. LAWRRENCE-ALLISON & ASSOCIATES:   COMPANY
 WELL. LAWERNCE "X" #41-3:   WELL
 FLD .           N P R #3:   FIELD
 LOC .       S3 T38N R78W:   LOCATION
 CNTY.            NATRONA:   COUNTY
 STAT.            WYOMING:   STATE
 CTRY. UNITED STATES OF AMERICA:   COUNTRY
 SRVC.      DRESSER ATLAS:   SERVICE COMPANY
 DATE.        04-JUN-1983:   LOGDATE
 API .     49025109200000:   API NUMBER
~CURVE INFORMATION
#MNEM.UNIT       API CODE    CURVE DESCRIPTION
#----------   ------------   ------------------------------
 DEPT.F                  :   
 TENS.LBS    60 635 01 00:   TENSION FROM SONIC
 DT  .US/F   60 520 00 00:   DELTA TIME
 SPR .MV     11 010 01 00:   SPONTANEOUS POTENTIAL FROM RES.
 TENR.LBS    11 635 01 00:   TENSION FROM RES. LOG
 GRR .GAPI   11 310 01 00:   GAMMA RAY FROM RES.
 CALR.IN     11 280 01 00:   CALIPER FROM RES.
 RMLL.OHMM   11 270 04 00:   MICRO LATEROLOG
 RD  .OHMM   11 220 10 00:   RESISTIVITY DEEP
 RS  .OHMM   11 220 09 00:   RESISTIVITY SHALLOW
 TEND.LBS    45 635 01 00:   TENSION FROM DENSITY LOG
 CORR.G/C3   45 356 01 00:   DENSITY CORRECTION
 RHOB.G/C3   45 350 01 00:   BULK DENSITY
 NPHI.DEC    42 890 03 00:   NEUTRON POROSITY SANDSTONE
~PARAMETER INFORMATION
#MNEM.UNIT          VALUE    DESCRIPTION
#----------   ------------   ------------------------------
 EKB .F         5157.5000:   Kelly bushing
 EGL .F         5147.5000:   Ground level
 EDF .F            0.0000:   Drilling floor
 TD  .F         5690.0000:   Total depth
 DATE.        04-JUN-1983:   Date logged
 CLNT.            A2DTECH:   Client Code
 SL  . 2218' FWL & 287' FNL:   Surface Location
 PD  .                 GL:   Permanent Datum
 EPD .F            5147.5:   Elevation Permanent Datum
 LMF .                 KB:   Log Measured From
 DMF .                 KB:   Drilling Measured From
 DD  .F              5690:   Depth driller
 DL  .F              5685:   Depth logger
 BLI .F              5682:   Bottom log interval
 CS1 .IN            9.625:   Casing size
 CBD1.       9.625 @ 568':   Casing driller 1
 CBL1.F               568:   Casing logger 1
 BS1 .IN             8.75:   Bit size
 DFT .        KCL-DRISPAC:   Type fluid in hole
 DFD .                9.1:   Density
 DFV .                 37:   Viscosity
 DFPH.                  8:   pH
 DFL .                3.8:   Fluid loss
 MSS .               TANK:   Source of sample
 RMS .OHMM           0.41:   Rm
 MST .F                75:   Rm Meas. temp.
 RMF .OHMM           0.28:   Rmf
 MFST.F                70:   Rmf Meas. temp.
 RMC .OHMM           0.53:   Rmc
 MCST.F                75:   Rmc Meas. temp.
 MFSS.               MEAS:   Source Rmf.
 RMB .OHMM           0.18:   Rm. at BHT
 BHT .F               160:   BHT.
 TCS .HRS               5:   Time Circ. stopped
 MRT .F               166:   Maximum recorded temp.
 LUN .               6274:   Logging unit number
 LUL .               GLTE:   Logging unit location
 ENGI.             RAUTIO:   Recorded By
 WITN.             STRONG:   Witnessed by
 ORIG.     2.5", 5" PRINT:   Origin of data
 UWI .     49025109200000:   Unique Well ID
 DICO. A2D TECHNOLOGIES, INC.:   Digitizing Company
 MCSS.               CALC:   Source Rmc.
 DAPD.                 10:   Feet Above Permanent Datum
 BSD1.               5690:   Depth drilled with bit1
~OTHER INFORMATION
~A   DEPT     TENS         DT        SPR       TENR         GRR      CALR       RMLL         RD         RS       TEND       CORR       RHOB       NPHI   
# ...
 3618.0000   -68.7810    79.1680   -92.0910   -48.2290   117.9000     9.8860    13.7500    15.8140    14.3690   -18.1510     0.0470     2.4280     0.2320
 3618.5000   -69.4500    80.6960   -91.9750   -48.2250   115.5610     9.8870    14.3980    16.1000    15.1190   -19.6080     0.0380     2.4260     0.2200
 3619.0000   -70.1190    84.2400   -91.8610   -48.2260   109.7020     9.8880    15.0470    16.3870    15.8680   -19.6080     0.0290     2.4020     0.2240
 3619.5000   -70.7880    89.4300   -91.7440   -48.2280   105.4490     9.8890    15.6580    16.5330    16.6170   -19.6080     0.0560     2.3750     0.2360
 3620.0000   -71.4580    91.1030   -91.6300   -48.2280   106.3330     9.8900    13.7920    14.2940    17.4570   -19.6080     0.0830     2.3410     0.2470
 3620.5000   -71.9660    85.6570   -91.4650   -48.2280   108.1430     9.8920     7.2620    11.0270    11.8560   -19.6080     0.0910     2.3470     0.2540
 3621.0000   -71.9660    81.3590   -91.3050   -48.2280   110.2180     9.8930     1.7780     7.3120     7.0510   -19.6080     0.0630     2.3970     0.2460
 3621.5000   -71.9660    78.1640   -91.1430   -48.2280   105.9970     9.8940     1.6840     7.4690     7.1800   -19.6080     0.0470     2.4530     0.2330
 3622.0000   -71.9660    79.6320   -90.9830   -48.2280    99.7080     9.8950     3.9420     7.8620     8.2700   -19.6080     0.0660     2.4860     0.2190
 3622.5000   -71.9660    83.6490   -90.8170   -48.2280    98.1660     9.8960    12.3380    11.0950     9.3010   -19.6080     0.0960     2.4930     0.2240
 3623.0000   -71.9660    86.2530   -90.6630   -48.2240   102.1510     9.8970    17.1620    10.9500    10.5080   -19.6080     0.1450     2.4660     0.2360
 3623.5000   -71.9660    87.5410   -90.4810   -48.2290   106.7050     9.8980    10.2860    10.3310    10.5080   -19.6080     0.1300     2.4180     0.2480
 3624.0000   -71.9660    89.6990   -90.4680   -48.2180   111.0840     9.9000     4.5650     9.5970     9.1220   -19.6080     0.0700     2.3590     0.2610
 3624.5000   -71.9660    96.1820   -90.4640   -48.2090   115.7980     9.9010     3.0070     8.4620     7.7690   -19.6080     0.0140     2.3000     0.2790
 3625.0000   -71.9660   102.3370   -90.4680   -48.2660   120.5890     9.9020     3.8740     7.0680     6.4150   -19.6080    -0.0350     2.2410     0.2860
 3625.5000   -71.9660   106.3490   -90.4660   -48.1460   131.2060     9.9030     4.7340     5.6740     5.0620   -23.6450    -0.0450     2.1800     0.2860
 3626.0000   -71.9660   103.4490   -90.4660   -48.2760   142.3030     9.9040     5.0880     3.4140     3.4140   -27.0140    -0.0010     2.2460     0.2870
 3626.5000   -71.9660    96.9030   -90.4670   -48.6910   147.6660     9.9050     2.0290     3.4500     3.4750   -30.3830     0.0040     2.2920     0.2870
 3627.0000   -71.9660    91.0030   -90.4660   -56.1930   145.7060     9.9060     0.9260     3.5450     3.6340   -33.7520     0.0040     2.3510     0.2850
 3627.5000   -71.9660    87.7830   -90.4650   -64.1230   145.9230     9.9080     1.4050     4.0320     4.4400   -37.1210     0.0040     2.3990     0.2830
 3628.0000   -71.9660    86.8650   -90.4720   -73.1510   149.1370     9.9090     4.1360     5.2080     5.4430   -40.4900     0.0030     2.3970     0.2810
 3628.5000   -71.9660    91.6430   -90.4590   -77.4020   151.8920     9.9100     7.4620     6.3840     6.4460   -43.8590     0.0090     2.3800     0.2830
 3629.0000   -71.9660    97.3010   -90.4700   -74.6490   150.3230     9.9110     8.0060     6.9250     7.3120   -47.2280     0.0160     2.3460     0.2920
 3629.5000   -71.9660   102.3380   -90.5200   -72.6830   144.1460     9.9120     7.3960     6.6110     6.9430   -44.3920     0.0550     2.3050     0.3150
 3630.0000   -71.9660   104.9450   -91.1620   -69.9130   137.5070     9.9130     6.9250     5.6610     5.8300   -34.5100     0.1610     2.2560     0.3000
 3630.5000   -71.9660   100.9770   -91.6080   -69.1010   132.0540     9.9140     2.8160     4.7110     4.7160   -19.6080     0.1480     2.2610     0.2790
 3631.0000   -71.9660    96.3860   -91.5280   -60.4150   132.8640     9.9150     0.9420     4.2440     4.1680   -21.5420     0.0810     2.3110     0.2670
 3631.5000   -71.9660    91.7940   -91.4000   -64.1500   133.9450     9.9170     1.1930     4.4010     4.7240   -28.1310     0.0650     2.3650     0.2650
 3632.0000   -71.9660    90.2010   -91.2420   -69.1200   135.2130     9.9180     2.0180     6.0750     5.8060   -34.7190     0.0490     2.4000     0.2720
 3632.5000   -71.9660    91.7050   -91.3440   -75.3760   136.3570     9.9190     8.7650     7.9450     6.8890   -41.3070     0.0340     2.3960     0.2860
 3633.0000   -71.9660    92.1060   -91.5440   -77.9550   137.6170     9.9200     8.9610     9.0220     7.9710   -47.8950     0.0180     2.3920     0.2770
 3633.5000   -71.9660    92.1660   -91.7370   -77.0090   138.2170     9.9210     9.3740     9.0890     8.7650   -54.4840     0.0030     2.3990     0.2590
 3634.0000   -71.9660    92.2070   -91.9370   -74.4940   138.6710     9.9220     9.5970     9.0110     9.0890   -58.8240    -0.0140     2.4070     0.2410
 3634.5000   -70.8360    91.2600   -92.0330   -71.9590   139.1750     9.9230     8.3760     8.8400     6.9250   -48.2170    -0.0120     2.4250     0.2520
 3635.0000   -69.2770    90.2420   -92.0210   -69.3530   139.6300     9.9250     7.2200     8.6080     7.8080   -36.9880     0.0080     2.4430     0.2680
 3635.5000   -67.7180    89.7870   -92.0170   -66.8060   140.1620     9.9260     6.8000     8.7600     8.6080   -25.7580     0.0250     2.4570     0.2660
 3636.0000   -66.1590    90.9020   -91.9240   -64.2250   140.6520     9.9270     6.8520     9.0890     8.4470   -14.5280     0.0400     2.4640     0.2620
 3636.5000   -64.6000    91.9550   -91.8380   -61.6540   138.9990     9.9280     6.9250     8.5870     7.8620   -16.9610     0.0490     2.4610     0.2640
 3637.0000   -63.0410    90.6280   -91.7490   -59.1230   137.2900     9.9290     7.0510     7.7800     7.1610   -29.3140     0.0710     2.4600     0.2640
 3637.5000   -61.4820    87.6930   -91.6630   -57.0400   138.4510     9.9300     6.5210     6.9720     6.3010   -39.2160     0.1150     2.4570     0.2610
 3638.0000   -59.9230    86.0290   -91.6000   -55.2620   144.3370     9.9310     5.9900     6.1650     5.4420   -24.4120     0.1430     2.4430     0.2590
 3638.5000   -58.3640    86.3550   -91.4880   -53.5400   145.2460     9.9330     2.2910     5.3570     5.0880   -12.0590     0.1180     2.4360     0.2710
 3639.0000   -56.9210    88.0940   -91.3780   -51.7470   136.0880     9.9340     2.5410     5.1810     5.1790     0.2940     0.1040     2.4320     0.2820
 3639.5000   -58.6130    91.4170   -91.2650   -50.0740   124.1440     9.9350     3.4770     5.3720     5.2760     8.1790     0.1530     2.3960     0.2780
 3640.0000   -60.1890    94.5100   -91.1540   -48.3880   122.9550     9.9360     2.9730     5.1000     4.8140     1.1200     0.1940     2.3120     0.2820
 3640.5000   -61.7640    96.7200   -91.0420   -49.3920   131.0280     9.9370     1.5840     4.3500     4.2110    -5.9380     0.1220     2.2100     0.3170
 3641.0000   -63.3400    96.9950   -90.9300   -50.5250   138.8200     9.9380     1.1760     3.5990     3.6080   -12.9970     0.0830     2.1570     0.3150
 3641.5000   -64.9160    94.6140   -90.8180   -51.7670   146.2340     9.9390     1.0020     2.8490     3.0050   -20.0560     0.0490     2.1880     0.3040
 3642.0000   -66.4910    89.1860   -90.7060   -52.9350   153.8360     9.9410     0.7450     2.6490     2.6010   -27.1150     0.0460     2.2740     0.3000
 3642.5000   -66.9510    85.0970   -90.5940   -54.1300   145.9140     9.9420     0.8320     2.6970     2.7970   -34.1740     0.0400     2.3830     0.2960
 3643.0000   -66.9510    84.5820   -90.4780   -55.3250   134.1130     9.9430     1.0130     4.0420     3.9100   -41.2320     0.0470     2.4410     0.2880
 3643.5000   -66.9510    85.9190   -90.4870   -56.5130   121.8680     9.9440     2.8220     5.2420     4.9030   -48.2910     0.0560     2.4890     0.2720
