~VERSION INFORMATION
 VERS.                2.0:   CWLS LOG ASCII STANDARD - VERSION 2.0
 WRAP.                 NO:   ONE LINE PER DEPTH STEP
~WELL INFORMATION
#MNEM.UNIT      DATA TYPE    INFORMATION
#----------   ------------   ------------------------------
 STRT.F          211.5000:   START DEPTH
 STOP.F         3103.0000:   STOP DEPTH
 STEP.F            0.5000:   STEP LENGTH
 NULL.          -999.2500:   NO VALUE
 COMP.    FENIX & SCISSON:   COMPANY
 WELL. FENIX NPR 3 "AX" #38-10:   WELL
 FLD .  TEAPOT DOME - NPR:   FIELD
 LOC .      S10 T38N R78W:   LOCATION
 CNTY.            NATRONA:   COUNTY
 STAT.            WYOMING:   STATE
 CTRY. UNITED STATES OF AMERICA:   COUNTRY
 SRVC.           BIRDWELL:   SERVICE COMPANY
 DATE.        01-JUL-1978:   LOGDATE
 API .     49025106550000:   API NUMBER
~CURVE INFORMATION
#MNEM.UNIT       API CODE    CURVE DESCRIPTION
#----------   ------------   ------------------------------
 DEPT.F                  :   
 CALD.IN     45 280 60 00:   CALIPER FROM DENSITY LOG
 GRD .GAPI   45 310 01 00:   GAMMA RAY FROM DENSITY LOG
 RHOB.G/C3   45 350 01 00:   BULK DENSITY
 CORR.G/C3   45 356 01 00:   DENSITY CORRECTION
 NPOR.DEC    42 890 03 00:   ALPHA PROCESSED NEUTRON POROSITY
 SPR .MV     05 010 01 00:   SPONTANEOUS POTENTIAL
 SN  .OHMM   05 040 00 00:   SHORT NORMAL
 ILD .OHMM   05 120 46 00:   DEEP INDUCTION RESISTIVITY
~PARAMETER INFORMATION
#MNEM.UNIT          VALUE    DESCRIPTION
#----------   ------------   ------------------------------
 EKB .F         5240.0000:   Kelly bushing
 EGL .F         5230.0000:   Ground level
 TD  .F         3103.0000:   Total depth
 DATE.        01-JUL-1978:   Date logged
 CLNT.            A2DTECH:   Client Code
 SL  . 200' FSL & 2100' FWL:   Surface Location
 PD  .                 GL:   Permanent Datum
 EPD .F              5230:   Elevation Permanent Datum
 LMF .                 KB:   Log Measured From
 DMF .                 KB:   Drilling Measured From
 DAPD.F                10:   Feet Above Permanent Datum
 DD  .F              3100:   Depth driller
 DL  .F              3103:   Depth logger
 BLI .F              3096:   Bottom log interval
 TLI .F               228:   Top log interval
 CS1 .IN            8.625:   Casing size
 CBD1.      8.625" @ 224':   Casing driller 1
 CBL1.F               228:   Casing logger 1
 BS1 .IN            7.875:   Bit size
 BSD1.F              3100:   Depth drilled with bit1
 DFT .            MUD/GEL:   Type fluid in hole
 DFD .                8.7:   Density
 DFV .                 31:   Viscosity
 DFPH.               10.5:   pH
 DFL .                  7:   Fluid loss
 MSS .           FLOWLINE:   Source of sample
 BHT .F               109:   BHT.
 TCS .HRS             4.5:   Time Circ. stopped
 MRT .F               109:   Maximum recorded temp.
 LUN .               2958:   Logging unit number
 LUL .               CASP:   Logging unit location
 ENGI.             MILLER:   Recorded By
 ORIG.      2.5" 5" PRINT:   Origin of data
 UWI .     49025106550000:   Unique Well ID
 DICO. A2D TECHNOLOGIES, INC.:   Digitizing Company
~OTHER INFORMATION
~A   DEPT     CALD         GRD      RHOB       CORR       NPOR        SPR         SN        ILD   
# ...
 2115.0000     9.4068   103.0988     2.3827     0.0192  -999.2500   -19.0850    14.7346    12.1517
 2115.5000     9.4264   102.7026     2.3718     0.0212  -999.2500   -19.0840    14.6020    11.8230
 2116.0000     9.4459   102.5029     2.3469     0.0252  -999.2500   -19.0830    14.3381    11.7163
 2116.5000     9.4457   102.5013     2.3370     0.0272  -999.2500   -19.0820    13.8228    11.3994
 2117.0000     9.2679    96.7578     2.3360     0.0372  -999.2500   -19.0811    13.6980    11.1934
 2117.5000     9.1098    95.1932     2.3768     0.0492  -999.2500   -19.0801    13.3275    11.1949
 2118.0000     9.1096    95.7845     2.4175     0.0530  -999.2500   -19.0791    13.2073    11.1960
 2118.5000     9.1094   100.1071     2.4473     0.0530  -999.2500   -19.0782    13.2088    11.1973
 2119.0000     9.1092   104.2497     2.3877     0.0392  -999.2500   -19.0772    13.2103    11.1988
 2119.5000     9.1879   105.4497     2.3817     0.0232  -999.2500   -19.0762    13.5807    11.4076
 2120.0000     9.2272   104.0485     2.3618     0.0252  -999.2500   -19.0752    13.8339    11.4087
 2120.5000     9.1876    98.7178     2.3541     0.0312  -999.2500   -19.2719    13.9630    11.8370
 2121.0000     9.2071    92.0052     2.3332     0.0352  -999.2500   -19.0731    13.8374    11.8383
 2121.5000     9.2661    89.6350     2.2932     0.0352  -999.2500   -18.4787    13.9666    11.8397
 2122.0000     9.4238    88.0538     2.2495     0.0352  -999.2500   -19.0711    14.0970    11.8411
 2122.5000     9.4828    86.2756     2.2197     0.0492  -999.2500   -19.0702    13.9698    11.8424
 2123.0000     9.4432    83.9053     2.2038     0.0988  -999.2500   -19.0692    13.9714    11.8438
 2123.5000     9.3640    82.9166     2.1024     0.1326  -999.2500   -19.0682    13.9730    11.8452
 2124.0000     9.1270    82.1248     2.1223     0.1624  -999.2500   -18.4738    14.1034    11.8465
 2124.5000     9.0281    82.3202     2.1352     0.2738  -999.2500   -18.4729    14.1050    11.8479
 2125.0000     9.0279    83.6998     2.1054     0.2638  -999.2500   -18.4719    14.1067    11.8493
 2125.5000     9.0277    85.0794     1.9670     0.2162  -999.2500   -18.8663    14.3696    11.8509
 2126.0000     9.0275    86.6563     1.8917     0.1504  -999.2500   -18.6679    13.8533    11.8523
 2126.5000     9.0273    87.2465     1.8986     0.2122  -999.2500   -18.6674    13.9826    11.8537
 2127.0000     9.0271    87.6393     1.9205     0.2578  -999.2500   -18.5414    13.7299    11.8550
 2127.5000     9.0269    88.8215     2.2704     0.2618  -999.2500   -18.4154    13.7317    11.8564
 2128.0000     9.0267    89.8063     2.2694     0.2818  -999.2500   -18.2679    13.8599    11.8578
 2128.5000     9.0265    90.0018     2.2475     0.1764  -999.2500   -18.4649    13.7349    11.8591
 2129.0000     9.0263    89.8025     2.3252     0.1486  -999.2500   -18.6617    13.7365    11.7521
 2129.5000     9.0261    89.6032     2.3630     0.0710  -999.2500   -18.8587    13.7381    11.5397
 2130.0000     9.0456    89.9960     2.4078     0.0590  -999.2500   -19.2530    13.7396    11.5411
 2130.5000     9.0257    90.5861     2.4266     0.0550  -999.2500   -19.2522    13.3680    11.4370
 2131.0000     9.0255    92.1630     2.4425     0.0530  -999.2500   -19.2512    13.2474    11.4383
 2131.5000     9.0253    94.1347     2.4535     0.0510  -999.2500   -19.2503    13.2490    11.4399
 2132.0000     9.0054    94.7249     2.4744     0.0550  -999.2500   -19.2493    13.2505    11.4412
 2132.5000     9.0249    94.9203     2.5030     0.0750  -999.2500   -19.0505    13.2520    11.5480
 2133.0000     9.0247    94.7210     2.4654     0.0770  -999.2500   -18.6539    13.2535    11.5494
 2133.5000     9.0640    93.3375     2.4604     0.0312  -999.2500   -18.4548    13.7516    11.6572
 2134.0000     9.0046    92.3488     2.4505     0.0252  -999.2500   -18.4544    14.0073    11.6585
 2134.5000     9.0636    92.7416     2.4555     0.0232  -999.2500   -18.0574    13.8803    11.7674
 2135.0000     9.0634    93.3491     2.4555     0.0272  -999.2500   -17.8586    13.8825    11.8772
 2135.5000     9.0632    91.9652     2.4594     0.0312  -999.2500   -17.4620    13.7573    11.7701
 2136.0000     9.0630    88.9855     2.4734     0.0472  -999.2500   -17.8567    13.3853    11.7714
 2136.5000     9.0628    88.1941     2.4823     0.0570  -999.2500   -17.2623    13.6348    11.4531
 2137.0000     9.0626    87.7975     2.5012     0.0810  -999.2500   -17.2613    13.3883    11.2461
 2137.5000     9.0624    85.8215     2.5020     0.0948  -999.2500   -17.4581    13.1464    11.1449
 2138.0000     9.0425    83.0565     2.5139     0.0988  -999.2500   -17.4572    12.7909    11.0444
 2138.5000     9.0620    83.0546     2.5239     0.0988  -999.2500   -17.6540    12.7923    10.6476
 2139.0000     9.0619    84.4342     2.5308     0.0968  -999.2500   -17.6530    12.6772    10.4552
 2139.5000     9.0616    86.2085     2.5328     0.0908  -999.2500   -17.8499    12.6787    10.2662
 2140.0000     9.0614    88.9696     2.5169     0.0710  -999.2500   -17.8487    12.6801    10.1736
 2140.5000     9.0612    89.5597     2.5032     0.0590  -999.2500   -17.8477    12.6816    10.0816
 2141.0000     9.0610    88.9657     2.5002     0.0372  -999.2500   -17.8467    12.6831    10.1758
 2141.5000     9.0608    85.6252     2.4922     0.0272  -999.2500   -17.8458    12.6845    10.1772
 2142.0000     9.0607    86.8082     2.4694     0.0134  -999.2500   -17.8448    12.6860    10.3669
 2142.5000     9.0802    88.9773     2.4704     0.0094  -999.2500   -17.8438    12.6874    10.3681
 2143.0000     9.0603    89.1727     2.4773     0.0094  -999.2500   -17.8428    12.6889    10.4651
 2143.5000     9.0009    88.7764     2.4783     0.0094  -999.2500   -17.6441    12.6904    10.6602
 2144.0000     8.9809    85.0065     2.4833     0.0114  -999.2500   -17.2475    13.0461    10.7597
 2144.5000     8.9610    84.4125     2.4843     0.0094  -999.2500   -17.6421    13.1679    10.8602
 2145.0000     8.9805    84.2132     2.4843     0.0094  -999.2500   -17.8389    13.2908    11.0626
 2145.5000     8.9606    83.8165     2.4823     0.0094  -999.2500   -18.2330    13.7892    11.1659
 2146.0000     8.9801    83.6342     2.4704     0.0074  -999.2500   -17.8372    14.1757    11.4788
 2146.5000     8.9799    88.1546     2.4594     0.0034  -999.2500   -17.4402    14.3084    11.4796
 2147.0000     8.9797    90.5375     2.4555     0.0014  -999.2500   -17.4392    14.4419    11.9107
 2147.5000     8.9795    89.7473     2.4505     0.0014  -999.2500   -17.2405    14.5767    11.9121
 2148.0000     8.9793    82.2275     2.4453     0.0014  -999.2500   -17.2395    14.5784    11.9135
 2148.5000     8.9594    79.8573     2.4384     0.0034  -999.2500   -17.2385    14.8501    11.9149
 2149.0000     8.9395    80.2501     2.4513     0.0034  -999.2500   -17.2375    14.9887    11.9163
 2149.5000     8.9393    82.0244     2.4583     0.0014  -999.2500   -17.4344    14.9904    11.9176
 2150.0000     8.9391    83.4030     2.4672     0.0034  -999.2500   -17.4334    15.4109    11.9190
 2150.5000     8.9389    87.3558     2.4770     0.0052  -999.2500   -17.2346    15.2715    11.9204
 2151.0000     8.9596    91.1116     2.4772     0.0054  -999.2500   -17.2337    15.2726    11.9220
 2151.5000     8.9402    92.6952     2.4704     0.0054  -999.2500   -17.6283    15.4155    11.9234
 2152.0000     8.9603    93.2939     2.4704     0.0054  -999.2500   -17.6273    15.4176    11.9248
 2152.5000     8.9607    93.1019     2.4665     0.0054  -999.2500   -18.0218    15.5615    12.2590
 2153.0000     8.9414    91.1326     2.4655     0.0054  -999.2500   -18.0208    15.5633    12.3734
 2153.5000     8.9615    88.3732     2.4695     0.0074  -999.2500   -18.0198    15.9994    12.4889
 2154.0000     8.9619    85.8303     2.4891     0.0096  -999.2500   -17.8210    16.4490    12.9573
 2154.5000     8.9820    81.0767     2.4892     0.0096  -999.2500   -17.6223    16.4497    12.6069
 2155.0000     9.0021    76.3418     2.4902     0.0116  -999.2500   -17.4235    16.6036    12.7246
