~VERSION INFORMATION
 VERS.                2.0:   CWLS LOG ASCII STANDARD - VERSION 2.0
 WRAP.                 NO:   ONE LINE PER DEPTH STEP
~WELL INFORMATION
#MNEM.UNIT      DATA TYPE    INFORMATION
#----------   ------------   ------------------------------
 STRT.F            0.0000:   START DEPTH
 STOP.F         3083.0000:   STOP DEPTH
 STEP.F            0.5000:   STEP LENGTH
 NULL.          -999.2500:   NO VALUE
 COMP. LAWRENCE & ALLISON & ASSOCIATES:   COMPANY
 WELL. LAWRENCE 71 "AX" #3-29:   WELL
 FLD .              N P R:   FIELD
 LOC .      S29 T38N R78W:   LOCATION
 CNTY.            NATRONA:   COUNTY
 STAT.            WYOMING:   STATE
 CTRY. UNITED STATES OF AMERICA:   COUNTRY
 SRVC.      DRESSER ATLAS:   SERVICE COMPANY
 DATE.        12-MAR-1985:   LOGDATE
 API .     49025110160000:   API NUMBER
~CURVE INFORMATION
#MNEM.UNIT       API CODE    CURVE DESCRIPTION
#----------   ------------   ------------------------------
 DEPT.F                  :   
 GRR .GAPI   07 310 01 00:   GAMMA RAY FROM RESISTIVITY
 SPR .MV     07 010 01 00:   SPONTANEOUS POTENTIAL
 TENR.LBS    07 635 01 00:   TENSION FROM RESISTIVITY
 RFOC.OHMM   07 220 04 00:   RESISTIVITY FOCUSED LOG RES.
 RILD.OHMM   07 120 46 00:   DEEP INDUCTION RESISTIVITY
 RILM.OHMM   07 120 44 00:   INDUCTION LOG MEDIUM RESISTIVITY
 TEND.LBS    45 635 01 00:   TENSION FROM DENSITY LOG
 DEN .G/C3   45 350 01 00:   BULK DENSITY
 CORR.G/C3   45 356 01 00:   DENSITY CORRECTION
 CNC .DEC    42 890 01 00:   NEUTRON PORISITY LIMESTONE
 CALD.IN     45 280 60 00:   CALIPER FROM DENSITY LOG
~PARAMETER INFORMATION
#MNEM.UNIT          VALUE    DESCRIPTION
#----------   ------------   ------------------------------
 EKB .F         4983.0000:   Kelly bushing
 EGL .F         4971.0000:   Ground level
 TD  .F         3082.0000:   Total depth
 DATE.        12-MAR-1985:   Date logged
 CLNT.            A2DTECH:   Client Code
 SL  . 568' FNL AND 829' FEL:   Surface Location
 PD  .                 GL:   Permanent Datum
 EPD .F              4971:   Elevation Permanent Datum
 LMF .                 KB:   Log Measured From
 DMF .                 KB:   Drilling Measured From
 DD  .F              3080:   Depth driller
 DL  .F              3082:   Depth logger
 BLI .F              3080:   Bottom log interval
 TLI .F              2100:   Top log interval
 CS1 .IN            8.625:   Casing size
 CBD1.      8.625" @ 311':   Casing driller 1
 BS1 .IN            7.875:   Bit size
 DFT .            KCL GEL:   Type fluid in hole
 DFD .                9.1:   Density
 DFV .                 38:   Viscosity
 DFPH.                  8:   pH
 DFL .               10.4:   Fluid loss
 MSS .           FLOWLINE:   Source of sample
 RMS .OHMM            .47:   Rm
 MST .F                60:   Rm Meas. temp.
 RMF .OHMM            .35:   Rmf
 MFST.F                61:   Rmf Meas. temp.
 RMC .OHMM            .53:   Rmc
 MCST.F                61:   Rmc Meas. temp.
 MFSS.               CLAC:   Source Rmf.
 RMB .OHMM           .209:   Rm. at BHT
 BHT .F               134:   BHT.
 TCS .HRS               3:   Time Circ. stopped
 MRT .F               134:   Maximum recorded temp.
 LUN .               6234:   Logging unit number
 LUL .               CLTE:   Logging unit location
 ENGI.      MACK/ EDWARDS:   Recorded By
 WITN.             STRONG:   Witnessed by
 PWI .                  -:   Primary Well Identifier
 ORIG.           5" PRINT:   Origin of data
 UWI .     49025110160000:   Unique Well ID
 DICO. A2D TECHNOLOGIES, INC.:   Digitizing Company
 DAPD.F                12:   Feet Above Permanent Datum
 BSD1.F              3080:   Depth drilled with bit1
 MCSS.               CALC:   Source Rmc.
~OTHER INFORMATION
~A    DEPT      GRR       SPR       TENR       RFOC       RILD       RILM       TEND        DEN       CORR        CNC       CALD   
# ...
 1952.0000    95.3920   -50.6790   -47.0300     5.7740     5.5930     5.7600  -999.2500  -999.2500  -999.2500  -999.2500  -999.2500
 1952.5000    94.8980   -50.3910   -47.0300     6.6050     5.5850     5.7600  -999.2500  -999.2500  -999.2500  -999.2500  -999.2500
 1953.0000    94.0530   -50.1030   -47.0300     7.5010     5.5760     5.7600  -999.2500  -999.2500  -999.2500  -999.2500  -999.2500
 1953.5000    95.6200   -49.9000   -47.0300     8.2200     5.5670     5.7600  -999.2500  -999.2500  -999.2500  -999.2500  -999.2500
 1954.0000    97.7980   -50.2990   -47.0300     7.6830     5.5580     5.7300  -999.2500  -999.2500  -999.2500  -999.2500  -999.2500
 1954.5000    96.9480   -50.7420   -47.0300     7.0860     5.5370     5.6860  -999.2500  -999.2500  -999.2500  -999.2500  -999.2500
 1955.0000    95.1080   -51.1860   -47.0300     6.3100     5.5030     5.6410  -999.2500  -999.2500  -999.2500  -999.2500  -999.2500
 1955.5000    95.7590   -51.6290   -47.0300     6.4060     5.4690     5.5900  -999.2500  -999.2500  -999.2500  -999.2500  -999.2500
 1956.0000    97.2780   -52.0730   -47.0300     6.5420     5.4350     5.5390  -999.2500  -999.2500  -999.2500  -999.2500  -999.2500
 1956.5000    98.4030   -52.4640   -47.0300     6.6650     5.4040     5.5030  -999.2500  -999.2500  -999.2500  -999.2500  -999.2500
 1957.0000    94.2920   -52.4150   -47.0300     6.4520     5.5540     5.7130  -999.2500  -999.2500  -999.2500  -999.2500  -999.2500
 1957.5000    92.8170   -52.3620   -47.0300     6.2580     5.6900     5.8740  -999.2500  -999.2500  -999.2500  -999.2500  -999.2500
 1958.0000    91.4920   -52.3080   -47.0300     6.0840     5.8130     6.0840  -999.2500  -999.2500  -999.2500  -999.2500  -999.2500
 1958.5000    90.3450   -52.2190   -47.0300     6.9760     5.8130     6.0580  -999.2500  -999.2500  -999.2500  -999.2500  -999.2500
 1959.0000    91.1740   -52.0160   -47.0300     8.0710     5.7700     6.0220  -999.2500  -999.2500  -999.2500  -999.2500  -999.2500
 1959.5000    94.6060   -51.8180   -47.0300     8.9230     5.7220     5.9850  -999.2500  -999.2500  -999.2500  -999.2500  -999.2500
 1960.0000    95.3810   -51.6200   -47.0300     8.5310     5.6580     5.9200  -999.2500  -999.2500  -999.2500  -999.2500  -999.2500
 1960.5000    90.3770   -51.4230   -47.0300     7.7460     5.5580     5.7880  -999.2500  -999.2500  -999.2500  -999.2500  -999.2500
 1961.0000    89.0860   -51.2270   -47.0300     6.9620     5.4590     5.6760  -999.2500  -999.2500  -999.2500  -999.2500  -999.2500
 1961.5000    88.7250   -51.0810   -47.0300     6.5660     5.3590     5.5640  -999.2500  -999.2500  -999.2500  -999.2500  -999.2500
 1962.0000    87.9560   -51.0240   -47.0300     6.3360     5.2590     5.4520  -999.2500  -999.2500  -999.2500  -999.2500  -999.2500
 1962.5000    84.9850   -50.9650   -47.0300     6.0840     5.1600     5.3400  -999.2500  -999.2500  -999.2500  -999.2500  -999.2500
 1963.0000    82.3930   -50.9070   -47.0300     6.2240     5.0700     5.2990  -999.2500  -999.2500  -999.2500  -999.2500  -999.2500
 1963.5000    83.4450   -50.8480   -47.0300     6.4240     5.0590     5.2890  -999.2500  -999.2500  -999.2500  -999.2500  -999.2500
 1964.0000    86.9140   -50.7900   -47.0300     6.6050     5.0500     5.2790  -999.2500  -999.2500  -999.2500  -999.2500  -999.2500
 1964.5000    93.8460   -50.7340   -47.0300     6.5110     5.0400     5.2690  -999.2500  -999.2500  -999.2500  -999.2500  -999.2500
 1965.0000    97.8090   -50.7390   -47.0300     6.4850     5.0310     5.2580  -999.2500  -999.2500  -999.2500  -999.2500  -999.2500
 1965.5000    99.7740   -50.9220   -47.0300     6.4850     5.0210     5.2330  -999.2500  -999.2500  -999.2500  -999.2500  -999.2500
 1966.0000    99.2480   -51.1090   -47.0300     6.4850     5.0120     5.2050  -999.2500  -999.2500  -999.2500  -999.2500  -999.2500
 1966.5000    96.3260   -51.6260   -47.0300     6.3720     5.0020     5.1770  -999.2500  -999.2500  -999.2500  -999.2500  -999.2500
 1967.0000    93.2170   -52.1210   -47.0300     6.2470     4.9920     5.1490  -999.2500  -999.2500  -999.2500  -999.2500  -999.2500
 1967.5000    95.2110   -52.4800   -47.0300     6.1220     4.9830     5.1210  -999.2500  -999.2500  -999.2500  -999.2500  -999.2500
 1968.0000    99.5060   -52.5700   -47.0300     6.0840     4.9630     5.0940  -999.2500  -999.2500  -999.2500  -999.2500  -999.2500
 1968.5000   103.9770   -52.6600   -47.0300     6.2260     4.9330     5.0660  -999.2500  -999.2500  -999.2500  -999.2500  -999.2500
 1969.0000   107.0830   -52.5250   -47.0300     6.3680     4.9030     5.0380  -999.2500  -999.2500  -999.2500  -999.2500  -999.2500
 1969.5000   110.2720   -52.3910   -47.0300     6.2370     4.8550     4.9940  -999.2500  -999.2500  -999.2500  -999.2500  -999.2500
 1970.0000   113.4490   -52.2590   -47.0300     6.0510     4.7890     4.9340  -999.2500  -999.2500  -999.2500  -999.2500  -999.2500
 1970.5000   116.6990   -52.1280   -47.0300     5.9200     4.7220     4.8740  -999.2500  -999.2500  -999.2500  -999.2500  -999.2500
 1971.0000   123.8750   -51.9980   -47.0300     6.0700     4.6560     4.8150  -999.2500  -999.2500  -999.2500  -999.2500  -999.2500
 1971.5000   130.7890   -51.8660   -47.0300     6.1960     4.5890     4.7550  -999.2500  -999.2500  -999.2500  -999.2500  -999.2500
 1972.0000   138.7330   -51.5900   -47.0300     6.0580     4.5230     4.6700  -999.2500  -999.2500  -999.2500  -999.2500  -999.2500
 1972.5000   134.6250   -51.3240   -47.0300     5.9200     4.4860     4.5440  -999.2500  -999.2500  -999.2500  -999.2500  -999.2500
 1973.0000   127.1030   -51.0600   -47.0300     5.6300     4.4620     4.5630  -999.2500  -999.2500  -999.2500  -999.2500  -999.2500
 1973.5000   119.4590   -50.7970   -47.0300     5.3660     4.5030     4.6010  -999.2500  -999.2500  -999.2500  -999.2500  -999.2500
 1974.0000   114.9100   -50.5330   -47.0300     5.0240     4.5350     4.6280  -999.2500  -999.2500  -999.2500  -999.2500  -999.2500
 1974.5000   115.3640   -50.2970   -47.0300     5.2080     4.6910     4.9480  -999.2500  -999.2500  -999.2500  -999.2500  -999.2500
 1975.0000   117.3900   -50.2640   -47.0300     5.4720     4.9010     5.2380  -999.2500  -999.2500  -999.2500  -999.2500  -999.2500
 1975.5000   119.3350   -50.2350   -47.0300     5.8050     5.1110     5.5290  -999.2500  -999.2500  -999.2500  -999.2500  -999.2500
 1976.0000   123.7110   -50.2060   -47.0300     6.3030     5.3420     5.8200  -999.2500  -999.2500  -999.2500  -999.2500  -999.2500
 1976.5000   129.2540   -50.1770   -47.0300     6.8500     5.6200     6.1100  -999.2500  -999.2500  -999.2500  -999.2500  -999.2500
 1977.0000   129.5570   -50.1470   -47.0300     6.9310     5.8980     6.4010  -999.2500  -999.2500  -999.2500  -999.2500  -999.2500
 1977.5000   124.1060   -50.1250   -47.0300     7.3090     6.1760     6.6050  -999.2500  -999.2500  -999.2500  -999.2500  -999.2500
 1978.0000   119.4460   -50.3110   -47.0300     7.7830     6.4260     6.6380  -999.2500  -999.2500  -999.2500  -999.2500  -999.2500
 1978.5000   117.1490   -51.0580   -47.0300     7.7580     6.4990     6.7230  -999.2500  -999.2500  -999.2500  -999.2500  -999.2500
 1979.0000   117.1770   -51.6460   -47.0300     7.7120     6.5260     6.8500  -999.2500  -999.2500  -999.2500  -999.2500  -999.2500
 1979.5000   115.6020   -52.2440   -47.0300     7.8960     6.5450     6.7840  -999.2500  -999.2500  -999.2500  -999.2500  -999.2500
 1980.0000   114.2080   -52.2240   -47.0300     8.1590     6.4470     6.6650  -999.2500  -999.2500  -999.2500  -999.2500  -999.2500
 1980.5000   113.3970   -52.0170   -47.0300     8.4480     6.3390     6.5250  -999.2500  -999.2500  -999.2500  -999.2500  -999.2500
 1981.0000   115.4110   -51.8180   -47.0300     8.1140     6.2300     6.4120  -999.2500  -999.2500  -999.2500  -999.2500  -999.2500
 1981.5000   122.2640   -51.6210   -47.0300     7.7430     6.1220     6.2990  -999.2500  -999.2500  -999.2500  -999.2500  -999.2500
 1982.0000   129.2580   -51.4230   -47.0300     7.3710     6.0140     6.1860  -999.2500  -999.2500  -999.2500  -999.2500  -999.2500
