~VERSION INFORMATION
 VERS.                2.0:   CWLS LOG ASCII STANDARD - VERSION 2.0
 WRAP.                 NO:   ONE LINE PER DEPTH STEP
~WELL INFORMATION
#MNEM.UNIT      DATA TYPE    INFORMATION
#----------   ------------   ------------------------------
 STRT.F          197.0000:   START DEPTH
 STOP.F         3238.5000:   STOP DEPTH
 STEP.F            0.5000:   STEP LENGTH
 NULL.          -999.2500:   NO VALUE
 COMP.    FENIX & SCISSON:   COMPANY
 WELL. FENIX 28 "A" #28-11:   WELL
 FLD .              NPR-3:   FIELD
 LOC .      S11 T38N R78W:   LOCATION
 CNTY.            NATRONA:   COUNTY
 STAT.            WYOMING:   STATE
 CTRY. UNITED STATES OF AMERICA:   COUNTRY
 SRVC.              WELEX:   SERVICE COMPANY
 DATE.        25-OCT-1977:   LOGDATE
 API .     49025104350000:   API NUMBER
~CURVE INFORMATION
#MNEM.UNIT       API CODE    CURVE DESCRIPTION
#----------   ------------   ------------------------------
 DEPT.F                  :   
 SPR .MV     07 010 01 00:   SPONTANEOUS POTENTIAL
 TENR.LBS    07 635 01 00:   TENSION FROM RESISTIVITY
 ILM .OHMM   07 120 44 00:   INDUCTION LOG MEDIUM RESISTIVITY
 SGRD.OHMM   07 220 05 00:   SHALLOW SHORT GUARD RESISTIVITY
 ILD .OHMM   07 120 46 00:   INDUCTION LOG DEEP RESISTIVITY
 GRD .GAPI   45 310 01 00:   GAMMA RAY FROM DENSITY LOG
 CALD.IN     45 280 60 00:   CALIPER FROM DENSITY LOG
 CORR.G/C3   45 356 01 00:   DENSITY CORRECTION
 RHOB.G/C3   45 350 01 00:   BULK DENSITY
~PARAMETER INFORMATION
#MNEM.UNIT          VALUE    DESCRIPTION
#----------   ------------   ------------------------------
 EKB .F         5211.0000:   Kelly bushing
 EGL .F         5201.0000:   Ground level
 EDF .F            0.0000:   Drilling floor
 EPD .F         5201.0000:   Permanent datum
 TD  .F         3235.0000:   Total depth
 CLNT.            A2DTECH:   Client Code
 SL  . 330' FSL & 990' FWL:   Surface Location
 PD  .                 GL:   Permanent Datum
 DAPD.F                10:   Feet Above Permanent Datum
 DATE.        25-OCT-1977:   Date Logged [DD-MMM-YYYY]
 DD  .F              3235:   Depth driller
 DL  .F              3231:   Depth logger
 BLI .F              3229:   Bottom log interval
 TLI .F               200:   Top log interval
 CS1 .IN            8.625:   Casing size
 CBD1.      8.625" @ 217':   Casing driller 1
 CBL1.F               217:   Casing logger 1
 BS1 .              7.875:   Bit size
 BSD1.IN             3235:   Depth drilled with bit1
 DFT .            KCL MUD:   Type fluid in hole
 DFD .                8.9:   Density
 DFV .                 35:   Viscosity
 DFPH.               11.5:   pH
 DFL .               16.4:   Fluid loss
 MSS .           FLOWLINE:   Source of sample
 RMS .OHMM           1.18:   Rm
 MST .F                74:   Rm Meas. temp.
 RMF .OHMM           1.74:   Rmf
 MFST.F                74:   Rmf Meas. temp.
 MFSS.               MEAS:   Source Rmf.
 MCSS.               MEAS:   Source Rmc.
 RMB .OHMM           1.15:   Rm. at BHT
 BHT .F               116:   BHT.
 TCS .HRS               3:   Time Circ. stopped
 MRT .F               116:   Maximum recorded temp.
 LUN .               8611:   Logging unit number
 LUL .             CASPER:   Logging unit location
 ENGI.            C. DOAK:   Recorded By
 WITN.      W. PETTINGILL:   Witnessed by
 ORIG.           5" PRINT:   Origin of data
 UWI .     49025104350000:   Unique Well ID
 DICO. A2D TECHNOLOGIES, INC.:   Digitizing Company
~OTHER INFORMATION
~A   DEPT      SPR       TENR        ILM       SGRD        ILD         GRD      CALD       CORR       RHOB   
# ...
 1401.5000   -85.9691  1178.5691     6.6944    10.2081     6.1160   107.2872    10.0284    -0.0320     2.5070
 1402.0000   -85.9807  1166.7144     6.5995    10.0643     6.1573   108.2044    10.0275    -0.0243     2.5172
 1402.5000   -85.8410  1157.9342     6.5513     9.9233     6.1560   108.7365    10.0422    -0.0181     2.5232
 1403.0000   -85.5472  1174.1516     6.5943     9.7167     6.1807   109.5288    10.0411    -0.0121     2.5247
 1403.5000   -85.5617  1190.1199     6.5910     9.3835     6.2128   110.0389    10.0402    -0.0075     2.5217
 1404.0000   -85.7247  1206.0878     6.5884     9.2520     6.2311   110.9486    10.0428    -0.0029     2.5186
 1404.5000   -85.8904  1207.0858     6.5857     9.3779     6.2685   111.6691    10.0541    -0.0015     2.5186
 1405.0000   -85.9020  1208.0837     6.7216     9.4412     6.2653   112.6367    10.0531    -0.0016     2.5202
 1405.5000   -85.9136  1209.3313     6.8628     9.6362     6.3070   113.4034    10.0520    -0.0016     2.5246
 1406.0000   -85.9252  1195.1097     6.9054     9.6336     6.3039   113.3846    10.0512    -0.0017     2.5336
 1406.5000   -85.7852  1196.3574     6.8542     9.6980     6.3014   112.9095    10.0503    -0.0015     2.5343
 1407.0000   -85.7973  1197.3552     6.7570     9.7628     6.2988   111.9345    10.0652    -0.0003     2.5298
 1407.5000   -85.6575  1198.3534     6.6151     9.7595     6.2523   111.1154    10.0640    -0.0004     2.5268
 1408.0000   -85.5178  1199.6007     6.6119     9.7569     6.2395   110.2005    10.0683    -0.0005     2.5245
 1408.5000   -85.8349  1200.5989     6.7016     9.7543     6.2042   109.5615    10.0779    -0.0005     2.5245
 1409.0000   -85.9978  1201.5968     6.6066     9.7517     6.1589   108.9224    10.0925     0.0009     2.5260
 1409.5000   -86.0094  1202.5948     6.5129     9.7492     6.1565   108.9074    10.1073     0.0024     2.5283
 1410.0000   -86.0312  1188.6227     6.4206     9.7465     6.1534   109.5164    10.1062     0.0023     2.5327
 1410.5000   -86.1868  1189.8702     6.3736     9.7433     6.1510   110.4680    10.1209     0.0022     2.5342
 1411.0000   -86.3497  1190.8682     6.3711     9.6068     6.1061   111.0452    10.1356    -0.0009     2.5335
 1411.5000   -86.3613  1191.8663     6.5472     9.3418     6.1037   111.1909    10.1347    -0.0026     2.5214
 1412.0000   -86.2187  1192.8641     6.6823     9.1473     6.1012   110.7005    10.1337    -0.0088     2.5071
 1412.5000   -85.9306  1193.8623     6.7268     9.0818     6.0567   109.7495    10.1328    -0.0167     2.4943
 1413.0000   -86.2451  1195.1099     6.6308     9.0793     6.0537   108.5179    10.1318    -0.0229     2.4748
 1413.5000   -86.1081  1196.1078     6.4449     9.1400     5.9681   107.5351    10.1468    -0.0292     2.4711
 1414.0000   -85.8171  1197.1060     6.1807     9.2005     5.9245   106.8955    10.1456    -0.0340     2.4680
 1414.5000   -85.8287  1198.1038     6.0930     9.1983     5.8407   106.2534    10.1447    -0.0371     2.4643
 1415.0000   -86.1429  1199.1019     6.3496     9.2202     5.7981   105.9264    10.1436    -0.0388     2.4598
 1415.5000   -86.3058  1185.1296     6.5258     9.3214     5.8766   106.2271    10.1271    -0.0419     2.4582
 1416.0000   -86.0148  1186.3773     6.7068     9.3836     5.9151   106.2083    10.1263    -0.0420     2.4687
 1416.5000   -85.8751  1187.3751     6.7508     9.5774     5.9538   106.1934    10.1253    -0.0405     2.4777
 1417.0000   -85.8896  1188.3733     6.7475     9.6421     6.0345   106.1778    10.1244    -0.0360     2.4792
 1417.5000   -86.3551  1189.3712     6.6981     9.7065     6.0315   106.4714    10.1233    -0.0330     2.4800
 1418.0000   -86.5151  1205.5889     6.6955     9.6363     6.0290   106.7684    10.1223    -0.0299     2.4882
 1418.5000   -85.9244  1206.5868     6.6928     9.5673     5.9432   106.8409    10.1216    -0.0238     2.5024
 1419.0000   -85.7848  1237.5249     6.6901     9.4248     5.9408   107.0541    10.1206    -0.0161     2.5177
 1419.5000   -85.9506  1238.5228     6.6868     9.0462     5.8975   107.1022    10.1196    -0.0100     2.5339
 1420.0000   -85.9622  1239.5210     6.6379     8.9194     5.8951   107.3323    10.1188    -0.0039     2.5452
 1420.5000   -85.9738  1240.7683     6.6822     8.9171     5.8928   107.3167    10.1176     0.0008     2.5489
 1421.0000   -86.2880  1241.7665     6.8194     8.9773     5.8868   107.2985    10.1169     0.0099     2.5527
 1421.5000   -86.6022  1227.5449     6.8654     8.9743     5.7664   106.6594    10.1159     0.0145     2.5563
 1422.0000   -86.7655  1213.8224     6.8133     8.9718     5.7641   106.1466    10.1149     0.0191     2.5602
 1422.5000   -86.1745  1214.8203     6.6241     8.9689     5.7221   104.8363    10.1140     0.0190     2.5624
 1423.0000   -86.0319  1216.0679     6.4401     8.9665     5.7198   103.4942    10.1131     0.0158     2.5474
 1423.5000   -85.7438  1217.0658     6.3930     8.9641     5.7175   101.9189    10.1120     0.0080     2.5406
 1424.0000   -85.9067  1218.0638     6.3888     9.0867     5.7550   101.2762    10.1111     0.0002     2.5376
 1424.5000   -86.0696  1219.0618     6.5289     9.1477     5.7521   101.2612    10.1102    -0.0015     2.5353
 1425.0000   -86.0841  1220.0599     6.5652     8.9564     5.7101   102.1822    10.1093     0.0015     2.5330
 1425.5000   -86.2470  1221.3075     6.3381     8.7094     5.7079   104.0392    10.1084     0.0046     2.5285
 1426.0000   -86.1044  1222.3054     6.1195     8.5281     5.5883   105.2760    10.1231     0.0029     2.5206
 1426.5000   -86.1189  1208.0837     6.0747     8.5850     5.5475   106.9502    10.1222    -0.0002     2.5090
 1427.0000   -86.1305  1209.3313     6.0723     8.7629     5.3933   108.5646    10.1211    -0.0050     2.5044
 1427.5000   -86.1422  1210.3295     6.1970     8.5192     5.2803   109.5953    10.1358    -0.0082     2.4992
 1428.0000   -86.1567  1211.3772     6.5029     8.0593     5.2418   110.2043    10.1349    -0.0098     2.4932
 1428.5000   -86.3196  1212.4252     7.1141     7.7293     5.2397   110.1855    10.1340    -0.0114     2.4920
 1429.0000   -86.6337  1213.5728     6.4978     7.6744     5.2376   109.8596    10.1488    -0.0130     2.5074
 1429.5000   -86.1886  1214.5709     6.2297     7.8873     5.2355   109.5314    10.1635    -0.0131     2.5231
 1430.0000   -86.5057  1215.5688     6.0566     8.1067     5.2329   108.8924    10.1623    -0.0147     2.5141
 1430.5000   -86.8200  1216.8164     5.9708     8.2757     5.2308   107.6287    10.1615    -0.0148     2.5163
 1431.0000   -86.8344  1217.8143     5.9271     8.3879     5.2656   106.6744    10.1606    -0.0133     2.5216
 1431.5000   -86.9973  1218.8124     5.9666     8.5020     5.3369   105.7234    10.1596    -0.0116     2.5253
 1432.0000   -87.0089  1219.8103     5.9636     8.4998     5.3713   105.0843    10.1587    -0.0093     2.5223
 1432.5000   -87.0205  1220.8085     5.9200     8.5566     5.4120   105.0693    10.1576    -0.0074     2.5170
 1433.0000   -86.8808  1222.0558     5.9171     8.5544     5.4797   105.0542    10.1411    -0.0137     2.5133
 1433.5000   -86.5815  1223.0540     5.9147     8.5520     5.5156   105.3668    10.1403    -0.0184     2.5088
 1434.0000   -86.2989  1224.0518     5.9124     8.4902     5.5129   106.5805    10.1424    -0.0247     2.5035
 1434.5000   -86.3134  1225.0499     5.9100     8.4294     5.5107   107.5015    10.1461    -0.0263     2.5005
 1435.0000   -86.4763  1226.0479     5.9076     8.2539     5.4314   108.7345    10.1498    -0.0264     2.4997
 1435.5000   -86.4879  1227.2954     5.9047     8.1947     5.3553   109.2357    10.1535    -0.0233     2.5057
 1436.0000   -86.3480  1228.2933     5.9435     8.1925     5.3162   110.2026    10.1572    -0.0172     2.5282
 1436.5000   -86.3601  1229.2914     5.9831     8.1338     5.3141   111.1856    10.1609    -0.0111     2.5405
 1437.0000   -86.5256  1230.2893     5.9801     8.1311     5.3495   111.7944    10.1646    -0.0065     2.5492
 1437.5000   -86.8398  1231.2875     5.9364     8.1860     5.4214   111.7757    10.1683    -0.0050     2.5552
