~VERSION INFORMATION
 VERS.                2.0:   CWLS LOG ASCII STANDARD - VERSION 2.0
 WRAP.                 NO:   ONE LINE PER DEPTH STEP
~WELL INFORMATION
#MNEM.UNIT      DATA TYPE    INFORMATION
#----------   ------------   ------------------------------
 STRT.F            1.0000:   START DEPTH
 STOP.F         2854.0000:   STOP DEPTH
 STEP.F            0.5000:   STEP LENGTH
 NULL.          -999.2500:   NO VALUE
 COMP.          INTEX OIL:   COMPANY
 WELL. INTEX N.P.R. "AX" #42-29:   WELL
 FLD .             TEAPOT:   FIELD
 LOC .      S29 T39N R78W:   LOCATION
 CNTY.            NATRONA:   COUNTY
 STAT.            WYOMING:   STATE
 CTRY. UNITED STATES OF AMERICA:   COUNTRY
 SRVC.       SCHLUMBERGER:   SERVICE COMPANY
 DATE.        30-MAY-1986:   LOGDATE
 API .     49025095240000:   API NUMBER
~CURVE INFORMATION
#MNEM.UNIT       API CODE    CURVE DESCRIPTION
#----------   ------------   ------------------------------
 DEPT.F                  :   
 SPR .MV     05 010 01 00:   SPONTANEOUS POTENTIAL FROM RES.
 ASN .OHMM   05 041 16 00:   AMPLIFIED SHORT NORMAL 16"
 ILD .OHMM   05 120 46 00:   INDUCTION LOG DEEP
 GRD .GAPI   45 310 01 00:   GAMMA RAY FROM DENSITY LOG
 CALD.IN     45 280 60 00:   CALIPER FROM DENSITY LOG
 CORR.G/C3   45 356 01 00:   DENSITY CORRECTION
 RHOB.G/C3   45 350 01 00:   BULK DENSITY
 CALI.IN     30 280 01 00:   CALIPER FROM GAMMA RAY LOG
 GR  .GAPI   30 310 01 00:   GAMMA RAY
~PARAMETER INFORMATION
#MNEM.UNIT          VALUE    DESCRIPTION
#----------   ------------   ------------------------------
 EKB .F         5020.3000:   Kelly bushing
 EGL .F         5010.0000:   Ground level
 EDF .F            0.0000:   Drilling floor
 TD  .F         2860.0000:   Total depth
 CLNT.            A2DTECH:   Client Code
 DATE.        30-MAY-1986:   Date Logged [DD-MMM-YYYY]
 DD  .F              2860:   Depth driller
 DL  .F              2855:   Depth logger
 BLI .F              2854:   Bottom log interval
 TLI .F               164:   Top log interval
 CS1 .              8.625:   Casing size
 CBD1.      8.625" @ 167':   Casing driller 1
 CBL1.IN              164:   Casing logger 1
 BS1 .IN            7.875:   Bit size
 BSD1.F              2860:   Depth drilled with bit1
 DFT .  LIGND-SULFATE LCM:   Type fluid in hole
 DFD .                8.9:   Density
 DFV .                 33:   Viscosity
 DFPH.               11.0:   pH
 DFL .                9.2:   Fluid loss
 MSS .           FLOWLINE:   Source of sample
 RMS .OHMM           1.47:   Rm
 MST .F                55:   Rm Meas. temp.
 RMF .OHMM           1.13:   Rmf
 MFST.F                75:   Rmf Meas. temp.
 RMB .OHMM           0.78:   Rm. at BHT
 BHT .F               108:   BHT.
 TCS .HRS               3:   Time Circ. stopped
 MRT .F               108:   Maximum recorded temp.
 LUN .               3527:   Logging unit number
 LUL .               CSPR:   Logging unit location
 ENGI.            MANGOLO:   Recorded By
 WITN.             TUTTLE:   Witnessed by
 ORIG.      1" 2.5" PRINT:   Origin of data
 UWI .     49025095240000:   Unique Well ID
 DICO. A2D TECHNOLOGIES, INC.:   Digitizing Company
 PD  .                 GL:   Permanent Datum
 EPD .               5010:   Elevation Permanent Datum
 LMF .                 KB:   Log Measured From
 DMF .                 KB:   Drilling Measured From
 DAPD.              10.32:   Feet Above Permanent Datum
 MFSS.         MEAS PRESS:   Source Rmf.
~OTHER INFORMATION
~A    DEPT     SPR        ASN        ILD        GRD       CALD       CORR       RHOB        CALI        GR   
# ...
 2556.0000   -34.5455    11.0788     7.8121    91.8645     8.2454     0.0263     2.5518  -999.2500  -999.2500
 2556.5000   -35.4545    11.0793     8.1159    87.2320     8.2446     0.0338     2.5895  -999.2500  -999.2500
 2557.0000   -35.4545    11.3788     8.2682    83.3446     8.2439     0.0490     2.6023  -999.2500  -999.2500
 2557.5000   -34.8485    11.8277     8.4230    84.0346     8.2431     0.0612     2.5886  -999.2500  -999.2500
 2558.0000   -34.5455    12.4236     8.7302    85.1874     8.2424     0.0634     2.5687  -999.2500  -999.2500
 2558.5000   -34.5455    12.8728     8.8861    86.8046     8.2416     0.0392     2.5525  -999.2500  -999.2500
 2559.0000   -34.8485    13.2874     9.0288    90.7289     8.2408     0.0226     2.5479  -999.2500  -999.2500
 2559.5000   -35.4545    13.4349     9.0295    92.5061     8.2401     0.0142     2.5559  -999.2500  -999.2500
 2560.0000   -35.4545    13.4354     8.8787    92.5816     8.2393     0.0163     2.5454  -999.2500  -999.2500
 2560.5000   -35.7576    13.2887     8.8559    93.0267     8.2385     0.0186     2.5269  -999.2500  -999.2500
 2561.0000   -36.0606    13.1421     8.7014    96.1424     8.2378     0.0112     2.5285  -999.2500  -999.2500
 2561.5000   -36.0606    12.8484     8.5473   100.5935     8.2370     0.0060     2.5426  -999.2500  -999.2500
 2562.0000   -36.3636    12.7018     8.4272   103.7092     8.2669     0.0199     2.5508  -999.2500  -999.2500
 2562.5000   -36.3636    12.4081     8.4280   105.0445     8.2661     0.0302     2.5532  -999.2500  -999.2500
 2563.0000   -36.0606    12.2615     8.2772   103.7092     8.2654     0.0317     2.5468  -999.2500  -999.2500
 2563.5000   -35.7576    12.1149     8.2780    99.7033     8.2646     0.0421     2.5607  -999.2500  -999.2500
 2564.0000   -35.4545    11.9683     8.2788    96.5875     8.2638     0.0440     2.5515  -999.2500  -999.2500
 2564.5000   -35.1515    12.1158     8.2795    94.8071     8.2631     0.0180     2.5393  -999.2500  -999.2500
 2565.0000   -34.8485    12.2633     8.4318    93.9169     8.2623     0.0088     2.5368  -999.2500  -999.2500
 2565.5000   -34.8656    12.4107     8.4326    95.6973     8.2615     0.0131     2.5428  -999.2500  -999.2500
 2566.0000   -35.4545    12.7053     8.4334    97.9224     8.2608     0.0145     2.5492  -999.2500  -999.2500
 2566.5000   -35.4545    12.7057     8.4341   102.0467     8.2600     0.0169     2.5637  -999.2500  -999.2500
 2567.0000   -35.4162    12.7062     8.4349   104.8668     8.2592     0.0312     2.5828  -999.2500  -999.2500
 2567.5000   -34.8485    12.8537     8.2841   107.0474     8.2620     0.0458     2.5876  -999.2500  -999.2500
 2568.0000   -34.8485    12.1189     8.2849   107.9229     8.2884     0.0530     2.5737  -999.2500  -999.2500
 2568.5000   -34.8485    11.8252     8.2856   106.4987     8.2875     0.0574     2.5741  -999.2500  -999.2500
 2569.0000   -34.8485    11.6786     8.1348   103.5312     8.2868     0.0601     2.5619  -999.2500  -999.2500
 2569.5000   -34.8485    11.5319     8.0482   103.2641     8.2860     0.0568     2.5378  -999.2500  -999.2500
 2570.0000   -34.8485    11.6794     7.9848   103.7092     8.2893     0.0320     2.5334  -999.2500  -999.2500
 2570.5000   -34.8485    11.8269     7.9857   103.2641     8.3152     0.0143     2.5290  -999.2500  -999.2500
 2571.0000   -34.8485    12.1215     7.9865   103.6204     8.3144     0.0069     2.5290  -999.2500  -999.2500
 2571.5000   -34.7464    12.2690     8.1388   105.6974     8.3136     0.0098     2.5305  -999.2500  -999.2500
 2572.0000   -34.5455    12.5635     8.2910   105.9347     8.3436     0.0157     2.5319  -999.2500  -999.2500
 2572.5000   -34.6617    12.7110     8.4433   102.1518     8.3428     0.0127     2.5334  -999.2500  -999.2500
 2573.0000   -34.8485    12.7115     8.5956   100.0296     8.3420     0.0082     2.5275  -999.2500  -999.2500
 2573.5000   -34.8485    12.8590     8.7478    98.3680     8.3412     0.0097     2.5290  -999.2500  -999.2500
 2574.0000   -34.8485    12.8594     8.9001    98.3953     8.3405     0.0170     2.5334  -999.2500  -999.2500
 2574.5000   -34.5455    13.0069     8.9008    98.5523     8.3397     0.0229     2.5353  -999.2500  -999.2500
 2575.0000   -34.5455    13.0073     9.0531    98.5385     8.3389     0.0229     2.5438  -999.2500  -999.2500
 2575.5000   -34.5455    13.0078     9.0538    98.5246     8.3382     0.0228     2.5629  -999.2500  -999.2500
 2576.0000   -34.5455    13.0082     8.9031    98.7814     8.3374     0.0316     2.5746  -999.2500  -999.2500
 2576.5000   -34.5455    12.8616     8.6008   100.8858     8.3366     0.0405     2.5673  -999.2500  -999.2500
 2577.0000   -34.5455    12.8620     8.4500   102.7204     8.3359     0.0404     2.5658  -999.2500  -999.2500
 2577.5000   -34.5455    12.7154     8.2993   104.8274     8.3351     0.0419     2.5673  -999.2500  -999.2500
 2578.0000   -34.5455    12.5688     8.1485   107.5847     8.3343     0.0463     2.5688  -999.2500  -999.2500
 2578.5000   -34.5455    12.3842     7.9977   108.2332     8.3395     0.0492     2.5717  -999.2500  -999.2500
 2579.0000   -34.5455    12.2340     7.8470   105.4482     8.3636     0.0506     2.5762  -999.2500  -999.2500
 2579.5000   -34.8485    11.9818     7.8477   102.9382     8.3627     0.0553     2.5821  -999.2500  -999.2500
 2580.0000   -34.8485    11.8352     7.8485   101.1665     8.3619     0.0653     2.5791  -999.2500  -999.2500
 2580.5000   -34.8485    11.8884     7.8492   100.5100     8.3612     0.0512     2.5453  -999.2500  -999.2500
 2581.0000   -34.8485    12.0396     8.0015   102.0619     8.3668     0.0292     2.5321  -999.2500  -999.2500
 2581.5000   -34.8485    12.3378     8.1538   101.5865     8.3904     0.0119     2.5453  -999.2500  -999.2500
 2582.0000   -34.8485    12.6361     8.3061   100.6496     8.3896     0.0092     2.5556  -999.2500  -999.2500
 2582.5000   -34.8485    12.8669     8.4584   101.0973     8.3888     0.0168     2.5453  -999.2500  -999.2500
 2583.0000   -34.8485    13.0855     8.6419    98.3142     8.4188     0.0226     2.5380  -999.2500  -999.2500
 2583.5000   -34.8485    13.2367     8.9492    95.0696     8.4179     0.0221     2.5336  -999.2500  -999.2500
 2584.0000   -34.5455    13.3879     9.1051    93.2096     8.4172     0.0174     2.5351  -999.2500  -999.2500
 2584.5000   -34.5455    13.6860     9.4124    90.8881     8.4164     0.0135     2.5409  -999.2500  -999.2500
 2585.0000   -34.5455    14.0701     9.6742    89.0281     8.4156     0.0151     2.5454  -999.2500  -999.2500
 2585.5000   -34.8485    14.7814     9.8755    86.7066     8.4149     0.0165     2.5424  -999.2500  -999.2500
 2586.0000   -35.4545    15.3701    10.1829    84.8466     8.4449     0.0178     2.5380  -999.2500  -999.2500
 2586.5000   -35.1293    15.8117    10.3386    82.9866     8.4440     0.0161     2.5410  -999.2500  -999.2500
 2587.0000   -34.2424    16.2533    10.6459    82.0497     8.4432     0.0148     2.5483  -999.2500  -999.2500
 2587.5000   -34.2173    16.5479    10.8018    83.4205     8.4425     0.0184     2.5542  -999.2500  -999.2500
 2588.0000   -33.9394    16.9895    10.8909    85.2528     8.4339     0.0288     2.5675  -999.2500  -999.2500
 2588.5000   -34.2819    17.2840    10.9618    85.2390     8.4103     0.0376     2.5866  -999.2500  -999.2500
 2589.0000   -34.5455    17.4315    10.9701    86.1482     8.4095     0.0467     2.6028  -999.2500  -999.2500
 2589.5000   -34.5455    17.4320    10.8932    88.9036     8.4087     0.0530     2.6013  -999.2500  -999.2500
 2590.0000   -34.5455    17.1383    10.8939    89.5230     8.4080     0.0479     2.5851  -999.2500  -999.2500
 2590.5000   -34.5455    16.6975    10.8947    88.8759     8.4072     0.0405     2.5690  -999.2500  -999.2500
 2591.0000   -34.5455    16.2568    10.8076    88.4006     8.4064     0.0346     2.5558  -999.2500  -999.2500
 2591.5000   -34.5455    15.9631    10.7447    87.9252     8.4057     0.0283     2.5484  -999.2500  -999.2500
 2592.0000   -34.5455    15.8165    10.5940    87.9114     8.3742     0.0209     2.5455  -999.2500  -999.2500
