~VERSION INFORMATION
 VERS.                2.0:   CWLS LOG ASCII STANDARD - VERSION 2.0
 WRAP.                 NO:   ONE LINE PER DEPTH STEP
~WELL INFORMATION
#MNEM.UNIT      DATA TYPE    INFORMATION
#----------   ------------   ------------------------------
 STRT.F          640.0000:   START DEPTH
 STOP.F         2792.0000:   STOP DEPTH
 STEP.F            0.5000:   STEP LENGTH
 NULL.          -999.2500:   NO VALUE
 COMP.    FENIX & SCISSON:   COMPANY
 WELL.   FENIX SHX #41-11:   WELL
 FLD .        TEAPOT DOME:   FIELD
 LOC .      S11 T38N R78W:   LOCATION
 CNTY.            NATRONA:   COUNTY
 STAT.            WYOMING:   STATE
 CTRY. UNITED STATES OF AMERICA:   COUNTRY
 SRVC.           BIRDWELL:   SERVICE COMPANY
 DATE.        07-JUL-1979:   LOGDATE
 API .     49025107880000:   API NUMBER
~CURVE INFORMATION
#MNEM.UNIT       API CODE    CURVE DESCRIPTION
#----------   ------------   ------------------------------
 DEPT.F                  :   
 CALD.IN     45 280 60 00:   CALIPER FROM DENSITY LOG
 RHOB.G/C3   45 350 01 00:   BULK DENSITY
 CORR.G/C3   45 356 01 00:   DENSITY CORRECTION
 GRD .GAPI   45 310 01 00:   GAMMA RAY FROM DENSITY LOG
~PARAMETER INFORMATION
#MNEM.UNIT          VALUE    DESCRIPTION
#----------   ------------   ------------------------------
 EKB .F         5168.0000:   Kelly bushing
 EGL .F         5158.0000:   Ground level
 EDF .F            0.0000:   Drilling floor
 EPD .F            0.0000:   Permanent datum
 TD  .F         2801.0000:   Total depth
 DATE.        07-JUL-1979:   Date logged
 CLNT.            A2DTECH:   Client Code
 SL  . 95' FNL & 2414' FWL:   Surface Location
 PD  .                 GL:   Permanent Datum
 DAPD.F                10:   Feet Above Permanent Datum
 DD  .F              2801:   Depth driller
 DL  .F              2791:   Depth logger
 BLI .F              2790:   Bottom log interval
 TLI .F               640:   Top log interval
 CS1 .IN            9.625:   Casing size
 CBD1.      9.625" @ 909':   Casing driller 1
 CBL1.F               910:   Casing logger 1
 BS1 .IN             8.75:   Bit size
 BSD1.F              2801:   Depth drilled with bit1
 DFT .                AIR:   Type fluid in hole
 LUN .               2959:   Logging unit number
 LUL .             CASPER:   Logging unit location
 ENGI.         B. RULLINS:   Recorded By
 WITN.           GINSMORE:   Witnessed by
 ORIG.           5" PRINT:   Origin of data
 UWI .     49025107880000:   Unique Well ID
 DICO. A2D TECHNOLOGIES, INC.:   Digitizing Company
~OTHER INFORMATION
~A   DEPT     CALD       RHOB       CORR         GRD  
# ...
 2465.0000     9.5790     2.4970     0.0140    99.4070
 2465.5000     9.6090     2.4970     0.0140   102.5590
 2466.0000     9.6340     2.4930     0.0150   107.0740
 2466.5000     9.6580     2.4820     0.0110   111.9970
 2467.0000     9.6820     2.4710     0.0080   113.9880
 2467.5000     9.7060     2.4590     0.0060   113.9880
 2468.0000     9.7300     2.4520     0.0040   111.0300
 2468.5000     9.7450     2.4610     0.0090   108.0780
 2469.0000     9.7530     2.4730     0.0160   105.2190
 2469.5000     9.7620     2.4820     0.0200   105.2580
 2470.0000     9.7720     2.4830     0.0200   111.6100
 2470.5000     9.7820     2.4720     0.0240   117.1250
 2471.0000     9.7920     2.4580     0.0320   122.6080
 2471.5000     9.8020     2.4440     0.0320   128.1280
 2472.0000     9.8110     2.4390     0.0340   130.1600
 2472.5000     9.8210     2.4450     0.0340   126.4900
 2473.0000     9.8310     2.4490     0.0340   121.4810
 2473.5000     9.8410     2.4500     0.0260   119.9290
 2474.0000     9.8510     2.4580     0.0210   123.8920
 2474.5000     9.8620     2.4700     0.0290   129.4410
 2475.0000     9.8090     2.4760     0.0320   126.4070
 2475.5000     9.7480     2.4760     0.0320   125.7340
 2476.0000     9.6870     2.4610     0.0270   125.8910
 2476.5000     9.6260     2.4500     0.0200   122.7470
 2477.0000     9.5660     2.4500     0.0140   119.5950
 2477.5000     9.5050     2.4500     0.0080   116.4540
 2478.0000     9.4440     2.4460     0.0060   112.6700
 2478.5000     9.3690     2.4440     0.0060   117.8310
 2479.0000     9.2400     2.4520     0.0180   127.6140
 2479.5000     9.1160     2.4670     0.0320   137.5440
 2480.0000     8.9900     2.4600     0.0360   147.4180
 2480.5000     8.9570     2.4540     0.0330   157.4800
 2481.0000     8.9980     2.4530     0.0280   158.9880
 2481.5000     9.0400     2.4520     0.0230   156.0310
 2482.0000     9.0830     2.4420     0.0210   152.0610
 2482.5000     9.1240     2.4370     0.0250   148.0520
 2483.0000     9.1610     2.4380     0.0280   146.5320
 2483.5000     9.1670     2.4400     0.0250   148.3990
 2484.0000     9.1740     2.4400     0.0220   146.0980
 2484.5000     9.1810     2.4370     0.0200   140.6420
 2485.0000     9.1880     2.4350     0.0200   143.1890
 2485.5000     9.1950     2.4350     0.0220   146.9500
 2486.0000     9.2000     2.4370     0.0220   146.4500
 2486.5000     9.2270     2.4430     0.0190   143.5200
 2487.0000     9.2770     2.4500     0.0140   141.8520
 2487.5000     9.3280     2.4490     0.0090   144.1560
 2488.0000     9.3780     2.4370     0.0060   148.1940
 2488.5000     9.4290     2.4340     0.0090   147.8470
 2489.0000     9.4790     2.4380     0.0170   146.7390
 2489.5000     9.5300     2.4420     0.0250   147.6090
 2490.0000     9.5800     2.4420     0.0330   157.0230
 2490.5000     9.6300     2.4430     0.0360   153.6190
 2491.0000     9.6580     2.4420     0.0310   147.7770
 2491.5000     9.6480     2.4460     0.0230   142.3640
 2492.0000     9.6380     2.4510     0.0160   141.7330
 2492.5000     9.6290     2.4500     0.0080   156.4120
 2493.0000     9.6190     2.4300     0.0010   157.4750
 2493.5000     9.6100     2.4090    -0.0060   154.4980
 2494.0000     9.6000     2.3580    -0.0050   153.3630
 2494.5000     9.5900     2.2780    -0.0010   156.3780
 2495.0000     9.5790     2.1970     0.0650   157.9090
 2495.5000     9.6090     2.1810     0.2700   151.8060
 2496.0000     9.8510     2.4390     0.4860   146.1040
 2496.5000    10.7680     2.5700     0.5000   145.4940
 2497.0000    11.3680     2.4840     0.5000   148.5170
 2497.5000    10.9380     2.3680     0.4200   150.6250
 2498.0000    10.3450     2.2940     0.2040   152.7400
 2498.5000     9.9890     2.3190     0.0740   154.8350
 2499.0000    10.0170     2.3760     0.1010   155.7860
 2499.5000     9.9240     2.4080     0.1230   147.9830
 2500.0000     9.7060     2.4110     0.0630   143.3650
 2500.5000     9.6040     2.4210     0.0130   143.4170
 2501.0000     9.6060     2.4320     0.0220   148.8220
 2501.5000     9.6100     2.4420     0.0360   153.0410
 2502.0000     9.6140     2.4440     0.0360   153.6870
 2502.5000     9.6180     2.4320     0.0380   144.2060
 2503.0000     9.6220     2.4240     0.0370   146.3920
 2503.5000     9.6240     2.4280     0.0360   148.9670
 2504.0000     9.5430     2.4370     0.0350   145.6350
 2504.5000     9.4550     2.4470     0.0340   141.5820
 2505.0000     9.3810     2.4500     0.0330   141.7340
 2505.5000     9.3940     2.4520     0.0320   144.7970
 2506.0000     9.4000     2.4540     0.0310   140.9640
 2506.5000     9.3470     2.4560     0.0280   136.8220
 2507.0000     9.2200     2.4670     0.0290   133.5300
 2507.5000     9.0940     2.4800     0.0440   134.0700
 2508.0000     9.1010     2.4800     0.0480   138.3440
 2508.5000     9.1300     2.4750     0.0400   142.4060
 2509.0000     9.1590     2.4720     0.0320   142.4150
 2509.5000     9.1580     2.4750     0.0320   141.0930
 2510.0000     9.1440     2.4810     0.0350   148.3900
 2510.5000     9.1290     2.4880     0.0360   143.0040
 2511.0000     9.1150     2.4940     0.0360   141.5820
 2511.5000     9.1010     2.5010     0.0360   145.3230
 2512.0000     9.0870     2.5060     0.0340   149.1200
 2512.5000     9.0730     2.5060     0.0230   150.6410
 2513.0000     9.0580     2.4970     0.0130   143.9070
 2513.5000     9.0440     2.4890     0.0060   136.5490
 2514.0000     9.0300     2.4810     0.0080   133.8920
 2514.5000     9.0160     2.4730     0.0100   139.1840
 2515.0000     9.0020     2.4650     0.0100   147.7570
 2515.5000     9.0030     2.4580     0.0100   147.6170
 2516.0000     9.0080     2.4570     0.0160   141.9240
 2516.5000     9.0130     2.4570     0.0240   143.4300
 2517.0000     9.0180     2.4540     0.0220   147.8420
 2517.5000     9.0240     2.4480     0.0140   152.5020
 2518.0000     9.0290     2.4420     0.0120   155.2440
 2518.5000     9.0340     2.4430     0.0190   155.2100
 2519.0000     9.0390     2.4540     0.0270   154.0790
 2519.5000     9.0440     2.4650     0.0320   150.1150
 2520.0000     9.0490     2.4750     0.0280   146.2760
 2520.5000     9.0540     2.4750     0.0230   142.3610
 2521.0000     9.0590     2.4740     0.0200   141.4310
 2521.5000     9.0640     2.4720     0.0210   142.4830
 2522.0000     9.0690     2.4740     0.0260   145.4960
 2522.5000     9.0740     2.4790     0.0320   147.5490
 2523.0000     9.0790     2.4820     0.0320   142.3590
 2523.5000     9.0800     2.4650     0.0260   138.4620
 2524.0000     9.0800     2.4500     0.0170   138.9740
 2524.5000     9.0800     2.4530     0.0120   142.0110
 2525.0000     9.0800     2.4780     0.0190   145.0910
 2525.5000     9.0800     2.4770     0.0240   145.4370
 2526.0000     9.0800     2.4540     0.0170   141.2560
 2526.5000     9.0800     2.4450     0.0080   136.9760
 2527.0000     9.0800     2.4540     0.0080   133.7560
 2527.5000     9.0800     2.4660     0.0150   134.1900
 2528.0000     9.0800     2.4750     0.0180   133.0280
 2528.5000     9.0800     2.4740     0.0180   132.1840
 2529.0000     9.0800     2.4730     0.0160   134.4170
 2529.5000     9.0800     2.4690     0.0180   139.6560
 2530.0000     9.0800     2.4650     0.0200   144.9260
 2530.5000     9.0800     2.4630     0.0200   146.5920
 2531.0000     9.0800     2.4630     0.0150   146.1310
 2531.5000     9.0800     2.4560     0.0100   143.8670
 2532.0000     9.0800     2.4490     0.0050   141.5640
 2532.5000     9.0800     2.4460     0.0040   139.2670
 2533.0000     9.0800     2.4470     0.0070   136.9620
 2533.5000     9.0800     2.4530     0.0110   136.4160
 2534.0000     9.0800     2.4540     0.0150   138.5580
 2534.5000     9.0800     2.4490     0.0190   143.3940
 2535.0000     9.0800     2.4430     0.0230   147.8510
 2535.5000     9.0800     2.4430     0.0260   147.6880
 2536.0000     9.0800     2.4540     0.0260   138.9530
 2536.5000     9.0800     2.4650     0.0180   133.6870
 2537.0000     9.0800     2.4750     0.0120   131.5380
 2537.5000     9.0800     2.4720     0.0050   129.3220
