~VERSION INFORMATION
 VERS.                2.0:   CWLS LOG ASCII STANDARD - VERSION 2.0
 WRAP.                 NO:   ONE LINE PER DEPTH STEP
~WELL INFORMATION
#MNEM.UNIT      DATA TYPE    INFORMATION
#----------   ------------   ------------------------------
 STRT.F           14.0000:   START DEPTH
 STOP.F         3246.0000:   STOP DEPTH
 STEP.F            0.5000:   STEP LENGTH
 NULL.          -999.2500:   NO VALUE
 COMP.   LAWRENCE ALLISON:   COMPANY
 WELL. LAWRENCE "34X" #11:   WELL
 FLD .             N.P.R.:   FIELD
 LOC .      S34 T38N R78W:   LOCATION
 CNTY.            NATRONA:   COUNTY
 STAT.            WYOMING:   STATE
 CTRY. UNITED STATES OF AMERICA:   COUNTRY
 SRVC.      DRESSER ATLAS:   SERVICE COMPANY
 DATE.        02-MAY-1985:   LOGDATE
 API .     49025110530001:   API NUMBER
~CURVE INFORMATION
#MNEM.UNIT       API CODE    CURVE DESCRIPTION
#----------   ------------   ------------------------------
 DEPT.F                  :   
 CNC .DEC    42 890 03 00:   NEUTRON POROSITY
 CALD.IN     45 280 60 00:   CALIPER FROM DENSITY LOG
 CORR.G/C3   45 356 01 00:   DENSITY CORRECTION
 RHOB.G/C3   45 350 01 00:   BULK DENSITY
 GRR .GAPI   07 310 01 00:   GAMMA RAY FROM RESISTIVITY
 SPR .MV     07 010 01 00:   SPONTANEOUS POTENTIAL FROM RES.
 TENR.LBS    06 635 01 00:   TENSION FROM RESISTIVITY
 RILD.OHMM   07 120 46 00:   DEEP INDUCTION RESISTIVITY
 RILM.OHMM   07 120 44 00:   INDUCTION LOG MEDIUM RESISTIVITY
 RFOC.OHMM   07 220 04 00:   RESISTIVITY FOCUSED LOG RES.
~PARAMETER INFORMATION
#MNEM.UNIT          VALUE    DESCRIPTION
#----------   ------------   ------------------------------
 EKB .F         5099.0000:   Kelly bushing
 TD  .F         3239.0000:   Total depth
 CLNT.            A2DTECH:   Client Code
 PD  .                 GL:   Permanent Datum
 EPD .F              5087:   Elevation Permanent Datum
 LMF .                 KB:   Log Measured From
 DMF .                 KB:   Drilling Measured From
 DAPD.F                12:   Feet Above Permanent Datum
 DATE.        02-MAY-1985:   Date Logged [DD-MMM-YYYY]
 DD  .F              3239:   Depth driller
 DL  .F              3242:   Depth logger
 BLI .F              3294:   Bottom log interval
 CS1 .IN            8.625:   Casing size
 CBD1.      8.625" @ 487':   Casing driller 1
 CBL1.F               487:   Casing logger 1
 BS1 .IN            7.875:   Bit size
 BSD1.F              3239:   Depth drilled with bit1
 DFT .            KCL GEL:   Type fluid in hole
 DFD .                9.1:   Density
 DFV .                 35:   Viscosity
 DFPH.                  8:   pH
 DFL .                9.8:   Fluid loss
 MSS .           FLOWLINE:   Source of sample
 RMS .OHMM           0.27:   Rm
 MST .F                68:   Rm Meas. temp.
 RMF .OHMM           0.20:   Rmf
 MFST.F                68:   Rmf Meas. temp.
 MFSS.               MEAS:   Source Rmf.
 RMC .OHMM           0.34:   Rmc
 MCST.F                68:   Rmc Meas. temp.
 MCSS.               CALC:   Source Rmc.
 RMB .OHMM           0.15:   Rm. at BHT
 BHT .F               126:   BHT.
 TCS .HRS               3:   Time Circ. stopped
 MRT .F               126:   Maximum recorded temp.
 LUN .               6274:   Logging unit number
 LUL .               GLTE:   Logging unit location
 ENGI.       MACK/EDWARDS:   Recorded By
 WITN.             STRONG:   Witnessed by
 ORIG.           5" PRINT:   Origin of data
 UWI .     49025110260000:   Unique Well ID
 DICO. A2D TECHNOLOGIES, INC.:   Digitizing Company
~OTHER INFORMATION
~A   DEPT      CNC       CALD       CORR       RHOB        GRR        SPR       TENR       RILD       RILM       RFOC   
# ...
  650.5000  -999.2500  -999.2500  -999.2500  -999.2500    67.7505   -80.9619   -77.1148     8.0460     6.9230     6.9471
  651.0000  -999.2500  -999.2500  -999.2500  -999.2500    69.8030   -81.0899   -78.7553     8.0565     6.7894     6.9077
  651.5000  -999.2500  -999.2500  -999.2500  -999.2500    73.4071   -81.5174   -80.1059     8.0112     6.7532     6.9643
  652.0000  -999.2500  -999.2500  -999.2500  -999.2500    74.7804   -81.4957   -81.7081     7.9663     6.7151     6.8791
  652.5000  -999.2500  -999.2500  -999.2500  -999.2500    74.5843   -81.4741   -83.0204     7.9215     6.5855     6.8876
  653.0000  -999.2500  -999.2500  -999.2500  -999.2500    74.1709   -81.4521   -84.3328     7.8770     6.4584     6.8961
  653.5000  -999.2500  -999.2500  -999.2500  -999.2500    71.9567   -81.2756   -85.6452     7.6740     6.3337     7.0008
  654.0000  -999.2500  -999.2500  -999.2500  -999.2500    70.1840   -80.9546   -86.9575     7.3708     6.2053     6.9611
  654.5000  -999.2500  -999.2500  -999.2500  -999.2500    70.8917   -80.7832   -88.2754     6.9338     5.9682     6.9699
  655.0000  -999.2500  -999.2500  -999.2500  -999.2500    72.7135   -80.3125   -89.5823     6.6093     5.7726     6.8845
  655.5000  -999.2500  -999.2500  -999.2500  -999.2500    74.8439   -80.7399   -83.3304     6.3525     5.6203     6.7514
  656.0000  -999.2500  -999.2500  -999.2500  -999.2500    79.7272   -80.8680   -77.4065     6.2731     5.5136     6.3956
  656.5000  -999.2500  -999.2500  -999.2500  -999.2500    82.4458   -81.2954   -78.7189     6.1968     5.4822     5.8933
  657.0000  -999.2500  -999.2500  -999.2500  -999.2500    82.9223   -81.4235   -72.1387     6.1620     5.4514     5.6215
  657.5000  -999.2500  -999.2500  -999.2500  -999.2500    80.0355   -81.6958   -66.1876     6.0830     5.3463     5.5511
  658.0000  -999.2500  -999.2500  -999.2500  -999.2500    77.5972   -81.8293   -59.9629     6.0090     5.2448     5.6763
  658.5000  -999.2500  -999.2500  -999.2500  -999.2500    74.8871   -81.8022   -61.6035     6.0171     5.2136     5.8025
  659.0000  -999.2500  -999.2500  -999.2500  -999.2500    72.5033   -82.0800   -62.9157     6.0267     5.1145     5.8500
  659.5000  -999.2500  -999.2500  -999.2500  -999.2500    72.0759   -82.3578   -64.2281     6.0345     5.0506     5.9388
  660.0000  -999.2500  -999.2500  -999.2500  -999.2500    74.8015   -82.5050   -65.5405     5.9591     4.9530     5.9874
  660.5000  -999.2500  -999.2500  -999.2500  -999.2500    77.5201   -82.7635   -66.8528     5.9237     4.8884     5.9124
  661.0000  -999.2500  -999.2500  -999.2500  -999.2500    77.3239   -82.5867   -68.1652     5.7311     4.6997     5.7052
  661.5000  -999.2500  -999.2500  -999.2500  -999.2500    74.2071   -82.4154   -69.5158     5.5382     4.5772     5.0916
  662.0000  -999.2500  -999.2500  -999.2500  -999.2500    73.7925   -82.2440   -71.1180     5.2889     4.4272     4.9230
  662.5000  -999.2500  -999.2500  -999.2500  -999.2500    75.6213   -82.0727   -72.4304     5.0449     4.2807     4.8966
  663.0000  -999.2500  -999.2500  -999.2500  -999.2500    78.1157   -81.9012   -73.7428     4.9116     4.3472     4.9709
  663.5000  -999.2500  -999.2500  -999.2500  -999.2500    80.8343   -81.7246   -82.6194     4.9196     4.4760     5.0116
  664.0000  -999.2500  -999.2500  -999.2500  -999.2500    82.6560   -81.5532   -83.9318     4.9949     4.7044     5.0546
  664.5000  -999.2500  -999.2500  -999.2500  -999.2500    81.1145   -81.5316   -77.6799     5.1065     4.8092     5.2749
  665.0000  -999.2500  -999.2500  -999.2500  -999.2500    78.1690   -81.5099   -79.0469     5.2627     4.8824     5.4297
  665.5000  -999.2500  -999.2500  -999.2500  -999.2500    78.0316   -81.4883   -80.6327     5.4514     4.9911     5.5504
  666.0000  -999.2500  -999.2500  -999.2500  -999.2500    78.9635   -81.4666   -81.9450     5.5347     5.0670     5.6738
  666.5000  -999.2500  -999.2500  -999.2500  -999.2500    78.5431   -81.7443   -83.2574     5.6193     5.1442     5.8000
  667.0000  -999.2500  -999.2500  -999.2500  -999.2500    77.8985   -82.0221   -84.5698     5.7052     5.1866     5.9289
  667.5000  -999.2500  -999.2500  -999.2500  -999.2500    77.2538   -82.5938   -85.8822     5.7524     5.1572     5.9427
  668.0000  -999.2500  -999.2500  -999.2500  -999.2500    75.8953   -82.7273   -94.7806     5.7817     5.0944     5.9867
  668.5000  -999.2500  -999.2500  -999.2500  -999.2500    75.0677   -82.5505   -96.3993     5.8484     5.0641     6.0357
  669.0000  -999.2500  -999.2500  -999.2500  -999.2500    75.3270   -82.5289   -97.7116     5.8575     5.0721     6.0851
  669.5000  -999.2500  -999.2500  -999.2500  -999.2500    76.4761   -82.5072   -99.0240     5.8651     5.0785     6.0926
  670.0000  -999.2500  -999.2500  -999.2500  -999.2500    77.8494   -82.4850   -92.4439     5.8728     5.1203     6.1001
  670.5000  -999.2500  -999.2500  -999.2500  -999.2500    77.6532   -82.4585   -86.1919     5.8804     5.1640     6.1078
  671.0000  -999.2500  -999.2500  -999.2500  -999.2500    74.5067   -82.4369   -80.2573     5.8881     5.2064     6.0329
  671.5000  -999.2500  -999.2500  -999.2500  -999.2500    72.7765   -82.4152   -81.6188     5.8961     5.2492     5.9969
  672.0000  -999.2500  -999.2500  -999.2500  -999.2500    74.6053   -82.3936   -83.2209     5.9054     5.3291     5.9629
  672.5000  -999.2500  -999.2500  -999.2500  -999.2500    79.1176   -82.3719   -84.5332     5.9131     5.4102     5.9721
  673.0000  -999.2500  -999.2500  -999.2500  -999.2500    82.0604   -82.3503   -85.8456     5.9620     5.4170     5.9794
  673.5000  -999.2500  -999.2500  -999.2500  -999.2500    82.0885   -82.3279   -87.1580     6.0952     5.4241     5.9868
  674.0000  -999.2500  -999.2500  -999.2500  -999.2500    81.8894   -82.3015   -88.4704     6.1457     5.4325     6.0377
  674.5000  -999.2500  -999.2500  -999.2500  -999.2500    81.4719   -82.2799   -82.2184     6.1539     5.4394     6.0871
  675.0000  -999.2500  -999.2500  -999.2500  -999.2500    80.6101   -82.2582   -91.0951     6.1637     5.4463     6.0946
  675.5000  -999.2500  -999.2500  -999.2500  -999.2500    79.5170   -82.2366   -84.8432     6.0867     5.3765     6.1021
  676.0000  -999.2500  -999.2500  -999.2500  -999.2500    77.0787   -82.2149   -78.5912     6.0087     5.3108     6.0656
  676.5000  -999.2500  -999.2500  -999.2500  -999.2500    74.8575   -81.8937   -72.3393     5.8927     5.3177     5.9501
  677.0000  -999.2500  -999.2500  -999.2500  -999.2500    75.1168   -81.5674   -66.4155     5.8207     5.1808     5.8707
  677.5000  -999.2500  -999.2500  -999.2500  -999.2500    75.3998   -81.3960   -67.7278     5.7473     5.1515     5.7240
  678.0000  -999.2500  -999.2500  -999.2500  -999.2500    76.0767   -81.3744   -69.0620     5.7163     5.1225     5.5746
  678.5000  -999.2500  -999.2500  -999.2500  -999.2500    76.7774   -81.5079   -70.6806     5.7253     5.0920     5.5413
  679.0000  -999.2500  -999.2500  -999.2500  -999.2500    77.2538   -81.4808   -71.9930     5.7327     5.0633     5.5884
  679.5000  -999.2500  -999.2500  -999.2500  -999.2500    77.7303   -81.4596   -73.3054     5.7402     5.0713     5.6341
  680.0000  -999.2500  -999.2500  -999.2500  -999.2500    77.0852   -81.4371   -74.6178     5.7079     5.0779     5.6412
  680.5000  -999.2500  -999.2500  -999.2500  -999.2500    77.1144   -81.4104   -75.9301     5.6759     5.0491     5.6497
  681.0000  -999.2500  -999.2500  -999.2500  -999.2500    76.9245   -81.3888   -77.2423     5.6050     4.9860     5.6160
  681.5000  -999.2500  -999.2500  -999.2500  -999.2500    74.2620   -81.3671   -78.5931     5.6141     4.9588     5.5091
  682.0000  -999.2500  -999.2500  -999.2500  -999.2500    75.4111   -81.8000   -87.7596     5.5808     4.9525     5.4384
  682.5000  -999.2500  -999.2500  -999.2500  -999.2500    76.7844   -82.2220   -81.5075     5.5899     4.9376     5.4089
  683.0000  -999.2500  -999.2500  -999.2500  -999.2500    76.3640   -82.6495   -82.8199     5.5566     4.9099     5.4535
  683.5000  -999.2500  -999.2500  -999.2500  -999.2500    75.7078   -82.7775   -76.2399     5.5657     4.9177     5.4604
