~VERSION INFORMATION
 VERS.                2.0:   CWLS LOG ASCII STANDARD - VERSION 2.0
 WRAP.                 NO:   ONE LINE PER DEPTH STEP
~WELL INFORMATION
#MNEM.UNIT      DATA TYPE    INFORMATION
#----------   ------------   ------------------------------
 STRT.F           34.0000:   START DEPTH
 STOP.F         2909.0000:   STOP DEPTH
 STEP.F            0.5000:   STEP LENGTH
 NULL.          -999.2500:   NO VALUE
 COMP.   TESORO PETROLEUM:   COMPANY
 WELL. TESORO NPR "A" #3-28:   WELL
 FLD .             TEAPOT:   FIELD
 LOC .      S28 T39N R78W:   LOCATION
 CNTY.            NATRONA:   COUNTY
 STAT.            WYOMING:   STATE
 CTRY. UNITED STATES OF AMERICA:   COUNTRY
 SRVC.              WELEX:   SERVICE COMPANY
 DATE.        22-JUL-1968:   LOGDATE
 API .     49025102620000:   API NUMBER
~CURVE INFORMATION
#MNEM.UNIT       API CODE    CURVE DESCRIPTION
#----------   ------------   ------------------------------
 DEPT.F                  :   
 GRD .GAPI   45 310 01 00:   GAMMA RAY FROM DENSITY LOG
 SPR .MV     05 010 01 00:   SPONTANEOUS POTENTIAL FROM RES.
 ASN .OHMM   05 041 16 00:   AMPLIFIED SHORT NORMAL 16"
 ILD .OHMM   05 120 46 00:   INDUCTION LOG DEEP
~PARAMETER INFORMATION
#MNEM.UNIT          VALUE    DESCRIPTION
#----------   ------------   ------------------------------
 EKB .F         5050.0000:   Kelly bushing
 EGL .F         5039.0000:   Ground level
 EDF .F            0.0000:   Drilling floor
 EPD .F         5039.0000:   Permanent datum
 TD  .F         2906.0000:   Total depth
 CLNT.            A2DTECH:   Client Code
 DATE.       22-JULY-1968:   Date Logged [DD-MMM-YYYY]
 DD  .F              2906:   Depth driller
 DL  .F              2906:   Depth logger
 BLI .F              2901:   Bottom log interval
 TLI .F               356:   Top log interval
 CS1 .              10.75:   Casing size
 CBD1.      10.75" @ 356':   Casing driller 1
 CBL1.IN              356:   Casing logger 1
 BS1 .IN                9:   Bit size
 DFT .     WATER BASE MUD:   Type fluid in hole
 DFD .                9.6:   Density
 DFV .                 60:   Viscosity
 DFPH.                9.0:   pH
 DFL .                  6:   Fluid loss
 MSS .               CTRC:   Source of sample
 RMS .OHMM            2.1:   Rm
 MST .F                74:   Rm Meas. temp.
 RMF .OHMM            1.6:   Rmf
 MFST.F                71:   Rmf Meas. temp.
 MFSS.               MEAS:   Source Rmf.
 RMC .OHMM            3.0:   Rmc
 MCST.F                66:   Rmc Meas. temp.
 RMB .OHMM            1.3:   Rm. at BHT
 BHT .F               120:   BHT.
 MRT .F               120:   Maximum recorded temp.
 LUN .               6869:   Logging unit number
 ORIG.         2.5" PRINT:   Origin of data
 UWI .     49025102620000:   Unique Well ID
 DICO. A2D TECHNOLOGIES, INC.:   Digitizing Company
 LUL .          NEWCASTLE:   Logging unit location
~OTHER INFORMATION
~A   DEPT      GRD        SPR         ASN         ILD 
# ...
  764.0000  -999.2500   -30.1635    12.9426    12.5518
  764.5000  -999.2500   -30.1682    12.8726    12.5494
  765.0000  -999.2500   -30.1738    12.8722    12.3903
  765.5000  -999.2500   -30.1783    12.7140    12.3879
  766.0000  -999.2500   -30.4973    12.7135    12.3156
  766.5000  -999.2500   -30.8163    12.5553    12.2265
  767.0000  -999.2500   -31.7643    12.5549    12.0670
  767.5000  -999.2500   -32.0833    12.5544    12.0647
  768.0000  -999.2500   -31.7484    12.3962    12.0624
  768.5000  -999.2500   -31.1016    12.3958    12.0602
  769.0000  -999.2500   -30.8391    12.3953    11.9012
  769.5000  -999.2500   -30.8443    12.3572    11.8989
  770.0000  -999.2500   -30.8490    12.2366    11.8966
  770.5000  -999.2500   -30.8538    12.0784    11.7375
  771.0000  -999.2500   -30.8585    12.0779    11.6938
  771.5000  -999.2500   -31.1776    12.0010    11.5760
  772.0000  -999.2500   -31.1832    11.9192    11.4169
  772.5000  -999.2500   -31.1877    11.9187    11.4146
  773.0000  -999.2500   -31.5068    11.7605    11.4118
  773.5000  -999.2500   -32.1402    11.7600    11.4095
  774.0000  -999.2500   -32.7737    11.6018    11.4072
  774.5000  -999.2500   -33.0927    11.6014    11.4050
  775.0000  -999.2500   -32.7568    11.6009    11.4027
  775.5000  -999.2500   -32.4245    11.6005    11.4005
  776.0000  -999.2500   -32.0922    11.4423    11.2414
  776.5000  -999.2500   -31.7600    11.4418    11.2390
  777.0000  -999.2500   -31.2287    11.4414    11.2367
  777.5000  -999.2500   -31.0954    11.4409    11.3914
  778.0000  -999.2500   -30.9245    11.4403    11.3887
  778.5000  -999.2500   -31.2437    11.4399    11.3864
  779.0000  -999.2500   -31.8781    11.4394    11.3840
  779.5000  -999.2500   -32.1972    11.4390    11.3813
  780.0000  -999.2500   -31.8872    11.4385    11.3790
  780.5000  -999.2500   -31.2629    11.4379    11.5335
  781.0000  -999.2500   -31.2674    11.4375    11.5312
  781.5000  -999.2500   -31.9009    11.4370    11.6857
  782.0000  -999.2500   -31.9057    11.4365    11.6834
  782.5000  -999.2500   -31.5462    11.4361    11.8379
  783.0000  -999.2500   -30.9712    11.4356    11.8354
  783.5000  -999.2500   -30.8815    11.4352    11.8331
  784.0000  -999.2500   -30.6658    11.4347    11.9879
  784.5000  -999.2500   -30.9858    11.5920    11.9851
  785.0000  -999.2500   -30.9906    11.7728    11.9828
  785.5000  -999.2500   -30.9962    11.9065    11.8233
  786.0000  -999.2500   -31.0008    12.0638    11.6643
  786.5000  -999.2500   -31.0053    11.9055    11.5053
  787.0000  -999.2500   -31.0099    11.8425    11.3463
  787.5000  -999.2500   -31.0144    11.6746    11.3440
  788.0000  -999.2500   -31.0190    11.5886    11.1850
  788.5000  -999.2500   -31.0235    11.4964    11.1826
  789.0000  -999.2500   -31.0283    11.4299    11.1803
  789.5000  -999.2500   -31.0330    11.2717    11.0212
  790.0000  -999.2500   -31.0377    11.2712    11.0188
  790.5000  -999.2500   -30.9466    11.2708    10.9462
  791.0000  -999.2500   -30.4174    11.2703    10.8574
  791.5000  -999.2500   -30.2495    11.2699    10.8546
  792.0000  -999.2500   -30.5912    11.2694    10.6956
  792.5000  -999.2500   -31.0623    11.2689    10.6933
  793.0000  -999.2500   -31.0668    11.2685    10.6911
  793.5000  -999.2500   -30.7569    11.2680    10.6888
  794.0000  -999.2500   -30.1325    11.3085    10.6865
  794.5000  -999.2500   -30.1371    11.4248    10.6842
  795.0000  -999.2500   -30.7706    11.4243    10.6818
  795.5000  -999.2500   -31.4040    11.4940    10.6795
  796.0000  -999.2500   -31.3795    11.5811    10.6771
  796.5000  -999.2500   -30.6809    11.5806    10.6747
  797.0000  -999.2500   -29.8454    11.4223    10.6724
  797.5000  -999.2500   -30.3590    11.4219    10.6696
  798.0000  -999.2500   -31.5471    11.4214    10.6673
  798.5000  -999.2500   -31.2904    11.4209    10.5083
  799.0000  -999.2500   -30.9582    11.4205    10.5061
  799.5000  -999.2500   -30.4984    11.4200    10.5038
  800.0000  -999.2500   -30.5039    11.2618    10.5016
  800.5000  -999.2500   -30.4256    11.2516    10.6583
  801.0000  -999.2500   -31.1419    11.1032    10.6583
  801.5000  -999.2500   -31.7754    11.1027    10.6583
  802.0000  -999.2500   -32.7234    11.0567    10.6583
  802.5000  -999.2500   -33.6714    10.9809    10.6583
  803.0000  -999.2500   -32.9560    10.9051    10.6583
  803.5000  -999.2500   -31.1626    10.8293    10.6583
  804.0000  -999.2500   -31.7485    10.7535    10.6583
  804.5000  -999.2500   -32.4182    10.6777    10.6583
  805.0000  -999.2500   -31.9339    10.6019    10.6583
  805.5000  -999.2500   -31.4811    10.7321    10.6583
  806.0000  -999.2500   -31.1698    11.0372    10.6583
  806.5000  -999.2500   -30.8589    11.2756    10.6583
  807.0000  -999.2500   -30.5472    11.7233    10.8150
  807.5000  -999.2500   -30.4954    12.2113    11.1285
  808.0000  -999.2500   -31.4970    12.5418    11.4420
  808.5000  -999.2500   -32.1290    12.9283    11.9122
  809.0000  -999.2500   -32.7610    13.0858    12.2257
  809.5000  -999.2500   -32.3929    13.2432    12.5392
  810.0000  -999.2500   -30.2514    13.4006    12.8579
  810.5000  -999.2500   -31.6588    13.5580    13.0228
  811.0000  -999.2500   -33.8491    13.5577    13.1875
  811.5000  -999.2500   -34.6631    13.5574    13.3229
  812.0000  -999.2500   -32.0627    13.6075    13.4796
  812.5000  -999.2500   -31.2101    13.7146    13.6364
  813.0000  -999.2500   -31.3491    13.7142    13.6364
  813.5000  -999.2500   -31.6839    13.7138    13.6364
  814.0000  -999.2500   -31.8491    13.7135    13.6364
  814.5000  -999.2500   -31.2239    13.7132    13.5583
  815.0000  -999.2500   -30.9125    13.7129    13.3934
  815.5000  -999.2500   -30.6007    13.5549    13.1661
  816.0000  -999.2500   -30.6041    13.3821    13.1661
  816.5000  -999.2500   -30.6072    13.0511    12.8527
  817.0000  -999.2500   -30.6103    12.9230    12.6959
  817.5000  -999.2500   -30.9278    12.7650    12.3824
  818.0000  -999.2500   -30.9308    12.5312    12.0690
  818.5000  -999.2500   -30.9340    12.2912    11.9122
  819.0000  -999.2500   -30.9655    11.9753    11.7555
  819.5000  -999.2500   -31.2545    11.6596    11.5964
  820.0000  -999.2500   -30.9431    11.5016    11.4420
  820.5000  -999.2500   -30.9465    11.3435    11.2853
  821.0000  -999.2500   -30.8523    11.3432    11.2853
  821.5000  -999.2500   -30.6378    11.3429    11.2853
  822.0000  -999.2500   -30.5095    11.5004    11.2853
  822.5000  -999.2500   -30.3302    11.5000    11.3362
  823.0000  -999.2500   -30.3333    11.4997    11.4420
  823.5000  -999.2500   -30.3365    11.4994    11.5091
  824.0000  -999.2500   -30.3402    11.4990    11.6739
  824.5000  -999.2500   -30.3432    11.6564    11.7555
  825.0000  -999.2500   -30.0318    11.6561    11.8469
  825.5000  -999.2500   -30.0349    11.4981    11.9122
  826.0000  -999.2500   -30.0380    11.4978    11.9122
  826.5000  -999.2500   -30.0410    11.4975    11.7555
  827.0000  -999.2500   -30.0441    11.3395    11.7555
  827.5000  -999.2500   -29.7327    11.2892    11.5987
  828.0000  -999.2500   -29.7358    11.1811    11.2853
  828.5000  -999.2500   -29.7390    11.1003    10.9718
  829.0000  -999.2500   -29.7421    11.0227    10.6583
  829.5000  -999.2500   -29.7453    11.0224    10.6507
  830.0000  -999.2500   -29.7484    10.8643    10.5016
  830.5000  -999.2500   -30.0660    10.8640    10.3448
  831.0000  -999.2500   -30.0692    10.8637    10.3448
  831.5000  -999.2500   -30.0723    10.8634    10.1881
  832.0000  -999.2500   -30.0755    10.8631    10.1881
  832.5000  -999.2500   -30.0786    10.8628    10.1881
  833.0000  -999.2500   -30.7113    10.8625    10.1881
  833.5000  -999.2500   -31.0288    10.8622    10.1881
  834.0000  -999.2500   -30.0884    10.8618    10.1881
  834.5000  -999.2500   -29.1481    10.8615    10.1881
  835.0000  -999.2500   -29.1512    11.0189    10.3448
  835.5000  -999.2500   -28.5253    11.0186    10.3448
  836.0000  -999.2500   -28.8428    11.1760    10.3448
  836.5000  -999.2500   -30.4230    11.3423    10.5016
