~VERSION INFORMATION
 VERS.                2.0:   CWLS LOG ASCII STANDARD - VERSION 2.0
 WRAP.                 NO:   ONE LINE PER DEPTH STEP
~WELL INFORMATION
#MNEM.UNIT      DATA TYPE    INFORMATION
#----------   ------------   ------------------------------
 STRT.F          540.0000:   START DEPTH
 STOP.F         4100.0000:   STOP DEPTH
 STEP.F            0.5000:   STEP LENGTH
 NULL.          -999.2500:   NO VALUE
 COMP. LAWRENCE ALISON & ASSOC.,WEST:   COMPANY
 WELL. LAWRENCE "X" #15-11:   WELL
 FLD .              N P R:   FIELD
 LOC .      S11 T38N R78W:   LOCATION
 CNTY.            NATRONA:   COUNTY
 STAT.            WYOMING:   STATE
 CTRY. UNITED STATES OF AMERICA:   COUNTRY
 SRVC.      DRESSER ATLAS:   SERVICE COMPANY
 DATE.        18-MAY-1985:   LOGDATE
 API .     49025110220000:   API NUMBER
~CURVE INFORMATION
#MNEM.UNIT       API CODE    CURVE DESCRIPTION
#----------   ------------   ------------------------------
 DEPT.F                  :   
 NPHI.DEC    42 890 03 00:   NEUTRON POROSITY SANDSTONE
 RHOB.G/C3   45 350 01 00:   BULK DENSITY
 CORR.G/C3   45 356 01 00:   DENSITY CORRECTION
 TEND.LBS    45 635 01 00:   TENSION FROM DENSITY LOG
 GRD .GAPI   45 310 01 00:   GAMMA RAY FROM DENSITY LOG
 CALD.IN     45 280 60 00:   CALIPER FROM DENSITY LOG
 SPR .MV     07 010 01 00:   SPONTANEOUS POTENTIAL
 RILD.OHMM   07 120 46 00:   DEEP INDUCTION RESISTIVITY
 RILM.OHMM   07 120 44 00:   INDUCTION LOG MEDIUM RESISTIVITY
 RFOC.OHMM   07 220 04 00:   RESISTIVITY FOCUSED LOG RES.
 TENR.LBS    07 635 01 00:   TENSION FROM RESISTIVITY
~PARAMETER INFORMATION
#MNEM.UNIT          VALUE    DESCRIPTION
#----------   ------------   ------------------------------
 EKB .F         5201.0000:   Kelly bushing
 EGL .F         5189.0000:   Ground level
 EDF .F         5200.0000:   Drilling floor
 TD  .F         4095.0000:   Total depth
 DATE.        18-MAY-1985:   Date logged
 CLNT.            A2DTECH:   Client Code
 SL  . 2203' FSL & 377' FWL:   Surface Location
 PD  .                 GL:   Permanent Datum
 EPD .F              5189:   Elevation Permanent Datum
 LMF .                 KB:   Log Measured From
 DMF .                 KB:   Drilling Measured From
 DAPD.F                12:   Feet Above Permanent Datum
 DD  .F              4095:   Depth driller
 DL  .F              4093:   Depth logger
 BLI .F              4091:   Bottom log interval
 TLI .F                 0:   Top log interval
 CS1 .IN            8.625:   Casing size
 CBD1.      8.625" @ 565':   Casing driller 1
 CBL1.F               565:   Casing logger 1
 BS1 .IN            7.875:   Bit size
 BSD1.F              4095:   Depth drilled with bit1
 DFT .            GEL KCL:   Type fluid in hole
 DFD .                9.2:   Density
 DFV .                 40:   Viscosity
 DFPH.                8.0:   pH
 DFL .                9.0:   Fluid loss
 MSS .            MUDTANK:   Source of sample
 RMS .OHMM            .57:   Rm
 MST .F                69:   Rm Meas. temp.
 RMF .OHMM            .49:   Rmf
 MFST.F                69:   Rmf Meas. temp.
 RMC .OHMM            .71:   Rmc
 MCST.F                69:   Rmc Meas. temp.
 MFSS.               MEAS:   Source Rmf.
 MCSS.               CALC:   Source Rmc.
 RMB .OHMM            .30:   Rm. at BHT
 BHT .F               139:   BHT.
 TCS .HRS               4:   Time Circ. stopped
 MRT .F               139:   Maximum recorded temp.
 LUN .            HL 6302:   Logging unit number
 LUL .               CODY:   Logging unit location
 ENGI.              GETTY:   Recorded By
 WITN.              FIVAS:   Witnessed by
 ORIG.           5" PRINT:   Origin of data
 UWI .     49025110220000:   Unique Well ID
 DICO. A2D TECHNOLOGIES, INC.:   Digitizing Company
~OTHER INFORMATION
~A   DEPT     NPHI       RHOB       CORR        TEND        GRD      CALD        SPR       RILD       RILM       RFOC       TENR   
# ...
 1272.0000     0.2760     2.5340     0.0280   -74.9280    93.7620    12.3220    -2.9770     7.6540     6.9950     7.4040   -48.2420
 1272.5000     0.2610     2.5430     0.0260   -75.4770    94.2240    12.3540    -3.2380     7.6930     7.0870     7.4100   -47.7130
 1273.0000     0.2760     2.5510     0.0590   -75.0400    92.8290    12.3920    -3.2370     7.7330     7.1300     7.4160   -47.1840
 1273.5000     0.3000     2.5530     0.0680   -72.1010    91.3100    12.4310    -3.1920     7.7720     7.0790     7.4220   -46.5010
 1274.0000     0.2950     2.5430     0.0370   -69.1630    90.9340    12.4690    -3.1480     7.8120     7.0400     7.4280   -45.4980
 1274.5000     0.2820     2.5300     0.0080   -66.2250    91.3270    12.5080    -3.1070     7.8510     7.0020     7.4340   -44.4940
 1275.0000     0.2700     2.5160     0.0360   -63.2870    91.7180    12.5460    -3.0650     7.8910     6.9640     7.4400   -43.4910
 1275.5000     0.2610     2.5030     0.0780   -60.3480    92.6120    12.5840    -3.0230     7.9300     6.9370     7.4460   -42.4880
 1276.0000     0.2550     2.4980     0.1000   -57.4100    93.8120    12.6220    -2.9810     7.9690     7.0040     7.4520   -41.4850
 1276.5000     0.2520     2.5120     0.0800   -55.6630    93.9360    12.6600    -2.9390     8.0090     7.1020     7.4580   -40.4820
 1277.0000     0.2630     2.5380     0.0400   -54.6740    92.2910    12.6610    -2.8940     8.0480     7.2000     7.3950   -39.4780
 1277.5000     0.2830     2.5630     0.0290   -53.6850    90.6880    12.6060    -2.9690     8.0880     7.2970     7.5850   -38.4750
 1278.0000     0.2760     2.5770     0.0180   -52.6950    90.2320    12.5520    -3.0970     8.1070     7.3950     7.7640   -37.4720
 1278.5000     0.2620     2.5810     0.0180   -51.7060    90.8860    12.5400    -3.2250     8.1160     7.4930     7.9430   -36.4690
 1279.0000     0.2650     2.5790     0.0270   -50.7170    91.5250    12.5330    -3.3540     8.1250     7.5910     8.1210   -35.4660
 1279.5000     0.2790     2.5720     0.0370   -49.7280    91.8560    12.5270    -3.4780     8.1340     7.6880     8.3000   -34.4620
 1280.0000     0.2930     2.5640     0.0420   -48.7390    90.7860    12.5160    -3.5370     8.1430     7.7860     8.4030   -33.4590
 1280.5000     0.3010     2.5560     0.0430   -47.7500    89.0300    12.4990    -3.5920     8.1520     7.8830     8.4030   -32.4560
 1281.0000     0.3060     2.5590     0.0380   -46.7610    87.3540    12.4840    -3.6480     8.1610     7.8830     8.4030   -31.4530
 1281.5000     0.3140     2.5620     0.0340   -45.7720    87.8780    12.4930    -3.7040     8.1700     7.8830     8.4030   -30.4490
 1282.0000     0.3180     2.5560     0.0300   -44.7830    88.9660    12.5020    -3.7600     8.1940     7.8830     8.4030   -29.4460
 1282.5000     0.2720     2.5480     0.0240   -43.7930    89.2710    12.5120    -3.8160     8.2880     7.8110     8.4800   -28.4430
 1283.0000     0.2660     2.5410     0.0130   -42.8040    87.1100    12.5220    -3.8710     8.3820     7.7570     8.4070   -27.4400
 1283.5000     0.2630     2.5500     0.0020   -41.8150    84.9460    12.5320    -3.9270     8.4800     7.6880     8.2800   -28.0230
 1284.0000     0.2670     2.5550     0.0060   -40.8260    85.2280    12.5420    -3.9830     8.4850     7.6190     8.1540   -29.8110
 1284.5000     0.2930     2.5530     0.0210   -39.8370    86.3170    12.5520    -4.0390     8.4930     7.5500     8.0270   -31.5980
 1285.0000     0.2990     2.5360     0.0350   -38.8480    87.1080    12.5620    -4.0580     8.5020     7.4810     7.9010   -33.3860
 1285.5000     0.2840     2.5200     0.0450   -37.8590    86.3760    12.5720    -3.9260     8.5100     7.4620     7.7400   -35.1730
 1286.0000     0.2690     2.5120     0.0370   -36.8700    85.0230    12.5810    -3.7940     8.5190     7.4600     7.8090   -36.9610
 1286.5000     0.2530     2.5170     0.0320   -36.0700    84.1290    12.5910    -3.6630     8.5270     7.4390     7.9380   -38.7490
 1287.0000     0.2530     2.5280     0.0380   -37.6300    84.2650    12.6010    -3.5310     8.5360     7.4180     8.1010   -40.5360
 1287.5000     0.2610     2.5390     0.0460   -40.2590    84.3730    12.5960    -3.4000     8.5440     7.3950     7.8860   -42.3240
 1288.0000     0.2840     2.5430     0.0450   -42.8880    85.3380    12.5810    -3.2680     8.5580     7.5680     7.6700   -44.1110
 1288.5000     0.2880     2.5390     0.0400   -45.5170    86.9870    12.5670    -3.1350     8.5560     7.7600     7.7180   -45.8990
 1289.0000     0.2790     2.5320     0.0320   -46.0200    87.5360    12.5230    -3.0000     8.6150     7.9520     7.8850   -44.5820
 1289.5000     0.2700     2.5260     0.0230   -46.0200    87.2750    12.4510    -2.9230     8.6670     8.1440     8.0520   -39.9000
 1290.0000     0.2620     2.5190     0.0100   -46.0200    87.0120    12.3790    -3.2110     8.7200     8.3370     8.2200   -35.2190
 1290.5000     0.2590     2.5180    -0.0040   -46.0200    86.7410    12.3690    -3.3800     8.7730     8.4030     8.3870   -30.5370
 1291.0000     0.2720     2.5160     0.0080   -49.0710    86.4620    12.3730    -3.5410     8.8250     8.3260     8.4800   -28.5570
 1291.5000     0.3310     2.5150     0.0460   -52.7710    86.2630    12.3780    -3.7000     8.8780     8.3260     8.2160   -34.8590
 1292.0000     0.3590     2.5140     0.0590   -56.4710    87.9950    12.3840    -3.8590     8.9310     8.3260     8.0050   -41.1620
 1292.5000     0.3320     2.5250     0.0500   -60.1710    89.7450    12.3790    -4.0180     8.9830     8.3260     7.8830   -47.4640
 1293.0000     0.3000     2.5380     0.0400   -63.8710    89.5130    12.3710    -4.1860     9.0360     8.3260     8.0880   -53.7660
 1293.5000     0.2800     2.5500     0.0310   -65.6370    88.2560    12.3630    -4.4340     9.0890     8.4530     8.2180   -60.0680
 1294.0000     0.2600     2.5560     0.0270   -65.0030    86.7700    12.3540    -4.4770     9.1410     8.6100     8.3480   -66.3710
 1294.5000     0.2510     2.5620     0.0330   -64.3690    85.2360    12.3460    -4.4750     9.1940     8.7660     8.4780   -72.6730
 1295.0000     0.2560     2.5650     0.0500   -63.7350    85.3930    12.3570    -4.4730     9.2470     8.9570     8.6080   -76.1260
 1295.5000     0.2680     2.5600     0.0530   -63.1010    86.4340    12.3710    -4.4730     9.2900     8.7640     8.7950   -74.9920
 1296.0000     0.2990     2.5560     0.0500   -62.4670    87.3940    12.3850    -4.4730     9.2330     8.5150     8.7170   -73.8570
 1296.5000     0.2880     2.5510     0.0610   -61.8330    88.3100    12.3990    -4.4730     9.1740     8.2670     8.6160   -72.7220
 1297.0000     0.2660     2.5490     0.0740   -61.1990    89.2270    12.4140    -4.4730     9.1160     8.0180     8.5150   -71.5880
 1297.5000     0.2660     2.5500     0.0880   -60.5650    90.1460    12.4280    -4.4540     9.0570     7.8830     8.4140   -70.4530
 1298.0000     0.3100     2.5500     0.0740   -59.9310    90.9580    12.4420    -4.3230     8.9980     7.8940     8.3120   -69.3180
 1298.5000     0.3290     2.5490     0.0520   -59.2970    90.5570    12.4570    -4.1900     8.9390     7.9150     8.2110   -68.1840
 1299.0000     0.3190     2.5420     0.0290   -58.6630    90.1290    12.4710    -4.0580     8.8760     7.9370     8.1010   -67.0490
 1299.5000     0.3080     2.5360     0.0060   -58.0290    88.6180    12.4850    -3.9260     8.8760     7.9580     8.1730   -65.9140
 1300.0000     0.3230     2.5300     0.0150   -57.3950    86.9610    12.5000    -3.7930     9.0140     7.9790     8.2520   -64.7790
 1300.5000     0.3230     2.5250     0.0350   -56.7610    85.3030    12.5230    -3.6610     9.1200     8.0000     8.3310   -63.6450
 1301.0000     0.2820     2.5140     0.0760   -56.1270    83.6510    12.5620    -3.5290     9.2250     8.0220     8.4090   -62.5100
 1301.5000     0.2550     2.5040     0.1070   -55.4930    81.9930    12.6000    -3.3970     9.3310     8.1140     8.4920   -61.3750
 1302.0000     0.2650     2.4980     0.0810   -54.8590    81.1420    12.6380    -3.2640     9.4360     8.2360     8.6090   -60.2410
