~VERSION INFORMATION
 VERS.                2.0:   CWLS LOG ASCII STANDARD - VERSION 2.0
 WRAP.                 NO:   ONE LINE PER DEPTH STEP
~WELL INFORMATION
#MNEM.UNIT      DATA TYPE    INFORMATION
#----------   ------------   ------------------------------
 STRT.F            4.0000:   START DEPTH
 STOP.F         3266.0000:   STOP DEPTH
 STEP.F            0.5000:   STEP LENGTH
 NULL.          -999.2500:   NO VALUE
 COMP. LAWRENCE ALLISON & ASSOSCIATES:   COMPANY
 WELL. LAWRENCE "X" #27-11:   WELL
 FLD .          N.P.R. #3:   FIELD
 LOC .      S11 T38N R78W:   LOCATION
 CNTY.            NATRONA:   COUNTY
 STAT.            WYOMING:   STATE
 CTRY. UNITED STATES OF AMERICA:   COUNTRY
 SRVC.      DRESSER ATLAS:   SERVICE COMPANY
 DATE.        22-AUG-1986:   LOGDATE
 API .     49025111070000:   API NUMBER
~CURVE INFORMATION
#MNEM.UNIT       API CODE    CURVE DESCRIPTION
#----------   ------------   ------------------------------
 DEPT.F                  :   
 SPR .MV     07 010 01 00:   SPONTANEOUS POTENTIAL
 TENR.LBS    06 635 01 00:   TENSION FROM RESISTIVITY
 GRR .GAPI   07 310 01 00:   GAMMA RAY FROM RESISTIVITY
 RILD.OHMM   07 120 46 00:   DEEP INDUCTION RESISTIVITY
 RILM.OHMM   07 120 44 00:   INDUCTION LOG MEDIUM RESISTIVITY
 RFOC.OHMM   07 220 04 00:   RESISTIVITY FOCUSED LOG RES.
 NPHI.DEC    42 890 03 00:   NEUTRON POROSITY SANDSTONE
 CALD.IN     45 280 60 00:   CALIPER FROM DENSITY LOG
 RHOB.G/C3   45 350 01 00:   BULK DENSITY
 CORR.G/C3   45 356 01 00:   DENSITY CORRECTION
 TEND.LBS    45 635 01 00:   TENSION FORM DENSITY LOG
~PARAMETER INFORMATION
#MNEM.UNIT          VALUE    DESCRIPTION
#----------   ------------   ------------------------------
 EKB .F         5206.0000:   Kelly bushing
 EGL .F         5194.0000:   Ground level
 EDF .F         5205.0000:   Drilling floor
 EPD .F         5194.0000:   Permanent datum
 TD  .F         3250.0000:   Total depth
 CLNT.            A2DTECH:   Client Code
 SL  . 1197' FSL & 1088' FWL:   Surface Location
 PD  .                 GL:   Permanent Datum
 DAPD.F                12:   Feet Above Permanent Datum
 DATE.        22-AUG-1986:   Date Logged [DD-MMM-YYYY]
 DD  .F              3250:   Depth driller
 DL  .F              3246:   Depth logger
 BLI .F              3243:   Bottom log interval
 TLI .F               683:   Top log interval
 CS1 .IN            8.625:   Casing size
 CBD1.      8.625" @ 672':   Casing driller 1
 CBL1.F               673:   Casing logger 1
 BS1 .IN            7.875:   Bit size
 BSD1.F              3250:   Depth drilled with bit1
 DFT .            KCL-GEL:   Type fluid in hole
 DFD .                8.9:   Density
 DFV .                 35:   Viscosity
 MSS .               TANK:   Source of sample
 RMS .OHMM           0.31:   Rm
 MST .F                70:   Rm Meas. temp.
 RMF .OHMM           0.29:   Rmf
 MFST.F                67:   Rmf Meas. temp.
 MFSS.               CALC:   Source Rmf.
 RMC .OHMM           0.46:   Rmc
 MCST.F                70:   Rmc Meas. temp.
 MCSS.               CALC:   Source Rmc.
 RMB .OHMM           0.16:   Rm. at BHT
 BHT .F               136:   BHT.
 TCS .HRS               4:   Time Circ. stopped
 MRT .F               136:   Maximum recorded temp.
 LUN .            HL-6426:   Logging unit number
 LUL .          RK. SPGS.:   Logging unit location
 ENGI.               RALL:   Recorded By
 WITN.             STRONG:   Witnessed by
 ORIG.           5" PRINT:   Origin of data
 UWI .     49025111070000:   Unique Well ID
 DICO. A2D TECHNOLOGIES, INC.:   Digitizing Company
~OTHER INFORMATION
~A    DEPT     SPR       TENR         GRR      RILD       RILM       RFOC       NPHI       CALD       RHOB       CORR       TEND   
# ...
 2383.0000   -58.7393   -88.5691   129.4419     5.1684     5.5934     7.0097  -999.2500  -999.2500  -999.2500  -999.2500  -999.2500
 2383.5000   -58.5849   -88.6610   124.1846     5.1669     5.5174     7.2663  -999.2500  -999.2500  -999.2500  -999.2500  -999.2500
 2384.0000   -58.5818   -81.1519   123.1605     5.0935     5.3665     6.6779  -999.2500  -999.2500  -999.2500  -999.2500  -999.2500
 2384.5000   -58.5783   -73.6612   127.3370     5.0921     5.3309     5.9297  -999.2500  -999.2500  -999.2500  -999.2500  -999.2500
 2385.0000   -58.5753   -66.1876   136.3165     5.0907     5.3329     5.6470  -999.2500  -999.2500  -999.2500  -999.2500  -999.2500
 2385.5000   -59.1784   -73.8275   141.5201     5.1610     5.4490     5.8500  -999.2500  -999.2500  -999.2500  -999.2500  -999.2500
 2386.0000   -59.7816   -75.1159   141.1925     5.4183     5.6459     6.1025  -999.2500  -999.2500  -999.2500  -999.2500  -999.2500
 2386.5000   -60.2332   -81.5565   137.3046     5.6883     5.8500     6.1039  -999.2500  -999.2500  -999.2500  -999.2500  -999.2500
 2387.0000   -60.5332   -89.1943   133.8323     5.9303     6.3223     6.3809  -999.2500  -999.2500  -999.2500  -999.2500  -999.2500
 2387.5000   -60.8333   -89.2679   132.4954     6.1903     6.7375     7.0255  -999.2500  -999.2500  -999.2500  -999.2500  -999.2500
 2388.0000   -61.1516   -81.7588   131.3618     6.5358     6.9321     7.6970  -999.2500  -999.2500  -999.2500  -999.2500  -999.2500
 2388.5000   -61.4335   -81.8507   130.7733     6.7664     7.1342     8.5517  -999.2500  -999.2500  -999.2500  -999.2500  -999.2500
 2389.0000   -61.5821   -81.9243   130.0302     7.0051     7.3908     8.9836  -999.2500  -999.2500  -999.2500  -999.2500  -999.2500
 2389.5000   -61.5784   -81.9978   130.0444     7.2017     7.6043     9.1765  -999.2500  -999.2500  -999.2500  -999.2500  -999.2500
 2390.0000   -61.4240   -82.0726   129.7495     7.4038     7.8239     9.1787  -999.2500  -999.2500  -999.2500  -999.2500  -999.2500
 2390.5000   -61.1180   -82.1633   130.5282     7.6117     7.9376     9.1073  -999.2500  -999.2500  -999.2500  -999.2500  -999.2500
 2391.0000   -60.5090   -89.8012   130.4530     7.8253     8.0529     8.6831  -999.2500  -999.2500  -999.2500  -999.2500  -999.2500
 2391.5000   -59.9000   -97.4391   130.7415     7.8780     8.0559     8.3277  -999.2500  -999.2500  -999.2500  -999.2500  -999.2500
 2392.0000   -59.4305   -89.9299   131.5931     7.8758     8.0589     8.5664  -999.2500  -999.2500  -999.2500  -999.2500  -999.2500
 2392.5000   -58.9843   -74.8933   133.0243     7.8732     8.1195     9.1900  -999.2500  -999.2500  -999.2500  -999.2500  -999.2500
 2393.0000   -58.5268   -67.3842   130.4117     7.8711     8.1225     9.6541  -999.2500  -999.2500  -999.2500  -999.2500  -999.2500
 2393.5000   -58.3723   -59.9092   125.5445     7.9247     8.1829     9.6564  -999.2500  -999.2500  -999.2500  -999.2500  -999.2500
 2394.0000   -58.0663   -59.9854   123.4744     7.9945     8.1859     9.3924  -999.2500  -999.2500  -999.2500  -999.2500  -999.2500
 2394.5000   -57.9119   -75.1891   125.4858     8.0318     8.2467     9.2639  -999.2500  -999.2500  -999.2500  -999.2500  -999.2500
 2395.0000   -57.9089   -82.8438   131.3610     8.0855     8.4255     9.0735  -999.2500  -999.2500  -999.2500  -999.2500  -999.2500
 2395.5000   -57.9060   -82.9173   138.2145     8.1399     8.7329     9.0643  -999.2500  -999.2500  -999.2500  -999.2500  -999.2500
 2396.0000   -57.9030   -82.9909   141.2230     8.1948     9.1101     9.1416  -999.2500  -999.2500  -999.2500  -999.2500  -999.2500
 2396.5000   -57.9000   -83.0644   146.2853     8.2500     9.2424     9.5362  -999.2500  -999.2500  -999.2500  -999.2500  -999.2500
 2397.0000   -57.8964   -90.7023   144.9517     8.2472     9.1803     9.9548  -999.2500  -999.2500  -999.2500  -999.2500  -999.2500
 2397.5000   -58.8026   -90.7759   142.3224     8.1875     8.9301    10.3054  -999.2500  -999.2500  -999.2500  -999.2500  -999.2500
 2398.0000   -59.5572   -90.8494   141.4440     8.1135     8.6850    10.3797  -999.2500  -999.2500  -999.2500  -999.2500  -999.2500
 2398.5000   -60.3119   -90.9230   140.6486     8.0697     8.5078     9.9554  -999.2500  -999.2500  -999.2500  -999.2500  -999.2500
 2399.0000   -60.7642   -83.4322   139.2628     8.0673     8.4515     8.9647  -999.2500  -999.2500  -999.2500  -999.2500  -999.2500
 2399.5000   -61.2151   -83.5242   139.7339     8.1217     8.4554     8.5977  -999.2500  -999.2500  -999.2500  -999.2500  -999.2500
 2400.0000   -61.3636   -83.5977   138.7377     8.1195     8.4586     8.5998  -999.2500  -999.2500  -999.2500  -999.2500  -999.2500
 2400.5000   -61.3606   -83.6611   134.4451     8.1742     8.5214     8.8557  -999.2500  -999.2500  -999.2500  -999.2500  -999.2500
 2401.0000   -61.2055   -83.7493   130.3376     8.2293     8.7061     9.2287  -999.2500  -999.2500  -999.2500  -999.2500  -999.2500
 2401.5000   -60.8995   -83.8221   130.3633     8.2369     8.9576     9.2957  -999.2500  -999.2500  -999.2500  -999.2500  -999.2500
 2402.0000   -60.5936   -91.4591   130.8147     8.3985     9.0877     9.4291  -999.2500  -999.2500  -999.2500  -999.2500  -999.2500
 2402.5000   -60.2876   -91.5319   126.9558     8.4557     9.0301     9.8361  -999.2500  -999.2500  -999.2500  -999.2500  -999.2500
 2403.0000   -59.8301   -84.0393   119.9926     8.5930     9.0349    10.1891  -999.2500  -999.2500  -999.2500  -999.2500  -999.2500
 2403.5000   -59.5241   -68.9846   113.6797     8.7026     9.1025    10.2632  -999.2500  -999.2500  -999.2500  -999.2500  -999.2500
 2404.0000   -59.0666   -69.0756   110.2253     8.7772     9.1064    10.1234  -999.2500  -999.2500  -999.2500  -999.2500  -999.2500
 2404.5000   -58.6091   -69.1484   108.5221     8.8392     9.1103     9.6413  -999.2500  -999.2500  -999.2500  -999.2500  -999.2500
 2405.0000   -58.1509   -69.2212   108.5089     8.9291     9.2431     9.0544  -999.2500  -999.2500  -999.2500  -999.2500  -999.2500
 2405.5000   -57.6934   -69.2940   105.9868     8.9261     9.2509     9.1202  -999.2500  -999.2500  -999.2500  -999.2500  -999.2500
 2406.0000   -57.3875   -69.3668   103.7692     8.9236     9.5157     9.5808  -999.2500  -999.2500  -999.2500  -999.2500  -999.2500
 2406.5000   -57.0815   -69.4403   105.0452     8.9212     9.5869    10.6350  -999.2500  -999.2500  -999.2500  -999.2500  -999.2500
 2407.0000   -56.9270   -69.5306   107.0661     8.9188     9.6587    11.2498  -999.2500  -999.2500  -999.2500  -999.2500  -999.2500
 2407.5000   -56.5985   -69.6034   108.2588     8.9164     9.7309    11.1732  -999.2500  -999.2500  -999.2500  -999.2500  -999.2500
 2408.0000   -56.5930   -69.6761   111.6424     8.9765     9.5991    11.0971  -999.2500  -999.2500  -999.2500  -999.2500  -999.2500
 2408.5000   -56.8917   -77.3132   127.2156     8.9740     9.4031    11.2560  -999.2500  -999.2500  -999.2500  -999.2500  -999.2500
 2409.0000   -57.1903   -84.9503   141.3314     8.9715     9.2759    11.1013  -999.2500  -999.2500  -999.2500  -999.2500  -999.2500
 2409.5000   -57.6405   -85.0231   146.3332     8.9685     9.2808    10.7211  -999.2500  -999.2500  -999.2500  -999.2500  -999.2500
 2410.0000   -58.3937   -85.0984   142.7451     8.9661     9.2848    10.1386  -999.2500  -999.2500  -999.2500  -999.2500  -999.2500
 2410.5000   -59.2984   -85.1869   137.0712     8.9637     9.2888    10.0695  -999.2500  -999.2500  -999.2500  -999.2500  -999.2500
 2411.0000   -60.0687   -85.2597   133.3579     8.9612     9.2267    10.2380  -999.2500  -999.2500  -999.2500  -999.2500  -999.2500
 2411.5000   -60.6533   -85.3325   133.5141     8.9588     9.1670    11.4268  -999.2500  -999.2500  -999.2500  -999.2500  -999.2500
 2412.0000   -60.8005   -85.4053   135.4420     8.8940     9.1771    11.8356  -999.2500  -999.2500  -999.2500  -999.2500  -999.2500
 2412.5000   -60.9476   -77.9138   138.6022     8.8916     9.3057    11.1149  -999.2500  -999.2500  -999.2500  -999.2500  -999.2500
 2413.0000   -60.9421   -77.9879   140.7236     8.8891     9.3097    10.5110  -999.2500  -999.2500  -999.2500  -999.2500  -999.2500
