~VERSION INFORMATION
 VERS.                2.0:   CWLS LOG ASCII STANDARD - VERSION 2.0
 WRAP.                 NO:   ONE LINE PER DEPTH STEP
~WELL INFORMATION
#MNEM.UNIT      DATA TYPE    INFORMATION
#----------   ------------   ------------------------------
 STRT.F         3500.0000:   START DEPTH
 STOP.F         6855.0000:   STOP DEPTH
 STEP.F            0.5000:   STEP LENGTH
 NULL.          -999.2500:   NO VALUE
 COMP.          U.S. NAVY:   COMPANY
 WELL.  US NAVY "G" #1-10:   WELL
 FLD . TEAPOT NAVAL RESERVE:   FIELD
 LOC .      S10 T38N R78W:   LOCATION
 CNTY.            NATRONA:   COUNTY
 STAT.            WYOMING:   STATE
 CTRY. UNITED STATES OF AMERICA:   COUNTRY
 SRVC.         LANE WELLS:   SERVICE COMPANY
 DATE.        23-MAR-1952:   LOGDATE
 API .     49025063380000:   API NUMBER
~CURVE INFORMATION
#MNEM.UNIT       API CODE    CURVE DESCRIPTION
#----------   ------------   ------------------------------
 DEPT.F                  :   
 GRN .GAPI   35 310 01 00:   GAMMA RAY
 NEUT.NAPI   35 330 01 00:   NEUTRON
~PARAMETER INFORMATION
#MNEM.UNIT          VALUE    DESCRIPTION
#----------   ------------   ------------------------------
 EKB .F         5195.0000:   Kelly bushing
 EGL .F         5184.0000:   Ground level
 EDF .F         5195.0000:   Drilling floor
 EPD .F            0.0000:   Permanent datum
 TD  .F         6861.0000:   Total depth
 CLNT.            A2DTECH:   Client Code
 PD  .                 GL:   Permanent Datum
 DATE.        23-MAR-1952:   Date Logged [DD-MMM-YYYY]
 DD  .F              6861:   Depth driller
 DL  .F              6861:   Depth logger
 BLI .F              6855:   Bottom log interval
 TLI .F              3500:   Top log interval
 BSD1.F              6861:   Depth drilled with bit1
 DFT .                MUD:   Type fluid in hole
 ENGI.            GAMBERG:   Recorded By
 WITN.           GRIBBENS:   Witnessed by
 ORIG.         2.5" PRINT:   Origin of data
 UWI .     49025063380000:   Unique Well ID
 DICO. A2D TECHNOLOGIES, INC.:   Digitizing Company
~OTHER INFORMATION
~A  DEPT       GRN        NEUT  
# ...
 5079.5000    70.8260   372.9939
 5080.0000    64.8791   375.6506
 5080.5000    59.6543   370.6366
 5081.0000    56.2471   370.9820
 5081.5000    52.3520   381.7647
 5082.0000    48.2131   491.0177
 5082.5000    44.4991   596.3636
 5083.0000    41.1682   741.5906
 5083.5000    38.4385   843.9802
 5084.0000    32.3083   961.6742
 5084.5000    30.7237  1030.3484
 5085.0000    26.9499  1155.3953
 5085.5000    22.4149  1202.0107
 5086.0000    21.6906  1214.3124
 5086.5000    21.6980  1156.3962
 5087.0000    23.1688  1070.6510
 5087.5000    25.8812  1001.2333
 5088.0000    27.9659   962.4348
 5088.5000    30.7243   820.1766
 5089.0000    33.3315   665.5972
 5089.5000    36.9868   574.9578
 5090.0000    40.5601   523.5341
 5090.5000    44.9316   501.5221
 5091.0000    48.3536   481.9611
 5091.5000    50.0683   408.5304
 5092.0000    53.0026   356.2067
 5092.5000    55.4535   346.6473
 5093.0000    57.2680   344.8935
 5093.5000    59.2230   358.9802
 5094.0000    60.1064   410.1060
 5094.5000    58.5508   497.0182
 5095.0000    53.7805   602.4573
 5095.5000    47.6922   688.2884
 5096.0000    44.2849   783.9235
 5096.5000    39.4143   838.2831
 5097.0000    34.7875   901.1955
 5097.5000    32.1120   970.3030
 5098.0000    31.3877  1139.5107
 5098.5000    32.4634  1142.0085
 5099.0000    32.9369  1126.5559
 5099.5000    34.2655  1067.8217
 5100.0000    38.9451   883.9644
 5100.5000    43.8674   617.3804
 5101.0000    48.0211   454.5002
 5101.5000    52.1749   338.5335
 5102.0000    54.6213   316.3296
 5102.5000    56.0921   316.4815
 5103.0000    56.5873   330.0071
 5103.5000    54.8345   372.6130
 5104.0000    51.7466   419.7037
 5104.5000    47.6220   457.2051
 5105.0000    45.3147   480.5215
 5105.5000    42.7304   504.6685
 5106.0000    40.2939   504.7512
 5106.5000    39.3257   472.7352
 5107.0000    39.3331   406.1512
 5107.5000    40.8039   328.7642
 5108.0000    42.3184   226.4469
 5108.5000    44.1057   198.9919
 5109.0000    46.3898   201.9083
 5109.5000    50.5719   223.5713
 5110.0000    54.6121   256.7196
 5110.5000    54.7528   286.6120
 5111.0000    55.0057   330.3109
 5111.5000    57.2083   357.5541
 5112.0000    64.2888   358.4862
 5112.5000    67.7108   340.4355
 5113.0000    71.9419   333.1108
 5113.5000    76.2673   339.0831
 5114.0000    79.1304   355.9656
 5114.5000    81.0833   351.7529
 5115.0000    83.8940   345.7873
 5115.5000    84.5679   353.0847
 5116.0000    82.8883   354.5014
 5116.5000    82.4069   321.3854
 5117.0000    84.1226   286.9002
 5117.5000    86.3251   269.6989
 5118.0000    86.8204   266.8450
 5118.5000    87.6858   282.2100
 5119.0000    89.3859   317.9477
 5119.5000    89.7693   329.2963
 5120.0000    85.7799   329.3827
 5120.5000    81.8207   329.4691
 5121.0000    77.3562   336.7009
 5121.5000    72.9733   352.2270
 5122.0000    70.5417   393.9413
 5122.5000    69.5735   445.8759
 5123.0000    68.6053   473.1191
 5123.5000    68.5856   497.8931
 5124.0000    67.5288   517.7289
 5124.5000    63.0529   501.4682
 5125.0000    61.0194   466.4525
 5125.5000    59.8596   423.3139
 5126.0000    60.6046   381.4149
 5126.5000    63.5388   380.9672
 5127.0000    65.2535   390.1139
 5127.5000    65.5048   412.1763
 5128.0000    60.6342   429.5429
 5128.5000    59.6659   449.3788
 5129.0000    59.6741   469.2145
 5129.5000    59.6818   501.3960
 5130.0000    57.0826   542.3179
 5130.5000    50.4370   573.9489
 5131.0000    49.2613   583.1357
 5131.5000    51.1774   588.9886
 5132.0000    52.4043   599.1766
 5132.5000    52.8995   598.1293
 5133.0000    55.3459   571.1522
 5133.5000    57.5688   544.0743
 5134.0000    58.2883   509.5891
 5134.5000    58.2960   499.7953
 5135.0000    58.0585   497.4088
 5135.5000    58.0676   500.0990
 5136.0000    54.9267   519.8832
 5136.5000    48.0844   630.0829
 5137.0000    42.2381   868.8206
 5137.5000    37.1235   930.4207
 5138.0000    32.0090   977.2425
 5138.5000    27.5074   999.4337
 5139.0000    24.5859   998.2891
 5139.5000    24.2263   955.4425
 5140.0000    25.9638   932.5114
 5140.5000    26.9257   930.5632
 5141.0000    25.3801   973.6946
 5141.5000    20.3571  1029.1409
 5142.0000    18.1694  1061.1842
 5142.5000    16.9573  1041.5037
 5143.0000    17.2086  1021.8230
 5143.5000    18.7186  1014.4576
 5144.0000    20.5056  1066.0576
 5144.5000    21.9878  1126.2256
 5145.0000    22.9342  1165.7635
 5145.5000    22.9090  1201.8485
 5146.0000    20.1158  1225.9752
 5146.5000    18.4836  1219.1693
 5147.0000    18.9788  1172.9604
 5147.5000    21.9130  1022.0487
 5148.0000    23.1399   992.5372
 5148.5000    23.9062   891.3726
 5149.0000    26.3130   761.4184
 5149.5000    30.0183   706.8767
 5150.0000    33.8215   677.3439
 5150.5000    32.2689   679.8307
 5151.0000    31.6084   724.1894
 5151.5000    30.2686   874.4595
 5152.0000    26.6346  1155.2753
 5152.5000    23.0622  1300.6193
 5153.0000    18.1945  1369.6086
 5153.5000    13.4416  1379.4845
 5154.0000    14.8200  1377.0453
 5154.5000    14.9902  1357.3646
 5155.0000    14.8290  1295.1497
 5155.5000    16.6125  1217.8175
 5156.0000    18.3221  1150.7209
 5156.5000    19.3001  1107.9681
 5157.0000    21.4976  1059.1794
 5157.5000    25.5133   982.9931
 5158.0000    30.0568   926.2927
 5158.5000    36.7998   844.1572
 5159.0000    40.6759   702.4179
 5159.5000    47.8389   562.0476
 5160.0000    53.7073   482.4236
 5160.5000    58.0428   392.3323
 5161.0000    61.2219   309.7299
 5161.5000    66.1541   258.1730
 5162.0000    68.3516   233.5293
 5162.5000    70.0613   230.9113
 5163.0000    70.5514   236.4006
 5163.5000    71.2855   269.1421
 5164.0000    73.2391   279.7064
 5164.5000    75.7150   264.2635
 5165.0000    77.7309   261.8226
 5165.5000    79.7534   261.8480
 5166.0000    81.7174   271.7940
 5166.5000    82.5191   290.0621
 5167.0000    80.3505   330.3931
 5167.5000    76.4155   361.4452
 5168.0000    71.6310   399.1252
 5168.5000    67.8956   465.0901
 5169.0000    65.4589   539.1981
 5169.5000    62.7784   587.9769
 5170.0000    61.0734   670.9407
 5170.5000    59.3685   695.5950
 5171.0000    58.1513   710.3971
 5171.5000    57.1682   735.0515
 5172.0000    55.1522   794.1885
 5172.5000    53.2074   818.8428
 5173.0000    52.7949   841.3336
 5173.5000    53.4982   861.0428
 5174.0000    55.4337   845.8800
 5174.5000    57.7160   716.5318
 5175.0000    60.6098   477.5003
 5175.5000    64.8236   309.8858
 5176.0000    72.3224   262.6637
 5176.5000    74.7638   250.0739
 5177.0000    75.7417   269.8074
 5177.5000    77.2075   304.3139
 5178.0000    76.7220   353.5987
 5178.5000    74.5293   385.6422
 5179.0000    74.2877   407.8335
 5179.5000    74.7780   427.5616
 5180.0000    74.3899   412.4881
 5180.5000    73.2538   400.1732
 5181.0000    73.0776   390.6871
 5181.5000    72.6365   395.3013
 5182.0000    70.5466   413.9933
 5182.5000    67.0234   478.2768
 5183.0000    63.3322   594.3043
 5183.5000    60.4077   696.5201
 5184.0000    56.5076   757.8367
 5184.5000    55.0465   861.3087
 5185.0000    53.8294   905.6674
 5185.5000    53.3439   940.1739
 5186.0000    55.3568   984.5327
 5186.5000    60.2857   991.9458
 5187.0000    67.1798   988.1313
 5187.5000    73.6553   923.0795
 5188.0000    79.1900   719.1044
 5188.5000    83.3876   369.9985
 5189.0000    86.0247   272.0694
 5189.5000    87.2811   259.4324
 5190.0000    87.8539   260.5912
 5190.5000    87.7585   243.3790
 5191.0000    88.4930   213.8462
 5191.5000    89.2271   204.0177
 5192.0000    88.4977   218.8198
 5192.5000    88.2442   290.2721
 5193.0000    89.5047   359.2614
 5193.5000    91.9630   387.0674
 5194.0000    90.7517   391.3286
 5194.5000    88.3412   347.6742
 5195.0000    86.9019   298.1280
 5195.5000    86.5630   262.4109
 5196.0000    89.0531   225.2097
 5196.5000    91.9430   214.1133
 5197.0000    94.0681   221.8262
 5197.5000    95.5980   243.7236
 5198.0000    96.8198   273.3040
 5198.5000    97.5539   307.8105
 5199.0000    98.1609   317.6865
 5199.5000    98.6738   322.6364
 5200.0000    99.5128   325.1232
 5200.5000   103.6626   324.9637
