~VERSION INFORMATION
 VERS.                2.0:   CWLS LOG ASCII STANDARD - VERSION 2.0
 WRAP.                 NO:   ONE LINE PER DEPTH STEP
~WELL INFORMATION
#MNEM.UNIT      DATA TYPE    INFORMATION
#----------   ------------   ------------------------------
 STRT.F          174.0000:   START DEPTH
 STOP.F         3492.0000:   STOP DEPTH
 STEP.F            0.5000:   STEP LENGTH
 NULL.          -999.2500:   NO VALUE
 COMP.    FENIX & SCISSON:   COMPANY
 WELL.   FENIX "AX" #18-3:   WELL
 FLD .        TEAPOT DOME:   FIELD
 LOC .       S3 T38N R78W:   LOCATION
 CNTY.            NATRONA:   COUNTY
 STAT.            WYOMING:   STATE
 CTRY. UNITED STATES OF AMERICA:   COUNTRY
 SRVC.       SCHLUMBERGER:   SERVICE COMPANY
 DATE.        09-FEB-1981:   LOGDATE
 API .     49025108630000:   API NUMBER
~CURVE INFORMATION
#MNEM.UNIT       API CODE    CURVE DESCRIPTION
#----------   ------------   ------------------------------
 DEPT.F                  :   
 CALD.IN     45 280 60 00:   CALIPER FROM DENSITY LOG
 GRD .GAPI   45 310 01 00:   GAMMA RAY FROM DENSITY LOG
 RHOB.G/C3   45 350 01 00:   BULK DENSITY
 DRHO.G/C3   45 356 01 00:   DENSITY CORRECTION
 TENR.LBS    07 635 01 00:   TENSION FROM RESISTIVITY
 SPR .MV     07 010 01 00:   SPONTANEOUS POTENTIAL
 ILM .OHMM   07 120 44 00:   INDUCTION LOG MEDIUM RESISTIVITY
 ILD .OHMM   07 120 46 00:   INDUCTION LOG DEEP RESISTIVITY
 SFLU.OHMM   07 220 01 00:   SPHERICALLY FOCUSED LOG UNAVERAGED RESISTIVITY
~PARAMETER INFORMATION
#MNEM.UNIT          VALUE    DESCRIPTION
#----------   ------------   ------------------------------
 EKB .F         5267.0000:   Kelly bushing
 EGL .F         5257.0000:   Ground level
 EDF .F            0.0000:   Drilling floor
 TD  .F         3472.0000:   Total depth
 DATE.        09-FEB-1981:   Date logged
 CLNT.            A2DTECH:   Client Code
 SL  . 669' FSL & 42' FWL:   Surface Location
 PD  .                 GL:   Permanent Datum
 DD  .F              3401:   Depth driller
 DL  .F              3472:   Depth logger
 BLI .F              3466:   Bottom log interval
 CS1 .IN            8.625:   Casing size
 CBD1.      8.625" @ 200':   Casing driller 1
 CBL1.F               196:   Casing logger 1
 BS1 .IN            7.875:   Bit size
 DFT .            KCL/GEL:   Type fluid in hole
 DFD .                  9:   Density
 DFV .                 60:   Viscosity
 DFPH.                8.5:   pH
 DFL .                 10:   Fluid loss
 MSS .            MUD/PIT:   Source of sample
 RMS .OHMM           1.88:   Rm
 MST .F                75:   Rm Meas. temp.
 RMF .OHMM           1.12:   Rmf
 MFST.F                75:   Rmf Meas. temp.
 MFSS.               MEAS:   Source Rmf.
 RMB .OHMM           1.21:   Rm. at BHT
 BHT .F               120:   BHT.
 TCS .HRS            1800:   Time Circ. stopped
 MRT .F               120:   Maximum recorded temp.
 LUN .               8043:   Logging unit number
 LUL .               CSPR:   Logging unit location
 ENGI.            CONNETT:   Recorded By
 WITN.              SCOTT:   Witnessed by
 ORIG.           5" PRINT:   Origin of data
 UWI .     49025108630000:   Unique Well ID
 DICO. A2D TECHNOLOGIES, INC.:   Digitizing Company
 DAPD.F                10:   Feet Above Permanent Datum
 BSD1.F              3401:   Depth drilled with bit1
 EPD .F              5257:   Elevation Permanent Datum
 LMF .                 KB:   Log Measured From
 DMF .                 KB:   Drilling Measured From
 TLI .F               196:   Top log interval
 TLAB.               0000:   Time logger at bottom
~OTHER INFORMATION
~A   DEPT     CALD         GRD      RHOB       DRHO       TENR        SPR        ILM        ILD       SFLU   
# ...
  210.5000     9.2260    75.6070     2.5060     0.2500   770.7710  -131.5220     6.6460     6.2710     6.8640
  211.0000     9.2250    74.9560     2.5100     0.2500   770.7710  -131.3830     6.7690     6.3980     7.0180
  211.5000     9.2240    76.8040     2.5000     0.2500   770.7710  -131.3860     6.8920     6.5260     7.1330
  212.0000     9.2230    78.3790     2.4810     0.2490   770.7710  -131.3900     7.0160     6.6530     7.2480
  212.5000     9.2220    78.2530     2.4620     0.2410   770.7710  -131.4040     7.1390     6.7810     7.3630
  213.0000     9.2210    78.1350     2.4420     0.2400   770.7710  -131.2890     7.2620     6.9080     7.4780
  213.5000     9.2200    77.9980     2.4360     0.2410   770.7710  -129.1420     7.3860     7.0360     7.5930
  214.0000     9.2190    76.9590     2.4300     0.2460   770.7710  -127.0940     7.5090     7.1630     7.7080
  214.5000     9.2180    75.9070     2.4260     0.2470   770.7710  -122.4380     7.6320     7.2910     7.8230
  215.0000     9.2160    74.8210     2.4150     0.2480   770.7710  -116.1360     7.7550     7.3360     7.9380
  215.5000     9.2190    75.9640     2.4010     0.2490   770.7710  -107.4140     7.8090     7.3550     8.1030
  216.0000     9.3960    77.4650     2.3880     0.2480   770.7710   -98.5340     7.7390     7.3730     8.0280
  216.5000     9.9860    79.0150     2.3620     0.2420   770.7710   -81.0880     7.6470     7.3890     7.9410
  217.0000    10.6940    79.7790     2.3330     0.2020   770.7710   -75.0870     7.5550     7.3280     7.8500
  217.5000    11.7690    79.2350     2.3420     0.1630   770.7710   -70.7620     7.4630     7.2490     7.7590
  218.0000    12.5000    78.0220     2.3630     0.1310   770.7710   -69.3150     7.3710     7.1700     7.6820
  218.5000    12.7140    76.8180     2.3990     0.1160   770.7710   -67.6630     7.2790     7.0900     7.5860
  219.0000    12.9150    75.9260     2.4400     0.1210   770.7710   -66.8010     7.1870     7.0110     7.4890
  219.5000    12.9660    77.3100     2.5140     0.1280   770.7710   -66.1730     7.0560     6.9320     7.3920
  220.0000    12.8580    75.8490     2.4980     0.1360   770.7710   -65.5550     7.0620     6.8520     7.2950
  220.5000    11.9870    80.3180     2.2530     0.1420   770.7710   -64.9320     7.0770     6.7730     7.0740
  221.0000    11.1620    85.7130     2.0440     0.1370   770.7710   -64.2850     7.0920     6.6770     6.7640
  221.5000    10.3710    90.4400     2.0040     0.0950   770.7710   -64.1620     7.1070     6.7620     6.4540
  222.0000     9.5700    89.8120     2.0050     0.0520   770.7710   -64.0660     7.1220     6.9090     6.2020
  222.5000     9.2230    87.3020     2.1940     0.0220   770.7710   -63.9670     7.2640     7.0560     6.5030
  223.0000     9.1920    86.9420     2.4130     0.0460   770.7710   -63.8660     7.4070     7.2030     7.7890
  223.5000     9.1630    92.9480     2.5150     0.0830   770.7710   -63.7660     7.5510     7.3210     9.0750
  224.0000     9.1360    97.9170     2.5640     0.1050   770.7710   -63.6660     7.6670     7.2400    10.1100
  224.5000     9.1360    99.9750     2.5610     0.1000   770.7710   -63.5660     7.5920     7.1720     9.0960
  225.0000     9.1380    98.6820     2.5370     0.0920   770.7710   -63.4650     7.5290     7.1040     7.7330
  225.5000     9.1390    98.1540     2.4960     0.0660   770.7710   -63.3650     7.4660     7.0360     7.7090
  226.0000     9.1400    98.3630     2.4760     0.0660   770.7710   -63.2650     7.4030     6.9680     7.6860
  226.5000     9.1410    98.6010     2.4940     0.0680   770.7710   -63.1650     7.3400     6.9270     7.6620
  227.0000     9.1430    97.6750     2.4950     0.0780   770.7710   -63.0640     7.2770     6.9270     7.6390
  227.5000     9.1440    96.3470     2.4910     0.0740   770.7710   -62.9640     7.2140     6.9270     7.6150
  228.0000     9.1450    95.6320     2.4920     0.0700   770.7710   -62.8630     7.1510     6.9270     7.5960
  228.5000     9.1460    96.2520     2.5020     0.0770   770.7710   -62.7620     7.0890     6.9270     7.5410
  229.0000     9.1480    98.5090     2.5080     0.0880   770.7710   -62.6800     7.0260     6.9270     7.4860
  229.5000     9.1490   100.2550     2.4980     0.0800   770.7710   -62.8080     6.9630     6.9270     7.4300
  230.0000     9.1500   100.4250     2.4850     0.0710   770.7710   -62.9330     6.9000     6.9270     7.3750
  230.5000     9.1510   100.5070     2.4760     0.0520   770.7710   -63.0570     6.8370     6.9270     7.2540
  231.0000     9.1530   102.9110     2.4770     0.0540   770.7710   -63.1790     6.8010     6.9710     7.3550
  231.5000     9.1540   105.2040     2.4940     0.0630   770.7710   -63.2420     6.8750     7.0420     7.5920
  232.0000     9.1550   106.3230     2.5040     0.0740   770.7710   -63.1340     6.9650     7.1120     7.8290
  232.5000     9.1560   105.7100     2.5010     0.0830   770.7710   -63.0320     7.0550     7.1830     8.0660
  233.0000     9.1580   105.1220     2.4990     0.0780   770.7710   -62.9290     7.1450     7.2530     8.3030
  233.5000     9.1590   104.5540     2.5030     0.0730   770.7710   -62.8270     7.2350     7.3210     8.4850
  234.0000     9.1600   104.3590     2.5150     0.0780   770.7710   -62.7240     7.3210     7.2460     8.4850
  234.5000     9.1610   104.9430     2.5270     0.0840   770.7710   -62.5830     7.2700     7.1740     7.9780
  235.0000     9.1630   101.6310     2.5200     0.0910   770.7710   -62.4030     7.1510     7.1020     7.3210
  235.5000     9.1640    98.2560     2.5110     0.0910   770.7710   -62.2230     7.0330     7.0290     7.3890
  236.0000     9.1650    95.0930     2.5020     0.0910   770.7710   -62.0430     6.9150     6.9570     7.3560
  236.5000     9.1670    97.5020     2.5080     0.0910   770.7710   -61.8630     6.7960     6.8840     7.3240
  237.0000     9.1680   100.6470     2.5150     0.0950   770.7710   -61.6810     6.6780     6.8120     7.2920
  237.5000     9.1690   102.8700     2.5210     0.0980   770.7710   -61.4930     6.5590     6.7900     7.2600
  238.0000     9.1700   101.3410     2.5140     0.0930   770.7710   -61.4590     6.4940     6.7780     7.2280
  238.5000     9.1720    98.3850     2.5060     0.0840   770.7710   -61.4100     6.4940     6.7660     7.1960
  239.0000     9.1730    96.1670     2.5020     0.0770   770.7710   -61.3610     6.4940     6.7530     7.1640
  239.5000     9.1740    97.4520     2.5090     0.0800   770.7710   -61.3120     6.4350     6.7410     7.1330
  240.0000     9.1750   100.6670     2.5230     0.1040   770.7710   -61.2620     6.4300     6.7280     7.1220
  240.5000     9.1770   103.7340     2.5310     0.1030   770.7710   -61.2130     6.4250     6.7160     7.1220
  241.0000     9.1780   104.1280     2.5180     0.0870   770.7710   -61.1640     6.4200     6.7040     7.1220
  241.5000     9.1790   102.9410     2.5040     0.0780   770.7710   -61.1140     6.4140     6.6910     7.1220
  242.0000     9.1800   101.7350     2.5040     0.0840   770.7710   -61.1200     6.4090     6.6790     7.1220
  242.5000     9.1820    99.5270     2.5080     0.0910   770.7710   -61.1790     6.4040     6.6660     7.1220
  243.0000     9.1830    96.8760     2.5150     0.0940   770.7710   -61.2390     6.3990     6.6540     7.1220
  243.5000     9.1840    96.1710     2.5220     0.0960   770.7710   -61.2990     6.3930     6.6420     7.1210
  244.0000     9.1850    97.6340     2.5290     0.0920   770.7710   -61.3590     6.3880     6.6290     7.1210
  244.5000     9.1870    99.2580     2.5360     0.0890   770.7710   -61.4200     6.3830     6.6150     7.2060
  245.0000     9.1880    99.5050     2.5340     0.0820   770.7710   -61.4820     6.3770     6.6870     7.3030
  245.5000     9.1890    98.4910     2.5210     0.0760   770.7710   -61.4860     6.3760     6.7930     7.4000
  246.0000     9.1900    97.9230     2.5070     0.0690   770.7710   -61.4850     6.4700     6.9000     7.4960
  246.5000     9.1920    97.7180     2.4940     0.0630   770.7710   -61.4850     6.5770     7.0060     7.5760
