~VERSION INFORMATION
 VERS.                2.0:   CWLS LOG ASCII STANDARD - VERSION 2.0
 WRAP.                 NO:   ONE LINE PER DEPTH STEP
~WELL INFORMATION
#MNEM.UNIT      DATA TYPE    INFORMATION
#----------   ------------   ------------------------------
 STRT.F            0.0000:   START DEPTH
 STOP.F         4134.5000:   STOP DEPTH
 STEP.F            0.5000:   STEP LENGTH
 NULL.          -999.2500:   NO VALUE
 COMP. LAWRENCE ALLISON & ASSOCIATES:   COMPANY
 WELL. LAWRENCE NPR 3 "X" #72-10:   WELL
 FLD .            WILDCAT:   FIELD
 LOC .      S10 T38N R78W:   LOCATION
 CNTY.            NATRONA:   COUNTY
 STAT.            WYOMING:   STATE
 CTRY. UNITED STATES OF AMERICA:   COUNTRY
 SRVC.      DRESSER ATLAS:   SERVICE COMPANY
 DATE.        29-JUL-1983:   LOGDATE
 API .     49025109390000:   API NUMBER
~CURVE INFORMATION
#MNEM.UNIT       API CODE    CURVE DESCRIPTION
#----------   ------------   ------------------------------
 DEPT.F                  :   
 CALD.IN     45 280 60 00:   CALIPER FROM DENSITY LOG
 DEN .G/C3   45 350 01 00:   BULK DENSITY
 CORR.G/C3   45 356 01 00:   DENSITY CORRECTION
 TEND.LBS    45 635 01 00:   TENSION FROM DENSITY LOG
 NPHI.DEC    42 890 03 00:   NEUTRON POROSITY SANDSTONE
 GRD .GAPI   45 310 01 00:   GAMMA RAY FROM DENSITY LOG
 SPR .MV     07 010 01 00:   SPONTANEOUS POTENTIAL
 RILD.OHMM   07 120 46 00:   DEEP INDUCTION RESISTIVITY
 RILM.OHMM   07 120 44 00:   INDUCTION LOG MEDIUM RESISTIVITY
 RFOC.OHMM   07 220 04 00:   RESISTIVITY FOCUSED LOG RES.
 TENR.LBS    07 635 01 00:   TENSION FROM RESISTIVITY
 AC  .US/F   60 250 00 00:   ACCOUSTIC
 TENS.LBS    60 635 01 00:   TENSION FROM SONIC
 GRR .GAPI   07 310 01 00:   GAMMA RAY FROM RESISTIVITY
~PARAMETER INFORMATION
#MNEM.UNIT          VALUE    DESCRIPTION
#----------   ------------   ------------------------------
 EKB .F         5182.0000:   Kelly bushing
 EGL .F         5172.0000:   Ground level
 EDF .F            0.0000:   Drilling floor
 TD  .F         4139.0000:   Total depth
 DATE.        29-JUL-1983:   Date logged
 CLNT.            A2DTECH:   Client Code
 SL  . 900' FNL & 900' FEL:   Surface Location
 PD  .                 GL:   Permanent Datum
 EPD .F              5172:   Elevation Permanent Datum
 LMF .                 KB:   Log Measured From
 DMF .                 KB:   Drilling Measured From
 DAPD.F                10:   Feet Above Permanent Datum
 DD  .F              4139:   Depth driller
 DL  .F              4134:   Depth logger
 BLI .F              4132:   Bottom log interval
 CS1 .IN            9.625:   Casing size
 CBD1.      9.625" @ 476':   Casing driller 1
 BS1 .IN            7.875:   Bit size
 BSD1.F              4139:   Depth drilled with bit1
 DFT .               LSND:   Type fluid in hole
 DFD .                6.6:   Density
 DFV .                 41:   Viscosity
 DFPH.                8.5:   pH
 DFL .                 10:   Fluid loss
 MSS .           FLOWLINE:   Source of sample
 RMS .OHMM            .27:   Rm
 MST .F                91:   Rm Meas. temp.
 RMF .OHMM            .19:   Rmf
 MFST.F                87:   Rmf Meas. temp.
 RMC .OHMM            .34:   Rmc
 MCST.F                87:   Rmc Meas. temp.
 MFSS.               MEAS:   Source Rmf.
 MCSS.               CALC:   Source Rmc.
 RMB .OHMM            .19:   Rm. at BHT
 BHT .F               130:   BHT.
 TCS .HRS               3:   Time Circ. stopped
 MRT .F               130:   Maximum recorded temp.
 LUN .               6274:   Logging unit number
 LUL .               GLTF:   Logging unit location
 ENGI.             RAUTIC:   Recorded By
 WITN.             STRONG:   Witnessed by
 ORIG.           5" PRINT:   Origin of data
 UWI .     49025109390000:   Unique Well ID
 DICO. A2D TECHNOLOGIES, INC.:   Digitizing Company
~OTHER INFORMATION
~A    DEPT    CALD        DEN       CORR       TEND       NPHI        GRD        SPR       RILD       RILM       RFOC       TENR         AC       TENS         GRR  
# ...
 1935.5000     8.6980     2.5620     0.1480   -50.2590     0.2960   136.9230   -53.4340     8.4930     8.3020    10.2880   -59.5060  -999.2500  -999.2500   133.8280
 1936.0000     8.6970     2.5620     0.1510   -50.5330     0.2850   140.6360   -53.5170     8.4800     8.3180    10.1770   -60.0360  -999.2500  -999.2500   135.4440
 1936.5000     8.6960     2.5580     0.1520   -50.8070     0.2770   142.8980   -53.5990     8.4680     8.3340    10.0840   -60.5660  -999.2500  -999.2500   132.4490
 1937.0000     8.6960     2.5530     0.1390   -51.0810     0.2780   141.2560   -53.6810     8.5460     8.3490    10.1770   -61.0970  -999.2500  -999.2500   131.9980
 1937.5000     8.6950     2.5480     0.1380   -51.3550     0.2870   140.8430   -53.7630     8.5460     8.3650    10.1890   -61.6270  -999.2500  -999.2500   132.1970
 1938.0000     8.6940     2.5440     0.1600   -51.6280     0.2950   142.3190   -53.8460     8.6340     8.3810    10.2210   -62.1570  -999.2500  -999.2500   130.2660
 1938.5000     8.6930     2.5410     0.1580   -51.9020     0.3000   142.9550   -53.9280     8.6740     8.3970    10.2530   -62.6870  -999.2500  -999.2500   127.0160
 1939.0000     8.6930     2.5440     0.1520   -52.1760     0.2960   140.4410   -53.9220     8.7050     8.4130    10.2710   -63.2170  -999.2500  -999.2500   125.2060
 1939.5000     8.6920     2.5460     0.1520   -52.4500     0.2880   138.0450   -53.8940     8.7050     8.4290    10.2710   -63.7480  -999.2500  -999.2500   124.1120
 1940.0000     8.6910     2.5480     0.1530   -52.6970     0.2800   136.9540   -53.8660     8.7050     8.4450    10.5350   -64.2780  -999.2500  -999.2500   123.0300
 1940.5000     8.6900     2.5500     0.1520   -46.1160     0.2660   139.6450   -53.8380     8.7050     8.4610    10.6560   -64.8080  -999.2500  -999.2500   121.9530
 1941.0000     8.6900     2.5520     0.1440   -40.1220     0.2590   141.8080   -53.8100     8.7050     8.4770    10.2200   -65.3380  -999.2500  -999.2500   120.8690
 1941.5000     8.6890     2.5580     0.1390   -34.1280     0.2630   141.3110   -53.7820     8.7050     8.4930     9.7530   -65.8680  -999.2500  -999.2500   119.7290
 1942.0000     8.6890     2.5660     0.1510   -37.5460     0.2650   142.3500   -53.7530     8.7050     8.5080     9.3690   -66.3980  -999.2500  -999.2500   120.8780
 1942.5000     8.6890     2.5730     0.1630   -46.0370     0.2670   144.5060   -53.7200     8.7050     8.5240     9.7310   -66.9290  -999.2500  -999.2500   122.6150
 1943.0000     8.6900     2.5680     0.1660   -52.5400     0.2680   145.3220   -53.6630     8.7050     8.5400    10.0830   -67.4590  -999.2500  -999.2500   124.2220
 1943.5000     8.6900     2.5570     0.1640   -51.8120     0.2860   144.1200   -53.6070     8.6780     8.5460    10.4340   -67.7240  -999.2500  -999.2500   122.8480
 1944.0000     8.6910     2.5460     0.1620   -51.0850     0.3050   142.2180   -53.5510     8.6180     8.4720    10.5580   -67.1280  -999.2500  -999.2500   121.3860
 1944.5000     8.6910     2.5440     0.1600   -50.3570     0.3240   141.3090   -53.4940     8.5580     8.4110    10.4570   -66.5320  -999.2500  -999.2500   120.2840
 1945.0000     8.6910     2.5430     0.1540   -49.6290     0.3440   141.9440   -53.4380     8.4980     8.3510    10.3060   -65.9360  -999.2500  -999.2500   120.4180
 1945.5000     8.6920     2.5420     0.1470   -48.9010     0.3460   140.5270   -53.3820     8.3900     8.2900    10.1550   -65.3400  -999.2500  -999.2500   122.5340
 1946.0000     8.6920     2.5390     0.1410   -48.1730     0.3250   140.9870   -53.3440     8.3140     8.2300    10.0840   -64.7440  -999.2500  -999.2500   124.5840
 1946.5000     8.6930     2.5360     0.1360   -49.0860     0.2990   142.9650   -53.3880     8.2380     8.1700     9.8000   -64.1480  -999.2500  -999.2500   126.6220
 1947.0000     8.6930     2.5350     0.1420   -53.0050     0.2770   141.2260   -53.4340     8.1620     8.1090     9.5170   -63.5520  -999.2500  -999.2500   128.6280
 1947.5000     8.6940     2.5340     0.1470   -56.9240     0.2820   138.7200   -53.4800     8.0880     8.0490     9.4550   -62.9560  -999.2500  -999.2500   130.0460
 1948.0000     8.6940     2.5270     0.1530   -57.6920     0.2880   136.2550   -53.5260     8.0880     8.0100     9.6310   -62.3600  -999.2500  -999.2500   128.4970
 1948.5000     8.6950     2.5210     0.1590   -57.6920     0.2940   134.8480   -53.5430     8.0880     7.9910     9.8490   -61.7640  -999.2500  -999.2500   127.1290
 1949.0000     8.6950     2.5200     0.1460   -57.6920     0.2990   137.6450   -53.5430     8.1620     7.9720    10.0640   -61.1680  -999.2500  -999.2500   127.5370
 1949.5000     8.6960     2.5240     0.1310   -59.5480     0.3040   140.3430   -53.5430     8.1630     7.9540    10.1770   -60.5730  -999.2500  -999.2500   127.6570
 1950.0000     8.6960     2.5260     0.1270   -61.3000     0.3010   143.0340   -53.5430     8.1620     7.9350     9.8510   -59.9770  -999.2500  -999.2500   126.6960
 1950.5000     8.6970     2.5270     0.1230   -63.0530     0.3000   145.7330   -53.5440     8.1620     7.9170     9.5640   -59.3810  -999.2500  -999.2500   125.7740
 1951.0000     8.6970     2.5290     0.1190   -64.8050     0.3000   148.4100   -53.6000     8.1610     7.8980     9.2770   -58.7850  -999.2500  -999.2500   124.0070
 1951.5000     8.6970     2.5340     0.1170   -66.5580     0.2830   150.0330   -53.6630     8.1620     7.8800     9.1980   -58.1890  -999.2500  -999.2500   121.9230
 1952.0000     8.6980     2.5390     0.1290   -67.6820     0.2870   148.5730   -53.7270     8.0140     7.8680     9.5270   -57.5930  -999.2500  -999.2500   119.8350
 1952.5000     8.6980     2.5420     0.1400   -64.1860     0.2930   143.2520   -53.7440     8.1030     8.0000     9.8190   -56.9970  -999.2500  -999.2500   117.7400
 1953.0000     8.6990     2.5430     0.1340   -58.0610     0.2990   139.8410   -53.6470     8.2380     8.0990    10.1110   -56.4010  -999.2500  -999.2500   115.6200
 1953.5000     8.6990     2.5460     0.1180   -51.9360     0.3030   140.4810   -53.5230     8.2140     8.2380    10.1770   -55.8050  -999.2500  -999.2500   115.5890
 1954.0000     8.7000     2.5550     0.1300   -45.8110     0.3000   141.3200   -53.3960     8.1510     8.1930    10.1670   -55.2090  -999.2500  -999.2500   118.1650
 1954.5000     8.7000     2.5630     0.1430   -39.6860     0.2990   140.9640   -53.3990     8.0880     8.0790    10.1140   -54.6130  -999.2500  -999.2500   120.6210
 1955.0000     8.7010     2.5610     0.1560   -33.5610     0.2930   140.7630   -53.4890     8.0250     7.9660    10.0840   -54.0170  -999.2500  -999.2500   119.2970
 1955.5000     8.7010     2.5560     0.1700   -32.7170     0.2930   143.4360   -53.5800     8.0140     7.8520     9.7530   -53.4210  -999.2500  -999.2500   117.8170
 1956.0000     8.7020     2.5480     0.1720   -33.7080     0.2930   147.6110   -53.6710     8.0140     7.7380     9.3720   -52.8250  -999.2500  -999.2500   118.2030
 1956.5000     8.7020     2.5400     0.1690   -35.7550     0.2950   152.0170   -53.7180     8.0140     7.6540     8.9900   -52.2290  -999.2500  -999.2500   121.9550
 1957.0000     8.7020     2.5360     0.1530   -37.8010     0.2970   156.5280   -53.5860     8.0140     7.6800     8.7850   -51.6330  -999.2500  -999.2500   127.5400
 1957.5000     8.7030     2.5360     0.1360   -39.8470     0.3000   157.7610   -53.4550     8.0130     7.7200     9.2140   -51.0370  -999.2500  -999.2500   130.5860
 1958.0000     8.7030     2.5440     0.1180   -41.8940     0.3070   156.3720   -53.3830     7.9980     7.7600     9.7320   -50.4410  -999.2500  -999.2500   132.3530
 1958.5000     8.7040     2.5520     0.1230   -43.9400     0.3140   155.0250   -53.5700     7.9680     7.8010     9.9920   -49.8450  -999.2500  -999.2500   134.1050
 1959.0000     8.7040     2.5520     0.1500   -45.9860     0.3200   156.7220   -53.9330     7.9410     7.8530     9.8580   -49.2490  -999.2500  -999.2500   135.3150
 1959.5000     8.7050     2.5340     0.1600   -48.0330     0.3250   160.3540   -54.1420     7.9400     7.9050     9.7750   -48.6530  -999.2500  -999.2500   136.5920
