~VERSION INFORMATION
 VERS.                2.0:   CWLS LOG ASCII STANDARD - VERSION 2.0
 WRAP.                 NO:   ONE LINE PER DEPTH STEP
~WELL INFORMATION
#MNEM.UNIT      DATA TYPE    INFORMATION
#----------   ------------   ------------------------------
 STRT.F          600.0000:   START DEPTH
 STOP.F         3201.0000:   STOP DEPTH
 STEP.F            0.5000:   STEP LENGTH
 NULL.          -999.2500:   NO VALUE
 COMP.    FENIX & SCISSON:   COMPANY
 WELL. FENIX & SCISSON 38 "AX" #3-34:   WELL
 FLD .              NPR 3:   FIELD
 LOC .      S34 T39N R78W:   LOCATION
 CNTY.            NATRONA:   COUNTY
 STAT.            WYOMING:   STATE
 CTRY. UNITED STATES OF AMERICA:   COUNTRY
 SRVC.              WELEX:   SERVICE COMPANY
 DATE.        16-SEP-1980:   LOGDATE
 API .     49025108560000:   API NUMBER
~CURVE INFORMATION
#MNEM.UNIT       API CODE    CURVE DESCRIPTION
#----------   ------------   ------------------------------
 DEPT.F                  :   
 CORR.G/C3   45 356 01 00:   DENSITY CORRECTION
 GRD .GAPI   45 310 01 00:   GAMMA RAY FROM DENSITY LOG
 RHOB.G/C3   45 350 01 00:   BULK DENSITY
 TEND.LBS    45 635 01 00:   TENSION FORM DENSITY LOG
 CALD.IN     45 280 60 00:   CALIPER FROM DENSITY LOG
 SPR .MV     07 010 01 00:   SPONTANEOUS POTENTIAL FROM RES.
 ILD .OHMM   07 120 46 00:   DEEP INDUCTION RESISTIVITY
 ILM .OHMM   07 120 44 00:   INDUCTION LOG MEDIUM RESISTIVITY
 GURD.OHMM   07 220 05 00:   GUARD LOG RESISTIVITY
~PARAMETER INFORMATION
#MNEM.UNIT          VALUE    DESCRIPTION
#----------   ------------   ------------------------------
 EKB .F         5205.0000:   Kelly bushing
 EGL .F         5195.0000:   Ground level
 TD  .F         3202.0000:   Total depth
 CLNT.            A2DTECH:   Client Code
 SL  . 582' FSL & 1600' FWL:   Surface Location
 PD  .                 GL:   Permanent Datum
 EPD .F              5195:   Elevation Permanent Datum
 LMF .                 KB:   Log Measured From
 DMF .                 KB:   Drilling Measured From
 DAPD.F                10:   Feet Above Permanent Datum
 DATE.        16-SEP-1980:   Date Logged [DD-MMM-YYYY]
 DD  .F              3200:   Depth driller
 DL  .F              3203:   Depth logger
 BLI .F              3201:   Bottom log interval
 TLI .F               600:   Top log interval
 CS1 .IN            8.625:   Casing size
 CBD1.      8.625" @ 580':   Casing driller 1
 CBL1.F               600:   Casing logger 1
 BS1 .IN            7.875:   Bit size
 BSD1.F              3200:   Depth drilled with bit1
 DFT .          DISPERSED:   Type fluid in hole
 DFD .                8.8:   Density
 DFV .                 40:   Viscosity
 DFPH.                 11:   pH
 DFL .                  8:   Fluid loss
 MSS .           FLOWLINE:   Source of sample
 RMS .OHMM           1.33:   Rm
 MST .F                65:   Rm Meas. temp.
 RMF .OHMM           1.15:   Rmf
 MFST.F                65:   Rmf Meas. temp.
 MFSS.               MEAS:   Source Rmf.
 RMC .OHMM           1.50:   Rmc
 MCST.F                65:   Rmc Meas. temp.
 MCSS.               MEAS:   Source Rmc.
 RMB .OHMM            .75:   Rm. at BHT
 BHT .F               115:   BHT.
 TCS .HRS               8:   Time Circ. stopped
 MRT .F               115:   Maximum recorded temp.
 LUN .               1892:   Logging unit number
 LUL .             CASPER:   Logging unit location
 ENGI.    PERIMMER / REIN:   Recorded By
 WITN.              FIVAS:   Witnessed by
 ORIG.         2.5" PRINT:   Origin of data
 UWI .     49025108560000:   Unique Well ID
 DICO. A2D TECHNOLOGIES, INC.:   Digitizing Company
~OTHER INFORMATION
~A   DEPT       CORR       GRD        RHOB      TEND       CALD       SPR          ILD        ILM       GURD 
# ...
 3155.0000     0.0469   109.0946     2.5100   490.9638     8.1840   -25.3917     3.0832     3.0218     4.1174
 3155.5000     0.0498   106.6150     2.5116   491.8675     8.1831   -25.7420     3.1236     3.0200     4.3487
 3156.0000     0.0502   105.3001     2.5126   492.7711     8.1375   -25.9183     3.1651     3.0694     4.5941
 3156.5000     0.0527   104.9803     2.5065   493.6745     8.0915   -26.2323     3.2519     3.1981     4.4043
 3157.0000     0.0537   104.9606     2.5035   494.5782     8.0907   -25.9439     3.3876     3.3536     4.1641
 3157.5000     0.0586   105.3880     2.5095   495.6490     8.1198   -25.6555     3.4805     3.4825     4.0478
 3158.0000     0.0602   105.8197     2.5170   496.5023     8.2089   -25.3494     3.5364     3.5550     4.2762
 3158.5000     0.0614   107.1523     2.5139   497.3552     8.2680   -24.7775     3.5890     3.6023     4.2733
 3159.0000     0.0584   108.4850     2.5018   498.2085     8.1449   -24.7922     3.6205     3.5999     4.2118
 3159.5000     0.0583   107.9870     2.4914   499.0963     8.0867   -24.8057     3.6180     3.6480     4.2091
 3160.0000     0.0522   107.4700     2.4800   500.0001     8.1159   -24.9800     3.6151     3.6457     4.2653
 3160.5000     0.0491   107.0774     2.4762   500.9037     8.2049   -25.4375     3.6128     3.6434     4.3221
 3161.0000     0.0461   107.5091     2.4828   501.8073     8.1020   -26.0527     3.6104     3.6412     4.5657
 3161.5000     0.0450   106.3503     2.4828   502.7109     8.0534   -26.6679     3.6080     3.6896     4.8245
 3162.0000     0.0399   108.8137     2.4760   493.4756     8.1722   -26.6807     3.6055     3.6873     4.9652
 3162.5000     0.0398   110.1463     2.4745   474.3974     8.3211   -26.9955     3.6030     3.6340     5.0224
 3163.0000     0.0397   111.4789     2.4789   475.3394     8.1706   -27.0090     3.5824     3.6319     4.8326
 3163.5000     0.0427   114.1629     2.4909   476.2047     7.9901   -26.7191     3.5250     3.6297     4.5213
 3164.0000     0.0487   116.8468     2.4893   477.1083     7.9893   -26.7349     3.4488     3.6276     4.2435
 3164.5000     0.0516   123.8348     2.4829   478.0119     7.9885   -26.1487     3.3991     3.6253     3.8486
 3165.0000     0.0546   134.8597     2.4781   478.9156     8.0515   -25.8584     3.3502     3.5601     3.7933
 3165.5000     0.0515   144.6010     2.4732   479.8193     8.1067   -25.5718     3.3019     3.4367     4.0634
 3166.0000     0.0484   179.3783     2.4675   480.8849     8.1359   -25.5846     3.2543     3.3529     4.4174
 3166.5000     0.0442   206.3866     2.4651   481.7383     8.0630   -26.2003     3.2439     3.2818     4.3884
 3167.0000     0.0392   219.8814     2.4636   482.5912     7.9696   -26.2712     3.2051     3.2799     4.1935
 3167.5000     0.0361   253.1960     2.4635   483.4445     7.9534   -26.5286     3.2029     3.2328     3.9974
 3168.0000     0.0331   234.7100     2.4650   484.3375     8.0125   -26.6706     3.2453     3.2309     3.9693
 3168.5000     0.0330   209.9488     2.4695   515.3616     8.0417   -26.8569     3.2427     3.2741     4.1617
 3169.0000     0.0359   154.3766     2.4724   516.2649     7.9810   -26.5714     3.2406     3.2823     4.5833
 3169.5000     0.0389   113.6913     2.4639   530.6698     7.9502   -26.2830     3.2836     3.3621     4.9782
 3170.0000     0.0355    99.4956     2.4463   548.1927     7.9195   -25.9946     3.2815     3.4765     5.0447
 3170.5000     0.0291   100.3778     2.4357   549.2306     7.9225   -25.7062     3.2341     3.5202     4.9721
 3171.0000     0.0227    96.0002     2.4347   550.0839     7.9973   -25.7199     3.2318     3.4975     4.8693
 3171.5000     0.0180    92.4239     2.4323   550.9368     8.1566   -25.7334     3.2296     3.4474     4.6309
 3172.0000     0.0129    89.0509     2.4256   536.1470     8.1317   -25.3333     3.2274     3.4454     4.3245
 3172.5000     0.0084    89.0322     2.4210   522.5230     8.0803   -25.0100     3.1803     3.4433     4.0838
 3173.0000     0.0083    89.4639     2.4225   523.4940     8.0343   -24.8705     3.1783     3.4893     3.8611
 3173.5000     0.0112    91.2470     2.4390   524.3976     8.0333   -24.8858     3.1762     3.4869     3.8057
 3174.0000     0.0142    88.3748     2.4497   525.3013     8.0325   -25.1998     3.1741     3.4848     3.8035
 3174.5000     0.0173    86.6186     2.4577   526.3619     8.0317   -25.8150     3.1720     3.4347     3.8569
 3175.0000     0.0236    86.2358     2.4661   527.2152     8.0309   -26.1545     3.1698     3.3384     3.9694
 3175.5000     0.0277    86.8421     2.4757   528.0681     8.0002   -26.5050     3.1676     3.2906     4.2001
 3176.0000     0.0392    87.9955     2.4927   528.9214     7.9993   -27.0602     3.1654     3.2434     4.2398
 3176.5000     0.0484    89.3234     2.5064   529.8193     7.9985   -27.0738     3.1632     3.2415     3.8433
 3177.0000     0.0590    87.0524     2.5124   530.7229     8.0368   -27.0873     3.1606     3.2395     3.7367
 3177.5000     0.0679    86.5004     2.5213   501.3600     8.1585   -27.1030     3.1586     3.2829     4.1153
 3178.0000     0.0739    87.0158     2.5288   502.4096     8.1018   -27.1158     3.1565     3.3267     4.1129
 3178.5000     0.0768    86.9868     2.5363   473.3727     8.0078   -26.8274     3.1985     3.3477     4.0538
 3179.0000     0.0828    86.3579     2.5457   474.2256     7.9845   -26.5301     3.2861     3.4627     3.9405
 3179.5000     0.0857    82.9401     2.5441   475.0789     8.0234   -25.9054     3.3298     3.5090     3.9380
 3180.0000     0.0887    79.8802     2.5290   475.9323     8.0226   -25.3597     3.4052     3.6054     3.9356
 3180.5000     0.0916    79.0626     2.5184   446.6647     7.9918   -25.0713     3.5364     3.7045     5.1397
 3181.0000     0.0916    78.5456     2.5135   447.5903     7.9910   -25.6919     3.6898     3.8063     6.2015
 3181.5000     0.0899  -999.2500     2.5060   448.4940     7.9902   -26.6094     3.7611     3.8571     5.4039
 3182.0000     0.0854  -999.2500     2.5055   449.3976     7.9958   -27.2246     3.8638     3.9086     5.1806
 3182.5000     0.0793  -999.2500     2.5077   450.3011     8.0368   -27.2374     3.8613     3.9312     6.1152
 3183.0000     0.0702  -999.2500     2.4983   451.3569     8.1375   -27.2501     3.8039     4.0130     6.8288
 3183.5000     0.0641  -999.2500     2.4893   452.2102     8.0774   -27.2636     3.7430     4.0661     6.5064
 3184.0000     0.0610  -999.2500     2.4845   453.0121     7.9687   -27.2771     3.6191     4.0637     5.6516
 3184.5000     0.0640  -999.2500     2.4817   453.9158     7.9551   -27.2907     3.4765     3.9503     4.8270
 3185.0000     0.0669  -999.2500     2.4855   454.8192     7.9843   -27.6054     3.3737     3.7803     4.2220
 3185.5000     0.0669  -999.2500     2.4957   455.7230     8.0434   -27.6190     3.3016     3.6215     3.9628
 3186.0000     0.0668  -999.2500     2.4912   456.6265     8.0725   -27.3333     3.2540     3.4662     3.9604
 3186.5000     0.0680  -999.2500     2.4770   457.5301     8.0717   -27.3461     3.2072     3.3638     3.9581
 3187.0000     0.0667  -999.2500     2.4619   458.6087     8.0709   -27.0572     3.2051     3.3100     4.0111
 3187.5000     0.0666  -999.2500     2.4664   459.4616     8.1064   -26.4559     3.1588     3.2868     4.0086
 3188.0000     0.0635  -999.2500     2.4769   460.3149     8.0810   -25.8313     3.1566     3.2849     3.9509
 3188.5000     0.0665  -999.2500     2.4859   461.1682     7.9667   -26.2781     3.1545     3.2830     3.8940
 3189.0000     0.0664  -999.2500     2.4888   462.0483     7.9033   -27.0492     3.1546     3.2810     3.8916
 3189.5000     0.0670  -999.2500     2.4828   462.9517     7.9342   -27.5813     3.1635     3.3248     3.8892
 3190.0000     0.0733  -999.2500     2.4887   463.8554     8.0358   -27.7433     3.1725     3.3350     3.8863
 3190.5000     0.0796  -999.2500     2.4995   464.7590     8.0949   -27.7561     3.1814     3.3672     4.0041
 3191.0000     0.0812  -999.2500     2.5082   465.6627     8.0641   -27.7689     3.1874     3.3886     4.1605
