~VERSION INFORMATION
 VERS.                2.0:   CWLS LOG ASCII STANDARD - VERSION 2.0
 WRAP.                 NO:   ONE LINE PER DEPTH STEP
~WELL INFORMATION
#MNEM.UNIT      DATA TYPE    INFORMATION
#----------   ------------   ------------------------------
 STRT.F          484.0000:   START DEPTH
 STOP.F         4096.0000:   STOP DEPTH
 STEP.F            0.5000:   STEP LENGTH
 NULL.          -999.2500:   NO VALUE
 COMP.    FENIX & SCISSON:   COMPANY
 WELL. FENIX NPR "JX" #58-28:   WELL
 FLD .                NPR:   FIELD
 LOC .      S28 T39N R78W:   LOCATION
 CNTY.            NATRONA:   COUNTY
 STAT.            WYOMING:   STATE
 CTRY. UNITED STATES OF AMERICA:   COUNTRY
 SRVC.              WELEX:   SERVICE COMPANY
 DATE.        02-MAY-1978:   LOGDATE
 API .     49025107810000:   API NUMBER
~CURVE INFORMATION
#MNEM.UNIT       API CODE    CURVE DESCRIPTION
#----------   ------------   ------------------------------
 DEPT.F                  :   
 NPHI.DEC    42 890 03 00:   NEUTRON POROSITY SANDSTONE
 RHOB.G/C3   45 350 01 00:   BULK DENSITY
 CORR.G/C3   45 356 01 00:   DENSITY CORRECTION
 CALD.IN     45 280 60 00:   CALIPER FROM DENSITY LOG
 GRD .GAPI   45 310 01 00:   GAMMA RAY FROM DENSITY LOG
 SPR .MV     07 010 01 00:   SPONTANEOUS POTENTIAL
 ILD .OHMM   07 120 46 00:   DEEP INDUCTION RESISTIVITY
 SGRD.OHMM   07 220 05 00:   SHALLOW SHORT GUARD RESISTIVITY
 ILM .OHMM   07 120 44 00:   INDUCTION LOG MEDIUM RESISTIVITY
~PARAMETER INFORMATION
#MNEM.UNIT          VALUE    DESCRIPTION
#----------   ------------   ------------------------------
 EKB .F         5115.0000:   Kelly bushing
 EGL .F         5101.0000:   Ground level
 EDF .F            0.0000:   Drilling floor
 EPD .F         5101.0000:   Permanent datum
 TD  .F         4100.0000:   Total depth
 DATE.        02-MAY-1978:   Date logged
 CLNT.            A2DTECH:   Client Code
 SL  . 525' FSL & 2406' FEL:   Surface Location
 PD  .                 GL:   Permanent Datum
 DAPD.F                14:   Feet Above Permanent Datum
 DD  .F              4100:   Depth driller
 DL  .F              4098:   Depth logger
 BLI .F              4096:   Bottom log interval
 CS1 .IN            8.625:   Casing size
 CBD1.      8.625" @ 501':   Casing driller 1
 CBL1.F               500:   Casing logger 1
 BS1 .IN            7.875:   Bit size
 BSD1.F              4100:   Depth drilled with bit1
 DFT .            CHM GEL:   Type fluid in hole
 DFD .                9.4:   Density
 DFV .                 48:   Viscosity
 DFPH.                9.3:   pH
 DFL .                8.5:   Fluid loss
 MSS .           FLOWLINE:   Source of sample
 RMS .OHMM           1.24:   Rm
 MST .F                70:   Rm Meas. temp.
 RMF .OHMM            .57:   Rmf
 MFST.F                70:   Rmf Meas. temp.
 RMC .OHMM           1.48:   Rmc
 MCST.F                70:   Rmc Meas. temp.
 MFSS.               MEAS:   Source Rmf.
 MCSS.               MEAS:   Source Rmc.
 RMB .OHMM            .87:   Rm. at BHT
 BHT .F               123:   BHT.
 TCS .HRS               4:   Time Circ. stopped
 MRT .F               123:   Maximum recorded temp.
 LUN .               1892:   Logging unit number
 LUL .             CASPER:   Logging unit location
 ENGI.               REIN:   Recorded By
 WITN.           DINSMORE:   Witnessed by
 ORIG.         2.5" PRINT:   Origin of data
 UWI .     49025107810000:   Unique Well ID
 DICO. A2D TECHNOLOGIES, INC.:   Digitizing Company
 TLI .                500:   Top log interval
~OTHER INFORMATION
~A   DEPT       NPHI     RHOB       CORR       CALD         GRD       SPR        ILD       SGRD        ILM   
# ...
  739.5000     0.2740     2.6060     0.0960    10.9800    77.9630   -18.6060     6.5080     6.9580     6.8790
  740.0000     0.2720     2.6070     0.0930    10.9800    76.9560   -18.7830     6.4710     6.9370     6.8400
  740.5000     0.2710     2.6090     0.0900    10.9800    73.0040   -18.1740     6.4340     6.9150     6.8010
  741.0000     0.2700     2.6060     0.0870    10.9800    72.9530   -17.5890     6.3970     6.8940     6.7620
  741.5000     0.2680     2.5990     0.0840    10.9800    76.2120   -17.0920     6.3600     6.8720     6.7230
  742.0000     0.2690     2.5940     0.0850    10.9800    76.1590   -15.9400     6.3230     6.8510     6.6840
  742.5000     0.2710     2.6000     0.0860    10.9800    76.2570   -13.8200     6.2860     6.8300     6.6450
  743.0000     0.2730     2.6030     0.0870    10.9800    76.2160   -14.7000     6.2490     6.8080     6.6060
  743.5000     0.2730     2.6040     0.0880    10.9800    75.8450   -17.1580     6.2120     6.7870     6.5670
  744.0000     0.2700     2.6040     0.0890    10.9800    74.5960   -18.6030     6.1750     6.7650     6.5280
  744.5000     0.2670     2.6050     0.0900    10.9800    75.7030   -18.5510     6.1380     6.7440     6.4890
  745.0000     0.2660     2.6050     0.0910    10.9800    76.0400   -18.7460     6.1010     6.7220     6.4500
  745.5000     0.2660     2.6070     0.0920    10.9800    75.9400   -18.8900     6.0640     6.7010     6.4100
  746.0000     0.2670     2.6120     0.0940    10.9810    75.1350   -19.0100     6.0280     6.6800     6.3710
  746.5000     0.2680     2.6210     0.0950    10.9980    76.3110   -19.1710     5.9910     6.6560     6.3320
  747.0000     0.2660     2.6300     0.0960    11.0170    77.5620   -19.2430     5.9560     6.6340     6.2950
  747.5000     0.2630     2.6340     0.0970    11.0360    77.3760   -19.2240     5.9400     6.5840     6.2780
  748.0000     0.2610     2.6280     0.0980    11.0560    77.4720   -19.0260     5.8810     6.5330     6.2160
  748.5000     0.2590     2.6260     0.0990    11.0510    77.4020   -18.8120     5.8220     6.4800     6.1540
  749.0000     0.2570     2.6280     0.1000    11.0160    77.8370   -18.5380     5.7630     6.4270     6.0920
  749.5000     0.2500     2.6290     0.0920    10.9800    79.0110   -18.3550     5.7040     6.3760     6.0300
  750.0000     0.2500     2.6300     0.0850    10.9400    77.9570   -17.3950     5.6340     6.2950     5.9560
  750.5000     0.2500     2.6140     0.0780    10.7860    75.0850   -16.3690     5.9650     6.6570     6.3050
  751.0000     0.2540     2.6130     0.0710    10.5940    71.9280   -15.5200     6.3750     7.9380     6.7380
  751.5000     0.2600     2.6200     0.0640    10.4170    67.3730   -16.2840     6.7850    10.5840     7.1720
  752.0000     0.2660     2.6280     0.0640    10.3500    68.6470   -17.7810     6.9290     9.1610     7.3240
  752.5000     0.2730     2.6190     0.0640    10.2970    69.8430   -19.0730     7.0040     7.8560     7.4030
  753.0000     0.2730     2.5920     0.0640    10.3420    71.2900   -20.3520     7.0780     7.8490     7.4820
  753.5000     0.2710     2.5840     0.0650    10.3800    72.6690   -20.0480     7.1660     7.8420     7.5740
  754.0000     0.2700     2.5750     0.0650    10.4230    73.9410   -19.7010     7.1510     7.8350     7.5590
  754.5000     0.2700     2.5760     0.0650    10.4640    75.4790   -19.2900     7.1340     7.8280     7.5410
  755.0000     0.2690     2.5770     0.0650    10.5050    74.9550   -18.9110     7.1170     7.8210     7.5230
  755.5000     0.2670     2.5810     0.0650    10.5470    74.2420   -18.5290     7.1000     7.8140     7.5050
  756.0000     0.2660     2.5910     0.0650    10.5880    73.3690   -18.1450     7.0830     7.8070     7.4870
  756.5000     0.2660     2.5900     0.0660    10.6290    72.6630   -17.7390     7.0660     7.8000     7.4690
  757.0000     0.2660     2.5830     0.0660    10.6740    72.1390   -17.6860     7.0490     7.7930     7.4510
  757.5000     0.2700     2.5790     0.0660    10.7010    74.0440   -17.8530     7.0310     7.7860     7.4330
  758.0000     0.2700     2.5790     0.0660    10.7110    75.7800   -18.0050     7.0140     7.7790     7.4150
  758.5000     0.2700     2.5710     0.0660    10.7260    75.3510   -18.0090     6.9970     7.7720     7.3960
  759.0000     0.2700     2.5600     0.0660    10.7410    74.2570   -17.8260     6.9800     7.7650     7.3780
  759.5000     0.2690     2.5620     0.0670    10.7550    73.3130   -17.5600     6.9630     7.7580     7.3600
  760.0000     0.2690     2.5730     0.0670    10.7690    74.4880   -17.2930     6.9460     7.7510     7.3420
  760.5000     0.2690     2.5820     0.0670    10.7840    75.5320   -17.2020     6.9290     7.7440     7.3240
  761.0000     0.2690     2.5870     0.0670    10.7980    73.0590   -17.2480     6.9120     7.7370     7.3060
  761.5000     0.2700     2.5840     0.0670    10.8130    69.1970   -17.2950     6.8940     7.7300     7.2880
  762.0000     0.2700     2.5830     0.0670    10.8270    68.9620   -17.3420     6.8770     7.7230     7.2700
  762.5000     0.2710     2.5810     0.0670    10.8420    71.0890   -17.3900     6.8600     7.7170     7.2520
  763.0000     0.2770     2.5790     0.0680    10.8560    73.0920   -17.4380     6.8430     7.7030     7.2340
  763.5000     0.2780     2.5770     0.0680    10.8700    75.2080   -17.4860     6.8260     7.6460     7.2150
  764.0000     0.2760     2.5790     0.0680    10.8850    76.3020   -17.5330     6.8090     7.5900     7.1970
  764.5000     0.2730     2.5830     0.0710    10.8990    76.1980   -17.5830     6.7920     7.5330     7.1790
  765.0000     0.2710     2.5860     0.0750    10.9140    76.2300   -17.6210     6.7750     7.4770     7.1610
  765.5000     0.2700     2.5970     0.0780    10.9280    76.1740   -17.5430     6.7580     7.4200     7.1430
  766.0000     0.2710     2.6000     0.0810    10.9430    76.7920   -17.4060     6.7400     7.3640     7.1250
  766.5000     0.2710     2.6040     0.0840    10.9570    77.9220   -17.2740     6.7230     7.2990     7.1070
  767.0000     0.2690     2.6080     0.0880    10.9710    78.9470   -17.1470     6.7070     7.2990     7.0890
  767.5000     0.2680     2.6110     0.0860    10.9920    80.2900   -17.0150     6.6900     7.2990     7.0720
  768.0000     0.2650     2.6140     0.0830    11.0200    78.4920   -16.8730     6.6740     7.2990     7.0550
  768.5000     0.2610     2.6140     0.0810    11.0480    74.7260   -16.8390     6.6570     7.2970     7.0370
  769.0000     0.2600     2.6090     0.0780    11.0770    71.3030   -16.9810     6.7410     7.2960     7.1260
  769.5000     0.2590     2.6020     0.0750    11.1000    68.3270   -17.1220     6.8290     7.2960     7.2190
  770.0000     0.2600     2.5950     0.0720    11.1010    69.5070   -17.0790     6.9170     7.4380     7.3110
  770.5000     0.2610     2.5880     0.0690    11.1010    72.1230   -16.5990     7.0050     7.7180     7.4040
  771.0000     0.2620     2.5820     0.0690    11.1010    74.5640   -16.1730     7.0930     7.7140     7.4970
  771.5000     0.2620     2.5860     0.0740    11.1010    76.6910   -15.7000     7.1660     7.7170     7.5740
  772.0000     0.2580     2.5930     0.0770    11.1010    76.4080   -16.3800     7.1600     7.7160     7.5680
  772.5000     0.2540     2.6010     0.0810    11.1010    75.4980   -17.4950     7.1550     7.7160     7.5630
  773.0000     0.2550     2.6060     0.0860    11.1010    74.5450   -18.0680     7.1500     7.7160     7.5580
  773.5000     0.2560     2.6130     0.0890    11.1010    73.5460   -18.0090     7.1450     7.7160     7.5520
  774.0000     0.2570     2.6080     0.0880    11.0990    73.7170   -17.9640     7.1400     7.7160     7.5470
  774.5000     0.2570     2.6030     0.0890    11.0790    74.9810   -17.8580     7.1350     7.7160     7.5420
  775.0000     0.2580     2.5970     0.0890    11.0600    76.2370   -17.7430     7.1300     7.7160     7.5370
  775.5000     0.2600     2.5920     0.0890    11.0420    76.7120   -17.6390     7.1250     7.7160     7.5310
