~VERSION INFORMATION
 VERS.                2.0:   CWLS LOG ASCII STANDARD - VERSION 2.0
 WRAP.                 NO:   ONE LINE PER DEPTH STEP
~WELL INFORMATION
#MNEM.UNIT      DATA TYPE    INFORMATION
#----------   ------------   ------------------------------
 STRT.F          199.0000:   START DEPTH
 STOP.F         2951.0000:   STOP DEPTH
 STEP.F            0.5000:   STEP LENGTH
 NULL.          -999.2500:   NO VALUE
 COMP.    FENIX & SCISSON:   COMPANY
 WELL. FENIX & SCISSON "A" #3-21:   WELL
 FLD .              XPR-3:   FIELD
 LOC .      S21 T39N R78W:   LOCATION
 CNTY.            NATRONA:   COUNTY
 STAT.            WYOMING:   STATE
 CTRY. UNITED STATES OF AMERICA:   COUNTRY
 SRVC.              WELEX:   SERVICE COMPANY
 DATE.        27-JUN-1977:   LOGDATE
 API .     49025103880000:   API NUMBER
~CURVE INFORMATION
#MNEM.UNIT       API CODE    CURVE DESCRIPTION
#----------   ------------   ------------------------------
 DEPT.F                  :   
 CALD.IN     45 280 60 00:   CALIPER FROM DENSITY LOG
 GRD .GAPI   45 310 01 00:   GAMMA RAY FROM DENSITY LOG
 CORR.G/C3   45 356 01 00:   DENSITY CORRECTION
 RHOB.G/C3   45 350 01 00:   BULK DENSITY
 SPR .MV     07 010 01 00:   SPONTANEOUS POTENTIAL
 ILD .OHMM   07 120 46 00:   DEEP INDUCTION RESISTIVITY
 ILM .OHMM   07 120 44 00:   INDUCTION LOG MEDIUM RESISTIVITY
 SGRD.OHMM   07 220 05 00:   SHALLOW SHORT GUARD RESISTIVITY
~PARAMETER INFORMATION
#MNEM.UNIT          VALUE    DESCRIPTION
#----------   ------------   ------------------------------
 EKB .F         4981.0000:   Kelly bushing
 EGL .F         4971.0000:   Ground level
 TD  .F         2953.0000:   Total depth
 CLNT.            A2DTECH:   Client Code
 SL  . 330' FSL & 1650' FWL:   Surface Location
 DATE.        27-JUN-1977:   Date Logged [DD-MMM-YYYY]
 DD  .F              2930:   Depth driller
 DL  .F              2953:   Depth logger
 BLI .F              2951:   Bottom log interval
 TLI .F               200:   Top log interval
 CS1 .              8.625:   Casing size
 CBD1.      8.625" @ 217':   Casing driller 1
 BS1 .IN            7.875:   Bit size
 BSD1.F              2930:   Depth drilled with bit1
 DFT .            KCL MUD:   Type fluid in hole
 DFD .                9.4:   Density
 DFV .                 37:   Viscosity
 DFPH.                9.0:   pH
 DFL .               16.0:   Fluid loss
 MSS .           FLOWLINE:   Source of sample
 RMS .OHMM           1.10:   Rm
 MST .F                92:   Rm Meas. temp.
 RMF .OHMM           0.85:   Rmf
 MFST.F                92:   Rmf Meas. temp.
 MFSS.           FANN KIT:   Source Rmf.
 RMC .OHMM           1.44:   Rmc
 MCST.F                92:   Rmc Meas. temp.
 MCSS.           FANN KIT:   Source Rmc.
 RMB .OHMM           0.93:   Rm. at BHT
 BHT .F               109:   BHT.
 TCS .HRS            0230:   Time Circ. stopped
 MRT .F               109:   Maximum recorded temp.
 LUN .               8611:   Logging unit number
 LUL .             CASPER:   Logging unit location
 ENGI.         G. BENTSEN:   Recorded By
 WITN.  MR. W. PETTINGILL:   Witnessed by
 ORIG.      2.5" 5" PRINT:   Origin of data
 UWI .     49025103880000:   Unique Well ID
 DICO. A2D TECHNOLOGIES, INC.:   Digitizing Company
 PD  .                 GL:   Permanent Datum
 EPD .               4971:   Elevation Permanent Datum
 LMF .                 KB:   Log Measured From
 DMF .                 KB:   Drilling Measured From
 DAPD.                 10:   Feet Above Permanent Datum
~OTHER INFORMATION
~A   DEPT       CALD       GRD       CORR        RHOB      SPR        ILD        ILM       SGRD   
# ...
 2912.5000     7.9169   116.3077     0.0191     2.4739   -31.9529     2.5491     2.8175     3.8548
 2913.0000     7.9177   114.7569     0.0190     2.4754   -31.9409     2.5328     2.7790     3.8460
 2913.5000     7.9185   114.1292     0.0190     2.4664   -31.9290     2.4997     2.7599     3.6969
 2914.0000     7.9193   114.1169     0.0189     2.4583   -31.9171     2.4668     2.9163     3.7248
 2914.5000     7.9201   114.1046     0.0189     2.4524   -31.9051     2.4342     2.9978     3.7271
 2915.0000     7.9208   114.0923     0.0157     2.4462   -31.3015     2.4184     3.0185     3.7038
 2915.5000     7.9216   114.0800     0.0157     2.4400   -30.9937     2.4196     2.9364     3.6808
 2916.0000     7.9224   114.0677     0.0156     2.4345   -30.8338     2.4042     2.7035     3.3908
 2916.5000     7.9232   114.0554     0.0125     2.4298   -30.8219     2.3888     2.5235     3.2332
 2917.0000     7.9240   114.0431     0.0119     2.4243   -31.1058     2.3573     2.4890     3.2576
 2917.5000     7.9247   114.2464     0.0088     2.4205   -31.3897     2.3585     2.5585     3.4444
 2918.0000     7.9255   114.6360     0.0061     2.4166   -31.3777     2.3596     2.5940     3.6418
 2918.5000     7.9263   115.2392     0.0047     2.4135   -31.5167     2.3608     2.5940     3.7202
 2919.0000     7.9270   115.4585     0.0078     2.4104   -31.3539     2.3455     2.6300     3.6464
 2919.5000     7.9183   115.8301     0.0109     2.4073   -31.3419     2.3631     2.6665     3.8289
 2920.0000     7.8947   116.4332     0.0171     2.4058   -31.3300     2.3481     2.7599     3.6010
 2920.5000     7.8631   116.4185     0.0171     2.4057   -31.3180     2.3492     2.7982     4.1071
 2921.0000     7.8625   117.0215     0.0171     2.4133   -31.4540     2.3182     2.6849     4.6196
 2921.5000     7.8619   117.6246     0.0202     2.4226   -31.5930     2.2719     2.4719     3.2410
 2922.0000     7.8613   117.8831     0.0202     2.4296   -31.7290     2.2266     2.3718     3.1667
 2922.5000     7.8607   118.2154     0.0202     2.4374   -31.7140     2.1819     2.2758     3.2797
 2923.0000     7.8601   118.8185     0.0202     2.4458   -31.7021     2.1680     2.2601     2.8378
 2923.5000     7.8285   118.8061     0.0171     2.4559   -31.8411     2.1691     2.2915     2.8415
 2924.0000     7.8279   119.4093     0.0171     2.4660   -31.8261     2.1851     2.4549     3.1528
 2924.5000     7.8272   119.0952     0.0140     2.4722   -31.8166     2.2022     2.5585     3.9059
 2925.0000     7.8266   115.0782     0.0078     2.4652   -31.8047     2.2483     2.6300     4.4549
 2925.5000     7.7951   111.3596     0.0016     2.4559   -31.6450     2.3442     2.7035     3.8839
 2926.0000     7.7944   109.8092    -0.0016     2.4474   -31.6331     2.4443     2.8175     3.6277
 2926.5000     7.7938   108.5600    -0.0047     2.4397   -31.6213     2.5486     2.9567     3.7831
 2927.0000     7.7932   107.6431    -0.0047     2.4327   -31.4587     2.6574     3.0815     3.7331
 2927.5000     7.7812   106.6766    -0.0078     2.4297   -31.1538     2.7899     3.2337     3.9750
 2928.0000     7.7610   106.3877    -0.0078     2.4336   -30.9939     2.9493     3.3471     3.8694
 2928.5000     7.7604   105.4091    -0.0078     2.4398   -30.9820     3.0541     3.4644     4.1939
 2929.0000     7.7598   102.8308    -0.0078     2.4467   -30.9700     3.1844     3.6606     4.8130
 2929.5000     7.7591    99.4705    -0.0078     2.4522   -30.5143     3.3203     3.9217     5.4011
 2930.0000     7.7585    97.7206    -0.0078     2.4576   -30.3544     3.4147     3.9761     5.8238
 2930.5000     7.7270    98.3238    -0.0047     2.4630   -30.0466     3.3465     4.0591     5.9922
 2931.0000     7.7263    99.5423    -0.0016     2.4676   -29.4430     3.1906     4.0872     5.8310
 2931.5000     7.7257   101.3762     0.0078     2.4697   -28.8393     2.9799     4.0591     6.4255
 2932.0000     7.7251   103.2101     0.0171     2.4595   -28.5315     2.8541     3.2786     7.1787
 2932.5000     7.7245   103.8132     0.0109     2.4400   -28.0758     2.7253     2.5940     7.8011
 2933.0000     7.7239   105.0318     0.0047     2.4346   -27.9159     2.5267     2.2139     4.4687
 2933.5000     7.7232   105.0195    -0.0016     2.4471   -27.7560     2.1602     2.4719     2.0110
 2934.0000     7.7226    74.2380    -0.0047     2.4610   -28.1879     2.0141     2.7410     1.8270
 2934.5000     7.7220     4.6873    -0.0047     2.4725   -28.9156     2.3324     3.0185     3.7173
 2935.0000     7.7214     4.0597    -0.0078     2.4809   -29.1995     2.5696     3.2561     5.3408
 2935.5000     7.7208     4.0475    -0.0109     2.4847   -29.4864     2.7922     3.5612     5.4016
 2936.0000     7.7202     4.0352    -0.0140     2.4878   -29.6224     2.9926     4.0036     7.2087
 2936.5000     7.7195     4.0230    -0.0140     2.4915   -29.6074     3.2296     4.6268     6.5077
 2937.0000     7.7189     4.0107    -0.0140     2.4939   -29.5955     3.5337     5.0952     6.1225
 2937.5000     7.7183     3.9985    -0.0140     2.4977   -29.5836     3.9200     5.4211     6.1687
 2938.0000     7.7176     3.9862    -0.0140     2.4992   -29.5716     4.2304     5.6499     6.4330
 2938.5000     7.7170     3.9740    -0.0109     2.4940   -29.2663     4.4109     5.8077     7.5422
 2939.0000     7.7164     3.9617    -0.0078     2.4851   -28.9586     4.4743     5.8077     7.8654
 2939.5000     7.7158     4.5662    -0.0078     2.4788   -28.5030     4.5074     5.8077     8.0334
 2940.0000     7.7151     4.5526    -0.0047     2.4730   -27.8897     4.5529     5.8077     7.6086
 2940.5000     7.7145     4.5404    -0.0047     2.4745   -27.1350     4.6417     5.8479     7.6660
 2941.0000     7.7139     4.5281    -0.0047     2.4807   -25.0651     4.6741     5.9700     7.7761
 2941.5000     7.7133     4.5159    -0.0047     2.4869   -21.9466     4.8064     5.6889     7.2630
 2942.0000     7.7127     4.5036    -0.0016     2.4930   -18.2364     5.3663     5.5343     7.3521
 2942.5000     7.7120     5.1077     0.0016     2.4992   -10.5322     5.8312     5.5343     6.7425
 2943.0000     7.7114     5.0945     0.0047     2.5054    -3.7155     6.2498     5.7679     6.3849
 2943.5000     7.7108     5.0823     0.0078     2.5085    -2.0764     6.3395     6.1368     6.2573
 2944.0000     7.7102     5.0700     0.0109     2.5097    -1.6206     6.4306     6.6199     6.2182
 2944.5000     7.7096     5.0578     0.0078     2.4992    -1.6087     7.1828     8.4831     6.6212
 2945.0000     7.7089     5.0455     0.0047     2.4930    -1.5967     8.3040     9.2142     7.4394
 2945.5000     7.7082     5.0333     0.0047     2.4853    -1.5848     9.0858     7.6503     8.8422
 2946.0000     7.7076     5.0211     0.0047     2.4838    -1.5728    10.1487     6.7974     9.9586
 2946.5000     7.7070     6.2396     0.0078     2.4915    -1.5609     6.5800     6.9950     6.7281
 2947.0000     7.7064     8.0735     0.0078     2.4992    -1.5490     7.1020     6.8048     6.8737
 2947.5000     7.6748    10.5228     0.0078     2.5054    -1.5370     7.1536     5.8883     7.1273
 2948.0000     7.6742    12.9721     0.0140     2.5116    -1.5251     6.2805     5.8436     6.5133
 2948.5000     7.6736    11.7290     0.0171     2.5162    -1.6640     5.7055     5.8077     6.1256
 2949.0000     7.6730     9.8706     0.0202     2.5209    -1.9450     5.9952     5.6111     6.0031
 2949.5000     7.6723     8.0122     0.0202     2.5240    -2.0839     5.8232     5.8077     5.9656
 2950.0000     7.6717     8.6154     0.0202     2.5270    -2.2199     5.6747     5.8479     6.0116
 2950.5000     7.6401     9.2185     0.0171     2.5301    -2.5009     6.0404     6.3523     6.0157
 2951.0000     7.6395     9.8217     0.0140     2.5317    -2.7848     6.1271     6.7117     6.0176
