~VERSION INFORMATION
 VERS.                2.0:   CWLS LOG ASCII STANDARD - VERSION 2.0
 WRAP.                 NO:   ONE LINE PER DEPTH STEP
~WELL INFORMATION
#MNEM.UNIT      DATA TYPE    INFORMATION
#----------   ------------   ------------------------------
 STRT.F          200.0000:   START DEPTH
 STOP.F         3120.0000:   STOP DEPTH
 STEP.F            0.5000:   STEP LENGTH
 NULL.          -999.2500:   NO VALUE
 COMP.    FENIX & SCISSON:   COMPANY
 WELL. FENIX NPR 3 "AX" #83-28:   WELL
 FLD .                NPR:   FIELD
 LOC .      S28 T39N R78W:   LOCATION
 CNTY.            NATRONA:   COUNTY
 STAT.            WYOMING:   STATE
 CTRY. UNITED STATES OF AMERICA:   COUNTRY
 SRVC.              WELEX:   SERVICE COMPANY
 DATE.        29-SEP-1977:   LOGDATE
 API .     49025104240000:   API NUMBER
~CURVE INFORMATION
#MNEM.UNIT       API CODE    CURVE DESCRIPTION
#----------   ------------   ------------------------------
 DEPT.F                  :   
 CALD.IN     45 280 60 00:   CALIPER FROM DENSITY LOG
 GRD .GAPI   45 310 01 00:   GAMMA RAY FROM DENSITY LOG
 RHOB.G/C3   45 350 01 00:   BULK DENSITY
 CORR.G/C3   45 356 01 00:   DENSITY CORRECTION
 SPR .MV     07 010 01 00:   SPONTANEOUS POTENTIAL
 SGRD.MV     07 220 05 00:   SHLLOW GUARD
 ILD .OHMM   07 120 46 00:   DEEP INDUCTION RESISTIVITY
 ILM .OHMM   07 120 44 00:   INDUCTION LOG MEDIUM RESISTIVITY
~PARAMETER INFORMATION
#MNEM.UNIT          VALUE    DESCRIPTION
#----------   ------------   ------------------------------
 EKB .F         5034.0000:   Kelly bushing
 EGL .F         5024.0000:   Ground level
 TD  .F         3110.0000:   Total depth
 DATE.        29-SEP-1977:   Date logged
 CLNT.            A2DTECH:   Client Code
 SL  . 1650' FNL & 330' FEL:   Surface Location
 PD  .                 GL:   Permanent Datum
 EPD .F              5024:   Elevation Permanent Datum
 LMF .                 KB:   Log Measured From
 DMF .                 KB:   Drilling Measured From
 DAPD.F                10:   Feet Above Permanent Datum
 DD  .F              3110:   Depth driller
 DL  .F              3110:   Depth logger
 BLI .F              3108:   Bottom log interval
 TLI .F               210:   Top log interval
 CS1 .IN            8.625:   Casing size
 CBD1.      8.625" @ 201':   Casing driller 1
 CBL1.F               210:   Casing logger 1
 BS1 .IN            7.875:   Bit size
 BSD1.F              3110:   Depth drilled with bit1
 DFT .          KCL/WATER:   Type fluid in hole
 DFD .                  9:   Density
 DFV .                 40:   Viscosity
 DFPH.                 11:   pH
 DFL .                6.4:   Fluid loss
 MSS .            MUD/PIT:   Source of sample
 RMS .OHMM            .56:   Rm
 MST .F                60:   Rm Meas. temp.
 RMF .OHMM            .34:   Rmf
 MFST.F                60:   Rmf Meas. temp.
 RMC .OHMM            .61:   Rmc
 MCST.F                60:   Rmc Meas. temp.
 MFSS.               MEAS:   Source Rmf.
 MCSS.               MEAS:   Source Rmc.
 RMB .OHMM            .28:   Rm. at BHT
 BHT .F               120:   BHT.
 TCS .HRS               3:   Time Circ. stopped
 MRT .F               120:   Maximum recorded temp.
 LUN .               9685:   Logging unit number
 LUL .             CASPER:   Logging unit location
 ENGI. G. BENTSEN/T. JOYNER:   Recorded By
 WITN.         PETTINGILL:   Witnessed by
 ORIG.   1" 2.5" 5" PRINT:   Origin of data
 UWI .     49025104240000:   Unique Well ID
 DICO. A2D TECHNOLOGIES, INC.:   Digitizing Company
~OTHER INFORMATION
~A   DEPT     CALD         GRD      RHOB       CORR        SPR       SGRD        ILD        ILM   
# ...
  969.5000    10.4312    90.4867     2.4585     0.0566   -63.5947     7.6073     7.4455     8.1151
  970.0000    10.3530    89.7027     2.4565     0.0566   -63.5897     7.6082     7.4468     8.1162
  970.5000    10.3140    88.9170     2.4565     0.0606   -63.5846     7.5400     7.4487     8.0440
  971.0000    10.2359    88.9205     2.4566     0.0567   -63.5785     7.4732     7.4506     7.9718
  971.5000    10.1969    88.5313     2.4566     0.0568   -63.5734     7.4745     7.4519     7.9739
  972.0000    10.0793    88.1403     2.4546     0.0568   -63.5683     7.4758     7.4538     7.9023
  972.5000    10.0403    87.3565     2.4547     0.0569   -63.5633     7.4780     7.4550     7.9040
  973.0000    10.0017    87.3601     2.4527     0.0530   -63.5582     7.4793     7.4569     7.8331
  973.5000    10.0022    86.9710     2.4527     0.0530   -63.5521     7.4809     7.4582     7.8347
  974.0000     9.9635    88.1581     2.4568     0.0570   -63.5470     7.4825     7.4601     7.8361
  974.5000     9.9640    88.9524     2.4568     0.0531   -63.5419     7.5531     7.4620     7.8381
  975.0000     9.9647    89.7449     2.4568     0.0492   -63.5369     7.6254     7.4633     7.9128
  975.5000     9.9653    89.7502     2.4568     0.0456   -63.5318     7.6974     7.4652     7.9875
  976.0000     9.9660    90.5425     2.4509     0.0413   -63.5267     7.8432     7.4665     8.0636
  976.5000     9.9665    89.7589     2.4509     0.0414   -63.5206     7.8442     7.4684     8.2921
  977.0000     9.9673    88.9736     2.4550     0.0414   -63.5155     7.9186     7.4703     8.5263
  977.5000     9.9678    88.5845     2.4550     0.0415   -63.5105     7.9944     7.4716     8.6076
  978.0000    10.0080    88.5881     2.4570     0.0415   -63.5054     7.9957     7.4735     8.6091
  978.5000    10.0085    88.9878     2.4570     0.0416   -63.5003     8.0719     7.4747     8.6124
  979.0000    10.0090    88.9913     2.4590     0.0416   -63.6940     8.0740     7.4766     8.6934
  979.5000     9.9704    88.6023     2.4591     0.0417   -63.6889     8.0757     7.4786     8.6952
  980.0000    10.0103    88.6058     2.4690     0.0457   -63.8836     8.0778     7.4798     8.6172
  980.5000    10.0111    88.6111     2.4710     0.0457   -64.0793     8.0792     7.4817     8.5398
  981.0000    10.0116    88.2204     2.4731     0.0458   -64.0752     8.0067     7.1687     8.4632
  981.5000    10.0123    88.2257     2.4731     0.0458   -64.0671     7.9355     7.1690     8.3105
  982.0000    10.0523    86.6523     2.4652     0.0459   -64.2617     7.8642     7.1711     8.0850
  982.5000    10.0530    86.2634     2.4632     0.0420   -64.0549     7.7937     7.1727     7.8662
  983.0000    10.0537    85.4786     2.4593     0.0420   -64.0518     7.7953     7.1748     7.7240
  983.5000    10.0543    85.0881     2.4593     0.0421   -64.0467     7.7970     7.1754     7.7253
  984.0000     9.9759    85.0935     2.4593     0.0461   -64.0416     7.7983     7.1110     7.5859
  984.5000     9.9767    84.3088     2.4653     0.0461   -64.0366     7.8000     7.0477     7.5875
  985.0000     9.9772    84.5085     2.4693     0.0501   -64.0315     7.8023     7.0486     7.5197
  985.5000     9.9780    84.5122     2.4793     0.0534   -64.0254     7.8036     7.0507     7.5207
  986.0000     9.9785    84.9118     2.4952     0.0582   -64.0203     7.8053     7.0519     7.5226
  986.5000    10.0581    84.9155     2.5032     0.0543   -64.2149     7.8076     6.9247     7.4560
  987.0000    10.1374    85.7092     2.4999     0.0503   -64.6082     7.8817     6.9265     7.4570
  987.5000    10.0593    86.1069     2.4967     0.0504   -64.6031     7.8827     6.9279     7.4436
  988.0000    10.0599    86.5064     2.4935     0.0504   -64.5980     7.8123     6.9294     7.4303
  988.5000    10.1394    86.5100     2.4874     0.0545   -64.5929     7.7421     6.9309     7.4170
  989.0000    10.0611    86.9094     2.4974     0.0585   -64.5878     7.6726     6.9323     7.4037
  989.5000    10.0225    87.3070     2.4994     0.0585   -64.5817     7.6044     6.9341     7.3904
  990.0000    10.0624    87.7064     2.4994     0.0586   -64.5766     7.6054     6.9356     7.3772
  990.5000    10.0631    88.1040     2.4975     0.0507   -64.3708     7.6073     6.9370     7.3639
  991.0000    10.1818    86.7885     2.4955     0.0507   -64.5675     7.6089     6.9385     7.3507
  991.5000    10.2220    86.8034     2.4975     0.0508   -64.7610     7.6102     6.9400     7.3376
  992.0000    10.2225    86.8133     2.4975     0.0469   -64.7549     7.6125     6.9418     7.3244
  992.5000    10.2626    86.8233     2.4936     0.0469   -64.9494     7.6145     6.9432     7.3113
  993.0000    10.2631    86.8332     2.4936     0.0470   -64.9464     7.6157     6.9447     7.2982
  993.5000    10.1851    86.8531     2.4957     0.0470   -64.9403     7.6177     6.9462     7.2851
  994.0000    10.1856    86.8630     2.4957     0.0471   -64.9341     7.6190     6.9476     7.2720
  994.5000    10.0682    88.4533     2.4957     0.0511   -64.9290     7.6209     6.9494     7.2590
  995.0000    10.0687    89.2460     2.4977     0.0511   -64.9250     7.6226     6.8237     7.2460
  995.5000    10.0695    90.0484     2.4978     0.0591   -64.7202     7.6242     6.8246     7.2330
  996.0000    10.1695    90.0632     2.4978     0.0592   -64.7141     7.6261     6.7639     7.2200
  996.5000    10.1889    90.0779     2.4998     0.0592   -64.5094     7.6278     6.7647     7.2071
  997.0000    10.1894    90.0877     2.4998     0.0553   -64.5033     7.6300     6.7459     7.1942
  997.5000    10.2292    90.8851     2.5018     0.0593   -64.4972     7.6307     6.6236     7.1813
  998.0000    10.4269    90.8998     2.5019     0.0593   -64.4921     7.6330     6.6253     7.1684
  998.5000    10.4271    92.4895     2.5079     0.0594   -64.4890     7.6346     6.6264     7.1570
  999.0000    10.5856    92.4992     2.5079     0.0595   -64.4829     7.5657     6.5067     7.1585
  999.5000    10.5861    92.5090     2.5079     0.0595   -64.4778     7.5673     6.5078     7.1595
 1000.0000    10.5081    93.3061     2.5000     0.0595   -64.4717     7.5000     6.3903     7.1616
 1000.5000    10.4705    93.3252     2.4981     0.0523   -64.4655     7.5017     6.3920     7.1634
 1001.0000    10.4693    93.3239     2.4941     0.0517   -64.2686     7.5022     6.3927     7.1645
 1001.5000    10.4302    93.3286     2.4921     0.0517   -63.6681     7.5038     6.3940     7.1655
 1002.0000    10.4305    93.3355     2.4881     0.0517   -63.6667     7.7162     6.3949     7.1670
 1002.5000    10.4701    93.3402     2.4862     0.0517   -63.6653     7.7889     6.5156     7.1681
 1003.0000    10.5886    93.3471     2.4862     0.0517   -63.6639     7.9355     6.6385     7.3032
 1003.5000    10.4707    93.3518     2.4882     0.0518   -63.6625     8.1604     6.8894     7.3043
 1004.0000    10.4709    93.3587     2.4902     0.0478   -63.6611     8.2375     7.1503     7.5113
 1004.5000    10.5894    92.1805     2.4902     0.0439   -63.6594     8.3926     7.1513     7.8676
 1005.0000    10.4323    92.1828     2.4902     0.0439   -63.6580     8.4716     7.4221     8.0157
 1005.5000    10.3932    91.3999     2.4862     0.0479   -63.8563     8.7114     7.9434     8.3187
 1006.0000    10.3934    89.4440     2.4862     0.0519   -64.0546     8.7948     8.0932     8.4753
 1006.5000    10.3937    88.6588     2.4902     0.0519   -64.0529     8.7954     8.3217     8.8776
 1007.0000    10.3939    87.8780     2.4922     0.0519   -63.8521     8.9612     8.4783     9.5602
 1007.5000    10.3941    86.3096     2.4942     0.0519   -63.2513     9.2146     8.7992     9.6496
 1008.0000    10.3946    84.7411     2.4962     0.0519   -63.0504     9.3017     8.9648     9.7416
 1008.5000    10.4342    83.9580     2.5002     0.0559   -62.8493     9.3027     9.0496     9.8333
 1009.0000    10.4739    83.1770     2.5022     0.0599   -62.6481     9.4788     9.0515     9.8354
 1009.5000    10.5136    81.6062     2.5002     0.0599   -62.6463     9.4802     9.0528     9.8375
