~VERSION INFORMATION
 VERS.                2.0:   CWLS LOG ASCII STANDARD - VERSION 2.0
 WRAP.                 NO:   ONE LINE PER DEPTH STEP
~WELL INFORMATION
#MNEM.UNIT      DATA TYPE    INFORMATION
#----------   ------------   ------------------------------
 STRT.F            4.5000:   START DEPTH
 STOP.F         3216.0000:   STOP DEPTH
 STEP.F            0.5000:   STEP LENGTH
 NULL.          -999.2500:   NO VALUE
 COMP. LAWRENCE ALLISON & ASSCOCIATES:   COMPANY
 WELL. LAWRENCE ALLISON #38-34:   WELL
 FLD . NAVAL PET. RES. NO. 3:   FIELD
 LOC .      S34 T39N R78W:   LOCATION
 CNTY.            NATRONA:   COUNTY
 STAT.            WYOMING:   STATE
 CTRY. UNITED STATES OF AMERICA:   COUNTRY
 SRVC.      DRESSER ATLAS:   SERVICE COMPANY
 DATE.        12-OCT-1986:   LOGDATE
 API .     49025111120000:   API NUMBER
~CURVE INFORMATION
#MNEM.UNIT       API CODE    CURVE DESCRIPTION
#----------   ------------   ------------------------------
 DEPT.F                  :   
 CALD.IN     45 280 60 00:   CALIPER FROM DENSITY LOG
 RHOB.G/C3   45 350 01 00:   BULK DENSITY
 CORR.G/C3   45 356 01 00:   DENSITY CORRECTION
 CNC .DEC    42 890 01 00:   NEUTRON POROSITY
 SPR .MV     07 010 01 00:   SPONTANEOUS POTENTIAL
 TENR.LBS    06 635 01 00:   TENSION FROM RESISTIVITY
 GRR .GAPI   07 310 01 00:   GAMMA RAY FROM RESISTIVITY
 ILD .OHMM   07 120 46 00:   DEEP INDUCTION RESISTIVITY
 ILM .OHMM   07 120 44 00:   INDUCTION LOG MEDIUM RESISTIVITY
 SFL .OHMM   07 220 01 00:   SHALLOW FOCUSED LOG RESISITIVITY
~PARAMETER INFORMATION
#MNEM.UNIT          VALUE    DESCRIPTION
#----------   ------------   ------------------------------
 EKB .F         5229.5000:   Kelly bushing
 EGL .F         5217.7000:   Ground level
 TD  .F         3200.0000:   Total depth
 CLNT.            A2DTECH:   Client Code
 SL  . 1338' FWL & 132' FSL:   Surface Location
 PD  .                 GL:   Permanent Datum
 EPD .F            5217.7:   Elevation Permanent Datum
 LMF .                 KB:   Log Measured From
 DMF .                 KB:   Drilling Measured From
 DAPD.F              11.8:   Feet Above Permanent Datum
 DATE.        12-OCT-1986:   Date Logged [DD-MMM-YYYY]
 DD  .F              3200:   Depth driller
 DL  .F              3200:   Depth logger
 BLI .F              3194:   Bottom log interval
 TLI .F                 0:   Top log interval
 CS1 .IN            8.625:   Casing size
 CBD1.      8.625" @ 668':   Casing driller 1
 CBL1.F               668:   Casing logger 1
 BS1 .IN            7.875:   Bit size
 BSD1.F              3200:   Depth drilled with bit1
 DFT .        KCL POLYMER:   Type fluid in hole
 DFD .                  9:   Density
 DFV .                 36:   Viscosity
 DFPH.                9.5:   pH
 MSS .           FLOWLINE:   Source of sample
 RMS .OHMM           0.25:   Rm
 MST .F                70:   Rm Meas. temp.
 RMF .OHMM          0.191:   Rmf
 MFST.F                70:   Rmf Meas. temp.
 MFSS.               MEAS:   Source Rmf.
 RMB .OHMM          0.132:   Rm. at BHT
 BHT .F               132:   BHT.
 TCS .HRS               3:   Time Circ. stopped
 MRT .F               132:   Maximum recorded temp.
 LUN .               6274:   Logging unit number
 ENGI.             RAUTIO:   Recorded By
 ORIG.   1" 2.5" 5" PRINT:   Origin of data
 UWI .     49025111120000:   Unique Well ID
 DICO. A2D TECHNOLOGIES, INC.:   Digitizing Company
 LUL .               CLIT:   Logging unit location
 RMC .OHMM           0.31:   Rmc
 MCST.F                70:   Rmc Meas. temp.
 MCSS.               CALC:   Source Rmc.
~OTHER INFORMATION
~A    DEPT    CALD       RHOB       CORR        CNC        SPR       TENR        GRR        ILD        ILM        SFL   
# ...
 2651.0000     9.3978     2.5410     0.0196     0.2551   -86.3859   -34.4458   118.3669     6.8494     6.9473     7.1922
 2651.5000     9.3972     2.5273     0.0000     0.2539   -86.4436   -37.7965   117.7615     6.8484     7.0446     7.4481
 2652.0000     9.3966     2.5258     0.0060     0.2463   -86.4843   -41.1472   116.5538     6.8475     7.0446     7.9774
 2652.5000     9.3960     2.5333     0.0060     0.2403   -86.3976   -44.4979   114.7436     6.8465     7.0446     8.2641
 2653.0000     9.3954     2.5386     0.0030     0.2341   -86.3257   -47.8486   112.9335     6.8456     7.0446     8.1110
 2653.5000     9.3947     2.5493     0.0120     0.2278   -86.2443   -51.1992   112.8474     6.8446     7.0446     7.9251
 2654.0000     9.3941     2.5591     0.0271     0.2205   -86.1696   -54.5499   116.5420     6.8437     7.0446     7.9246
 2654.5000     9.3936     2.5598     0.0361     0.2217   -86.0938   -57.9006   117.1416     6.7482     7.0303     7.9240
 2655.0000     9.3778     2.5552     0.0301     0.2226   -86.0880   -61.2513   116.5265     6.6050     6.9281     7.9235
 2655.5000     9.3620     2.5499    -0.0085     0.2223   -86.0883   -64.7500   115.9308     6.4181     6.7566     7.8133
 2656.0000     9.3457     2.5491    -0.0369     0.2259   -86.0948   -45.2500   117.8786     6.2050     6.6351     7.7049
 2656.5000     9.3152     2.5506    -0.0362     0.2328   -86.1728   -64.7500   120.4512     6.1184     6.5063     7.7044
 2657.0000     9.3146     2.5567    -0.0009     0.2466   -86.2421   -45.2500   123.4195     5.9497     6.3544     7.7038
 2657.5000     9.3140     2.5589     0.0352     0.2599   -86.3153   -65.0378   125.8880     5.8667     6.2155     7.2863
 2658.0000     9.3135     2.5558     0.0337     0.2678   -86.3856   -64.6393   127.5582     5.8659     6.0856     6.7875
 2658.5000     9.3129     2.5581     0.0201     0.2697   -86.4630   -64.5131   127.9614     5.8651     6.0449     6.9875
 2659.0000     9.3114     2.5619     0.0215     0.2657   -86.4719   -45.1252   125.9762     5.9465     6.0449     7.0849
 2659.5000     9.2964     2.5595     0.0276     0.2633   -86.4182   -45.3715   121.6621     5.9457     6.0449     7.0921
 2660.0000     9.2958     2.5397     0.0515     0.2681   -86.3711   -61.6463   120.1205     5.9393     6.0449     7.3997
 2660.5000     9.2952     2.5214     0.0499     0.2678   -86.3241   -55.0929   118.8100     5.8619     6.0449     7.7206
 2661.0000     9.2947     2.5199     0.0408     0.2636   -86.2755   -48.4150   117.1019     5.8611     6.0449     7.8075
 2661.5000     9.2789     2.5297     0.0408     0.2563   -86.2274   -41.4298   112.8821     5.7793     6.1296     7.3060
 2662.0000     9.2631     2.5381     0.0347     0.2484   -86.1810   -34.8086   111.9644     5.7785     6.1296     6.6987
 2662.5000     9.2777     2.5397     0.0043     0.2426   -86.1310   -28.1875   115.2858     5.7510     6.0449     7.0244
 2663.0000     9.2770     2.5380    -0.0001     0.2375   -86.0836   -21.5664   117.6925     5.6971     6.0449     7.1279
 2663.5000     9.2917     2.5398    -0.0001     0.2332   -85.9799   -14.9452   119.4968     5.6616     5.9614     7.2330
 2664.0000     9.2910     2.5501    -0.0137     0.2323   -85.8846    -8.3241   120.6988     5.5785     5.8791     7.1792
 2664.5000     9.2904     2.5471    -0.0228     0.2448   -85.7851   -64.7500   118.8885     5.5384     5.7807     6.8851
 2665.0000     9.2898     2.5342    -0.0078     0.2535   -85.6876   -45.2500   118.2832     5.4610     5.7177     6.6957
 2665.5000     9.2891     2.5211     0.0227     0.2563   -85.5897   -45.2500   120.0875     5.3848     5.6263     6.6028
 2666.0000     9.2885     2.5044     0.0884     0.2560   -85.4915   -45.2500   118.6950     5.3097     5.5608     6.4212
 2666.5000     9.2880     2.5013     0.0598     0.2551   -85.3936   -25.7500   118.2744     5.2356     5.4516     6.2445
 2667.0000     9.2874     2.5165     0.0281     0.2548   -85.2956   -45.2500   120.2328     5.1626     5.3724     6.2441
 2667.5000     9.2868     2.5324     0.0129     0.2505   -85.1977   -64.7500   120.6782     5.0906     5.3335     6.3312
 2668.0000     9.2692     2.5423    -0.0022     0.2484   -85.1003   -45.2500   120.6747     4.9502     5.2598     6.4230
 2668.5000     9.2551     2.5521     0.0072     0.2514   -85.0035   -64.7500   120.6717     4.8811     5.1155     6.5089
 2669.0000     9.2545     2.5506     0.0158     0.2652   -84.9027   -64.7500   120.0663     4.8130     5.0448     6.4185
 2669.5000     9.2540     2.5456     0.0097     0.2663   -84.8112   -64.4067   118.8403     4.7406     5.0448     6.3294
 2670.0000     9.2534     2.5345    -0.0130     0.2654   -84.7093   -64.6102   116.3656     4.6150     4.9751     6.1958
 2670.5000     9.2680     2.5254    -0.0175     0.2678   -84.6031   -64.7895   114.6350     4.6144     4.9063     5.8769
 2671.0000     9.2674     2.5208    -0.0236     0.2757   -84.5563   -64.9268   115.8369     4.6137     4.9063     5.7107
 2671.5000     9.2667     2.5139    -0.0237     0.2821   -84.0340   -65.0808   117.6412     4.6131     4.9063     5.5829
 2672.0000     9.2661     2.5192    -0.0027     0.2774   -83.1900   -65.3468   118.2406     4.6348     4.9073     5.5435
 2672.5000     9.2655     2.5301     0.0018     0.2672   -82.3937   -46.1775   120.6473     4.6765     4.9797     5.6251
 2673.0000     9.2649     2.5328     0.0002     0.2624   -81.6422   -64.7500   121.8492     4.7055     5.0533     5.9011
 2673.5000     9.2643     2.5313    -0.0043     0.2636   -80.8065   -64.7500   121.2439     4.7742     5.2855     5.9834
 2674.0000     9.2789     2.5214    -0.0061     0.2715   -79.9521   -45.2500   120.6385     4.8441     5.8114     5.9830
 2674.5000     9.2782     2.5038    -0.0045     0.2813   -77.4876   -45.2500   120.0138     5.0806     6.5842     6.0664
 2675.0000     9.2776     2.4832    -0.0271     0.2648   -75.0329   -64.7500   118.0726     6.0029     7.3464     6.2371
 2675.5000     9.2770     2.4608    -0.0332     0.2308   -72.4994   -64.7500   113.5177     6.8980     8.6540     7.2681
 2676.0000     9.2765     2.4385    -0.0287     0.2241   -70.6866   -64.7500   104.0657     8.9840    10.2264     8.8305
 2676.5000     9.2759     2.4161    -0.0002     0.2266   -69.0844   -64.7500    91.4190    11.2225    11.3837    10.8841
 2677.0000     9.2751     2.3880     0.0208     0.2290   -67.1189   -64.7500    75.1699    14.8209    12.6747    12.8767
 2677.5000     9.2442     2.3842     0.0328     0.2342   -65.0260   -64.7500    73.0276    16.3348    13.9293    13.6118
 2678.0000     9.2436     2.3872     0.0511     0.2411   -62.9544   -45.2500    74.8319    17.0287    14.3224    13.7791
 2678.5000     9.2431     2.3910     0.0538     0.2402   -60.8600   -45.2500    74.2259    18.2632    14.1245    13.3154
 2679.0000     9.2425     2.3970     0.0492     0.2366   -58.7732   -45.2500    73.3214    18.5302    13.7369    12.7501
 2679.5000     9.2419     2.3985     0.0386     0.2369   -57.0640   -45.2500    72.0825    18.4661    13.1753    12.1547
 2680.0000     9.2412     2.3970     0.0325     0.2420   -56.4240   -45.2500    71.8066    17.9436    12.6367    11.6906
 2680.5000     9.2711     2.3901     0.0325     0.2505   -56.3015   -45.2500    71.5944    17.4357    12.1201    11.1797
 2681.0000     9.2703     2.3893     0.0243     0.2411   -55.5955   -25.6321    71.8012    16.9424    11.7875    11.4171
 2681.5000     9.2698     2.3991     0.0143     0.2363   -55.4435   -25.6546    74.2075    16.4629    11.7875    11.4936
 2682.0000     9.2844     2.4189     0.0308     0.2326   -55.6594   -45.1942    80.2286    15.7760    11.7875    11.3339
 2682.5000     9.2989     2.4212     0.0383     0.2287   -56.0406   -45.1371    80.2257    15.2317    11.7875    11.0221
 2683.0000     9.2982     2.4076     0.0382     0.2256   -56.3566   -44.9787    80.2228    14.8957    11.7875    10.8691
 2683.5000     9.2976     2.3913     0.0261     0.2235   -56.6956   -25.2930    80.2198    14.9130    11.7875    10.5701
 2684.0000     9.3124     2.3739     0.0170     0.2238   -57.0615    -5.6788    80.2169    15.2092    11.7875    10.5694
