~VERSION INFORMATION
 VERS.                2.0:   CWLS LOG ASCII STANDARD - VERSION 2.0
 WRAP.                 NO:   ONE LINE PER DEPTH STEP
~WELL INFORMATION
#MNEM.UNIT      DATA TYPE    INFORMATION
#----------   ------------   ------------------------------
 STRT.F          500.0000:   START DEPTH
 STOP.F         2517.0000:   STOP DEPTH
 STEP.F            0.5000:   STEP LENGTH
 NULL.          -999.2500:   NO VALUE
 COMP.    FENIX & SCISSON:   COMPANY
 WELL. FENIX & SCISSON SHX #46-33:   WELL
 FLD .  TEAPOT DOME NPR-3:   FIELD
 LOC .      S33 T39N R78W:   LOCATION
 CNTY.            NATRONA:   COUNTY
 STAT.            WYOMING:   STATE
 CTRY. UNITED STATES OF AMERICA:   COUNTRY
 SRVC.           BIRDWELL:   SERVICE COMPANY
 DATE.        04-APR-1979:   LOGDATE
 API .     49025107670000:   API NUMBER
~CURVE INFORMATION
#MNEM.UNIT       API CODE    CURVE DESCRIPTION
#----------   ------------   ------------------------------
 DEPT.F                  :   
 GRD .GAPI   45 310 01 00:   GAMMA RAY FROM DENSITY LOG
 CALD.IN     45 280 60 00:   CALIPER FROM DENSITY LOG
 CORR.G/C3   45 356 01 00:   DENSITY CORRECTION
 RHOB.G/C3   45 350 01 00:   BULK DENSITY
~PARAMETER INFORMATION
#MNEM.UNIT          VALUE    DESCRIPTION
#----------   ------------   ------------------------------
 EKB .F         5217.0000:   Kelly bushing
 EGL .F         5207.0000:   Ground level
 EDF .F            0.0000:   Drilling floor
 TD  .F         2630.0000:   Total depth
 CLNT.            A2DTECH:   Client Code
 SL  . 1955' FSL & 1970' FWL:   Surface Location
 PD  .                 GL:   Permanent Datum
 EPD .F              5207:   Elevation Permanent Datum
 LMF .                 KB:   Log Measured From
 DMF .                 KB:   Drilling Measured From
 DAPD.                 10:   Feet Above Permanent Datum
 DATE.        04-APR-1979:   Date Logged [DD-MMM-YYYY]
 DD  .F              2630:   Depth driller
 DL  .F              2517:   Depth logger
 BLI .F              2517:   Bottom log interval
 TLI .F               504:   Top log interval
 CS1 .              9.625:   Casing size
 CBD1.      9.625" @ 300':   Casing driller 1
 CBL1.IN              306:   Casing logger 1
 BS1 .IN            7.875:   Bit size
 BSD1.F              2630:   Depth drilled with bit1
 DFT .                OIL:   Type fluid in hole
 LUL .             CASPER:   Logging unit location
 ENGI.            ROLLINS:   Recorded By
 ORIG.           5" PRINT:   Origin of data
 UWI .     49025107670000:   Unique Well ID
 DICO. A2D TECHNOLOGIES ,INC.:   Digitizing Company
 WITN.              AMUND:   Witnessed by
~OTHER INFORMATION
~A   DEPT      GRD       CALD       CORR       RHOB   
# ...
 1449.0000    16.3137    10.1621     0.0987     2.2435
 1449.5000    18.7073    10.0583     0.0867     2.1445
 1450.0000    22.5868    10.0746     0.2033     2.1764
 1450.5000    24.2375     9.5973     0.3347     2.3100
 1451.0000    21.8493     9.5387     0.3455     2.2564
 1451.5000    19.9536     9.4203     0.4452     2.2164
 1452.0000    21.6012     9.5863     0.5000     2.2055
 1452.5000    22.6545     9.8573     0.5000     2.2152
 1453.0000    23.7078     9.8433     0.5000     2.3393
 1453.5000    24.0148     9.8899     0.5000     2.4752
 1454.0000    21.9510    10.0409     0.3803     2.5065
 1454.5000    18.6952     9.8027     0.3249     2.2932
 1455.0000    17.6683     9.6244     0.3930     2.0155
 1455.5000    17.8300     9.5955     0.4611     2.0004
 1456.0000    18.4375     9.7917     0.5000     2.0066
 1456.5000    19.9365    10.0925     0.5000     2.1536
 1457.0000    20.4249    10.0788     0.5000     2.2523
 1457.5000    18.7741    10.0502     0.5000     2.3735
 1458.0000    16.0734    10.0366     0.5000     2.5272
 1458.5000    15.2343    10.0529     0.5000     2.6809
 1459.0000    18.2225    10.0692     0.4994     2.7977
 1459.5000    22.3962    10.0544     0.3233     2.7879
 1460.0000    24.1891    10.0269     0.2678     2.7386
 1460.5000    19.8965    10.0585     0.2410     2.6108
 1461.0000    19.6092    10.0898     0.2247     2.5907
 1461.5000    21.8544    10.0911     0.2114     2.5885
 1462.0000    23.0563    10.0775     0.2117     2.5970
 1462.5000    23.6638    10.0635     0.2150     2.6077
 1463.0000    23.9741    10.0349     0.2198     2.6139
 1463.5000    23.6901    10.0365     0.2231     2.6193
 1464.0000    23.1085    10.0678     0.2219     2.6315
 1464.5000    23.2707    10.1440     0.2146     2.6377
 1465.0000    23.4324    10.1902     0.1984     2.6385
 1465.5000    23.2970    10.1766     0.1821     2.6326
 1466.0000    24.5390    10.1929     0.1703     2.6266
 1466.5000    25.4035    10.2241     0.1631     2.6184
 1467.0000    22.2996    10.2404     0.1588     2.6055
 1467.5000    19.9353    10.2418     0.1576     2.5866
 1468.0000    19.7966    10.1976     0.1564     2.5696
 1468.5000    21.1503    10.0784     0.1643     2.5409
 1469.0000    23.6895     9.8946     0.1796     2.5319
 1469.5000    24.4456     9.7534     0.1934     2.5465
 1470.0000    23.8644     9.7847     0.2103     2.5632
 1470.5000    23.4318    10.0102     0.2452     2.5770
 1471.0000    22.2562     9.8469     0.2771     2.5892
 1471.5000    20.1891     9.9384     0.3105     2.5908
 1472.0000    15.8932     9.8798     0.3635     2.5917
 1472.5000    17.9866     9.8509     0.3924     2.6145
 1473.0000    19.6444     9.8825     0.4168     2.6578
 1473.5000    20.2422     9.9137     0.4126     2.6866
 1474.0000    19.8124     9.9151     0.3466     2.6890
 1474.5000    19.5284     9.8865     0.3077     2.6390
 1475.0000    16.7184     9.8577     0.3004     2.6088
 1475.5000    15.3942     9.8592     0.3038     2.5849
 1476.0000    15.1069     9.8904     0.2905     2.5495
 1476.5000    15.7177     9.9068     0.2697     2.5110
 1477.0000    15.5823     9.9230     0.2564     2.4725
 1477.5000    15.1497     9.9244     0.2447     2.4113
 1478.0000    12.4882     9.8933     0.2766     2.3954
 1478.5000    12.7986     9.8076     0.2995     2.4281
 1479.0000    17.2694     9.7936     0.2982     2.4373
 1479.5000    19.3628     9.8102     0.3056     2.3178
 1480.0000    19.6731     9.7517     0.4140     2.3136
 1480.5000    20.4294     9.7680  -999.2500     2.3915
 1481.0000    20.4428     9.8292  -999.2500     2.4188
 1481.5000    20.4588     9.7108  -999.2500     2.4121
 1482.0000    18.6889     9.5923  -999.2500     2.3508
 1482.5000    18.1044     9.5335  -999.2500     2.2610
 1483.0000    19.9039     9.6848  -999.2500     2.1165
 1483.5000    20.3628     9.9406  -999.2500     2.0924
 1484.0000    20.0788     9.9784  -999.2500     2.1614
 1484.5000    19.3490     9.8086  -999.2500     2.2289
 1485.0000    18.7678     9.7944  -999.2500     2.3373
 1485.5000    18.7810     9.8262  -999.2500     2.5130
 1486.0000    19.2399     9.9197  -999.2500     2.6009
 1486.5000    19.4016    10.0085  -999.2500     2.6729
 1487.0000    20.1577     9.9203  -999.2500     2.7692
 1487.5000    23.5884     9.6522  -999.2500     2.7841
 1488.0000    23.4530     9.5484     0.2933     2.7043
 1488.5000    23.8033     9.5800     0.2736     2.5621
 1489.0000    25.5628     9.7161     0.2722     2.5905
 1489.5000    25.2788     9.9270     0.2648     2.6199
 1490.0000    20.8343    10.0028     0.2356     2.6185
 1490.5000    16.0926     9.8398     0.2178     2.6224
 1491.0000    13.5798     9.9310     0.2104     2.6240
 1491.5000    12.1070    10.0371     0.2014     2.6166
 1492.0000    12.7145    10.1731     0.2031     2.6265
 1492.5000    15.4023    10.1296     0.2140     2.6456
 1493.0000    17.4957    10.0710     0.2202     2.6563
 1493.5000    20.3320    10.0274     0.2250     2.6670
 1494.0000    23.7627     9.9988     0.2282     2.6633
 1494.5000    24.3702    10.0001     0.2238     2.6498
 1495.0000    24.2348    10.0015     0.2178     2.6363
 1495.5000    24.0993    10.0178     0.2119     2.6152
 1496.0000    24.1129    10.0344     0.2029     2.6062
 1496.5000    21.7515    10.0507     0.2153     2.6192
 1497.0000    18.9415    10.0670     0.2200     2.6284
 1497.5000    17.6173    10.0983     0.2202     2.6361
 1498.0000    16.2932    10.0996     0.2297     2.6422
 1498.5000    17.6437    10.1009     0.2358     2.6230
 1499.0000    19.2913    10.0424     0.2162     2.5827
 1499.5000    20.1960     9.7593     0.2087     2.5692
 1500.0000    20.3544     9.8354     0.2027     2.5677
 1500.5000    19.4793     9.9865     0.2502     2.5800
 1501.0000    15.7801    10.0324     0.2626     2.5839
 1501.5000    14.6013     9.8500     0.2658     2.5863
 1502.0000    15.0636     9.7963     0.2705     2.5705
 1502.5000    14.9249     9.8730     0.2783     2.5501
 1503.0000    15.0900     9.9943     0.2937     2.5471
 1503.5000    16.1433    10.0107     0.3529     2.5639
 1504.0000    17.4938    10.0268     0.3682     2.6154
 1504.5000    19.5873     9.9388     0.3459     2.6261
 1505.0000    22.1265     9.8654     0.2939     2.5793
 1505.5000    24.0713     9.7921     0.2512     2.5324
 1506.0000    25.5704     9.7632     0.3242     2.5734
 1506.5000    27.0695     9.7651     0.3917     2.5841
 1507.0000    27.6771     9.8863     0.4146     2.5933
 1507.5000    25.0157    10.0076     0.4422     2.6055
 1508.0000    19.6491     9.9791     0.4590     2.6214
 1508.5000    15.2467     9.8159     0.4424     2.6458
 1509.0000    12.7247     9.7725     0.4135     2.6462
 1509.5000    13.9266     9.8039     0.3953     2.5589
 1510.0000    19.7347     9.8363     0.4488     2.5431
 1510.5000    21.5310     9.8667     0.4977     2.5613
 1511.0000    23.1787     9.8683     0.4978     2.6253
 1511.5000    25.4207     9.8547     0.4979     2.6566
 1512.0000    23.7995     9.8266     0.4888     2.6630
 1512.5000    22.0296     9.7828     0.4066     2.5992
 1513.0000    19.2196     9.7394     0.3991     2.5762
 1513.5000    14.7752     9.7259     0.4053     2.5619
 1514.0000    13.8936     9.7726     0.3871     2.4886
 1514.5000    20.8937     9.8639     0.3507     2.4008
 1515.0000    23.1358     9.9552     0.3081     2.3555
 1515.5000    25.3778    10.0166     0.3587     2.4373
 1516.0000    27.6198     9.8235     0.3891     2.5109
 1516.5000    29.2675     9.7647     0.3462     2.5223
 1517.0000    29.4293     9.6019     0.3388     2.4883
 1517.5000    26.6694     9.5864     0.3550     2.4513
 1518.0000    22.4822     9.6348     0.4261     2.4227
 1518.5000    19.9327     9.6811     0.4933     2.3743
 1519.0000    19.6753     9.6826  -999.2500     2.3926
 1519.5000    19.0975     9.6679  -999.2500     2.4350
 1520.0000    19.7050     9.6556  -999.2500     2.5373
 1520.5000    20.9069     9.6572  -999.2500     2.5508
 1521.0000    19.1371     9.6889  -999.2500     2.5095
 1521.5000    18.1102     9.8101  -999.2500     2.4861
