~VERSION INFORMATION
 VERS.                2.0:   CWLS LOG ASCII STANDARD - VERSION 2.0
 WRAP.                 NO:   ONE LINE PER DEPTH STEP
~WELL INFORMATION
#MNEM.UNIT      DATA TYPE    INFORMATION
#----------   ------------   ------------------------------
 STRT.F          705.5000:   START DEPTH
 STOP.F         3212.0000:   STOP DEPTH
 STEP.F            0.5000:   STEP LENGTH
 NULL.          -999.2500:   NO VALUE
 COMP.    FENIX & SCISSON:   COMPANY
 WELL. FENIX 41 "AX" #1-15:   WELL
 FLD .             NPR #3:   FIELD
 LOC .      S15 T38N R78W:   LOCATION
 CNTY.            NATRONA:   COUNTY
 STAT.            WYOMING:   STATE
 CTRY. UNITED STATES OF AMERICA:   COUNTRY
 SRVC.              WELEX:   SERVICE COMPANY
 DATE.        18-NOV-1980:   LOGDATE
 API .     49025108530000:   API NUMBER
~CURVE INFORMATION
#MNEM.UNIT       API CODE    CURVE DESCRIPTION
#----------   ------------   ------------------------------
 DEPT.F                  :   
 SPR .MV     07 010 01 00:   SPONTANEOUS POTENTIAL
 ILD .OHMM   07 120 46 00:   INDUCTION LOG DEEP RESISTIVITY
 ILM .OHMM   07 120 44 00:   INDUCTION LOG MEDIUM RESISTIVITY
 SGRD.OHMM   07 220 05 00:   SHORT GUARD RESISTIVITY
 GRD .GAPI   45 310 01 00:   GAMMA RAY FROM DENSITY LOG
 CALD.IN     45 280 60 00:   CALIPER FROM DENSITY LOG
 RHOB.G/C3   45 350 01 00:   BULK DENSITY
 NPHI.DEC    42 890 03 00:   NEUTRON POROSITY SANDSTONE
~PARAMETER INFORMATION
#MNEM.UNIT          VALUE    DESCRIPTION
#----------   ------------   ------------------------------
 EKB .F         5252.0000:   Kelly bushing
 EGL .F         5242.0000:   Ground level
 EDF .F            0.0000:   Drilling floor
 TD  .F         3214.0000:   Total depth
 CLNT.            A2DTECH:   Client Code
 SL  . 2150' FWL & 550' FNL:   Surface Location
 PD  .                 GL:   Permanent Datum
 EPD .F              5242:   Elevation Permanent Datum
 LMF .                 KB:   Log Measured From
 DMF .                 KB:   Drilling Measured From
 DATE.        18-NOV-1980:   Date Logged [DD-MMM-YYYY]
 DD  .F              3210:   Depth driller
 DL  .F              3214:   Depth logger
 BLI .F              3212:   Bottom log interval
 TLI .F               734:   Top log interval
 CS1 .IN            8.625:   Casing size
 CBD1.      8.625" @ 709':   Casing driller 1
 CBL1.F               734:   Casing logger 1
 BS1 .IN            7.875:   Bit size
 BSD1.F              3210:   Depth drilled with bit1
 DFT .          FRESH MUD:   Type fluid in hole
 DFD .                8.8:   Density
 DFV .                 45:   Viscosity
 DFPH.               10.5:   pH
 DFL .                 12:   Fluid loss
 MSS .           FLOWLINE:   Source of sample
 RMS .OHMM           1.25:   Rm
 MST .F                70:   Rm Meas. temp.
 RMF .OHMM           1.25:   Rmf
 MFST.F                70:   Rmf Meas. temp.
 MFSS.               MEAS:   Source Rmf.
 RMB .OHMM           0.78:   Rm. at BHT
 BHT .F               112:   BHT.
 TCS .HRS               7:   Time Circ. stopped
 MRT .F               112:   Maximum recorded temp.
 LUN .               1892:   Logging unit number
 LUL .             CASPER:   Logging unit location
 ENGI.               REIN:   Recorded By
 WITN.              SCOTT:   Witnessed by
 ORIG.      2.5" 5" PRINT:   Origin of data
 UWI .     49025108530000:   Unique Well ID
 DICO. A2D TECHNOLOGIES, INC.:   Digitizing Company
 DAPD.                 10:   Feet Above Permanent Datum
~OTHER INFORMATION
~A   DEPT      SPR        ILD        ILM       SGRD         GRD      CALD       RHOB       NPHI   
# ...
 1839.5000   -37.9338     5.7101     5.9287     6.6204    95.8898     9.0325     2.6062     0.2880
 1840.0000   -37.9426     5.7089     5.9275     6.6574    95.8383     9.0308     2.6121     0.2890
 1840.5000   -37.9497     5.7077     5.9263     6.6515    92.9732     9.0288     2.6226     0.2865
 1841.0000   -38.2500     5.7065     5.9252     6.7394    91.4073     9.0423     2.6332     0.2894
 1841.5000   -38.2581     5.7051     6.0063     6.7338    90.9443     9.0402     2.6436     0.2813
 1842.0000   -38.2653     5.7829     6.0050     6.8221    90.4809     9.0382     2.6495     0.2754
 1842.5000   -38.2724     5.7818     6.0038     6.9116    90.4541     9.0365     2.6525     0.2723
 1843.0000   -38.2795     5.8608     6.0078     6.9066    90.2118     9.0202     2.6508     0.2767
 1843.5000   -38.2868     5.8595     6.0946     6.9015    89.9694     9.0035     2.6393     0.2818
 1844.0000   -38.2941     5.8583     6.1679     7.0008    90.4116     9.0018     2.6241     0.2796
 1844.5000   -38.3015     5.8571     6.1665     7.0837    91.6851     9.0002     2.6231     0.2825
 1845.0000   -38.3088     5.8559     6.1653     7.0780    93.8692     8.9838     2.6193     0.2882
 1845.5000   -38.3162     5.9358     6.2498     7.0726    95.8328     8.9818     2.6093     0.2863
 1846.0000   -38.3235     5.9346     6.2483     7.0673    96.4727     8.9953     2.5994     0.2907
 1846.5000   -38.3309     6.0156     6.2470     7.0231    94.9014     8.9932     2.6015     0.2980
 1847.0000   -38.3382     6.0142     6.2457     6.9160    93.5561     8.9912     2.6128     0.3001
 1847.5000   -38.3456     6.0130     6.2444     6.8597    92.2108     8.9895     2.6240     0.3050
 1848.0000   -38.3529     6.0117     6.2429     6.8545    92.4738     9.0026     2.6360     0.3201
 1848.5000   -38.3603     6.1339     6.3285     6.7548    94.1471     9.0009     2.6443     0.2995
 1849.0000   -38.3676     6.1768     6.3270     6.7342    95.6695     8.9989     2.6472     0.2929
 1849.5000   -38.3758     6.1753     6.3257     6.6816    97.4124     8.9972     2.6394     0.2910
 1850.0000   -38.3829     6.2597     6.3244     6.6482    98.9293     8.9956     2.6159     0.2929
 1850.5000   -38.3901     6.2582     6.3232     6.6429    98.6869     8.9938     2.6021     0.2968
 1851.0000   -38.3972     6.2570     6.3219     6.6380    96.6799     8.9919     2.5945     0.2955
 1851.5000   -38.4044     6.2557     6.3206     6.7268    95.1140     8.9903     2.5906     0.2934
 1852.0000   -38.4118     6.2545     6.3193     6.8207    93.9838     9.0033     2.6018     0.2918
 1852.5000   -38.4191     6.2532     6.3180     6.9984    92.8591     9.0013     2.6085     0.2894
 1853.0000   -38.1316     6.2499     6.3167     6.9927    92.1756     9.0147     2.6115     0.2857
 1853.5000   -38.1397     6.1653     6.3154     7.0850    92.1538     9.0126     2.6151     0.2797
 1854.0000   -37.8518     6.1640     6.3141     7.0789    93.0089     9.0106     2.6165     0.2832
 1854.5000   -37.8603     6.1628     6.3128     7.0360    94.7519     9.0090     2.6187     0.2977
 1855.0000   -37.8676     6.1615     6.3115     6.9716    95.8330     9.0220     2.6231     0.2984
 1855.5000   -37.8750     6.1602     6.3102     6.7771    95.1495     9.0053     2.6290     0.2990
 1856.0000   -37.8824     6.1590     6.3089     6.7189    94.2399     9.0036     2.6426     0.2972
 1856.5000   -37.8910     6.1577     6.3076     6.5822    93.3358     9.0020     2.6614     0.3048
 1857.0000   -37.8981     6.1564     6.2197     6.3987    92.6522     8.9999     2.6779     0.3095
 1857.5000   -37.9044     6.1549     6.1333     6.2204    91.9669     8.9983     2.6884     0.3007
 1858.0000   -37.9124     6.1537     6.1320     6.1308    90.6216     8.9967     2.6921     0.2985
 1858.5000   -37.9195     6.1525     6.1636     6.2973    89.2763     8.9950     2.6928     0.2924
 1859.0000   -37.9265     6.1512     6.2148     6.5581    91.4549     8.9930     2.6828     0.2905
 1859.5000   -37.9338     6.1500     6.2135     6.6445    93.1979     8.9913     2.6665     0.2896
 1860.0000   -37.9412     6.1488     6.2122     6.7313    94.4996     8.9897     2.6479     0.2881
 1860.5000   -37.9485     6.1475     6.2971     6.7260    94.4724     8.9876     2.6297     0.2857
 1861.0000   -37.9559     6.1463     6.2958     6.6290    94.4506     8.9817     2.6228     0.2832
 1861.5000   -37.9262     6.1450     6.2945     6.6240    94.4289     8.9744     2.6197     0.2813
 1862.0000   -37.6754     6.1437     6.2932     6.6190    95.5100     8.9682     2.6204     0.2785
 1862.5000   -37.6838     6.1425     6.2919     6.5235    97.4681     8.9685     2.6225     0.2864
 1863.0000   -37.6912     6.1412     6.2906     6.5581    98.5493     8.9688     2.6270     0.2852
 1863.5000   -37.9189     6.1399     6.2893     6.6496    99.1947     8.9691     2.6261     0.2834
 1864.0000   -38.0000     6.1387     6.2880     6.6904    99.3882     8.9693     2.6162     0.2794
 1864.5000   -38.0074     6.1374     6.2867     6.7771    99.1403     8.9696     2.6061     0.2772
 1865.0000   -38.0158     6.1361     6.2854     6.8668    97.5744     8.9698     2.5978     0.2816
 1865.5000   -38.0230     6.2198     6.2841     6.8610    94.6850     8.9701     2.5931     0.2839
 1866.0000   -38.0301     6.2183     6.2826     6.8559    92.8985     8.9704     2.5908     0.2868
 1866.5000   -38.0372     6.3033     6.2813     6.6648    92.2095     8.9706     2.5892     0.2890
 1867.0000   -38.0444     6.3019     6.2800     6.6599    92.1877     8.9709     2.5907     0.2878
 1867.5000   -38.0515     6.3006     6.2788     6.6550    93.4895     8.9711     2.5943     0.2919
 1868.0000   -38.0588     6.2994     6.2775     6.6500    95.0177     8.9714     2.5987     0.2989
 1868.5000   -38.0662     6.2981     6.2763     6.5541    96.5287     8.9716     2.6032     0.2995
 1869.0000   -38.0735     6.2968     6.2750     6.4596    97.8305     8.9719     2.6088     0.2945
 1869.5000   -38.0809     6.3827     6.2737     6.4547    98.0348     8.9722     2.6158     0.2877
 1870.0000   -38.0882     6.4698     6.2725     6.4499    94.4486     8.9724     2.6241     0.2834
 1870.5000   -38.0956     6.4683     6.2712     6.4450    91.5833     8.9727     2.6308     0.2800
 1871.0000   -38.1029     6.4670     6.2699     6.4401    90.9052     8.9729     2.6345     0.2784
 1871.5000   -38.1103     6.4656     6.2858     6.4352    91.7603     8.9732     2.6342     0.2763
 1872.0000   -38.1176     6.4643     6.4427     6.4304    94.6409     8.9735     2.6297     0.2729
 1872.5000   -38.1250     6.4630     6.5308     6.4618    96.1285     8.9737     2.6289     0.2688
 1873.0000   -38.1324     6.4617     6.6201     6.5991    93.4542     8.9735     2.6288     0.2752
 1873.5000   -38.1397     6.4601     6.6185     6.7783    92.1089     8.9724     2.6310     0.2727
 1874.0000   -38.1478     6.4588     6.7090     6.9624    91.6456     8.9713     2.6293     0.2747
 1874.5000   -38.1544     6.4575     6.7076     6.9573    91.6188     8.9702     2.6209     0.2735
 1875.0000   -38.1621     6.4562     6.6527     7.1465    91.8176     8.9691     2.6170     0.2691
 1875.5000   -38.1692     6.4549     6.6128     7.1410    92.2424     8.9680     2.6200     0.2698
 1876.0000   -37.8822     6.4536     6.6115     6.9419    92.6564     8.9669     2.6269     0.2701
 1876.5000   -37.8598     6.4523     6.5196     6.9270    93.7321     8.9657     2.6319     0.2736
 1877.0000   -37.6024     6.4510     6.4291     6.7431    94.5927     8.9646     2.6326     0.2765
 1877.5000   -37.6103     6.4497     6.4278     6.7173    94.1297     8.9635     2.6302     0.2784
 1878.0000   -37.6176     6.3603     6.4265     6.5501    93.2000     8.9624     2.6248     0.2753
 1878.5000   -37.6250     6.2722     6.3372     6.5451    92.0955     8.9613     2.6072     0.2685
 1879.0000   -37.6324     6.2709     6.2491     6.4507    91.8531     8.9602     2.5920     0.2667
 1879.5000   -37.3456     6.2696     6.1623     6.4459    92.2725     8.9591     2.5813     0.2648
