~VERSION INFORMATION
 VERS.                2.0:   CWLS LOG ASCII STANDARD - VERSION 2.0
 WRAP.                 NO:   ONE LINE PER DEPTH STEP
~WELL INFORMATION
#MNEM.UNIT      DATA TYPE    INFORMATION
#----------   ------------   ------------------------------
 STRT.F            1.5000:   START DEPTH
 STOP.F          985.0000:   STOP DEPTH
 STEP.F            0.5000:   STEP LENGTH
 NULL.          -999.2500:   NO VALUE
 COMP.       FLUOR DANIEL:   COMPANY
 WELL.  FLUOR 41 "X" #1-2:   WELL
 FLD .          N.P.R. #3:   FIELD
 LOC .       S2 T38N R78W:   LOCATION
 CNTY.            NATRONA:   COUNTY
 STAT.            WYOMING:   STATE
 CTRY. UNITED STATES OF AMERICA:   COUNTRY
 SRVC.     ATLAS WIRELINE:   SERVICE COMPANY
 DATE.        09-AUG-1994:   LOGDATE
 API .     49025226450000:   API NUMBER
~CURVE INFORMATION
#MNEM.UNIT       API CODE    CURVE DESCRIPTION
#----------   ------------   ------------------------------
 DEPT.F                  :   
 GRR .GAPI   07 310 01 00:   GAMMA RAY FROM RESISTIVITY
 TENR.LBS    07 635 01 00:   TENSION FROM RESISTIVITY
 RILD.OHMM   07 120 46 00:   INDUCTION LOG DEEP RESISTIVITY
 RILM.OHMM   07 120 44 00:   INDUCTION LOG MEDIUM RESISTIVITY
~PARAMETER INFORMATION
#MNEM.UNIT          VALUE    DESCRIPTION
#----------   ------------   ------------------------------
 EKB .F         5143.0000:   Kelly bushing
 EGL .F         5133.0000:   Ground level
 EDF .F         5142.0000:   Drilling floor
 TD  .F          970.0000:   Total depth
 CLNT.            A2DTECH:   Client Code
 PD  .                 GL:   Permanent Datum
 EPD .F              5133:   Elevation Permanent Datum
 LMF .                 KB:   Log Measured From
 DMF .                 KB:   Drilling Measured From
 DAPD.F                10:   Feet Above Permanent Datum
 DATE.        09-AUG-1994:   Date Logged [DD-MMM-YYYY]
 DD  .F               970:   Depth driller
 DL  .F               970:   Depth logger
 BLI .F               962:   Bottom log interval
 TLI .F                 0:   Top log interval
 CS1 .IN            9.625:   Casing size
 CBD1.       9.625" @ 56':   Casing driller 1
 CBL1.F                59:   Casing logger 1
 BS1 .IN             8.75:   Bit size
 BSD1.F               970:   Depth drilled with bit1
 DFT .                AIR:   Type fluid in hole
 MRT .F                94:   Maximum recorded temp.
 LUN .            HL 6530:   Logging unit number
 LUL .             CASPER:   Logging unit location
 ENGI.      PAT RASMUSSEN:   Recorded By
 WITN.        GARY STRONG:   Witnessed by
 ORIG.           5" PRINT:   Origin of data
 UWI .     49025226450000:   Unique Well ID
 DICO. A2D TECHNOLOGIES, INC.:   Digitizing Company
 SL  . 173' FNL & 2204' FWL:   Surface Location
~OTHER INFORMATION
~A    DEPT      GRR      TENR       RILD       RILM   
# ...
  804.5000    92.1778    37.5192    16.9954    16.6890
  805.0000    91.5620    37.6652    16.7556    16.6834
  805.5000    89.4287    45.3413    16.2907    16.7958
  806.0000    89.4199    37.9518    16.5160    16.7887
  806.5000    89.7147    38.1031    16.8591    17.0187
  807.0000    89.6874    38.2530    17.2105    17.1320
  807.5000    86.0528    45.9617    17.4472    17.4882
  808.0000    82.0986    46.1077    17.7052    17.8502
  808.5000    80.8758    53.7838    18.0547    17.9706
  809.0000    83.2949    61.4599    18.3043    18.3442
  809.5000    85.4127    61.6059    18.6846    18.7240
  810.0000    84.1877    61.7519    18.8114    18.8502
  810.5000    85.3929    61.8978    18.6745    18.8422
  811.0000    86.0050    62.0482    18.1563    18.4460
  811.5000    85.5751    62.2263    17.5300    17.8016
  812.0000    81.1153    62.3723    17.4036    17.2961
  812.5000    80.4995    70.0484    17.5205    16.7121
  813.0000    84.4360    70.1807    17.2722    16.3606
  813.5000    88.0691    62.7737    16.9104    16.3551
  814.0000    89.2764    62.9562    16.6718    16.3496
  814.5000    89.5690    55.5723    16.7839    16.4598
  815.0000    90.1670    48.1879    16.8966    16.6841
  815.5000    91.1158    40.8038    16.8920    16.9124
  816.0000    91.9703    48.5164    16.8875    16.9065
  816.5000    91.9592    48.6446    16.7656    16.8995
  817.0000    92.2561    56.3384    16.5281    16.6598
  817.5000    95.8869    64.0145    16.2950    15.8609
  818.0000    98.3082    79.2208    15.9536    15.4194
  818.5000    98.2972    86.8976    15.6194    15.2007
  819.0000    99.5084    79.5127    15.2922    15.0900
  819.5000    99.7970    64.6350    14.9718    14.9801
  820.0000    95.8406    57.2143    14.7606    14.9750
  820.5000    93.7073    42.3000    14.5524    14.9577
  821.0000    93.6985    42.4825    14.5484    14.8597
  821.5000    93.9953    42.6285    14.4426    14.6489
  822.0000    94.2900    50.3046    14.3391    14.2412
  822.5000    94.5824    57.9819    14.1362    14.1375
  823.0000    94.8771    59.3389    14.0342    14.1327
  823.5000    96.1608    65.8393    13.9330    14.0297
  824.0000    99.4096    65.9853    13.7365    13.9275
  824.5000    99.4007    58.5646    13.6375    13.8260
  825.0000    96.9640    58.7471    13.7291    13.7252
  825.5000    94.2237    58.8931    13.8213    13.6242
  826.0000    93.6101    51.5060    14.0114    14.0048
  826.5000    96.3305    44.1248    14.2032    14.4967
  827.0000    98.4461    44.2771    14.3986    14.4918
  827.5000    99.3477    51.9834    14.4963    14.5883
  828.0000    99.3367    59.6595    14.5937    14.5833
  828.5000    99.6336    59.8055    14.6908    14.5784
  829.0000    99.3190    67.4816    14.5848    14.4721
  829.5000    99.3102    67.6275    14.4776    14.3655
  830.0000    99.3014    75.3036    14.1631    14.3607
  830.5000    97.4716    67.9195    13.7820    13.7677
  831.0000    95.6418    75.6321    13.5876    13.6685
  831.5000    94.7223    75.7781    13.3960    13.7595
  832.0000    95.9255    75.9036    13.2994    13.3754
  832.5000    97.1306    76.0542    12.9304    13.0031
  833.0000    97.4274    76.2160    12.9269    12.9987
  833.5000    97.7221    76.3620    12.9234    12.9941
  834.0000    97.7111    76.5080    12.8266    12.9888
  834.5000    98.3077    76.6566    12.5613    12.8046
  835.0000    99.8164    76.8364    12.5571    12.6230
  835.5000   100.4145    76.9578    12.5537    12.5311
  836.0000   100.7114    77.1084    12.4632    12.4398
  836.5000   100.7003    77.2744    12.2874    12.4356
  837.0000    98.8706    84.9505    12.1988    12.2592
  837.5000    98.5582    85.0904    12.0267    12.0853
  838.0000    98.5372    85.2424    11.8571    11.9130
  838.5000    94.8487    77.8583    11.7715    11.8262
  839.0000    94.2807    78.0408    11.7683    11.7400
  839.5000    97.0033    70.6566    11.6016    11.5735
  840.0000   100.3328    70.8026    11.5180    11.4892
  840.5000   100.6297    78.4787    11.3555    11.4055
  841.0000    99.7082    78.6145    11.2736    11.3225
  841.5000    96.9679    78.7651    11.1923    11.2400
  842.0000    93.2929    86.4458    11.1116    11.1580
  842.5000    91.7906    86.5964    11.1086    11.1534
  843.0000    92.0856    86.7470    11.1055    11.1496
  843.5000    93.8955    94.4277    11.1018    11.1458
  844.0000    96.6181    94.5973    11.0988    11.1421
  844.5000    98.4302    94.7289    11.0958    11.1385
  845.0000    99.6353    94.8892    11.0928    11.1345
  845.5000    99.9300    87.5000    11.0128    11.1307
  846.0000    99.9171    87.6511    11.0098    11.1217
  846.5000    98.0910    80.2670    11.0068    10.9682
  847.0000    98.9908    80.4494    10.9274    10.8883
  847.5000   100.4994    80.5954    10.9244    10.8847
  848.0000   101.4032    80.7414    10.8450    10.8810
  848.5000    99.2678    80.8874    10.8420    10.8773
  849.0000    98.0450    81.0333    10.8391    10.8736
  849.5000    98.3396    81.1793    10.8361    10.7944
  850.0000   101.0613    73.7952    10.8332    10.7907
  850.5000   101.3608    82.0655    10.8153    10.7870
  851.0000    97.1045    81.9106    10.7566    10.7858
  851.5000    92.8476    67.2162    10.7559    10.7836
  852.0000    93.8270    59.9056    10.7551    10.7814
  852.5000    99.2098    75.3317    10.7544    10.7792
  853.0000   104.6667    98.2147    10.7537    10.7770
  853.5000   108.3027   106.0375    10.6783    10.7749
  854.0000   111.0297   106.3302    10.6776    10.7727
  854.5000   109.5048    99.0927    10.6768    10.7704
  855.0000   107.3745    99.3976    10.7508    10.7682
  855.5000   107.3424    92.1479    10.8252    10.8409
  856.0000   108.5849    92.5138    10.8243    10.8387
  856.5000   109.4812    92.8065    10.8235    10.8365
  857.0000   109.7788    85.4958    10.8229    10.8343
  857.5000   109.1645    93.3918    10.8221    10.9084
  858.0000   104.6062   101.2146    10.8213    10.8299
  858.5000    98.8340   101.5072    10.8206    10.8277
  859.0000    96.7037    94.2698    10.7448    10.8179
  859.5000    97.9117    94.6356    10.7440    10.7475
  860.0000    99.1198    94.9283    10.5209    10.6707
  860.5000   101.5698    87.6177    10.4472    10.5208
  861.0000   103.0533    87.9835    10.3739    10.4455
  861.5000   103.0460    95.8063    10.3012    10.3709
  862.0000   100.9156    96.0990    10.0874    10.3688
  862.5000   100.9097   103.9217    10.0868    10.2231
  863.0000   103.6352   104.2169    10.0161    10.1500
  863.5000   107.5747   104.5181     9.9458    10.0774
  864.0000   111.5142   104.8730     9.9451    10.0749
  864.5000   114.2681   105.1656     9.9443    10.0728
  865.0000   112.3926   105.4583     9.8746     9.9313
  865.5000   112.4069   105.7510     9.8739     9.9293
  866.0000   112.3996   106.0436     9.8733     9.9273
  866.5000   110.5727   106.3363     9.9418     9.9948
  867.0000   107.5319   106.6289     9.9410     9.9927
  867.5000   102.9737   106.9277     9.9403    10.0605
  868.0000   102.3608   107.2874    10.0147    10.1289
  868.5000   103.5688   107.5801    10.1487    10.1977
  869.0000   107.2048   107.8728    10.2904    10.2669
  869.5000   109.3233   108.1655    10.3618    10.4085
  870.0000   106.2811   108.4581    10.5065    10.4797
  870.5000   102.3298   108.7508    10.8025    10.9246
  871.0000   102.6274   109.0435    11.3416    11.3099
  871.5000   105.0494   109.3374    12.4159    12.4731
  872.0000   105.9554   109.6386    13.4039    13.6853
  872.5000   103.5201   109.9946    14.4210    15.2537
  873.0000    93.8026   117.8174    16.8661    17.0504
  873.5000    87.4234   118.0723    18.0819    18.5346
  874.0000    83.4396   125.9329    19.5207    19.5938
  874.5000    83.1612   126.2256    20.4950    20.2858
  875.0000    85.5832   134.0484    21.2200    20.1398
  875.5000    90.1297   111.7994    21.5163    19.8568
  876.0000    91.6427   119.6222    21.5149    19.5778
  876.5000    88.6004   134.9751    21.5134    19.5729
  877.0000    80.7038   135.2678    21.8321    20.2632
