~VERSION INFORMATION
 VERS.                2.0:   CWLS LOG ASCII STANDARD - VERSION 2.0
 WRAP.                 NO:   ONE LINE PER DEPTH STEP
~WELL INFORMATION
#MNEM.UNIT      DATA TYPE    INFORMATION
#----------   ------------   ------------------------------
 STRT.F          740.0000:   START DEPTH
 STOP.F         2749.0000:   STOP DEPTH
 STEP.F            0.5000:   STEP LENGTH
 NULL.          -999.2500:   NO VALUE
 COMP.    FENIX & SCISSON:   COMPANY
 WELL.   FENIX SHX #11-10:   WELL
 FLD .                NPR:   FIELD
 LOC .      S10 T38N R78W:   LOCATION
 CNTY.            NATRONA:   COUNTY
 STAT.            WYOMING:   STATE
 CTRY. UNITED STATES OF AMERICA:   COUNTRY
 SRVC.              WELEX:   SERVICE COMPANY
 DATE.        09-APR-1980:   LOGDATE
 API .     49025108060000:   API NUMBER
~CURVE INFORMATION
#MNEM.UNIT       API CODE    CURVE DESCRIPTION
#----------   ------------   ------------------------------
 DEPT.F                  :   
 GRD .GAPI   45 310 01 00:   GAMMA RAY FROM DENSITY LOG
 CALD.IN     45 280 60 00:   CALIPER FROM DENSITY LOG
 TEND.LBS    45 635 01 00:   TENSION FROM DENSITY LOG
 RHOB.G/C3   45 350 01 00:   BULK DENSITY
 CORR.G/C3   45 356 01 00:   DENSITY CORRECTION
~PARAMETER INFORMATION
#MNEM.UNIT          VALUE    DESCRIPTION
#----------   ------------   ------------------------------
 EKB .F         5287.0000:   Kelly bushing
 EGL .F         5277.0000:   Ground level
 EDF .F            0.0000:   Drilling floor
 EPD .F         5277.0000:   Permanent datum
 TD  .F         2762.0000:   Total depth
 DATE.        09-APR-1980:   Date logged
 CLNT.            A2DTECH:   Client Code
 SL  . 474' FNL & 644' FWL:   Surface Location
 PD  .                 GL:   Permanent Datum
 LMF .                 KB:   Log Measured From
 DMF .                 KB:   Drilling Measured From
 DAPD.F                10:   Feet Above Permanent Datum
 DD  .F              2762:   Depth driller
 DL  .F            2751.5:   Depth logger
 BLI .F              2750:   Bottom log interval
 TLI .F               750:   Top log interval
 CS1 .IN            9.625:   Casing size
 CBD1.      9.625" @ 760':   Casing driller 1
 BS1 .IN             8.75:   Bit size
 BSD1.F              2762:   Depth drilled with bit1
 DFT .                AIR:   Type fluid in hole
 TCS .HRS               3:   Time Circ. stopped
 MRT .F               118:   Maximum recorded temp.
 ENGI.            BENTSEN:   Recorded By
 WITN.           DINSMORE:   Witnessed by
 ORIG.         2.5" PRINT:   Origin of data
 UWI .     49025108060000:   Unique Well ID
 DICO. A2D TECHNOLOGIES, INC.:   Digitizing Company
~OTHER INFORMATION
~A   DEPT       GRD      CALD       TEND       RHOB       CORR   
# ...
  984.0000    76.3880     8.8280  1062.1240     2.5010     0.0500
  984.5000    76.3370     8.8160  1062.1240     2.5190     0.0690
  985.0000    76.2020     8.8050  1062.1240     2.5360     0.0870
  985.5000    76.1240     8.7930  1062.1240     2.5390     0.0950
  986.0000    76.0280     8.7820  1062.1240     2.5280     0.0830
  986.5000    75.9270     8.7710  1062.1240     2.5180     0.0730
  987.0000    75.8320     8.7590  1062.1240     2.5150     0.0620
  987.5000    75.7350     8.7480  1062.1240     2.5120     0.0650
  988.0000    75.6380     8.7370  1062.1240     2.5250     0.0690
  988.5000    75.5470     8.7240  1062.1240     2.5190     0.0720
  989.0000    75.4500     8.7190  1062.1240     2.5030     0.0550
  989.5000    75.3430     8.7250  1062.1240     2.4880     0.0390
  990.0000    75.3880     8.7300  1062.1240     2.4760     0.0400
  990.5000    75.6020     8.7350  1062.1240     2.4840     0.0430
  991.0000    75.8330     8.7390  1062.1240     2.4910     0.0470
  991.5000    74.9800     8.7440  1062.1240     2.4990     0.0480
  992.0000    73.6230     8.7490  1062.1240     2.4960     0.0450
  992.5000    72.2500     8.7540  1062.1240     2.4920     0.0420
  993.0000    71.5620     8.7590  1062.1240     2.4880     0.0380
  993.5000    71.3600     8.7640  1062.1240     2.4840     0.0410
  994.0000    71.1180     8.7690  1062.1240     2.4920     0.0530
  994.5000    70.8710     8.7730  1062.1240     2.4980     0.0640
  995.0000    70.6820     8.7780  1062.1240     2.5400     0.0770
  995.5000    70.0300     8.7830  1062.1240     2.5450     0.0740
  996.0000    68.9700     8.7870  1062.1240     2.5510     0.0580
  996.5000    67.9340     8.7930  1062.1240     2.5540     0.0650
  997.0000    66.9540     8.8010  1062.1240     2.5590     0.0720
  997.5000    65.8410     8.8570  1062.1240     2.5540     0.0740
  998.0000    65.3300     8.9110  1062.1240     2.5400     0.0590
  998.5000    65.2710     8.9720  1062.1240     2.5210     0.0450
  999.0000    65.5050     8.9900  1062.1240     2.5160     0.0330
  999.5000    65.6940     8.9700  1062.1240     2.5170     0.0320
 1000.0000    65.8140     8.9530  1062.1240     2.5240     0.0310
 1000.5000    65.8960     8.9370  1062.1240     2.5230     0.0300
 1001.0000    65.9700     8.9180  1062.1240     2.5180     0.0320
 1001.5000    66.0490     8.9180  1062.1240     2.5290     0.0420
 1002.0000    66.1280     8.9190  1062.1240     2.5240     0.0360
 1002.5000    66.2000     8.9210  1062.1240     2.5060     0.0230
 1003.0000    66.2870     8.9220  1062.1240     2.4790     0.0100
 1003.5000    66.3820     8.9230  1062.1240     2.4730     0.0030
 1004.0000    66.9130     8.9250  1062.1240     2.4780     0.0120
 1004.5000    67.5380     8.9260  1062.1240     2.4840     0.0200
 1005.0000    68.1560     8.9270  1062.1240     2.4970     0.0280
 1005.5000    68.7320     8.9290  1062.1240     2.5070     0.0370
 1006.0000    68.9560     8.9300  1062.1240     2.5050     0.0340
 1006.5000    69.1450     8.9310  1062.1240     2.5050     0.0320
 1007.0000    69.3090     8.9330  1062.1240     2.5050     0.0290
 1007.5000    68.8450     8.9340  1062.1240     2.5040     0.0230
 1008.0000    68.3590     8.9360  1062.1240     2.5050     0.0170
 1008.5000    67.7650     8.9370  1062.1240     2.4940     0.0110
 1009.0000    67.8090     8.9380  1062.1240     2.4780     0.0050
 1009.5000    68.5560     8.9400  1062.1240     2.4840     0.0070
 1010.0000    68.2350     8.9410  1062.1240     2.4910     0.0080
 1010.5000    67.1150     8.9420  1062.1240     2.4850     0.0100
 1011.0000    66.0830     8.9440  1062.1240     2.4930     0.0120
 1011.5000    66.2060     8.9450  1062.1240     2.4970     0.0140
 1012.0000    67.2550     8.9460  1062.1240     2.4930     0.0150
 1012.5000    68.2420     8.9480  1062.1240     2.5020     0.0170
 1013.0000    69.2360     8.9490  1062.1240     2.5130     0.0110
 1013.5000    69.8390     8.9500  1062.1240     2.5090     0.0060
 1014.0000    69.4340     8.9520  1062.1240     2.5100     0.0010
 1014.5000    69.0670     8.9530  1062.1240     2.5240     0.0050
 1015.0000    68.7610     8.9540  1062.1240     2.5200     0.0090
 1015.5000    68.7540     8.9570  1062.1240     2.5130     0.0080
 1016.0000    68.7530     8.9440  1062.1240     2.5090     0.0070
 1016.5000    68.7500     8.9220  1062.1240     2.5070     0.0060
 1017.0000    68.7410     8.9020  1062.1240     2.5050     0.0020
 1017.5000    68.7790     8.8800  1062.1240     2.4960    -0.0090
 1018.0000    68.3910     8.8610  1062.1240     2.4750    -0.0200
 1018.5000    67.3830     8.8390  1062.1240     2.4630    -0.0320
 1019.0000    66.9110     8.8580  1062.1281     2.4690    -0.0240
 1019.5000    67.2280     8.8810  1062.1270     2.4820    -0.0080
 1020.0000    68.0160     8.9060  1062.1370     2.4980     0.0080
 1020.5000    68.7980     8.9290  1062.1370     2.5190     0.0230
 1021.0000    69.1530     8.9550  1062.1169     2.5260     0.0360
 1021.5000    68.4440     8.9630  1062.1899     2.5190     0.0290
 1022.0000    67.7410     8.9720  1062.0940     2.5140     0.0230
 1022.5000    67.0580     8.9800  1061.9180     2.5170     0.0290
 1023.0000    66.4290     8.9870  1057.9370     2.5230     0.0360
 1023.5000    67.0000     8.9950  1053.9709     2.5180     0.0310
 1024.0000    67.5240     8.9780  1049.8270     2.5090     0.0280
 1024.5000    68.1150     8.9570  1045.7740     2.5020     0.0160
 1025.0000    67.9340     8.9370  1041.7050     2.4890     0.0000
 1025.5000    67.7240     8.9150  1037.6219     2.4700    -0.0180
 1026.0000    67.4970     8.8960  1033.5530     2.4580    -0.0140
 1026.5000    67.2880     8.8800  1029.4790     2.4700    -0.0090
 1027.0000    67.0240     8.9160  1025.4080     2.4680    -0.0020
 1027.5000    67.2570     8.9490  1021.3370     2.4660     0.0030
 1028.0000    67.8530     8.9840  1017.2660     2.4740     0.0090
 1028.5000    68.4130     9.0200  1013.1960     2.5010     0.0160
 1029.0000    69.0260     9.0340  1009.1010     2.4980     0.0100
 1029.5000    69.1910     9.0260  1005.0160     2.4960    -0.0020
 1030.0000    68.5790     9.0200  1000.9660     2.5070     0.0150
 1030.5000    68.0170     9.0140   996.7680     2.5510     0.0300
 1031.0000    67.4700     9.0080   992.8440     2.5670     0.0450
 1031.5000    66.9990     9.0010   988.7350     2.5620     0.0620
 1032.0000    67.2900     8.9950   983.9120     2.5500     0.0500
 1032.5000    67.5530     8.9890   987.1720     2.5430     0.0380
 1033.0000    67.8350     8.9830  1005.1120     2.5480     0.0460
 1033.5000    68.1330     8.9760  1022.1120     2.5500     0.0530
 1034.0000    68.1470     8.9700  1039.5980     2.5460     0.0510
 1034.5000    68.1600     8.9640  1056.7990     2.5380     0.0490
 1035.0000    68.1510     8.9580  1074.0360     2.5300     0.0410
 1035.5000    68.1470     8.9510  1092.5990     2.5230     0.0340
 1036.0000    68.3090     8.9450  1103.2030     2.5140     0.0270
 1036.5000    68.8710     8.9390  1102.0520     2.5060     0.0200
 1037.0000    69.4420     8.9330  1102.2440     2.4990     0.0140
 1037.5000    69.9870     8.9260  1102.3480     2.5100     0.0250
 1038.0000    70.4890     8.9200  1102.1930     2.5230     0.0340
 1038.5000    70.0960     8.9140  1102.2500     2.5400     0.0440
 1039.0000    69.7070     8.9070  1102.2250     2.5330     0.0370
 1039.5000    69.2800     8.9010  1102.2040     2.5210     0.0280
 1040.0000    68.8700     8.8950  1102.2040     2.5140     0.0250
 1040.5000    68.4510     8.8890  1102.2040     2.5110     0.0250
 1041.0000    68.1540     8.8830  1102.2040     2.5090     0.0170
 1041.5000    68.1580     8.8780  1102.2040     2.4920     0.0050
 1042.0000    68.1510     8.8860  1102.2040     2.4720    -0.0070
 1042.5000    68.1520     8.8940  1102.2040     2.4700    -0.0110
 1043.0000    68.1540     8.9020  1102.2040     2.4850     0.0010
 1043.5000    68.1510     8.9100  1102.2040     2.4990     0.0160
 1044.0000    68.1540     8.9180  1102.2040     2.5020     0.0170
 1044.5000    68.1550     8.9250  1102.2040     2.5030     0.0170
