~VERSION INFORMATION
 VERS.                2.0:   CWLS LOG ASCII STANDARD - VERSION 2.0
 WRAP.                 NO:   ONE LINE PER DEPTH STEP
~WELL INFORMATION
#MNEM.UNIT      DATA TYPE    INFORMATION
#----------   ------------   ------------------------------
 STRT.F            0.0000:   START DEPTH
 STOP.F         1165.5000:   STOP DEPTH
 STEP.F            0.5000:   STEP LENGTH
 NULL.          -999.2500:   NO VALUE
 COMP.   JOHN BROWN E & C:   COMPANY
 WELL. BROWN NPR 3 "X" 1 #63-14:   WELL
 FLD .                NPR:   FIELD
 LOC .      S14 T38N R78W:   LOCATION
 CNTY.            NATRONA:   COUNTY
 STAT.            WYOMING:   STATE
 CTRY. UNITED STATES OF AMERICA:   COUNTRY
 SRVC.     ATLAS WIRELINE:   SERVICE COMPANY
 DATE.        15-JAN-1992:   LOGDATE
 API .     49025224960000:   API NUMBER
~CURVE INFORMATION
#MNEM.UNIT       API CODE    CURVE DESCRIPTION
#----------   ------------   ------------------------------
 DEPT.F                  :   
 GRR .GAPI   07 310 01 00:   GAMMA RAY FROM RESISTIVITY
 RILD.OHMM   07 120 46 00:   INDUCTION LOG DEEP RESISTIVITY
 RILM.OHMM   07 120 44 00:   INDUCTION LOG MEDIUM RESISTIVITY
 TENR.LBS    07 635 01 00:   TENSION
~PARAMETER INFORMATION
#MNEM.UNIT          VALUE    DESCRIPTION
#----------   ------------   ------------------------------
 EKB .F         5270.0000:   Kelly bushing
 EGL .F         5260.0000:   Ground level
 EDF .F         5269.0000:   Drilling floor
 TD  .F         1160.0000:   Total depth
 DATE.        15-JAN-1992:   Date logged
 CLNT.            A2DTECH:   Client Code
 SL  . 1893' FNL & 1971' FEL:   Surface Location
 PD  .                 GL:   Permanent Datum
 EPD .F              5260:   Elevation Permanent Datum
 LMF .                 KB:   Log Measured From
 DMF .                 KB:   Drilling Measured From
 DAPD.F                10:   Feet Above Permanent Datum
 DD  .F              1160:   Depth driller
 DL  .F              1158:   Depth logger
 BLI .F              1150:   Bottom log interval
 CS1 .IN            9.625:   Casing size
 CBD1.       9.625" @ 50':   Casing driller 1
 CBL1.F                48:   Casing logger 1
 BS1 .IN             8.75:   Bit size
 BSD1.F              1160:   Depth drilled with bit1
 DFT .                AIR:   Type fluid in hole
 MRT .F                90:   Maximum recorded temp.
 LUN .            HL-6274:   Logging unit number
 LUL .             CASPER:   Logging unit location
 ENGI.             RAUTIO:   Recorded By
 WITN.        GARY STRONG:   Witnessed by
 ORIG.           5" PRINT:   Origin of data
 UWI .     49025224960000:   Unique Well ID
 DICO. A2D TECHNOLOGIES, INC.:   Digitizing Company
 TLI .F                 0:   Top log interval
~OTHER INFORMATION
~A    DEPT      GRR      RILD       RILM       TENR   
# ...
  730.0000   131.0200     6.7320     6.9680    16.8680
  730.5000   131.1010     6.7080     6.9390    16.8680
  731.0000   130.6680     6.6840     6.9100    16.8680
  731.5000   129.8320     6.6600     6.8830    16.8680
  732.0000   133.0480     6.6360     6.8830    16.8680
  732.5000   137.4440     6.5250     6.6270    16.8680
  733.0000   137.8050     6.2980     6.3870    16.8680
  733.5000   132.0580     6.0710     6.1460    16.8680
  734.0000   127.9690     5.8250     5.9130    16.8680
  734.5000   124.0180     5.6050     5.7260    16.8680
  735.0000   124.0410     5.3660     5.5400    16.8680
  735.5000   127.0100     5.0680     5.3540    16.8680
  736.0000   130.8000     5.0890     5.2440    16.8680
  736.5000   134.5800     5.1280     5.1990    16.8680
  737.0000   136.8110     5.1660     5.1630    16.8680
  737.5000   133.5790     5.2040     5.1630    16.8680
  738.0000   128.7550     5.3640     5.4140    16.8680
  738.5000   124.4560     5.5370     5.6160    16.8680
  739.0000   127.3520     5.7100     5.8180    16.8680
  739.5000   133.5840     5.8820     6.0200    16.8680
  740.0000   136.9690     6.0550     6.2230    16.8680
  740.5000   139.7510     6.2160     6.4250    16.8680
  741.0000   140.7030     6.2630     6.4700    16.8680
  741.5000   140.7080     6.3070     6.4930    16.8680
  742.0000   139.2350     6.3520     6.5150    16.8680
  742.5000   134.1130     6.3910     6.5380    16.8680
  743.0000   131.7570     6.3770     6.5610    16.8680
  743.5000   130.6160     6.3620     6.5710    16.8680
  744.0000   132.7000     6.3470     6.5260    16.8680
  744.5000   134.7010     6.3320     6.4920    16.8680
  745.0000   133.4760     6.2530     6.4580    16.8680
  745.5000   130.5640     6.1710     6.4040    16.8680
  746.0000   130.4140     6.0890     6.3440    16.8680
  746.5000   133.0630     6.0070     6.1540    16.8680
  747.0000   135.5160     5.9250     6.0250    16.8680
  747.5000   136.1580     5.7740     5.9310    16.8680
  748.0000   136.6150     5.5330     5.7650    16.8680
  748.5000   137.0090     5.2920     5.5080    16.8680
  749.0000   136.5300     5.0510     5.2520    16.8680
  749.5000   135.2500     4.6660     4.9560    16.8680
  750.0000   134.6050     4.2610     4.5620    16.8680
  750.5000   135.8160     3.9680     4.1670    16.8680
  751.0000   135.3760     3.8410     4.0360    16.8680
  751.5000   133.5790     3.7320     3.9950    16.8680
  752.0000   131.7750     3.7670     3.9450    16.8680
  752.5000   130.2580     3.9700     4.0380    16.8680
  753.0000   130.1480     4.1880     4.3500    16.8680
  753.5000   130.0220     4.4070     4.6620    16.8680
  754.0000   130.3220     4.6260     4.9740    16.8680
  754.5000   132.2190     4.8540     5.2750    16.8680
  755.0000   134.0480     5.1950     5.5410    16.8680
  755.5000   135.8920     5.5350     5.8070    16.8680
  756.0000   136.0100     5.8750     6.0730    16.8680
  756.5000   134.6690     6.0890     6.2730    16.8680
  757.0000   132.3190     6.1770     6.3320    16.8680
  757.5000   129.6580     6.2650     6.4130    16.8680
  758.0000   127.2610     6.3520     6.5010    16.8680
  758.5000   129.7390     6.4180     6.5880    16.8680
  759.0000   132.3450     6.4670     6.6760    16.8680
  759.5000   132.6490     6.5160     6.7170    16.8680
  760.0000   131.6120     6.5650     6.7540    16.8680
  760.5000   131.0720     6.6140     6.7910    16.8680
  761.0000   134.2700     6.6630     6.8340    16.8680
  761.5000   137.4170     6.7120     6.8900    16.8680
  762.0000   137.1690     6.7570     6.9470    16.8680
  762.5000   136.8340     6.8150     7.0040    16.8680
  763.0000   138.7710     6.8690     7.0600    16.8680
  763.5000   139.2680     6.9230     7.1170    16.8680
  764.0000   135.7960     6.9470     7.1740    16.8680
  764.5000   132.8390     6.9470     7.2100    16.8680
  765.0000   134.3960     6.9470     7.2000    16.8680
  765.5000   136.0040     6.9470     7.1920    16.8680
  766.0000   136.9520     6.9470     7.1840    16.8680
  766.5000   137.3730     6.9470     7.1760    16.8680
  767.0000   137.2970     6.9470     7.1690    16.8680
  767.5000   136.5980     6.9470     7.1610    16.8680
  768.0000   136.0380     6.9470     7.1530    16.8680
  768.5000   137.2820     6.9470     7.1460    16.8680
  769.0000   138.2720     6.9320     7.1340    16.8680
  769.5000   136.7780     6.9010     7.1170    16.8680
  770.0000   135.2590     6.8700     7.0990    16.8680
  770.5000   133.8200     6.8390     7.0820    16.8680
  771.0000   133.2420     6.8080     7.0480    16.8680
  771.5000   132.8680     6.7760     7.0090    16.8680
  772.0000   133.9180     6.7190     6.9700    16.8680
  772.5000   134.9870     6.5710     6.8360    16.8680
  773.0000   134.0240     6.2910     6.5650    16.8680
  773.5000   130.3880     6.0230     6.2950    16.8680
  774.0000   127.4220     5.7350     6.0240    16.8680
  774.5000   133.3710     5.3970     5.6110    16.8680
  775.0000   139.4250     4.9720     5.1760    16.8680
  775.5000   141.4370     4.5360     4.7410    16.8680
  776.0000   138.3600     4.0660     4.3050    16.8680
  776.5000   131.8640     3.5630     3.7850    16.8680
  777.0000   129.9670     3.0430     3.2660    16.8680
  777.5000   129.3450     2.6170     2.7910    16.8680
  778.0000   131.3130     2.2760     2.4010    16.8680
  778.5000   137.8730     2.0930     2.2200    16.8680
  779.0000   140.9250     2.0060     2.0800    16.8680
  779.5000   137.0660     1.9680     2.0800    16.8680
  780.0000   126.3180     2.0510     2.1490    16.8680
  780.5000   117.0590     2.1490     2.2310    16.8680
  781.0000   125.2300     2.2850     2.4420    16.8680
  781.5000   136.6780     2.5840     2.8140    16.8680
  782.0000   142.8610     2.8820     3.1860    16.8680
  782.5000   145.8110     3.1800     3.5580    16.8680
  783.0000   146.4680     3.4970     3.8730    16.8680
  783.5000   146.7430     3.9170     4.2640    16.8680
  784.0000   146.9120     4.3380     4.6730    16.8680
  784.5000   147.0620     4.7580     4.9150    16.8680
  785.0000   147.1660     4.9290     5.0680    16.8680
  785.5000   146.6940     4.9750     5.0090    16.8680
  786.0000   145.9370     4.6990     4.8180    16.8680
  786.5000   144.5400     4.4930     4.5670    16.8680
  787.0000   143.2820     4.0770     4.3090    16.8680
  787.5000   145.7380     3.7670     4.0510    16.8680
  788.0000   148.3850     3.7670     3.8730    16.8680
  788.5000   150.4280     3.7670     3.8730    16.8680
  789.0000   149.1120     3.7670     3.8730    16.8680
  789.5000   146.1910     3.7670     3.8730    16.8680
  790.0000   143.2920     3.7670     4.0120    16.8680
  790.5000   140.7100     4.0170     4.2550    16.8680
  791.0000   143.1490     4.2730     4.4980    16.8680
  791.5000   145.8430     4.5280     4.7410    16.8680
  792.0000   146.3970     4.7840     4.9840    16.8680
  792.5000   145.1750     5.0390     5.2270    16.8680
  793.0000   143.1260     5.2950     5.5000    16.8680
  793.5000   142.0120     5.5500     5.7880    16.8680
  794.0000   141.0870     5.8060     6.0660    16.8680
  794.5000   140.1510     6.0230     6.2630    16.8680
  795.0000   139.1910     6.2240     6.4590    16.8680
  795.5000   139.6310     6.4250     6.6560    16.8680
  796.0000   143.7210     6.6320     6.8200    16.8680
  796.5000   147.8030     6.5580     6.7730    16.8680
  797.0000   150.8410     6.4300     6.6710    16.8680
  797.5000   151.9330     6.3010     6.5260    16.8930
  798.0000   153.1720     6.1730     6.3810    17.0070
  798.5000   154.7930     6.0560     6.2360    17.1210
  799.0000   154.8270     5.9560     6.1030    17.2350
  799.5000   154.3390     5.8550     5.9840    17.3490
  800.0000   152.1960     5.7540     5.8650    17.4630
  800.5000   150.1140     5.6420     5.7460    17.5770
  801.0000   151.4920     5.4400     5.5940    17.6910
  801.5000   153.2580     5.2370     5.3730    17.8050
  802.0000   152.1220     5.0340     5.1530    17.9190
  802.5000   150.0390     4.8320     4.9330    18.0330
