~VERSION INFORMATION
 VERS.                2.0:   CWLS LOG ASCII STANDARD - VERSION 2.0
 WRAP.                 NO:   ONE LINE PER DEPTH STEP
~WELL INFORMATION
#MNEM.UNIT      DATA TYPE    INFORMATION
#----------   ------------   ------------------------------
 STRT.F           13.0000:   START DEPTH
 STOP.F         2858.0000:   STOP DEPTH
 STEP.F            0.5000:   STEP LENGTH
 NULL.          -999.2500:   NO VALUE
 COMP.    FENIX & SCISSON:   COMPANY
 WELL. FENIX & SCISSON "AX" #16-21:   WELL
 FLD .  TEAPOT DOME NRP-3:   FIELD
 LOC .      S21 T39N R78W:   LOCATION
 CNTY.            NATRONA:   COUNTY
 STAT.            WYOMING:   STATE
 CTRY. UNITED STATES OF AMERICA:   COUNTRY
 SRVC.           BIRDWELL:   SERVICE COMPANY
 DATE.        17-JUL-1978:   LOGDATE
 API .     49025106590000:   API NUMBER
~CURVE INFORMATION
#MNEM.UNIT       API CODE    CURVE DESCRIPTION
#----------   ------------   ------------------------------
 DEPT.F                  :   
 GRD .GAPI   45 310 01 00:   GAMMA RAY FROM DENSITY LOG
 CALD.IN     45 280 60 00:   CALIPER FROM DENSITY LOG
 CORR.G/C3   45 356 01 00:   DENSITY CORRECTION
 RHOB.G/C3   45 350 01 00:   BULK DENSITY
 SPR .MV     05 010 01 00:   SPONTANEOUS POTENTIAL FROM RES.
 ILD .OHMM   05 120 46 00:   INDUCTION LOG DEEP
 SN  .OHMM   05 041 16 00:   SHORT NORMAL 16"
~PARAMETER INFORMATION
#MNEM.UNIT          VALUE    DESCRIPTION
#----------   ------------   ------------------------------
 EKB .F         5003.0000:   Kelly bushing
 EGL .F         4993.0000:   Ground level
 EDF .F            0.0000:   Drilling floor
 EPD .F         4993.0000:   Permanent datum
 TD  .F         2858.0000:   Total depth
 CLNT.            A2DTECH:   Client Code
 SL  . 1420' FSL & 200' FWL:   Surface Location
 DATE.        17-JUL-1978:   Date Logged [DD-MMM-YYYY]
 DD  .F              2855:   Depth driller
 DL  .F              2858:   Depth logger
 BLI .F              2858:   Bottom log interval
 TLI .F                20:   Top log interval
 CS1 .              8.625:   Casing size
 CBD1.      8.625" @ 200':   Casing driller 1
 CBL1.IN              228:   Casing logger 1
 BS1 .IN            7.875:   Bit size
 BSD1.F              2855:   Depth drilled with bit1
 DFT .            MUD GEL:   Type fluid in hole
 DFD .                9.9:   Density
 DFV .                 32:   Viscosity
 DFPH.               10.5:   pH
 DFL .                7.2:   Fluid loss
 MSS .           FLOWLINE:   Source of sample
 RMS .OHMM            1.3:   Rm
 MST .F                80:   Rm Meas. temp.
 RMF .OHMM           0.77:   Rmf
 MFST.F                74:   Rmf Meas. temp.
 MFSS.               MEAS:   Source Rmf.
 RMC .OHMM            1.5:   Rmc
 MCST.F                73:   Rmc Meas. temp.
 MCSS.               MEAS:   Source Rmc.
 TCS .HRS               1:   Time Circ. stopped
 MRT .F               118:   Maximum recorded temp.
 LUN .               2958:   Logging unit number
 LUL .               CASP:   Logging unit location
 ENGI.              HONEA:   Recorded By
 WITN.           MCGINLEY:   Witnessed by
 ORIG.        2" 5" PRINT:   Origin of data
 UWI .     49025106590000:   Unique Well ID
 DICO. A2D TECHNOLOGIES, INC.:   Digitizing Company
 PD  .                 GL:   Permanent Datum
 DAPD.                 10:   Feet Above Permanent Datum
~OTHER INFORMATION
~A   DEPT       GRD      CALD       CORR       RHOB        SPR        ILD         SN   
# ...
 1969.5000   108.1436     8.9277     0.0273     2.4627   -29.4218     6.7977     8.1148
 1970.0000   107.7089     8.0519     0.0215     2.4547   -29.4042     6.8486     8.9977
 1970.5000   103.8516     8.2164     0.0186     2.4531   -29.3866     6.7133     8.8160
 1971.0000    99.8454     8.5739     0.0157     2.4546   -29.5218     6.6705     8.6975
 1971.5000    97.7694     8.5302     0.0143     2.4674   -29.4998     6.5398     8.5217
 1972.0000    97.1902     8.2785     0.0159     2.4556   -29.4823     6.4981     8.4652
 1972.5000    98.4227     8.6063     0.0159     2.4526   -29.4647     6.5030     8.4669
 1973.0000   103.0201     8.3991     0.0175     2.4557   -29.5999     6.5069     8.5270
 1973.5000   103.1806     8.3406     0.0205     2.4616   -29.5779     6.5109     8.5289
 1974.0000   103.1923     8.3580     0.0428     2.4669   -29.4120     6.5597     8.5897
 1974.5000   103.6505     8.4693     0.0503     2.4647   -29.5428     6.6542     8.7703
 1975.0000   104.8527     8.4621     0.0385     2.4721   -29.3769     6.7502     8.9547
 1975.5000   110.5191     8.4481     0.0290     2.4885   -29.3591     6.8007     9.0182
 1976.0000   111.7184     8.6423     0.0401     2.4692   -29.3412     6.8517     9.0201
 1976.5000   106.8223     9.2968     0.0299     2.4574   -29.3234     6.9505     9.0841
 1977.0000   101.9233     8.2873     0.0225     2.4559   -29.3022     7.0507     9.2116
 1977.5000   100.7219     8.3181     0.0211     2.4746   -29.2846     7.1524     9.2770
 1978.0000   105.6669     8.1406     0.0212     2.4709   -29.2670     7.2060     9.3428
 1978.5000   106.2767     8.7656     0.0213     2.4605   -29.2495     7.2113     9.3447
 1979.0000   102.7921     8.3353     0.0246     2.4561   -29.3847     7.2653     9.3466
 1979.5000    97.9062     8.3364     0.0318     2.4673   -29.3627     7.4208     9.5431
 1980.0000   100.2107     8.3522     0.0215     2.4792   -29.3451     7.6841     9.7437
 1980.5000   103.1986     8.3976     0.0186     2.4874   -29.3276     7.7417     9.8851
 1981.0000   103.9514     8.3985     0.0187     2.4866   -29.3100     7.7464    10.0884
 1981.5000   103.6684     8.2641     0.0188     2.4754   -29.2924     7.5933    10.0908
 1982.0000   103.3795     9.1878     0.0188     2.4697   -29.2749     7.3925     9.8193
 1982.5000   102.6501     8.3566     0.0204     2.4698   -29.2573     7.1479     9.6874
 1983.0000   101.9148     8.3576     0.0190     2.4727   -29.2397     6.9113     9.4917
 1983.5000   103.8640     8.3585     0.0205     2.4743   -29.2221     6.5916     9.0480
 1984.0000   105.0662     8.3594     0.0206     2.4758   -29.2046     6.3734     8.5660
 1984.5000   104.7803     8.3603     0.0207     2.4736   -29.1869     6.3336     8.1097
 1985.0000   103.7503     8.3909     0.0222     2.4617   -29.1691     6.3812     8.0558
 1985.5000   104.2084     8.4066     0.0386     2.4499   -29.1514     6.3851     7.8931
 1986.0000   104.6666     8.4223     0.0816     2.4395   -29.1335     6.3925     7.8947
 1986.5000   104.5294     8.4232     0.0802     2.4351   -29.2651     6.4369     8.4577
 1987.0000   103.7173     8.4092     0.0403     2.4812   -29.2431     6.4417     8.8153
 1987.5000   100.3891     8.3655     0.0137     2.5035   -29.3783     6.4899     8.5782
 1988.0000   103.5258     8.4811     0.0182     2.4887   -29.3564     6.4495     8.4011
 1988.5000   100.5584     9.9869     0.0287     2.4843   -29.4915     6.1092     8.2844
 1989.0000   103.9956     8.3509     0.0302     2.4947   -29.6223     5.8266     7.8506
 1989.5000   104.7485     8.3098     0.0303     2.5000   -29.7531     5.6337     7.2310
 1990.0000   100.4476     8.3107     0.0335     2.4985   -29.8795     5.4847     6.7989
 1990.5000    98.0754     8.3116     0.0396     2.4971   -29.7136     5.3397     6.7534
 1991.0000   101.0662     8.3125     0.0542     2.4949   -29.6960     5.2342     6.8485
 1991.5000   106.2863     8.3282     0.0825     2.4919   -29.6785     5.1653     6.8971
 1992.0000   107.2615     8.3588     0.0929     2.4912   -29.6609     5.1332     6.8985
 1992.5000   100.0597     8.3743     0.0470     2.5345   -29.6433     5.1724     6.8524
 1993.0000   104.7023     8.1525     0.0367     2.5486   -29.6258     5.1755     6.7140
 1993.5000   106.1843     8.5992     0.0457     2.5448   -29.6082     5.1787     6.7157
 1994.0000   101.0002     8.4812     0.0413     2.5189   -29.5905     5.1818     6.7633
 1994.5000    95.0470     8.4375     0.0385     2.5237   -29.5727     5.1850     6.8583
 1995.0000    98.1866     8.4383     0.0415     2.5175   -29.5549     5.1882     6.9069
 1995.5000   104.4483     8.4213     0.0623     2.4833   -29.5371     5.1914     6.9559
 1996.0000   103.1207     8.7521     0.0772     2.4715   -29.5159     5.1952     6.9574
 1996.5000   102.6830     8.4855     0.0595     2.4990   -29.4984     5.3429     6.9591
 1997.0000   103.8881     8.4866     0.0240     2.5154   -29.4808     5.5325     6.9605
 1997.5000   109.4058     8.5024     0.0285     2.5191   -29.4632     5.6897     6.9619
 1998.0000   110.7568     9.0380     0.0538     2.4932   -29.4457     5.8114     7.1083
 1998.5000   110.7685     8.6230     0.0598     2.4835   -29.2797     5.8549     7.5113
 1999.0000   111.2266     8.5793     0.0436     2.5118   -29.1138     5.8979     7.6693
 1999.5000   106.3276     8.5802     0.0229     2.5341   -29.0962     5.8220     7.6708
 2000.0000   103.8095     8.5959     0.0126     2.5186   -28.9303     5.8256     7.6147
 2000.5000   103.9700     8.7157     0.0127     2.4807   -28.9127     5.8692     7.5911
 2001.0000   102.5802     8.7463     0.0173     2.4785   -28.8951     5.8728     7.5956
 2001.5000    98.7851     8.5688     0.0187     2.4793   -28.8776     5.8763     7.5471
 2002.0000   103.5616     8.6886     0.0185     2.4831   -28.8571     5.8397     7.3965
 2002.5000   102.6805     8.7786     0.0085     2.4847   -28.8811     5.8433     7.1993
 2003.0000    95.8469     8.5989     0.0041     2.4868   -28.9108     5.8871     7.1534
 2003.5000    92.4360     8.5723     0.0131     2.4809   -28.9406     5.8907     7.4078
 2004.0000    90.4760     8.6031     0.0206     2.4638   -28.9703     5.8943     7.8303
 2004.5000    92.2950     8.6337     0.0236     2.4542   -29.0001     5.9906     7.8339
 2005.0000    97.1871     8.6049     0.0237     2.4527   -29.0245     5.9954     7.8376
 2005.5000    95.8570     8.5907     0.0179     2.4595   -29.1484     5.8356     7.7343
 2006.0000    95.5649     8.6215     0.0061     2.4692   -29.2760     5.6725     7.4253
 2006.5000    96.0205     8.6521     0.0150     2.4708   -29.4038     5.3135     7.0313
 2007.0000    97.3671     9.5592     0.0314     2.4633   -29.3828     5.1035     6.7042
 2007.5000    98.5650     8.5796     0.0419     2.4574   -29.3583     4.9019     6.4778
 2008.0000    96.1914     8.5359     0.0419     2.4695   -29.3381     4.8381     6.1236
 2008.5000    93.8159     8.5367     0.0399     2.4832   -29.3178     4.8762     5.8520
 2009.0000    93.8251     8.5376     0.0370     2.4991   -29.2976     4.9137     5.8140
 2009.5000    92.7908     8.5534     0.0341     2.5080   -28.9806     4.9177     5.8174
 2010.0000    92.0522     8.5542     0.0313     2.5110   -28.6637     4.9216     5.8202
 2010.5000    97.4185     8.5561     0.0358     2.4672   -28.3467     4.9256     6.4553
 2011.0000    97.2768     8.5580     0.0551     2.4576   -28.1780     4.8959     7.0620
 2011.5000    97.5820     8.5569     0.0669     2.4754   -28.1573     4.6712     6.7798
 2012.0000   105.1787     8.5134     0.0507     2.4992   -28.2860     4.3954     6.2460
 2012.5000   103.8467     8.4695     0.0211     2.5119   -28.2607     4.0516     5.5217
 2013.0000   101.1279     9.2135     0.0152     2.4852   -28.3939     3.7604     4.8118
 2013.5000    96.4209     8.6497     0.0242     2.4674   -28.5170     3.4902     4.6870
 2014.0000   100.4461     8.5020     0.0153     2.4756   -28.7935     3.3294     4.3179
 2014.5000    95.0982     8.4730     0.0154     2.4734   -29.0700     3.2636     3.9507
