~VERSION INFORMATION
 VERS.                2.0:   CWLS LOG ASCII STANDARD - VERSION 2.0
 WRAP.                 NO:   ONE LINE PER DEPTH STEP
~WELL INFORMATION
#MNEM.UNIT      DATA TYPE    INFORMATION
#----------   ------------   ------------------------------
 STRT.F          216.0000:   START DEPTH
 STOP.F         3241.0000:   STOP DEPTH
 STEP.F            0.5000:   STEP LENGTH
 NULL.          -999.2500:   NO VALUE
 COMP.    FENIX & SCISSON:   COMPANY
 WELL.    FENIX "A" #72-4:   WELL
 FLD .             NPR #3:   FIELD
 LOC .       S4 T38N R78W:   LOCATION
 CNTY.            NATRONA:   COUNTY
 STAT.            WYOMING:   STATE
 CTRY. UNITED STATES OF AMERICA:   COUNTRY
 SRVC.              WELEX:   SERVICE COMPANY
 DATE.        09-JUL-1977:   LOGDATE
 API .     49025103900000:   API NUMBER
~CURVE INFORMATION
#MNEM.UNIT       API CODE    CURVE DESCRIPTION
#----------   ------------   ------------------------------
 DEPT.F                  :   
 CORR.G/C3   45 356 01 00:   DENSITY CORRECTION
 GRD .GAPI   45 310 01 00:   GAMMA RAY FROM DENSITY LOG
 RHOB.G/C3   45 350 01 00:   BULK DENSITY
 CALD.IN     45 280 60 00:   CALIPER FROM DENSITY LOG
 SPR .MV     07 010 01 00:   SPONTANEOUS POTENTIAL
 ILD .OHMM   07 120 46 00:   DEEP INDUCTION RESISTIVITY
 ILM .OHMM   07 120 44 00:   INDUCTION LOG MEDIUM RESISTIVITY
 SGRD.OHMM   07 220 05 00:   SHALLOW SHORT GUARD RESISTIVITY
~PARAMETER INFORMATION
#MNEM.UNIT          VALUE    DESCRIPTION
#----------   ------------   ------------------------------
 EKB .F         5192.0000:   Kelly bushing
 EGL .F         5182.0000:   Ground level
 TD  .F         3243.0000:   Total depth
 CLNT.            A2DTECH:   Client Code
 SL  . 990' FNL & 990' FEL:   Surface Location
 PD  .                 GL:   Permanent Datum
 EPD .F              5182:   Elevation Permanent Datum
 LMF .                 KB:   Log Measured From
 DMF .                 KB:   Drilling Measured From
 DAPD.F                10:   Feet Above Permanent Datum
 DATE.        09-JUL-1977:   Date Logged [DD-MMM-YYYY]
 DD  .F              3230:   Depth driller
 DL  .F              3243:   Depth logger
 BLI .F              3241:   Bottom log interval
 TLI .F               224:   Top log interval
 CS1 .IN            8.625:   Casing size
 CBD1.      8.625" @ 221':   Casing driller 1
 CBL1.F               224:   Casing logger 1
 BS1 .IN            7.875:   Bit size
 BSD1.F              3230:   Depth drilled with bit1
 DFT .                KCL:   Type fluid in hole
 DFD .                8.9:   Density
 DFV .                 44:   Viscosity
 DFPH.                7.5:   pH
 DFL .                5.8:   Fluid loss
 MSS .            MUD PIT:   Source of sample
 RMS .OHMM           0.24:   Rm
 MST .F                68:   Rm Meas. temp.
 RMF .OHMM           0.20:   Rmf
 MFST.F                68:   Rmf Meas. temp.
 MFSS.               MEAS:   Source Rmf.
 RMC .OHMM           0.31:   Rmc
 MCST.F                68:   Rmc Meas. temp.
 MCSS.               MEAS:   Source Rmc.
 RMB .OHMM           0.13:   Rm. at BHT
 BHT .F               117:   BHT.
 TCS .HRS               3:   Time Circ. stopped
 MRT .F               117:   Maximum recorded temp.
 LUN .               8766:   Logging unit number
 LUL .             CASPER:   Logging unit location
 ENGI.          T. JOYNER:   Recorded By
 WITN.         HARRINGTON:   Witnessed by
 ORIG.           5" PRINT:   Origin of data
 UWI .     49025103900000:   Unique Well ID
 DICO. A2D TECHNOLOGIES, INC.:   Digitizing Company
~OTHER INFORMATION
~A   DEPT     CORR         GRD        RHOB     CALD        SPR        ILD        ILM       SGRD   
# ...
 1998.0000     0.0125   167.6923     2.4280     8.4581   -66.9602    12.9169    27.9003    17.9065
 1998.5000     0.0133   165.0389     2.4340     8.4742   -67.0145    12.7492    27.9192    16.7151
 1999.0000     0.0156   162.6837     2.4408     8.4754   -67.1390    12.7623    27.5533    16.6145
 1999.5000     0.0187   159.1362     2.4491     8.5064   -67.2817    12.5940    26.8201    17.2704
 2000.0000     0.0217   155.8867     2.4544     8.5076   -67.2577    12.4305    26.1055    17.7756
 2000.5000     0.0218   155.3199     2.4636     8.5087   -67.6006    12.2692    25.3947    17.9192
 2001.0000     0.0215   155.6472     2.4671     8.5248   -67.7999    12.1124    24.5948    17.8145
 2001.5000     0.0202   154.7822     2.4589     8.5132   -67.8745    11.7904    22.4612    16.9935
 2002.0000     0.0182   154.8188     2.4575     8.4966   -68.5265    11.6373    21.8614    15.7625
 2002.5000     0.0168   153.6558     2.4613     8.4979   -68.6293    11.2418    22.3727    14.6206
 2003.0000     0.0184   151.5989     2.4658     8.4989   -68.8430    11.3281    23.6746    14.2323
 2003.5000     0.0185   150.7336     2.4763     8.4999   -68.8301    11.4164    24.8104    14.8573
 2004.0000     0.0208   144.5033     2.4856     8.5158   -68.8278    11.5037    24.6543    15.7221
 2004.5000     0.0216   143.6308     2.4914     8.5318   -69.0423    11.5917    23.3408    16.6372
 2005.0000     0.0201   143.9345     2.4892     8.5330   -69.2422    11.5996    21.4940    16.8881
 2005.5000     0.0172   144.8882     2.4907     8.5340   -69.2823    11.4475    18.8574    16.9065
 2006.0000     0.0150   144.9180     2.4967     8.5500   -69.2583    11.2954    15.9816    16.5765
 2006.5000     0.0136   145.5492     2.4990     8.5659   -69.3699    10.9955    14.2166    15.4827
 2007.0000     0.0129   141.7033     2.4990     8.5819   -69.4631    10.7762    13.6468    14.3611
 2007.5000     0.0130   140.8308     2.4960     8.5679   -69.5598    10.4883    13.2823    13.6955
 2008.0000     0.0116   145.0399     2.4901     8.5690   -69.6577    10.2080    12.8385    13.5216
 2008.5000     0.0086   146.8572     2.4774     8.5700   -69.7553     9.8611    12.5824    13.7330
 2009.0000     0.0072   147.7803     2.4595     8.5712   -69.8529     9.4599    12.4170    13.9465
 2009.5000     0.0073   148.1073     2.4528     8.5723   -69.9504     9.2021    12.2538    13.8550
 2010.0000     0.0088   147.8381     2.4588     8.5733   -70.0480     8.9107    12.0112    13.4906
 2010.5000     0.0127   149.3645     2.4716     8.5743   -70.1457     8.7315    11.7698    13.2273
 2011.0000     0.0150   148.4921     2.4792     8.5753   -70.2434     8.4997    11.0676    13.1466
 2011.5000     0.0165   151.2107     2.4769     8.5614   -70.3405     8.3868    10.2627    13.2562
 2012.0000     0.0196   148.2590     2.4799     8.5624   -70.4263     8.1641     9.9197    13.2707
 2012.5000     0.0206   147.9827     2.4890     8.5784   -70.4525     8.0570     9.7893    12.7437
 2013.0000     0.0220   150.7014     2.4935     8.5644   -70.4808     8.0625     9.8633    12.2377
 2013.5000     0.0228   148.9419     2.4958     8.5505   -70.5092     8.0680    10.0764    11.7517
 2014.0000     0.0228   148.3747     2.4951     8.5219   -70.5375     8.0734    10.3655    12.1797
 2014.5000     0.0207   146.6225     2.4844     8.5229   -70.5658     8.0790    10.5895    12.6232
 2015.0000     0.0170   146.0480     2.4697     8.5240   -70.5942     8.1977    10.6697    12.9925
 2015.5000     0.0141   148.7667     2.4622     8.5250   -70.6225     8.3191    10.7517    13.2802
 2016.0000     0.0119   145.8150     2.4585     8.5260   -70.6509     8.4411    10.8330    13.3898
 2016.5000     0.0112   146.7381     2.4593     8.5270   -70.6792     8.5057    10.8396    13.5893
 2017.0000     0.0113   144.9787     2.4624     8.5283   -70.7076     8.5700    10.7698    13.6044
 2017.5000     0.0122   141.7289     2.4676     8.4994   -70.7359     8.6965    10.7037    13.4311
 2018.0000     0.0137   142.0885     2.4730     8.4703   -70.7644     8.7024    10.6347    13.1725
 2018.5000     0.0145   142.6809     2.4789     8.4673   -70.7926     8.7083    10.5678    13.0922
 2019.0000     0.0153   141.2267     2.4752     8.4574   -70.8126     8.5941    10.6493    13.1101
 2019.5000     0.0146   140.3542     2.4723     8.4587   -70.7836     8.4813    10.5487    13.2158
 2020.0000     0.0139   139.7870     2.4723     8.4448   -70.7544     8.3701    10.5158    13.1388
 2020.5000     0.0162   140.7173     2.4768     8.4458   -70.7254     8.3760    10.5223    12.9720
 2021.0000     0.0179   142.3732     2.4881     8.4620   -70.6964     8.3818    10.5289    12.7187
 2021.5000     0.0209   143.4577     2.4994     8.4630   -70.6674     8.3887    10.5659    12.7326
 2022.0000     0.0224   144.0835     2.5133     8.4640   -70.6384     8.3944    10.6163    12.8353
 2022.5000     0.0225   143.5228     2.5256     8.4650   -70.6094     8.2843    10.5479    13.0288
 2023.0000     0.0211   142.9556     2.5227     8.4661   -70.5804     8.2326    10.5560    13.0506
 2023.5000     0.0211   143.5806     2.5190     8.4671   -70.5514     8.1798    10.5624    12.7884
 2024.0000     0.0227   144.5037     2.5130     8.4830   -70.5224     8.1203    10.7161    12.6260
 2024.5000     0.0243   145.1288     2.5078     8.4840   -70.4933     8.0372    10.7227    12.9245
 2025.0000     0.0258   145.4557     2.5064     8.4851   -70.4643     7.9274    10.7292    13.4692
 2025.5000     0.0259   146.0808     2.5064     8.4863   -70.4353     7.7604    10.4427    13.5809
 2026.0000     0.0260   144.5963     2.5057     8.4881   -70.4063     7.6586     9.8863    13.0416
 2026.5000     0.0275   145.2516     2.5057     8.5182   -70.3773     7.5582     9.2205    12.1810
 2027.0000     0.0276   146.1748     2.5058     8.5192   -70.3483     7.4593     8.9125    11.2986
 2027.5000     0.0277   146.2037     2.5066     8.5202   -70.3193     7.3612     8.7445    11.2328
 2028.0000     0.0277   145.3384     2.5073     8.5212   -70.2903     7.3675     9.1222    10.7122
 2028.5000     0.0278   145.6654     2.5111     8.4919   -70.2613     7.3718     9.7143    11.2574
 2029.0000     0.0294   146.2904     2.5165     8.4635   -70.2323     7.3769    10.0624    12.8570
 2029.5000     0.0309   147.8097     2.5149     8.4648   -70.2033     7.4857    10.2797    13.1417
 2030.0000     0.0310   147.7796     2.5097     8.4658   -70.1743     7.5955    10.3574    12.6198
 2030.5000     0.0251   144.5960     2.4903     8.4668   -70.1453     7.7069    10.5082    12.2030
 2031.0000     0.0175   144.0216     2.4709     8.4678   -70.1163     7.7882    10.5146    12.4732
 2031.5000     0.0132   145.8461     2.4507     8.4754   -70.0872     7.8965    10.3764    12.5746
 2032.0000     0.0133   144.6828     2.4455     8.4848   -70.0582     7.9954    10.2400    12.2387
 2032.5000     0.0156   143.8175     2.4518     8.5007   -70.0292     8.0566    10.1054    11.9119
 2033.0000     0.0164   144.1445     2.4703     8.5316   -70.0002     8.0622    10.0419    11.7698
 2033.5000     0.0165   145.3656     2.4666     8.5329   -69.9712     8.0117    10.1193    12.2866
 2034.0000     0.0151   144.7829     2.4561     8.5488   -69.9422     8.0185    10.2666    12.7341
 2034.5000     0.0136   143.0390     2.4517     8.5349   -69.9132     7.9685    10.3442    12.9261
 2035.0000     0.0122   143.9693     2.4495     8.5359   -69.8841     7.9525    10.4224    13.0302
 2035.5000     0.0123   144.8924     2.4488     8.5217   -69.8552     7.8693    10.2854    13.0445
 2036.0000     0.0116   145.5174     2.4572     8.5081   -69.8279     7.8379    10.2917    12.8753
 2036.5000     0.0117   144.9430     2.4631     8.5091   -69.7630     7.7701    10.0864    12.6274
 2037.0000     0.0125   144.9791     2.4646     8.5101   -69.6926     7.7767     9.9538    12.2954
 2037.5000     0.0133   145.6042     2.4654     8.5114   -69.6216     7.6746     9.8230    12.1359
 2038.0000     0.0141   143.2486     2.4714     8.5124   -69.5507     7.6799     9.8290    11.9017
