~VERSION INFORMATION
 VERS.                2.0:   CWLS LOG ASCII STANDARD - VERSION 2.0
 WRAP.                 NO:   ONE LINE PER DEPTH STEP
~WELL INFORMATION
#MNEM.UNIT      DATA TYPE    INFORMATION
#----------   ------------   ------------------------------
 STRT.F            8.0000:   START DEPTH
 STOP.F         3021.0000:   STOP DEPTH
 STEP.F            0.5000:   STEP LENGTH
 NULL.          -999.2500:   NO VALUE
 COMP. LAWRENCE ALLISON & ASSOCIATES W:   COMPANY
 WELL. LAWRENCE ALLISON #68-28:   WELL
 FLD .              NPR 3:   FIELD
 LOC .      S28 T39N R78W:   LOCATION
 CNTY.            NATRONA:   COUNTY
 STAT.            WYOMING:   STATE
 CTRY. UNITED STATES OF AMERICA:   COUNTRY
 SRVC.      DRESSER ATLAS:   SERVICE COMPANY
 DATE.        19-DEC-1986:   LOGDATE
 API .     49025111580000:   API NUMBER
~CURVE INFORMATION
#MNEM.UNIT       API CODE    CURVE DESCRIPTION
#----------   ------------   ------------------------------
 DEPT.F                  :   
 SPR .MV     07 010 01 00:   SPONTANEOUS POTENTIAL
 TENR.LBS    07 635 01 00:   TENSION FROM RESISTIVITY
 RILD.OHMM   07 120 46 00:   DEEP INDUCTION RESISTIVITY
 RILM.OHMM   07 120 44 00:   INDUCTION LOG MEDIUM RESISTIVITY
 RFOC.OHMM   07 220 04 00:   RESISTIVITY FOCUSED LOG RES.
 CALD.IN     45 280 60 00:   CALIPER FROM DENSITY LOG
 CORR.G/C3   45 356 01 00:   DENSITY CORRECTION
 RHOB.G/C3   45 350 01 00:   BULK DENSITY
 CNC .DEC    42 890 03 00:   NEUTRON POROSITY SANDSTONE
 GRR .GAPI   07 310 01 00:   GAMMA RAY FROM RESISTIVITY
~PARAMETER INFORMATION
#MNEM.UNIT          VALUE    DESCRIPTION
#----------   ------------   ------------------------------
 EKB .F         5106.0000:   Kelly bushing
 EGL .F         5094.0000:   Ground level
 EDF .F            0.0000:   Drilling floor
 EPD .F         5094.0000:   Permanent datum
 TD  .F         3010.0000:   Total depth
 CLNT.            A2DTECH:   Client Code
 SL  . 1559'EL & 533' FSL:   Surface Location
 DATE.        19-DEC-1986:   Date Logged [DD-MMM-YYYY]
 DD  .F              3003:   Depth driller
 DL  .F              3010:   Depth logger
 BLI .F              3007:   Bottom log interval
 TLI .F                 0:   Top log interval
 CS1 .              8.625:   Casing size
 CBD1.      8.625" @ 389':   Casing driller 1
 CBL1.IN              405:   Casing logger 1
 BS1 .IN            7.875:   Bit size
 BSD1.F              3003:   Depth drilled with bit1
 DFT .        KCL POLYMER:   Type fluid in hole
 DFD .                9.0:   Density
 DFV .                 42:   Viscosity
 DFPH.                9.3:   pH
 DFL .                8.8:   Fluid loss
 MSS .           FLOWLINE:   Source of sample
 RMS .OHMM          0.484:   Rm
 MST .F                68:   Rm Meas. temp.
 RMF .OHMM          0.392:   Rmf
 MFST.F                68:   Rmf Meas. temp.
 MFSS.               MEAS:   Source Rmf.
 RMC .OHMM          0.605:   Rmc
 MCST.F                68:   Rmc Meas. temp.
 MCSS.               CALC:   Source Rmc.
 RMB .OHMM          0.269:   Rm. at BHT
 BHT .F               122:   BHT.
 TCS .HRS             3.5:   Time Circ. stopped
 MRT .F               122:   Maximum recorded temp.
 LUN .            HL-6274:   Logging unit number
 LUL .           GILLETTE:   Logging unit location
 ENGI.             RAUTIO:   Recorded By
 WITN.             STRONG:   Witnessed by
 ORIG.        2" 5" PRINT:   Origin of data
 UWI .     49025111580000:   Unique Well ID
 DICO. A2D TECHNOLOGIES, INC.:   Digitizing Company
~OTHER INFORMATION
~A    DEPT     SPR       TENR       RILD       RILM       RFOC       CALD       CORR       RHOB        CNC        GRR   
# ...
 1247.5000   -38.8456   -80.4682     7.1438     6.9740     6.6567  -999.2500  -999.2500  -999.2500  -999.2500   109.3829
 1248.0000   -38.6895   -80.1650     7.1939     6.9720     6.6019  -999.2500  -999.2500  -999.2500  -999.2500   105.4848
 1248.5000   -38.5252   -79.8601     7.0891     6.8704     6.5477  -999.2500  -999.2500  -999.2500  -999.2500   103.6983
 1249.0000   -38.3775   -79.5490     6.9360     6.7702     6.4472  -999.2500  -999.2500  -999.2500  -999.2500   105.5667
 1249.5000   -38.3775   -79.1796     6.7375     6.7193     6.3483  -999.2500  -999.2500  -999.2500  -999.2500   107.6727
 1250.0000   -38.5335   -78.8764     6.6877     6.6692     6.5742  -999.2500  -999.2500  -999.2500  -999.2500   109.5062
 1250.5000   -38.8456   -78.5731     6.6863     6.6673     6.7230  -999.2500  -999.2500  -999.2500  -999.2500   111.0748
 1251.0000   -39.3136   -78.2700     6.6849     6.7626     6.8684  -999.2500  -999.2500  -999.2500  -999.2500   113.1929
 1251.5000   -39.6256   -77.9667     6.9287     7.0081     6.9704  -999.2500  -999.2500  -999.2500  -999.2500   118.6554
 1252.0000   -39.7816   -77.6635     7.0787     7.1083     6.9724  -999.2500  -999.2500  -999.2500  -999.2500   119.8865
 1252.5000   -39.9376   -78.5391     6.9175     6.9040     6.9238  -999.2500  -999.2500  -999.2500  -999.2500   113.2908
 1253.0000   -39.7816   -78.4604     6.6789     6.6580     6.6813  -999.2500  -999.2500  -999.2500  -999.2500   108.7986
 1253.5000   -39.6256   -86.1625     6.5347     6.5610     6.4006  -999.2500  -999.2500  -999.2500  -999.2500   108.2197
 1254.0000   -39.4696   -78.2911     6.4867     6.7503     6.4024  -999.2500  -999.2500  -999.2500  -999.2500   112.1821
 1254.5000   -39.1306   -78.2148     6.6747     6.9456     6.4505  -999.2500  -999.2500  -999.2500  -999.2500   114.6280
 1255.0000   -38.5335   -78.1385     6.8685     7.0953     6.5933  -999.2500  -999.2500  -999.2500  -999.2500   112.5490
 1255.5000   -38.2913   -78.0622     7.0679     7.0933     6.7879  -999.2500  -999.2500  -999.2500  -999.2500   108.5804
 1256.0000   -37.9716   -85.7810     7.0661     6.9899     6.8883  -999.2500  -999.2500  -999.2500  -999.2500   102.4990
 1256.5000   -37.6519   -85.6856     6.8639     6.9443     7.0407  -999.2500  -999.2500  -999.2500  -999.2500    99.0723
 1257.0000   -37.4883   -85.6094     6.7642     6.8930     7.1965  -999.2500  -999.2500  -999.2500  -999.2500    99.4147
 1257.5000   -37.4805   -93.3126     6.6660     6.7930     7.1985  -999.2500  -999.2500  -999.2500  -999.2500   101.5590
 1258.0000   -37.4727   -93.2328     6.6646     6.7428     7.0915  -999.2500  -999.2500  -999.2500  -999.2500   105.2115
 1258.5000   -37.7773   -93.1565     6.5678     6.6930     6.8490  -999.2500  -999.2500  -999.2500  -999.2500   106.7525
 1259.0000   -38.3917   -93.0793     6.4260     6.5016     6.8013  -999.2500  -999.2500  -999.2500  -999.2500   104.3718
 1259.5000   -39.1641   -93.0015     6.1085     6.2253     6.7544  -999.2500  -999.2500  -999.2500  -999.2500    99.2763
 1260.0000   -39.6244  -100.7037     6.0634     6.0039     6.8057  -999.2500  -999.2500  -999.2500  -999.2500   100.5155
 1260.5000   -39.9307   -92.8322     6.0621     6.0460     6.7583  -999.2500  -999.2500  -999.2500  -999.2500   104.4697
 1261.0000   -39.9211   -92.7559     6.1047     6.0447     6.6162  -999.2500  -999.2500  -999.2500  -999.2500   109.6306
 1261.5000   -39.6014   -92.6796     6.1034     6.0358     6.2927  -999.2500  -999.2500  -999.2500  -999.2500   114.7914
 1262.0000   -39.4378   -92.6033     6.1021     5.9985     6.2489  -999.2500  -999.2500  -999.2500  -999.2500   116.0307
 1262.5000   -39.2741   -92.5270     6.1007     5.9972     6.3418  -999.2500  -999.2500  -999.2500  -999.2500   115.1584
 1263.0000   -39.1104   -92.4508     6.0991     5.9959     6.3894  -999.2500  -999.2500  -999.2500  -999.2500   110.3048
 1263.5000   -38.9467   -92.3744     6.0979     5.9947     6.3912  -999.2500  -999.2500  -999.2500  -999.2500   107.6822
 1264.0000   -38.9391   -92.2982     6.0966     5.9934     6.3472  -999.2500  -999.2500  -999.2500  -999.2500   111.9462
 1264.5000   -38.9313   -92.2218     6.1393     5.9921     6.3021  -999.2500  -999.2500  -999.2500  -999.2500   113.4871
 1265.0000   -38.7675   -92.1456     6.1824     5.9909     6.2599  -999.2500  -999.2500  -999.2500  -999.2500   109.2965
 1265.5000   -38.7598   -92.0685     6.1811     5.9896     6.2695  -999.2500  -999.2500  -999.2500  -999.2500   110.8375
 1266.0000   -38.9084   -91.9907     6.2245     5.9883     6.4007  -999.2500  -999.2500  -999.2500  -999.2500   115.3950
 1266.5000   -38.8988   -91.8976     6.1785     5.9871     6.4954  -999.2500  -999.2500  -999.2500  -999.2500   121.1592
 1267.0000   -38.8912   -91.8213     6.1772     5.9858     6.5915  -999.2500  -999.2500  -999.2500  -999.2500   124.2084
 1267.5000   -38.8835   -91.7450     6.1315     5.9845     6.6410  -999.2500  -999.2500  -999.2500  -999.2500   120.3195
 1268.0000   -39.0338   -91.6687     6.0862     5.9829     6.5479  -999.2500  -999.2500  -999.2500  -999.2500   115.8272
 1268.5000   -39.0242   -91.5924     6.0849     6.0252     6.5023  -999.2500  -999.2500  -999.2500  -999.2500   111.9383
 1269.0000   -39.0165   -91.5161     6.0836     6.0675     6.4575  -999.2500  -999.2500  -999.2500  -999.2500   110.7643
 1269.5000   -38.8528   -91.4398     6.1263     6.1100     6.5065  -999.2500  -999.2500  -999.2500  -999.2500   110.4948
 1270.0000   -38.8452   -91.3635     6.1693     6.1970     6.6027  -999.2500  -999.2500  -999.2500  -999.2500   110.5279
 1270.5000   -38.6815   -91.2872     6.2126     6.2859     6.7488  -999.2500  -999.2500  -999.2500  -999.2500   110.8828
 1271.0000   -38.5178   -91.2109     6.2110     6.3300     6.8982  -999.2500  -999.2500  -999.2500  -999.2500   112.4845
 1271.5000   -38.5102   -91.1346     6.2097     6.3284     6.9500  -999.2500  -999.2500  -999.2500  -999.2500   116.0638
 1272.0000   -38.3463   -91.0575     6.2083     6.2816     6.8982  -999.2500  -999.2500  -999.2500  -999.2500   120.9230
 1272.5000   -38.1825   -90.9798     6.2070     6.1461     6.7980  -999.2500  -999.2500  -999.2500  -999.2500   121.5508
 1273.0000   -37.8612   -90.9020     6.2509     6.0569     6.6617  -999.2500  -999.2500  -999.2500  -999.2500   118.2734
 1273.5000   -37.6975   -90.8103     6.2493     6.0597     6.6641  -999.2500  -999.2500  -999.2500  -999.2500   114.9878
 1274.0000   -37.6899   -90.7340     6.2479     6.1498     6.7142  -999.2500  -999.2500  -999.2500  -999.2500   112.3055
 1274.5000   -38.1502   -90.6577     6.2918     6.3203     6.7646  -999.2500  -999.2500  -999.2500  -999.2500   110.5282
 1275.0000   -38.6125   -90.5814     6.3818     6.4106     6.8154  -999.2500  -999.2500  -999.2500  -999.2500   109.6558
 1275.5000   -39.2269   -90.5051     6.4266     6.5489     6.8666  -999.2500  -999.2500  -999.2500  -999.2500   108.7835
 1276.0000   -39.6873   -90.4288     6.5254     6.6905     6.8188  -999.2500  -999.2500  -999.2500  -999.2500   108.5063
 1276.5000   -39.8376   -90.3526     6.6592     6.8352     6.7718  -999.2500  -999.2500  -999.2500  -999.2500   109.7537
 1277.0000   -39.9859   -90.2762     6.8037     6.8835     6.8725  -999.2500  -999.2500  -999.2500  -999.2500   111.8980
 1277.5000   -39.8203   -90.2000     6.9006     6.9314     6.8744  -999.2500  -999.2500  -999.2500  -999.2500   114.0422
 1278.0000   -39.3446   -90.1236     6.9993     6.9804     6.9260  -999.2500  -999.2500  -999.2500  -999.2500   113.3316
 1278.5000   -38.7129   -90.0467     7.0488     7.0290     7.0285  -999.2500  -999.2500  -999.2500  -999.2500   108.5985
 1279.0000   -38.3931   -89.9689     7.0983     7.0275     7.0813  -999.2500  -999.2500  -999.2500  -999.2500   106.9003
 1279.5000   -38.2294   -89.8757     7.0964     7.0260     6.9820  -999.2500  -999.2500  -999.2500  -999.2500   109.0527
 1280.0000   -38.0640   -89.7994     7.0949     7.0244     7.1370  -999.2500  -999.2500  -999.2500  -999.2500   110.2920
 1280.5000   -38.0563   -89.7231     7.0424     6.9723     7.4008  -999.2500  -999.2500  -999.2500  -999.2500   108.2130
