~VERSION INFORMATION
 VERS.                2.0:   CWLS LOG ASCII STANDARD - VERSION 2.0
 WRAP.                 NO:   ONE LINE PER DEPTH STEP
~WELL INFORMATION
#MNEM.UNIT      DATA TYPE    INFORMATION
#----------   ------------   ------------------------------
 STRT.F          200.0000:   START DEPTH
 STOP.F         3142.0000:   STOP DEPTH
 STEP.F            0.5000:   STEP LENGTH
 NULL.          -999.2500:   NO VALUE
 COMP.    FENIX & SCISSON:   COMPANY
 WELL.  FENIX "AX" #37-10:   WELL
 FLD .              NPR-3:   FIELD
 LOC .      S10 T38N R78W:   LOCATION
 CNTY.            NATRONA:   COUNTY
 STAT.            WYOMING:   STATE
 CTRY. UNITED STATES OF AMERICA:   COUNTRY
 SRVC.              WELEX:   SERVICE COMPANY
 DATE.        19-SEP-1977:   LOGDATE
 API .     49025104190000:   API NUMBER
~CURVE INFORMATION
#MNEM.UNIT       API CODE    CURVE DESCRIPTION
#----------   ------------   ------------------------------
 DEPT.F                  :   
 CALD.IN     45 280 60 00:   CALIPER FROM DENSITY LOG
 GRD .GAPI   45 310 01 00:   GAMMA RAY FROM DENSITY LOG
 RHOB.G/C3   45 350 01 00:   BULK DENSITY
 CORR.G/C3   45 356 01 00:   DENSITY CORRECTION
 NPHI.DEC    42 890 03 00:   NEUTRON POROSITY SANDSTONE
 SPR .MV     07 010 01 00:   SPONTANEOUS POTENTIAL
 SGRD.OHMM   07 220 05 00:   SHALLOW GUARD RESISTIVITY
 ILD .OHMM   07 120 46 00:   INDUCTION LOG DEEP RESISTIVITY
 ILM .OHMM   07 120 44 00:   INDUCTION LOG MEDIUM RESISTIVITY
 TENR.LBS    07 635 01 00:   TENSION FROM RESISTIVITY
~PARAMETER INFORMATION
#MNEM.UNIT          VALUE    DESCRIPTION
#----------   ------------   ------------------------------
 EKB .F         5221.0000:   Kelly bushing
 EGL .F         5211.0000:   Ground level
 EDF .F            0.0000:   Drilling floor
 TD  .F         3150.0000:   Total depth
 DATE.        19-SEP-1977:   Date logged
 CLNT.            A2DTECH:   Client Code
 SL  . 1190' FSL & 1750' FWL:   Surface Location
 PD  .                 GL:   Permanent Datum
 DD  .F              3150:   Depth driller
 DL  .F              3146:   Depth logger
 BLI .F              3144:   Bottom log interval
 CS1 .IN            8.625:   Casing size
 CBD1.      8.625" @ 215':   Casing driller 1
 BS1 .IN            7.875:   Bit size
 DFT .            KCL/MUD:   Type fluid in hole
 DFD .                8.9:   Density
 TCS .HRS               2:   Time Circ. stopped
 MRT .F               116:   Maximum recorded temp.
 ENGI.            C. DOAK:   Recorded By
 WITN.      B. HARRINGTON:   Witnessed by
 ORIG.           5" PRINT:   Origin of data
 UWI .     49025104190000:   Unique Well ID
 DICO. A2D TECHNOLOGIES, INC.:   Digitizing Company
 DAPD.F                10:   Feet Above Permanent Datum
 BSD1.F              3150:   Depth drilled with bit1
 EPD .F              5211:   Elevation Permanent Datum
 LMF .                 KB:   Log Measured From
 DMF .                 KB:   Drilling Measured From
 TLI .F               200:   Top log interval
 CBL1.                213:   Casing logger 1
 DFV .                 37:   Viscosity
 DFPH.                 11:   pH
 DFL .                5.8:   Fluid loss
 MSS .           MEASURED:   Source of sample
 RMS .               2.82:   Rm
 MST .                 94:   Rm Meas. temp.
 RMF .               1.61:   Rmf
 MFST.                 94:   Rmf Meas. temp.
 MFSS.               MEAS:   Source Rmf.
 RMC .               3.12:   Rmc
 MCST.                 94:   Rmc Meas. temp.
 MCSS.               MEAS:   Source Rmc.
 RMB .               2.28:   Rm. at BHT
 BHT .                116:   BHT.
 LUN .               8611:   Logging unit number
 LUL .             CASPER:   Logging unit location
~OTHER INFORMATION
~A   DEPT       CALD       GRD        RHOB      CORR      NPHI        SPR       SGRD        ILD        ILM       TENR   
# ...
  401.0000    11.3676    66.7967     2.4207     0.0215     0.2734   -69.9169     6.0065     3.4539     5.8416   941.1175
  401.5000    11.4272    66.0002     2.4327     0.0235     0.2702   -69.5166     5.6840     3.5509     4.5967   921.1843
  402.0000    11.4271    65.0050     2.4387     0.0215     0.2678   -69.5149     5.5294     3.6507     3.6172   941.2888
  402.5000    11.2879    65.6013     2.4487     0.0255     0.2670   -69.1160     5.2809     3.8585     5.0411   941.3744
  403.0000    11.1884    65.9975     2.4666     0.0295     0.2670   -68.9157     5.1847     4.0036     5.0413   941.4601
  403.5000    11.1684    66.7913     2.4836     0.0335     0.2670   -68.3165     5.8441     4.3103     4.7702   941.5457
  404.0000    11.0888    67.3863     2.5025     0.0355     0.2670   -67.9179     5.9530     4.4723     4.6833   941.6313
  404.5000    11.0489    67.5837     2.5005     0.0355     0.2630   -67.5184     6.0082     4.6835     4.7268   941.7170
  405.0000    11.0488    67.7812     2.4926     0.0335     0.2581   -67.3165     6.0640     4.7708     4.9046   941.8026
  405.5000    11.0289    68.7736     2.4886     0.0335     0.2573   -67.1160     6.1204     4.8152     5.2803   921.8721
  406.0000    11.0286    68.9710     2.4826     0.0315     0.2605   -66.9155     6.1772     4.8155     5.4285   941.9742
  406.5000    11.0285    69.3671     2.4786     0.0335     0.2654   -66.3167     6.1775     4.8157     5.4288   942.0598
  407.0000    11.0483    69.5645     2.5016     0.0375     0.2694   -66.1162     6.1777     4.9968     5.3299   942.1454
  407.5000    11.1078    69.9606     2.5006     0.0375     0.2639   -65.9158     6.1780     5.0432     5.2812   942.2310
  408.0000    11.1276    70.7542     2.4916     0.0376     0.2618   -65.9144     6.1216     5.0435     5.1849   942.3167
  408.5000    11.2070    71.3490     2.4799     0.0356     0.2715   -65.3157     6.0658     4.8165     5.0437   942.4023
  409.0000    11.2665    72.3412     2.4682     0.0324     0.2718   -65.3144     6.0660     4.7725     4.9518   942.4879
  409.5000    11.3856    73.7309     2.4564     0.0296     0.2686   -65.3131     6.0663     4.7728     4.9520   942.5735
  410.0000    11.5048    73.7294     2.4408     0.0316     0.2654   -64.9135     6.0665     4.8172     4.9068   922.6454
  410.5000    11.5047    74.1257     2.4388     0.0356     0.2670   -64.7131     6.0668     4.8174     4.9070   942.7447
  411.0000    11.4449    75.1178     2.4348     0.0376     0.2686   -64.7118     6.0115     4.7295     4.9072   942.8303
  411.5000    11.3455    76.5073     2.4288     0.0396     0.2621   -64.7103     6.0117     4.7735     4.9074   942.9159
  412.0000    11.2659    78.0954     2.4248     0.0416     0.2590   -64.5101     6.0120     4.7739     4.9077   943.0015
  412.5000    11.1863    79.2861     2.4149     0.0416     0.2694   -64.1109     6.0122     4.7740     4.9533   943.0871
  413.0000    11.1266    80.4761     2.4029     0.0434     0.2670   -64.1096     5.9028     4.7743     4.9994   923.1608
  413.5000    11.0867    80.6741     2.3930     0.0437     0.2621   -63.9092     5.7954     4.7744     4.9996   923.2467
  414.0000    11.0866    80.8712     2.3810     0.0457     0.2566   -63.9079     5.6899     4.6876     5.1400   943.3439
  414.5000    11.0667    82.0115     2.3730     0.0477     0.2538   -63.9066     5.4845     4.8637     5.3333   943.4295
  415.0000    11.0666    83.1518     2.3670     0.0497     0.2526   -63.9054     5.4848     5.1405     5.3335   943.5151
  415.5000    11.1062    83.8469     2.3531     0.0537     0.2542   -63.5059     5.4850     5.2363     4.6451   943.6009
  416.0000    11.1458    85.5331     2.3471     0.0537     0.2578   -63.5046     5.6388     5.2850     3.6556   943.6865
  416.5000    11.1656    87.2192     2.3401     0.0589     0.2767   -62.9061     5.6390     5.0010     3.7583   943.7721
  417.0000    11.1655    88.4109     2.3272     0.0617     0.2852   -62.9049     5.7440     4.4776     3.6225   943.8577
  417.5000    11.1257    89.4028     2.3050     0.0637     0.2997   -62.7046     5.7443     4.0836     3.1260   943.9432
  418.0000    11.0858    89.9967     2.2764     0.0637     0.3058   -62.7033     5.6398     3.6229     2.9580   944.0288
  418.5000    11.0261    90.7895     2.2584     0.0637     0.3207   -62.3039     5.0972     3.5242     1.8834   944.1144
  419.0000    10.9664    91.9800     2.2554     0.0577     0.3424   -61.9046     3.9038     3.3968     1.4552   944.1999
  419.5000    10.8869    93.7999     2.2514     0.0458     0.3271   -61.7043     3.2479     3.3044     2.0503   944.2855
  420.0000    10.8272    96.7437     2.3342     0.0238     0.2460   -60.9068     2.3977     3.3046     2.8887   924.3633
  420.5000    10.8271    99.7214     2.4748     0.0378     0.2337   -60.3085     3.9506     3.3047     4.2774   924.4492
  421.0000    10.8071    99.7194     2.5007     0.0418     0.2288   -59.9092     5.7991     3.4289     4.7339   964.5493
  421.5000    10.7873    98.3256     2.5067     0.0418     0.2211   -59.9080     5.9070     3.7815     4.4795   944.5593
  422.0000    10.7674    98.5223     2.4987     0.0438     0.2211   -59.9068     5.8531     4.0854     4.1999   944.7133
  422.5000    10.7474    99.7121     2.4927     0.0438     0.2267   -58.9104     5.9621     4.3178     4.8226   944.7988
  423.0000    10.6678  -999.2500     2.4868     0.0478     0.2356   -58.1132     6.0174     4.6483     5.0500   944.8844
  423.5000    10.5883  -999.2500     2.4848     0.0518     0.2449   -57.5149     6.1294     4.9126     5.4367   944.9699
  424.0000    10.4690  -999.2500     2.4848     0.0578     0.2502   -57.5145     6.0735     5.4369     5.6410   945.0554
  424.5000    10.4292  -999.2500     2.4848     0.0598     0.2574   -56.6996     5.9630     5.5895     5.7993   945.0897
  425.0000    10.3298  -999.2500     2.4888     0.0598     0.2502   -55.8847     5.9631     5.6415     5.7996   945.2265
  425.5000    10.1709  -999.2500     2.4888     0.0618     0.2405   -55.0697     5.8547     5.6417     5.7998   945.3123
  426.0000    10.0914  -999.2500     2.4828     0.0638     0.2325   -54.2548     5.8015     5.2410     5.8000   945.3979
  426.5000     9.8331  -999.2500     2.4768     0.0698     0.2176   -53.4399     5.8017     5.0516     5.9081   945.4834
  427.0000     9.6740  -999.2500     2.4709     0.0738     0.2139   -52.7323     5.9096     5.4383     6.4785   945.5689
  427.5000     9.3960  -999.2500     2.4609     0.0738     0.2170   -51.9350     5.9645     5.6426     7.5076   945.6544
  428.0000     9.2768  -999.2500     2.4529     0.0738     0.2203   -50.9395     6.1316     5.6429     9.6281   965.7429
  428.5000     9.2966  -999.2500     2.4449     0.0739     0.2283   -49.9434     6.4204     5.6430    11.0550   945.8255
  429.0000     9.3164  -999.2500     2.4370     0.0759     0.2356   -49.1467     6.0760     5.5916    10.2700   945.9110
  429.5000     9.3958  -999.2500     2.4230     0.0799     0.2404   -48.3496     5.8032     5.3401     7.7192   945.9965
  430.0000     9.4751  -999.2500     2.4151     0.0759     0.2517   -47.7517     5.4416     5.1000     7.2374   926.0802
  430.5000     9.4949  -999.2500     2.4131     0.0699     0.2739   -46.7549     5.1973     4.8706     6.4209   946.1675
  431.0000     9.4948  -999.2500     2.4091     0.0739     0.2780   -46.3562     5.0097     4.7381     4.8710   966.2541
  431.5000     9.4948  -999.2500     2.4071     0.0759     0.2651   -45.7584     4.6121     4.2819     4.5669   966.2712
  432.0000     9.4351  -999.2500     2.4091     0.0799     0.2562   -45.7575     4.6548     4.2819     4.4837   946.4240
  432.5000     9.4152  -999.2500     2.4111     0.0799     0.2526   -44.9608     4.7852     4.1654     4.4840   946.5095
  433.0000     9.3754  -999.2500     2.4151     0.0799     0.2478   -44.9599     4.9193     4.0896     4.6955   966.5949
  433.5000     9.4151  -999.2500     2.4191     0.0839     0.2474   -44.7601     4.9196     4.0897     4.5259   946.6805
  434.0000     9.4349  -999.2500     2.4191     0.0879     0.2506   -44.7592     4.5708     4.0900     4.2435   966.7653
