~VERSION INFORMATION
 VERS.                2.0:   CWLS LOG ASCII STANDARD - VERSION 2.0
 WRAP.                 NO:   ONE LINE PER DEPTH STEP
~WELL INFORMATION
#MNEM.UNIT      DATA TYPE    INFORMATION
#----------   ------------   ------------------------------
 STRT.F            7.5000:   START DEPTH
 STOP.F         5700.0000:   STOP DEPTH
 STEP.F            0.5000:   STEP LENGTH
 NULL.          -999.2500:   NO VALUE
 COMP. FLUOR DANIEL (NPOSR):   COMPANY
 WELL.   FLOUR "X" #52-10:   WELL
 FLD .             NPR #3:   FIELD
 LOC .      S10 T38N R78W:   LOCATION
 CNTY.            NATRONA:   COUNTY
 STAT.            WYOMING:   STATE
 CTRY. UNITED STATES OF AMERICA:   COUNTRY
 SRVC.      WESTERN ATLAS:   SERVICE COMPANY
 DATE.        12-JAN-1996:   LOGDATE
 API .     49025227600000:   API NUMBER
~CURVE INFORMATION
#MNEM.UNIT       API CODE    CURVE DESCRIPTION
#----------   ------------   ------------------------------
 DEPT.F                  :   
 TENR.LBS    11 635 01 00:   TENSION
 GRR .GAPI   11 310 01 00:   GAMMA RAY FROM RESISTIVITY
 LLD .OHMM   11 220 10 00:   LATEROLOG DEEP
 LLS .OHMM   11 220 09 00:   LATEROLOG SHALLOW
 SPR .MV     11 010 01 00:   SPONTANEOUS POTENTIAL
 CALD.IN     45 280 60 00:   CALIPER FROM DENSITY LOG
 TEND.LBS    45 635 01 00:   TENSION FROM DENSITY LOG
 ZCOR.G/C3   45 356 01 00:   DENSITY CORRECTION
 ZDEN.G/C3   45 350 01 00:   BULK DENSITY
 CNC .DEC    42 890 03 00:   NEUTRON POROSITY SANDSTONE
~PARAMETER INFORMATION
#MNEM.UNIT          VALUE    DESCRIPTION
#----------   ------------   ------------------------------
 EKB .F         5196.0000:   Kelly bushing
 EGL .F         5186.0000:   Ground level
 EDF .F         5195.0000:   Drilling floor
 TD  .F         5699.0000:   Total depth
 DATE.        12-JAN-1996:   Date logged
 CLNT.            A2DTECH:   Client Code
 SL  . 1032' FNL & 2536' FEL:   Surface Location
 PD  .                 GL:   Permanent Datum
 EPD .F              5186:   Elevation Permanent Datum
 LMF .                 KB:   Log Measured From
 DMF .                 KB:   Drilling Measured From
 DAPD.F                11:   Feet Above Permanent Datum
 DD  .F              5699:   Depth driller
 DL  .F              5699:   Depth logger
 BLI .F              5687:   Bottom log interval
 CS1 .IN            9.625:   Casing size
 CBD1.      9.625" @ 520':   Casing driller 1
 CBL1.F               522:   Casing logger 1
 BS1 .IN             8.75:   Bit size
 BSD1.F              5699:   Depth drilled with bit1
 DFT .               CHEM:   Type fluid in hole
 DFD .                9.8:   Density
 DFV .                 50:   Viscosity
 DFPH.                9.5:   pH
 DFL .                8.4:   Fluid loss
 MSS .           FLOWLINE:   Source of sample
 RMS .OHMM          0.515:   Rm
 MST .F                66:   Rm Meas. temp.
 RMF .OHMM          0.499:   Rmf
 MFST.F                66:   Rmf Meas. temp.
 RMC .OHMM          0.761:   Rmc
 MCST.F                66:   Rmc Meas. temp.
 MFSS.               MEAS:   Source Rmf.
 MCSS.               MEAS:   Source Rmc.
 RMB .OHMM          0.233:   Rm. at BHT
 BHT .F               174:   BHT.
 TCS .HRS               6:   Time Circ. stopped
 MRT .F               174:   Maximum recorded temp.
 LUN .            HL 6530:   Logging unit number
 LUL .             CASPER:   Logging unit location
 ENGI.        VERN RAUTIO:   Recorded By
 WITN. LAFRENIERE/OPSAL/HARDY:   Witnessed by
 ORIG.     2.5", 5" PRINT:   Origin of data
 UWI .     49025227600000:   Unique Well ID
 DICO. A2D TECHNOLOGIES, INC.:   Digitizing Company
~OTHER INFORMATION
~A    DEPT    TENR         GRR       LLD        LLS        SPR       CALD       TEND       ZCOR       ZDEN        CNC   
# ...
 5635.5000   243.3020    38.5140   456.3300   250.5850  -999.2500     9.0250   223.9300     0.0120     2.6600     0.0510
 5636.0000   246.0290    39.0000   368.7780   203.8190  -999.2500     9.0300   226.0780     0.0180     2.6260     0.0510
 5636.5000   247.3800    38.9910   281.2260   157.0520  -999.2500     9.0340   228.2270     0.0230     2.6060     0.0510
 5637.0000   245.2210    39.0180   193.6740   110.2860  -999.2500     9.0380   230.3920     0.0290     2.5860     0.0530
 5637.5000   243.0630    39.7950   136.2380    82.3450  -999.2500     9.0420   230.3920     0.0340     2.5670     0.0540
 5638.0000   240.9040    37.8050   109.7410    72.8450  -999.2500     9.0460   230.3920     0.0390     2.5510     0.0560
 5638.5000   238.7450    33.0910   105.2230    73.5230  -999.2500     9.0510   230.3920     0.0340     2.5430     0.0570
 5639.0000   240.6100    28.4360   102.1730    78.4500  -999.2500     9.0550   230.3920     0.0270     2.5370     0.0570
 5639.5000   244.9280    26.4950   101.0950    77.6450  -999.2500     9.0590   230.3920     0.0270     2.5320     0.0560
 5640.0000   268.1090    27.1080    90.9760    71.5490  -999.2500     9.0630   230.3920     0.0350     2.5240     0.0560
 5640.5000   237.9280    31.7760    76.5940    60.2990  -999.2500     9.0610   230.3920     0.0430     2.5130     0.0560
 5641.0000   234.9090    36.3160    61.6540    52.0340  -999.2500     9.0570   230.3920     0.0430     2.5030     0.0580
 5641.5000   231.6710    40.8770    61.3730    48.3490  -999.2500     9.0530   230.3920     0.0430     2.4920     0.0590
 5642.0000   228.4330    41.1630    61.0860    48.0080  -999.2500     9.0480   230.3920     0.0430     2.4930     0.0600
 5642.5000   231.7540    38.1680    77.2280    55.6800  -999.2500     9.0440   230.3920     0.0400     2.5060     0.0600
 5643.0000   236.4640    36.1200    91.8340    70.8910  -999.2500     9.0400   230.3920     0.0360     2.5220     0.0590
 5643.5000   255.7850    36.5230   130.2430    85.3980  -999.2500     9.0360   232.4650     0.0360     2.5390     0.0600
 5644.0000   269.3430    36.9460   165.8840   100.7500  -999.2500     9.0320   239.5240     0.0380     2.5530     0.0630
 5644.5000   271.6980    37.3580   201.5250   120.7260  -999.2500     9.0280   246.5830     0.0390     2.5970     0.0660
 5645.0000   274.0530  -999.2500   277.5570   141.9390  -999.2500     9.0240   253.6410     0.0360     2.6460     0.0710
 5645.5000   276.4080  -999.2500   365.2010   185.6920  -999.2500     9.0240   260.7000     0.0320     2.6980     0.0760
 5646.0000   286.5770  -999.2500   452.8460   260.8980  -999.2500     9.0240   267.7590     0.0280     2.7430     0.0820
 5646.5000   319.8840  -999.2500   722.2540   340.7590  -999.2500     9.0240   291.4900     0.0310     2.7770     0.0860
 5647.0000   353.1910  -999.2500   880.8320   439.6250  -999.2500     9.0240   321.1370     0.0370     2.7820     0.0850
 5647.5000   377.2250  -999.2500   889.0320   505.1780  -999.2500     9.0240   350.7840     0.0390     2.7830     0.0820
 5648.0000   393.1670  -999.2500   745.0910   444.9140  -999.2500     9.0240   380.4310     0.0420     2.7850     0.0790
 5648.5000   408.9540  -999.2500   588.4460   355.2440  -999.2500     9.0240   387.2550     0.0340     2.7760     0.0760
 5649.0000   408.9540  -999.2500   501.6830   303.1630  -999.2500     9.0240   387.2550     0.0220     2.7640     0.0830
 5649.5000   399.8460  -999.2500   469.0850   289.7320  -999.2500     9.0240   387.2550     0.0090     2.7510     0.0910
 5650.0000   379.8860  -999.2500   486.9570   301.5630  -999.2500     9.0240   379.0470     0.0030     2.7400     0.1270
 5650.5000   358.6520  -999.2500   533.3270   332.9250  -999.2500     9.0240   370.7740     0.0020     2.7300     0.1340
 5651.0000   358.6520  -999.2500   557.6380   365.2580  -999.2500     9.0240   348.0390     0.0010     2.7220     0.1290
 5651.5000   358.6520  -999.2500   563.8510   373.8950  -999.2500     9.0240   351.6540     0.0000     2.7250     0.1150
 5652.0000   358.6520  -999.2500   569.8470   379.0500  -999.2500     9.0240   355.9850     0.0000     2.7330     0.1030
 5652.5000   366.6090  -999.2500   549.1130   372.1060  -999.2500     9.0240   360.3150     0.0020     2.7550     0.0980
 5653.0000   376.0650  -999.2500   553.8600   368.6580  -999.2500     9.0240   364.6460     0.0050     2.7740     0.0980
 5653.5000   383.2830  -999.2500   558.3050   375.8210  -999.2500     9.0240   368.9770     0.0080     2.7800     0.0970
 5654.0000   388.8330  -999.2500   564.5910   381.3570  -999.2500     9.0240   373.3080     0.0110     2.7870     0.0970
 5654.5000   388.8330  -999.2500   543.0200   382.5780  -999.2500     9.0240   377.6390     0.0100     2.7980     0.0960
 5655.0000   388.8330  -999.2500   506.2140   365.2580  -999.2500     9.0240   381.9690     0.0060     2.8020     0.0950
 5655.5000   388.8330  -999.2500   453.2150   326.6260  -999.2500     9.0240   386.3000     0.0020     2.7960     0.0950
 5656.0000   388.8330  -999.2500   403.7640   289.4340  -999.2500     9.0240   387.2550    -0.0030     2.7810     0.0940
 5656.5000   401.7530  -999.2500   357.3130   252.2410  -999.2500     9.0240   387.2550    -0.0020     2.7660  -999.2500
 5657.0000   419.7570  -999.2500   310.8620   221.5390  -999.2500     9.0180   398.7960     0.0040     2.7510  -999.2500
 5657.5000   437.7610  -999.2500   264.4110   192.9950  -999.2500     9.0100   413.0250     0.0080     2.7330  -999.2500
 5658.0000   455.7650  -999.2500   217.9600   164.4500  -999.2500     9.0030   426.4710     0.0130     2.7250  -999.2500
 5658.5000   473.7700  -999.2500   183.9980   138.0590  -999.2500     8.9940   436.9800     0.0170     2.7160  -999.2500
 5659.0000   469.1430  -999.2500   183.9980   135.5240  -999.2500     8.9890   446.0780     0.0220     2.7100  -999.2500
 5659.5000   441.8510  -999.2500   191.6790   141.0800  -999.2500     8.9580   413.6080     0.0220     2.6980  -999.2500
 5660.0000   424.1700  -999.2500   201.8620   144.6060  -999.2500     8.9090   387.2550     0.0200     2.6830  -999.2500
 5660.5000   419.5520  -999.2500   200.6050   137.4280  -999.2500     8.8630   387.2550     0.0180     2.6480  -999.2500
 5661.0000   422.1530  -999.2500   199.0080   131.4690  -999.2500     8.8180   387.2550     0.0160     2.6230  -999.2500
 5661.5000   424.7540  -999.2500   198.1550   130.5930  -999.2500     8.7690   391.4380     0.0170     2.6070  -999.2500
 5662.0000   427.3540  -999.2500   210.7890   132.9800  -999.2500     8.7450   396.9720     0.0180     2.5980  -999.2500
 5662.5000   431.2750  -999.2500   219.4060   143.4260  -999.2500     8.7470   402.5050     0.0190     2.5890  -999.2500
 5663.0000   437.7770  -999.2500   229.8220   147.3100  -999.2500     8.7470   408.0390     0.0230     2.5730  -999.2500
 5663.5000   444.2780  -999.2500   210.7630   138.0590  -999.2500     8.7470   413.5730     0.0250     2.5560  -999.2500
 5664.0000   451.4000  -999.2500   188.2550   119.7740  -999.2500     8.7470   419.1070     0.0280     2.5420  -999.2500
 5664.5000   460.4450  -999.2500   166.6750   101.8020  -999.2500     8.7470   424.6410     0.0310     2.5350  -999.2500
 5665.0000   469.4910  -999.2500   148.1200    86.0660  -999.2500     8.7470   436.4710     0.0340     2.5340  -999.2500
 5665.5000   478.5360  -999.2500   136.7850    86.3130  -999.2500     8.7470   451.4120     0.0370     2.5360  -999.2500
 5666.0000   487.5820  -999.2500   144.2910    86.7730  -999.2500     8.7470   466.3530     0.0400     2.5410  -999.2500
 5666.5000   495.7980  -999.2500   150.4410    90.1640  -999.2500     8.7470   481.2940     0.0460     2.5470  -999.2500
 5667.0000   503.8000  -999.2500   158.6380    94.3110  -999.2500     8.7470   485.2940     0.0520     2.5540  -999.2500
 5667.5000   508.5850  -999.2500   166.8340    98.4590  -999.2500  -999.2500   485.2940     0.0590     2.5620  -999.2500
 5668.0000   505.1170  -999.2500   174.8080   100.5100  -999.2500  -999.2500   485.2940     0.0630     2.5660  -999.2500
 5668.5000   501.6500  -999.2500   180.6190   102.1740  -999.2500  -999.2500   485.2940     0.0630     2.5670  -999.2500
