~VERSION INFORMATION
 VERS.                2.0:   CWLS LOG ASCII STANDARD - VERSION 2.0
 WRAP.                 NO:   ONE LINE PER DEPTH STEP
~WELL INFORMATION
#MNEM.UNIT      DATA TYPE    INFORMATION
#----------   ------------   ------------------------------
 STRT.F           30.0000:   START DEPTH
 STOP.F         5698.0000:   STOP DEPTH
 STEP.F            0.5000:   STEP LENGTH
 NULL.          -999.2500:   NO VALUE
 COMP. LAWRRENCE-ALLISON & ASSOCIATES:   COMPANY
 WELL. LAWERNCE "X" #41-3:   WELL
 FLD .           N P R #3:   FIELD
 LOC .       S3 T38N R78W:   LOCATION
 CNTY.            NATRONA:   COUNTY
 STAT.            WYOMING:   STATE
 CTRY. UNITED STATES OF AMERICA:   COUNTRY
 SRVC.      DRESSER ATLAS:   SERVICE COMPANY
 DATE.        04-JUN-1983:   LOGDATE
 API .     49025109200000:   API NUMBER
~CURVE INFORMATION
#MNEM.UNIT       API CODE    CURVE DESCRIPTION
#----------   ------------   ------------------------------
 DEPT.F                  :   
 TENS.LBS    60 635 01 00:   TENSION FROM SONIC
 DT  .US/F   60 520 00 00:   DELTA TIME
 SPR .MV     11 010 01 00:   SPONTANEOUS POTENTIAL FROM RES.
 TENR.LBS    11 635 01 00:   TENSION FROM RES. LOG
 GRR .GAPI   11 310 01 00:   GAMMA RAY FROM RES.
 CALR.IN     11 280 01 00:   CALIPER FROM RES.
 RMLL.OHMM   11 270 04 00:   MICRO LATEROLOG
 RD  .OHMM   11 220 10 00:   RESISTIVITY DEEP
 RS  .OHMM   11 220 09 00:   RESISTIVITY SHALLOW
 TEND.LBS    45 635 01 00:   TENSION FROM DENSITY LOG
 CORR.G/C3   45 356 01 00:   DENSITY CORRECTION
 RHOB.G/C3   45 350 01 00:   BULK DENSITY
 NPHI.DEC    42 890 03 00:   NEUTRON POROSITY SANDSTONE
~PARAMETER INFORMATION
#MNEM.UNIT          VALUE    DESCRIPTION
#----------   ------------   ------------------------------
 EKB .F         5157.5000:   Kelly bushing
 EGL .F         5147.5000:   Ground level
 EDF .F            0.0000:   Drilling floor
 TD  .F         5690.0000:   Total depth
 DATE.        04-JUN-1983:   Date logged
 CLNT.            A2DTECH:   Client Code
 SL  . 2218' FWL & 287' FNL:   Surface Location
 PD  .                 GL:   Permanent Datum
 EPD .F            5147.5:   Elevation Permanent Datum
 LMF .                 KB:   Log Measured From
 DMF .                 KB:   Drilling Measured From
 DD  .F              5690:   Depth driller
 DL  .F              5685:   Depth logger
 BLI .F              5682:   Bottom log interval
 CS1 .IN            9.625:   Casing size
 CBD1.       9.625 @ 568':   Casing driller 1
 CBL1.F               568:   Casing logger 1
 BS1 .IN             8.75:   Bit size
 DFT .        KCL-DRISPAC:   Type fluid in hole
 DFD .                9.1:   Density
 DFV .                 37:   Viscosity
 DFPH.                  8:   pH
 DFL .                3.8:   Fluid loss
 MSS .               TANK:   Source of sample
 RMS .OHMM           0.41:   Rm
 MST .F                75:   Rm Meas. temp.
 RMF .OHMM           0.28:   Rmf
 MFST.F                70:   Rmf Meas. temp.
 RMC .OHMM           0.53:   Rmc
 MCST.F                75:   Rmc Meas. temp.
 MFSS.               MEAS:   Source Rmf.
 RMB .OHMM           0.18:   Rm. at BHT
 BHT .F               160:   BHT.
 TCS .HRS               5:   Time Circ. stopped
 MRT .F               166:   Maximum recorded temp.
 LUN .               6274:   Logging unit number
 LUL .               GLTE:   Logging unit location
 ENGI.             RAUTIO:   Recorded By
 WITN.             STRONG:   Witnessed by
 ORIG.     2.5", 5" PRINT:   Origin of data
 UWI .     49025109200000:   Unique Well ID
 DICO. A2D TECHNOLOGIES, INC.:   Digitizing Company
 MCSS.               CALC:   Source Rmc.
 DAPD.                 10:   Feet Above Permanent Datum
 BSD1.               5690:   Depth drilled with bit1
~OTHER INFORMATION
~A   DEPT     TENS         DT        SPR       TENR         GRR      CALR       RMLL         RD         RS       TEND       CORR       RHOB       NPHI   
# ...
 2942.0000   -52.7660    79.5070   -87.4110   -60.4020    96.1110    10.0330     6.9730     6.2110     6.1210   -16.0110     0.0580     2.5200     0.2290
 2942.5000   -51.9060    80.0450   -87.9270   -55.7360    95.0580    10.0370     6.5860     6.3310     5.9520   -15.8920     0.0480     2.5130     0.2310
 2943.0000   -54.1790    80.5820   -88.1620   -50.2840    94.7540    10.0390     6.1980     6.4360     5.7830   -15.7730     0.0500     2.5090     0.2320
 2943.5000   -56.5240    81.1190   -88.3090   -44.9890    97.2380    10.0410     6.0990     6.5420     5.6730   -15.6540     0.0510     2.5100     0.2340
 2944.0000   -58.8690    81.5590   -88.4600   -39.7690   100.0060    10.0440     6.0990     6.6470     5.6730   -15.5350     0.0530     2.5120     0.2360
 2944.5000   -61.2150    81.8760   -88.6200   -38.2930   102.9980    10.0470     6.0990     6.7530     5.6730   -15.4160     0.0550     2.5140     0.2380
 2945.0000   -60.9330    81.6790   -88.7710   -38.3760   105.5790    10.0490     6.0990     6.8580     5.6730   -15.2970     0.0670     2.5190     0.2390
 2945.5000   -59.4840    81.5000   -88.9260   -38.3960   105.7950    10.0520     6.0990     6.9640     5.7760   -15.1780     0.0800     2.5220     0.2390
 2946.0000   -58.0360    81.5350   -89.0790   -38.3670   104.4580    10.0540     6.0990     7.0510     5.8650   -15.0590     0.0840     2.5200     0.2400
 2946.5000   -56.5870    81.6050   -89.2380   -38.3870   103.2030    10.0570     6.3940     7.0900     5.9550   -14.9400     0.0520     2.5120     0.2420
 2947.0000   -55.1390    81.6760   -89.3050   -38.3820   103.7130    10.0590     6.5580     7.1400     6.0440   -14.8210     0.0280     2.5040     0.2440
 2947.5000   -53.6900    81.7460   -89.2850   -38.3830   104.1660    10.0620     6.4120     7.1910     6.0990   -14.7020     0.0170     2.5140     0.2450
 2948.0000   -52.2420    81.6800   -89.2680   -38.3860   104.5520    10.0650     6.2870     7.2410     6.1940   -14.5830     0.0360     2.5260     0.2450
 2948.5000   -52.7480    81.5160   -89.2500   -38.3860   103.9150    10.0620     6.2110     7.2910     6.2910   -14.4640     0.0660     2.5390     0.2500
 2949.0000   -53.8450    81.1050   -89.2310   -38.3860   106.2020    10.0500     6.2110     7.3120     6.3880   -14.3450     0.0790     2.5450     0.2520
 2949.5000   -54.9420    80.6130   -89.2130   -38.3860   108.4000    10.0390     6.6210     7.4480     6.4850   -14.2260     0.0790     2.5460     0.2490
 2950.0000   -56.0390    80.0700   -89.1950   -38.3860   109.3430    10.0270     6.9650     7.5620     6.5820   -14.1070     0.0740     2.5400     0.2420
 2950.5000   -57.1360    80.3710   -89.1770   -38.3860   107.7280    10.0160     7.4460     7.7200     6.6780   -13.9880     0.0690     2.5350     0.2300
 2951.0000   -58.2330    81.0880   -89.1590   -38.3860   108.3450    10.0030     7.3870     7.5010     6.6260   -13.8690     0.0630     2.5310     0.2320
 2951.5000   -59.3300    82.2250   -89.1410   -38.3860   108.0840     9.9960     7.1070     7.1390     6.3730   -13.7500     0.0640     2.5280     0.2420
 2952.0000   -60.4270    83.4340   -89.1230   -38.3860   107.8400     9.9610     6.8270     6.7770     6.1210   -13.6310     0.0660     2.5240     0.2530
 2952.5000   -61.5240    84.6430   -89.1050   -38.3860   109.0720     9.9760     6.5470     6.4150     5.8680   -13.5120     0.0680     2.5200     0.2630
 2953.0000   -60.7000    85.6730   -89.0870   -38.3860   110.6880     9.9960     6.2660     5.9900     5.6160   -13.3930     0.0690     2.5170     0.2730
 2953.5000   -58.7220    86.0130   -89.0690   -38.3860   112.2700    10.0200     5.9860     5.9240     5.4710   -13.2740     0.0700     2.5130     0.2820
 2954.0000   -56.7440    86.1370   -89.0500   -38.3860   113.9710    10.0260     5.8820     5.8450     5.4780   -13.1550     0.0550     2.5160     0.2740
 2954.5000   -54.7660    86.2610   -89.0320   -38.3860   114.5850    10.0220     5.8930     5.7650     5.5090   -13.0360     0.0580     2.5180     0.2620
 2955.0000   -52.7880    86.2130   -89.0140   -38.3860   112.6280    10.0180     5.9170     5.6730     5.5410   -12.9170     0.0530     2.5210     0.2580
 2955.5000   -54.4730    85.7730   -88.9960   -38.3860   110.1340    10.0150     5.9420     5.7760     5.5710   -12.7980     0.0440     2.5250     0.2600
 2956.0000   -59.1090    85.1860   -88.9780   -38.3860   107.8470    10.0120     5.9660     6.1150     5.6810   -12.6790     0.0430     2.5340     0.2610
 2956.5000   -63.7440    83.7690   -88.9600   -38.3860   105.5410    10.0080     5.9900     6.6390     6.1300   -12.5600     0.0570     2.5440     0.2560
 2957.0000   -66.0540    82.2480   -88.9440   -38.3860   103.6890    10.0050     6.4020     7.1620     6.5780   -12.4410     0.0690     2.5470     0.2420
 2957.5000   -63.1450    80.4860   -88.9220   -38.3860   102.5860    10.0020     7.0320     7.6860     7.0270   -12.3220     0.0590     2.5490     0.2250
 2958.0000   -60.2370    78.1480   -88.9050   -38.3860   100.4440     9.9980     7.6630     8.2100     7.4750   -12.2030     0.0470     2.5500     0.2130
 2958.5000   -57.3280    75.9580   -88.7530   -38.3860    96.7580     9.9950     8.2930     8.7340     7.9240   -12.0840     0.0480     2.5520     0.2130
 2959.0000   -59.2420    74.8550   -88.5700   -38.3860    95.2110     9.9910     8.9240     9.2580     8.3720   -11.9650     0.0580     2.5510     0.2120
 2959.5000   -62.7740    74.8550   -88.3840   -38.3860    96.8120     9.9890     9.2550     9.7820     9.0000   -11.8460     0.0670     2.5500     0.2120
 2960.0000   -66.3060    74.8550   -88.2040   -38.3860    98.3760     9.9870     9.0850     9.9510     8.9790   -11.7270     0.0760     2.5490     0.2110
 2960.5000   -61.0070    76.1010   -88.0200   -38.3860    99.1300     9.9850     8.8330     9.8080     8.5830   -11.6080     0.0860     2.5480     0.2090
 2961.0000   -53.7350    76.7860   -87.8290   -38.3860    98.6500     9.9840     8.5810     9.5970     8.3010   -11.4890     0.0960     2.5460     0.2130
 2961.5000   -46.4630    77.4700   -87.7430   -38.3860   100.9130     9.9820     8.3300     9.5250     8.3010   -11.3700     0.0970     2.5380     0.2170
 2962.0000   -43.2800    78.0060   -87.8590   -38.3860   107.2020     9.9800     7.9970     9.3790     8.3870   -11.2510     0.0800     2.5350     0.2290
 2962.5000   -47.0840    78.3770   -87.9570   -38.3860   114.6240     9.9790     7.4690     9.2330     8.7650   -11.1330     0.0660     2.5350     0.2400
 2963.0000   -50.8870    78.4530   -88.0610   -38.3860   113.9770     9.9770     7.3120     9.0870     8.5340   -11.0140     0.0510     2.5380     0.2430
 2963.5000   -54.6910    78.5290   -88.1640   -38.3860   110.8520     9.9750     7.7320     8.9410     8.2040   -10.8950     0.0500     2.5400     0.2390
 2964.0000   -58.4950    78.8050   -88.2670   -38.3860   106.9820     9.9740     8.1970     8.7950     7.8740   -10.7760     0.0550     2.5400     0.2330
 2964.5000   -61.9360    79.2710   -88.3680   -38.3860   106.0810     9.9720     8.6080     8.6490     7.5820   -10.6570     0.0590     2.5390     0.2270
 2965.0000   -61.4840    79.7360   -88.4760   -38.3860   107.9700     9.9700     8.0370     8.4750     7.5650   -10.5380     0.0620     2.5390     0.2280
 2965.5000   -61.0720    80.1710   -88.5270   -38.3860   109.3030     9.9690     7.5250     8.2890     7.5430   -10.4190     0.0510     2.5380     0.2390
 2966.0000   -60.6600    80.4720   -88.4960   -38.3860   109.3050     9.9670     7.1800     8.1030     7.5200   -10.3000     0.0420     2.5400     0.2420
 2966.5000   -60.2480    80.1720   -88.4190   -38.3860   109.3390     9.9650     7.1560     7.9180     7.4970   -10.1810     0.0470     2.5440     0.2380
 2967.0000   -59.8360    79.8460   -88.3440   -38.3830   109.4320     9.9640     7.1100     7.7200     7.4740   -10.0620     0.0590     2.5470     0.2350
 2967.5000   -59.4240    79.5770   -88.2670   -38.3850   108.2350     9.9620     7.0630     7.7200     7.4510    -9.9430     0.0690     2.5510     0.2400
