~VERSION INFORMATION
 VERS.                2.0:   CWLS LOG ASCII STANDARD - VERSION 2.0
 WRAP.                 NO:   ONE LINE PER DEPTH STEP
~WELL INFORMATION
#MNEM.UNIT      DATA TYPE    INFORMATION
#----------   ------------   ------------------------------
 STRT.F          200.0000:   START DEPTH
 STOP.F         3150.0000:   STOP DEPTH
 STEP.F            0.5000:   STEP LENGTH
 NULL.          -999.2500:   NO VALUE
 COMP.  FENIX AND SCISSON:   COMPANY
 WELL.  FENIX "AX" #88-10:   WELL
 FLD .              NPR 3:   FIELD
 LOC .      S10 T38N R78W:   LOCATION
 CNTY.            NATRONA:   COUNTY
 STAT.            WYOMING:   STATE
 CTRY. UNITED STATES OF AMERICA:   COUNTRY
 SRVC.              WELEX:   SERVICE COMPANY
 DATE.        13-JUN-1977:   LOGDATE
 API .     49025103780000:   API NUMBER
~CURVE INFORMATION
#MNEM.UNIT       API CODE    CURVE DESCRIPTION
#----------   ------------   ------------------------------
 DEPT.F                  :   
 CALD.IN     45 280 60 00:   CALIPER FROM DENSITY LOG
 GRD .GAPI   45 310 01 00:   GAMMA RAY FROM DENSITY LOG
 RHOB.G/C3   45 350 01 00:   BULK DENSITY
 CORR.G/C3   45 356 01 00:   DENSITY CORRECTION
 SPR .MV     07 010 01 00:   SPONTANEOUS POTENTIAL
 GURD.OHMM   07 220 05 00:   GUARD LOG RESISTIVITY
 ILD .OHMM   07 120 46 00:   INDUCTION LOG DEEP RESISTIVITY
 ILM .OHMM   07 120 44 00:   INDUCTION LOG MEDIUM RESISTIVITY
~PARAMETER INFORMATION
#MNEM.UNIT          VALUE    DESCRIPTION
#----------   ------------   ------------------------------
 EKB .F         5264.0000:   Kelly bushing
 EGL .F         5254.0000:   Ground level
 EDF .F            0.0000:   Drilling floor
 TD  .F         3160.0000:   Total depth
 DATE.        13-JUN-1977:   Date logged
 CLNT.            A2DTECH:   Client Code
 SL  . 430' FSL & 330' FEL:   Surface Location
 PD  .                 GL:   Permanent Datum
 EPD .F              5254:   Elevation Permanent Datum
 LMF .                 KB:   Log Measured From
 DMF .                 KB:   Drilling Measured From
 DAPD.F                10:   Feet Above Permanent Datum
 DD  .F              3160:   Depth driller
 DL  .F              3151:   Depth logger
 BLI .F              3149:   Bottom log interval
 CS1 .IN            8.625:   Casing size
 CBD1.      8.625" @ 208':   Casing driller 1
 BS1 .IN            7.875:   Bit size
 BSD1.F              3160:   Depth drilled with bit1
 DFT .            KCL MUD:   Type fluid in hole
 DFD .                9.1:   Density
 DFV .                 31:   Viscosity
 DFPH.                7.5:   pH
 DFL .                 20:   Fluid loss
 MSS .           FLOWLINE:   Source of sample
 RMS .OHMM            .90:   Rm
 MST .F                60:   Rm Meas. temp.
 RMF .OHMM            .53:   Rmf
 MFST.F                60:   Rmf Meas. temp.
 RMC .OHMM           1.47:   Rmc
 MCST.F                60:   Rmc Meas. temp.
 MFSS.               MEAS:   Source Rmf.
 MCSS.               MEAS:   Source Rmc.
 RMB .OHMM            .46:   Rm. at BHT
 BHT .F               116:   BHT.
 TCS .HRS               8:   Time Circ. stopped
 MRT .F               116:   Maximum recorded temp.
 LUN .               8611:   Logging unit number
 LUL .             CASPER:   Logging unit location
 ENGI.            C. DOAK:   Recorded By
 WITN.         D. RHOADES:   Witnessed by
 ORIG.           5" PRINT:   Origin of data
 UWI .     49025103780000:   Unique Well ID
 DICO. A2D TECHNOLOGIES, INC.:   Digitizing Company
~OTHER INFORMATION
~A   DEPT       CALD       GRD      RHOB       CORR        SPR       GURD        ILD        ILM   
# ...
  402.5000    11.9821   101.8206     2.4251     0.0380   -63.3778     7.6415     6.7192     7.4167
  403.0000    12.0022   101.4314     2.4192     0.0420   -62.9846     7.7823     6.8432     7.5512
  403.5000    12.0421    99.4581     2.4109     0.0460   -62.7893     8.0725     6.8427     7.5506
  404.0000    12.0425    97.8809     2.3945     0.0500   -62.7915     8.0722     6.9052     7.6184
  404.5000    12.1220    91.9474     2.3698     0.0520   -62.5962     8.0713     6.5337     6.5335
  405.0000    12.1419    89.1823     2.3361     0.0540   -62.2030     8.0707     6.1822     6.2395
  405.5000    12.3802    88.3972     2.2957     0.0481   -62.2057     7.9965     5.5356     5.6904
  406.0000    12.3803    88.8002     2.2373     0.0401   -62.0104     7.7070     4.3723     5.2377
  406.5000    12.6974    88.8072     2.1692     0.0302   -61.8152     5.8500     3.7604     5.0946
  407.0000    12.9751    89.6062     2.0606     0.0183   -62.0159     3.9044     3.4933     4.9555
  407.5000    13.4703    90.0092     2.0367     0.0004   -61.8207     3.4331     3.4930     4.9096
  408.0000    13.9063    91.6002     2.0412    -0.0096   -61.8234     4.5219     4.1598     4.9092
  408.5000    14.8224    92.0032     2.2043    -0.0454   -61.8262     7.2236     4.8192     5.1873
  409.0000    15.4512    92.4062     2.4304    -0.0165   -62.0268     8.7599     5.5319     5.7393
  409.5000    14.0932    92.0172     2.4738     0.0124   -61.8316     9.0038     5.9541     6.5860
  410.0000    13.0166    91.6281     2.4603     0.0125   -61.6370     9.1699     6.6483     7.3398
  410.5000    12.9972    90.4486     2.4641     0.0145   -61.4412     9.5122     7.8451     7.9176
  411.0000    13.0371    90.4556     2.4686     0.0185   -61.4434     9.5114     7.9903     8.1386
  411.5000    13.0374    90.8585     2.4716     0.0225   -61.4467     9.1674     8.0636     8.1380
  412.0000    13.0971    89.2816     2.4701     0.0245   -61.0536     9.4227     8.0627     8.2123
  412.5000    13.2162    89.6846     2.4641     0.0285   -60.6605     9.0819     8.0619     8.2115
  413.0000    13.2363    88.1078     2.4603     0.0305   -60.2669     8.9980     8.0611     8.2108
  413.5000    13.3950    85.7390     2.4581     0.0325   -60.0723     8.5147     8.0605     8.2100
  414.0000    13.4348    83.3704     2.4566     0.0346   -59.8772     8.3589     8.0596     8.2094
  414.5000    13.6133    81.3977     2.4543     0.0346   -59.4842     8.4353     8.0588     8.2847
  415.0000    13.7721    79.4250     2.4506     0.0406   -59.2891     8.4345     8.3602     8.5154
  415.5000    13.9902    73.8889     2.4461     0.0446   -58.3024     8.7494     8.4368     8.5935
  416.0000    13.9905    69.1463     2.4256     0.0466   -57.9094     9.2443     8.6718     9.1642
  416.5000    14.1689    62.4226     2.3980     0.0546   -57.3186    10.6086     9.0794     9.5072
  417.0000    14.4069    61.6381     2.3801     0.0566   -56.9256    12.4010     9.9535    10.3267
  417.5000    14.6447    61.2494     2.3652     0.0566   -56.5327    12.6302    10.4212    11.0126
  418.0000    14.9421    61.2567     2.3406     0.0586   -56.3377    10.8028    11.0116    11.3198
  418.5000    15.0305    61.6599     2.3197     0.0587   -55.7469    10.2225    11.3188    11.5290
  419.0000    15.3187    62.0631     2.3130     0.0547   -55.3541     9.8528    11.3177    11.2141
  419.5000    15.3585    62.4662     2.3198     0.0528   -55.1591    10.2206    11.3167    10.8078
  420.0000    15.3588    62.8694     2.3281     0.0528   -54.9641    10.3140    11.1093    10.8069
  420.5000    15.3789    64.0644     2.3304     0.0548   -54.3734    10.2190    11.1085    10.7071
  421.0000    15.3990    64.4675     2.3290     0.0568   -54.1784    10.0318    11.3137    10.7059
  421.5000    15.3993    64.0789     2.3283     0.0628   -53.9835    10.0309    11.5228    10.7051
  422.0000    15.6371    63.2943     2.3344     0.0628   -53.7885     9.8476    11.5215    10.4127
  422.5000    15.6770    62.5098     2.3396     0.0668   -53.3958     9.6674    11.5205    10.5078
  423.0000    15.7169    62.1212     2.3412     0.0649   -53.2008     9.7555    11.5198    10.6041
  423.5000    15.8360    62.1285     2.3345     0.0609   -52.8081     9.9355    11.5183    10.6032
  424.0000    15.8561    63.3219     2.3279     0.0609   -52.8110    10.1188    11.5173    10.6024
  424.5000    15.8562    60.9554     2.3182     0.0610   -52.4177    10.2112    11.4110    10.7979
  425.0000    15.9556    59.3807     2.3123     0.0570   -52.2228    10.0244    11.4097    10.6000
  425.5000    15.9757    58.9921     2.3093     0.0570   -52.0279     9.7511    11.4091    10.4058
  426.0000    15.9562    58.9994     2.3079     0.0570   -52.0308     9.6610    11.4076    10.4050
  426.5000    15.9763    59.0067     2.3154     0.0571   -51.8359     9.8396    11.4068    10.4039
  427.0000    15.9568    59.4098     2.3245     0.0618   -51.8389    10.3007    11.4057    10.6941
  427.5000    15.9769    59.8130     2.3298     0.0671   -51.8418    10.4908    11.5107    10.9923
  428.0000    15.9575    60.2161     2.3276     0.0671   -51.8447    10.1114    11.6162    10.9913
  428.5000    15.9775    60.2234     2.3254     0.0651   -51.8477    10.1104    12.0497    10.7899
  429.0000    15.9581    60.2307     2.3307     0.0671   -51.8506    10.8804    12.1604    11.0913
  429.5000    15.9583    60.6338     2.3345     0.0652   -51.8535    11.8173    12.3847    11.7195
  430.0000    15.8993    61.8285     2.3323     0.0652   -51.8564    12.0357    12.6137    12.0464
  430.5000    15.9787    61.0441     2.3249     0.0632   -52.0571    11.6000    12.8468    12.2690
  431.0000    15.9790    61.0514     2.3070     0.0613   -52.0601    11.3878    12.8456    12.2681
  431.5000    15.9991    61.0587     2.2951     0.0573   -52.0630    11.9219    12.8445    12.2667
  432.0000    15.9796    62.2534     2.2862     0.0514   -52.0659    11.4910    12.8430    12.2656
  432.5000    15.9997    61.8649     2.2810     0.0454   -52.2666    10.1962    12.6079    12.2645
  433.0000    16.0000    61.4763     2.2788     0.0375   -52.4673    10.7732    12.4915    12.1510
  433.5000    16.0003    61.8794     2.2789     0.0315   -52.6679    11.4876    12.1501    11.7109
  434.0000    15.9610    62.2825     2.2804     0.0296   -52.4731    10.9711    12.0377    11.4965
  434.5000    15.8624    63.8729     2.2827     0.0236   -52.8715    10.3815    12.6026    11.1816
  435.0000    15.8033    65.0675     2.2880     0.0217   -53.0722    10.3805    12.6019    11.0788
  435.5000    15.7838    65.8663     2.3001     0.0197   -53.0750    10.4755    12.6010    10.8760
  436.0000    15.8039    67.0608     2.3203     0.0217   -53.2757    10.6694    12.5998    11.1792
  436.5000    15.8438    66.6723     2.3391     0.0217   -53.4763    11.0671    12.5986    11.7044
  437.0000    15.9430    67.0753     2.3466     0.0218   -53.6769    11.1684    12.5977    11.9207
  437.5000    15.9631    67.4783     2.3497     0.0198   -53.8775    11.2704    12.5963    11.9198
  438.0000    15.9832    67.4855     2.3602     0.0198   -54.4741    11.2694    12.4796    11.9189
  438.5000    15.9835    67.0969     2.3700     0.0258   -54.2793    11.2681    12.3641    11.7001
  439.0000    15.9837    66.7084     2.3738     0.0258   -54.6776    11.2671    12.3630    11.5921
  439.5000    15.9642    66.7156     2.3746     0.0278   -54.6805    11.2664    12.3623    11.5908
  440.0000    15.9644    66.7228     2.3702     0.0219   -55.0799    11.0599    12.3607    11.6971
  440.5000    15.9450    68.7088     2.3687     0.0259   -55.0816    10.9580    12.3598    12.0231
  441.0000    15.9256    69.5074     2.3852     0.0279   -55.0845    10.9568    12.3584    12.2457
  441.5000    15.9060    69.9104     2.3980     0.0299   -55.2850    11.1591    12.5870    12.3575
  442.0000    15.8866    71.1047     2.4033     0.0260   -55.2879    11.6817    12.8196    12.3562
  442.5000    15.8869    69.9247     2.3996     0.0300   -55.2907    11.5744    12.8182    12.1300
