~VERSION INFORMATION
 VERS.                2.0:   CWLS LOG ASCII STANDARD - VERSION 2.0
 WRAP.                 NO:   ONE LINE PER DEPTH STEP
~WELL INFORMATION
#MNEM.UNIT      DATA TYPE    INFORMATION
#----------   ------------   ------------------------------
 STRT.F           14.0000:   START DEPTH
 STOP.F         3246.0000:   STOP DEPTH
 STEP.F            0.5000:   STEP LENGTH
 NULL.          -999.2500:   NO VALUE
 COMP.   LAWRENCE ALLISON:   COMPANY
 WELL. LAWRENCE "34X" #11:   WELL
 FLD .             N.P.R.:   FIELD
 LOC .      S34 T38N R78W:   LOCATION
 CNTY.            NATRONA:   COUNTY
 STAT.            WYOMING:   STATE
 CTRY. UNITED STATES OF AMERICA:   COUNTRY
 SRVC.      DRESSER ATLAS:   SERVICE COMPANY
 DATE.        02-MAY-1985:   LOGDATE
 API .     49025110530001:   API NUMBER
~CURVE INFORMATION
#MNEM.UNIT       API CODE    CURVE DESCRIPTION
#----------   ------------   ------------------------------
 DEPT.F                  :   
 CNC .DEC    42 890 03 00:   NEUTRON POROSITY
 CALD.IN     45 280 60 00:   CALIPER FROM DENSITY LOG
 CORR.G/C3   45 356 01 00:   DENSITY CORRECTION
 RHOB.G/C3   45 350 01 00:   BULK DENSITY
 GRR .GAPI   07 310 01 00:   GAMMA RAY FROM RESISTIVITY
 SPR .MV     07 010 01 00:   SPONTANEOUS POTENTIAL FROM RES.
 TENR.LBS    06 635 01 00:   TENSION FROM RESISTIVITY
 RILD.OHMM   07 120 46 00:   DEEP INDUCTION RESISTIVITY
 RILM.OHMM   07 120 44 00:   INDUCTION LOG MEDIUM RESISTIVITY
 RFOC.OHMM   07 220 04 00:   RESISTIVITY FOCUSED LOG RES.
~PARAMETER INFORMATION
#MNEM.UNIT          VALUE    DESCRIPTION
#----------   ------------   ------------------------------
 EKB .F         5099.0000:   Kelly bushing
 TD  .F         3239.0000:   Total depth
 CLNT.            A2DTECH:   Client Code
 PD  .                 GL:   Permanent Datum
 EPD .F              5087:   Elevation Permanent Datum
 LMF .                 KB:   Log Measured From
 DMF .                 KB:   Drilling Measured From
 DAPD.F                12:   Feet Above Permanent Datum
 DATE.        02-MAY-1985:   Date Logged [DD-MMM-YYYY]
 DD  .F              3239:   Depth driller
 DL  .F              3242:   Depth logger
 BLI .F              3294:   Bottom log interval
 CS1 .IN            8.625:   Casing size
 CBD1.      8.625" @ 487':   Casing driller 1
 CBL1.F               487:   Casing logger 1
 BS1 .IN            7.875:   Bit size
 BSD1.F              3239:   Depth drilled with bit1
 DFT .            KCL GEL:   Type fluid in hole
 DFD .                9.1:   Density
 DFV .                 35:   Viscosity
 DFPH.                  8:   pH
 DFL .                9.8:   Fluid loss
 MSS .           FLOWLINE:   Source of sample
 RMS .OHMM           0.27:   Rm
 MST .F                68:   Rm Meas. temp.
 RMF .OHMM           0.20:   Rmf
 MFST.F                68:   Rmf Meas. temp.
 MFSS.               MEAS:   Source Rmf.
 RMC .OHMM           0.34:   Rmc
 MCST.F                68:   Rmc Meas. temp.
 MCSS.               CALC:   Source Rmc.
 RMB .OHMM           0.15:   Rm. at BHT
 BHT .F               126:   BHT.
 TCS .HRS               3:   Time Circ. stopped
 MRT .F               126:   Maximum recorded temp.
 LUN .               6274:   Logging unit number
 LUL .               GLTE:   Logging unit location
 ENGI.       MACK/EDWARDS:   Recorded By
 WITN.             STRONG:   Witnessed by
 ORIG.           5" PRINT:   Origin of data
 UWI .     49025110260000:   Unique Well ID
 DICO. A2D TECHNOLOGIES, INC.:   Digitizing Company
~OTHER INFORMATION
~A   DEPT      CNC       CALD       CORR       RHOB        GRR        SPR       TENR       RILD       RILM       RFOC   
# ...
 2660.5000     0.2264     8.7767    -0.0187     2.4873    82.5493   -56.8615   -39.5258     6.0755     5.5774     6.8832
 2661.0000     0.2314     8.7767    -0.0140     2.4874    83.0303   -57.1446   -33.2445     6.0826     5.7419     6.5213
 2661.5000     0.2395     8.7767    -0.0108     2.4852    83.5113   -57.2680   -26.9632     6.0898     6.0335     6.1341
 2662.0000     0.2406     8.7767    -0.0047     2.4861    83.5440   -57.5447   -28.5674     6.0970     6.1669     5.9715
 2662.5000     0.2133     8.7766     0.0060     2.4938    82.6797   -57.6726   -29.8503     6.1041     6.2598     6.1900
 2663.0000     0.2061     8.7766     0.0107     2.5087    79.9297   -57.6454   -31.1333     6.2833     6.3981     6.6868
 2663.5000     0.2048     8.7766    -0.0026     2.5178    72.6634   -57.7787   -32.4163     6.2907     6.4052     7.4777
 2664.0000     0.2042     8.7766    -0.0114     2.5224    71.5749   -57.7515   -41.2642     6.4299     6.3203     8.4202
 2664.5000     0.2072     8.7766    -0.0037     2.5232    72.9528   -57.8849   -34.9829     6.2631     6.1176     7.4909
 2665.0000     0.2143     8.7765     0.0010     2.5241    76.5729   -57.8577   -36.3085     5.9734     5.9571     7.2897
 2665.5000     0.2245     8.7765    -0.0003     2.5242    80.6414   -57.9910   -37.8700     5.6576     5.6426     6.9133
 2666.0000     0.2322     8.7765    -0.0122     2.5131    88.7458   -58.1135   -39.1530     5.3959     5.3077     6.1103
 2666.5000     0.2376     8.7765    -0.0328     2.4915   100.8860   -58.0913   -40.4360     5.2520     5.1685     5.5906
 2667.0000     0.2394     8.7765    -0.0387     2.4781   101.8540   -58.0645   -49.2832     5.1538     5.1032     5.1506
 2667.5000     0.2402     8.7764    -0.0279     2.4767   102.5207   -58.0427   -50.5662     5.1227     5.1088     5.0489
 2668.0000     0.2387     8.7764    -0.0143     2.4813    97.1803   -58.0209   -51.8498     5.1302     5.1146     5.3805
 2668.5000     0.2332     8.7764    -0.0096     2.4814    88.9170   -57.8494   -53.1393     5.2443     5.1571     6.1433
 2669.0000     0.2251     8.7772    -0.0139     2.4718    90.0707   -57.6779   -54.4629     5.4735     5.2711     6.1498
 2669.5000     0.2173     8.7788    -0.0410     2.4570    93.9149   -57.5065   -56.0200     5.7526     5.5006     5.7862
 2670.0000     0.2107     8.7807    -0.0584     2.4474    96.6381   -57.4847   -57.3029     6.1730     5.9013     5.9550
 2670.5000     0.2076     8.7820    -0.0567     2.4519    92.1864   -57.3129   -58.5859     6.5838     6.3311     6.7991
 2671.0000     0.2040     8.7835    -0.0565     2.4640    81.5111   -57.2859   -51.9840     7.1598     6.6989     7.6033
 2671.5000     0.2015     8.7826    -0.0623     2.4746    70.7352   -57.2642   -53.5882     7.4728     7.0889     8.6809
 2672.0000     0.1997     8.7818    -0.0666     2.4829    68.9659   -57.2424   -47.3069     7.5861     7.3027     9.3776
 2672.5000     0.1988     8.7810    -0.0619     2.4860    70.5762   -57.2206   -48.6008     7.7547     7.4583     8.9438
 2673.0000     0.2011     8.7803    -0.0434     2.4884    72.6267   -57.1988   -42.3085     7.8179     7.4666     8.1054
 2673.5000     0.2086     8.7795    -0.0256     2.4892    73.7804   -57.1770   -36.0278     7.8271     7.4749     7.5412
 2674.0000     0.2100     8.7787    -0.0225     2.4901    74.4857   -57.1553   -37.6314     7.8363     7.4831     7.4952
 2674.5000     0.2085     8.7779    -0.0342     2.4909    74.5183   -57.1332   -38.9144     7.8457     7.4914     7.5053
 2675.0000     0.2073     8.7772    -0.0356     2.4941    74.5516   -57.1108   -40.1980     7.8552     7.4997     7.5655
 2675.5000     0.2063     8.7764    -0.0278     2.4964    74.3593   -57.0845   -33.9166     7.8664     7.4562     7.7325
 2676.0000     0.2054     8.7756    -0.0217     2.4950    74.4001   -57.0627   -35.1996     7.8189     7.4648     7.9581
 2676.5000     0.2009     8.7749    -0.0248     2.4913    73.9842   -57.1906   -36.4975     7.6692     7.4212     8.1903
 2677.0000     0.1978     8.7741    -0.0288     2.4907    73.3361   -57.1688   -37.8218     7.5201     7.3782     8.4376
 2677.5000     0.1972     8.7735    -0.0151     2.4930    73.8252   -57.1470   -39.3698     7.2724     7.3884     8.7377
 2678.0000     0.2082     8.7729    -0.0134     2.4984    74.5305   -57.1252   -40.6527     7.0815     7.1947     8.8054
 2678.5000     0.2169     8.7723    -0.0207     2.4970    75.9084   -57.1033   -41.9357     6.8947     6.7677     8.2277
 2679.0000     0.2183     8.7717    -0.0399     2.4836    80.6850   -57.0808   -43.2193     6.8022     6.4549     6.5098
 2679.5000     0.2192     8.7711    -0.0398     2.4748    91.0042   -57.0445   -44.5023     6.7232     6.4174     5.7936
 2680.0000     0.2204     8.7705    -0.0504     2.4756    91.7013   -56.8830   -45.7853     6.8271     6.6067     5.9626
 2680.5000     0.2227     8.7699    -0.0558     2.4989    82.9977   -56.8638   -47.0876     6.8828     6.7996     7.3461
 2681.0000     0.2263     8.7693    -0.0496     2.5089    78.3218   -56.8394   -48.6724     6.9388     6.8544     8.2773
 2681.5000     0.2290     8.7687    -0.0255     2.5156    76.7767   -56.8176   -49.9554     7.0931     6.9097     8.3964
 2682.0000     0.2277     8.7681     0.0106     2.5194    78.1628   -56.7964   -51.2384     7.2006     7.0624     7.7914
 2682.5000     0.2274     8.7675     0.0155     2.5233    79.0923   -56.7740   -52.5220     7.3106     7.4211     7.4310
 2683.0000     0.2282     8.7669    -0.0011     2.5294    79.1249   -56.7515   -53.8050     7.4281     7.5329     7.2861
 2683.5000     0.2291     8.7663    -0.0128     2.5369    78.4930   -56.7250   -55.0879     7.5878     7.6465     7.3446
 2684.0000     0.2236     8.7668     0.0204     2.5439    77.6288   -56.7032   -56.3709     7.7564     7.7101     7.5067
 2684.5000     0.2140     8.7832     0.0280     2.5446    76.0919   -56.6815   -57.6778     7.8196     7.7722     7.8878
 2685.0000     0.2115     8.7703     0.0058     2.5417    74.3307   -56.6617   -51.3732     7.8833     7.8892     8.1761
 2685.5000     0.2136     8.7714    -0.0165     2.5381    73.9149   -56.6379   -52.9767     8.0585     7.9528     8.4211
 2686.0000     0.2181     8.7719    -0.0208     2.5315    74.1718   -56.6161   -54.2604     8.0680     8.0169     8.5414
 2686.5000     0.2175     8.7725     0.0109     2.5211    76.2223   -56.5943   -55.5433     8.0217     8.0258     8.5506
 2687.0000     0.2153     8.7731    -0.0009     2.5144    76.2556   -56.5719   -48.9414     7.8658     7.8696     8.5598
 2687.5000     0.2141     8.7736    -0.0351     2.5108    75.1746   -56.5453   -42.9277     7.7689     7.7636     8.5690
 2688.0000     0.2143     8.7742    -0.0499     2.5125    74.5264   -56.6732   -44.2636     7.5652     7.5663     8.5168
 2688.5000     0.2199     8.7747    -0.0542     2.5163    74.3348   -56.6514   -45.5751     7.3160     7.3699     8.5282
 2689.0000     0.2280     8.7753    -0.0465     2.5224    75.0482   -57.0788   -47.1508     7.1738     7.1766     8.4200
 2689.5000     0.2313     8.7759    -0.0269     2.5307    76.4261   -57.0570   -48.4338     7.0812     6.9884     8.1930
 2690.0000     0.2334     8.7764    -0.0116     2.5338    77.8041   -57.0352   -41.8319     7.0916     6.9000     7.7678
 2690.5000     0.2309     8.7770    -0.0100     2.5160    78.2851   -57.0134   -43.4361     7.1000     6.8125     7.4599
 2691.0000     0.2186     8.7776    -0.0173     2.5041    78.0935   -56.9910   -44.7191     7.1086     6.8203     7.0658
 2691.5000     0.2111     8.7781    -0.0231     2.5027    77.4535   -56.9644   -46.0020     7.1188     6.8352     6.7857
 2692.0000     0.2098     8.7787    -0.0274     2.5088    77.7184   -56.9426   -39.7123     7.1768     6.9807     7.3812
 2692.5000     0.2125     8.7798    -0.0242     2.5156    77.9753   -56.9208   -33.4400     7.2856     7.0858     8.0846
 2693.0000     0.2104     8.7814    -0.0136     2.5180    78.2321   -56.8991   -27.1587     7.3961     7.2424     8.0375
 2693.5000     0.2100     8.7816    -0.0074     2.5129    78.0405   -56.8773   -28.7629     7.5605     7.4539     8.0463
