~VERSION INFORMATION
 VERS.                2.0:   CWLS LOG ASCII STANDARD - VERSION 2.0
 WRAP.                 NO:   ONE LINE PER DEPTH STEP
~WELL INFORMATION
#MNEM.UNIT      DATA TYPE    INFORMATION
#----------   ------------   ------------------------------
 STRT.F            0.0000:   START DEPTH
 STOP.F         2775.5000:   STOP DEPTH
 STEP.F            0.5000:   STEP LENGTH
 NULL.          -999.2500:   NO VALUE
 COMP.          U.S. NAVY:   COMPANY
 WELL.   U.S. "A" #107-29:   WELL
 FLD .        TEAPOT DOME:   FIELD
 LOC .      S29 T39N R78W:   LOCATION
 CNTY.            NATRONA:   COUNTY
 STAT.            WYOMING:   STATE
 CTRY. UNITED STATES OF AMERICA:   COUNTRY
 SRVC.         MCCULLOUGH:   SERVICE COMPANY
 DATE.        07-SEP-1966:   LOGDATE
 API .     49025095920000:   API NUMBER
~CURVE INFORMATION
#MNEM.UNIT       API CODE    CURVE DESCRIPTION
#----------   ------------   ------------------------------
 DEPT.F                  :   
 GR  .GAPI   30 310 01 00:   GAMMA RAY
 CALI.IN     70 280 01 00:   CALIPER
~PARAMETER INFORMATION
#MNEM.UNIT          VALUE    DESCRIPTION
#----------   ------------   ------------------------------
 EKB .F            0.0000:   Kelly bushing
 EGL .F            0.0000:   Ground level
 EDF .F            0.0000:   Drilling floor
 EPD .F            0.0000:   Permanent datum
 TD  .F         2777.5000:   Total depth
 DATE.        07-SEP-1966:   Date logged
 CLNT.            A2DTECH:   Client Code
 PD  .                 GL:   Permanent Datum
 LMF .                 GL:   Log Measured From
 DMF .                 GL:   Drilling Measured From
 DL  .F            2777.5:   Depth logger
 BLI .F              2776:   Bottom log interval
 TLI .F              2200:   Top log interval
 CS1 .IN                5:   Casing size
 CBD1.         5" @ 2722':   Casing driller 1
 DFT .              WATER:   Type fluid in hole
 RMB .OHMM           .053:   Rm. at BHT
 TCS .HRS             1.5:   Time Circ. stopped
 LUN .               1460:   Logging unit number
 ENGI.        FITZSIMMONS:   Recorded By
 WITN.             TUTTLE:   Witnessed by
 ORIG.           5" PRINT:   Origin of data
 UWI .     49025095920000:   Unique Well ID
 DICO. A2D TECHNOLOGIES, INC.:   Digitizing Company
~OTHER INFORMATION
~A    DEPT      GR         CALI 
# ...
 2673.0000    95.1610    20.5520
 2673.5000    93.3610    20.4030
 2674.0000    91.1280    19.9280
 2674.5000    84.2080    18.2080
 2675.0000    83.9790    15.7630
 2675.5000    84.7380    12.5070
 2676.0000    90.6060     8.9960
 2676.5000    97.4100     8.3560
 2677.0000   100.8920     8.3270
 2677.5000   103.7430     8.7970
 2678.0000   103.5100     9.0980
 2678.5000   104.0980     8.7950
 2679.0000   106.0220     8.5030
 2679.5000   107.0650     8.1420
 2680.0000   104.1920     8.2800
 2680.5000   104.4890     8.6480
 2681.0000   106.0960     8.4770
 2681.5000   106.1490     8.2230
 2682.0000   106.7400     8.0590
 2682.5000   107.4760     8.0270
 2683.0000   106.9670     8.0970
 2683.5000   104.5990     8.0870
 2684.0000   103.5900     8.0730
 2684.5000   105.2330     8.0580
 2685.0000   106.7880     8.1530
 2685.5000   109.0240     8.2110
 2686.0000   110.4350     8.0430
 2686.5000   110.8500     7.9070
 2687.0000   109.8730     7.8270
 2687.5000   107.0030     7.7670
 2688.0000   104.8500     7.7450
 2688.5000   101.4810     7.8460
 2689.0000    99.7130     8.0800
 2689.5000    99.3470     8.3820
 2690.0000   100.0470     8.4600
 2690.5000   101.6360     8.7040
 2691.0000   102.8970    11.8130
 2691.5000   103.6320    14.9480
 2692.0000   104.6720     8.4260
 2692.5000   105.7240     8.7280
 2693.0000   103.6850     9.5990
 2693.5000   101.5430    13.4460
 2694.0000   100.8570    15.3030
 2694.5000   101.7500    13.8890
 2695.0000   104.2670    10.8460
 2695.5000   105.8680     7.5200
 2696.0000   107.2380     6.9580
 2696.5000   108.6810     6.9530
 2697.0000   112.6670     6.9970
 2697.5000   111.6930     7.0420
 2698.0000   106.1440     7.0540
 2698.5000   101.2130     7.0680
 2699.0000   101.3710     7.1910
 2699.5000   103.7150     7.3430
 2700.0000   104.4710     7.8860
 2700.5000   104.6490     8.3600
 2701.0000   103.2030     7.7820
 2701.5000   102.7830     7.7130
 2702.0000   104.8960     7.7060
 2702.5000   106.1190     7.7230
 2703.0000   106.8610     7.7340
 2703.5000   107.6370     7.9940
 2704.0000   110.1460     8.2360
 2704.5000   114.2630    15.1160
 2705.0000   114.7110    14.4810
 2705.5000   112.5490    13.1070
 2706.0000   111.0010    11.8050
 2706.5000   109.6020    11.1560
 2707.0000   107.3920     8.9480
 2707.5000   106.7090     7.7340
 2708.0000   105.0380     7.6350
 2708.5000   103.2680     7.9920
 2709.0000   102.3590     8.1480
 2709.5000   100.8190     8.4630
 2710.0000    99.7500     9.1370
 2710.5000   103.5290     8.3940
 2711.0000   104.0830     9.2880
 2711.5000   104.5680    11.1230
 2712.0000   107.6040    10.6070
 2712.5000   108.7220    11.2520
 2713.0000   106.8060    11.3710
 2713.5000   104.6140    11.0050
 2714.0000   100.4080    10.0290
 2714.5000    98.5460     9.4350
 2715.0000    97.5740    10.4890
 2715.5000    98.4880    10.1360
 2716.0000    98.3720    10.5370
 2716.5000    99.0020    10.0540
 2717.0000    99.9120     9.7460
 2717.5000    98.4530    15.4490
 2718.0000    97.2590    17.6850
 2718.5000    98.2600    13.8710
 2719.0000    99.0350    10.4020
 2719.5000    99.3400    10.5090
 2720.0000   103.2240    10.6200
 2720.5000   108.6500     9.9180
 2721.0000   115.4660    10.0840
 2721.5000   122.2570    11.1040
 2722.0000   129.9560    14.6880
 2722.5000   140.6450    16.1930
 2723.0000   139.7200    15.2830
 2723.5000   137.0670    13.0210
 2724.0000   136.0010    13.2380
 2724.5000   127.8380    11.6070
 2725.0000   129.3960    10.6390
 2725.5000   130.0030    13.1290
 2726.0000   130.6190    11.4950
 2726.5000   131.3370    10.7490
 2727.0000   133.8790    10.7220
 2727.5000   135.0160    10.7080
 2728.0000   135.0920     8.5940
 2728.5000   135.1710     7.5560
 2729.0000   135.2500     7.4180
 2729.5000   139.2900     7.7010
 2730.0000   142.5760     7.9700
 2730.5000   141.5090     8.3070
 2731.0000   140.6550     8.6120
 2731.5000   139.4000    10.5010
 2732.0000   137.1940     8.5910
 2732.5000   136.0330     8.5200
 2733.0000   139.9630     8.8770
 2733.5000   136.3800    10.7260
 2734.0000   132.0430    12.2200
 2734.5000   129.8880    11.1400
 2735.0000   129.6800    10.2620
 2735.5000   132.1270     9.6080
 2736.0000   135.2330     9.7510
 2736.5000   137.1900    10.1010
 2737.0000   138.2730    10.4520
 2737.5000   138.3520    10.4930
 2738.0000   133.8430    10.4080
 2738.5000   131.3750    10.6600
 2739.0000   124.9670    10.0410
 2739.5000   117.2500     9.4760
 2740.0000   109.7780     8.3120
 2740.5000   105.4460     7.1230
 2741.0000   105.6050     7.1160
 2741.5000   104.6030     7.1250
 2742.0000    99.9010     7.1380
 2742.5000    93.6710     7.2920
 2743.0000    82.5200     7.4630
 2743.5000    76.3930     7.4120
 2744.0000    71.8570     7.3510
 2744.5000    70.0180     7.2960
 2745.0000    69.8810     7.4950
 2745.5000    67.7240     7.6730
 2746.0000    65.4070     7.4640
 2746.5000    62.7940     7.3110
 2747.0000    58.6430     7.3040
 2747.5000    57.4050     7.0890
 2748.0000    57.0870     7.6470
 2748.5000    57.0630     8.8070
 2749.0000    58.0850     8.7730
 2749.5000    58.8590    10.8850
 2750.0000    58.4780    12.0440
 2750.5000    58.9140    12.7410
 2751.0000    57.7770    13.4000
 2751.5000    54.7730    13.5350
 2752.0000    51.9040    10.7580
 2752.5000    51.3750    11.6850
 2753.0000    50.4050    13.0410
 2753.5000    48.9660    12.8130
 2754.0000    48.8120    12.9420
 2754.5000    46.3710    12.5010
 2755.0000    42.2570    12.3530
 2755.5000    40.3950    12.0110
 2756.0000    38.6040    11.2120
 2756.5000    36.8140     9.5330
 2757.0000    35.0210     9.4300
 2757.5000    33.9650     8.9530
 2758.0000    34.2590     9.3780
 2758.5000    34.2870     9.9190
 2759.0000    33.0130     9.5630
 2759.5000    32.0790     8.8920
 2760.0000    32.9830     8.4080
 2760.5000    36.7290     8.4250
 2761.0000    41.5980     8.4620
 2761.5000    47.4660     8.5870
 2762.0000    48.8710     9.2760
 2762.5000    50.0350     9.1320
 2763.0000    51.2380     8.8150
 2763.5000    49.6040     8.6530
 2764.0000    48.3960     8.1520
 2764.5000    47.8680     7.9380
 2765.0000    46.3850     8.6580
 2765.5000    45.0440     9.3500
 2766.0000    45.3820     7.4770
 2766.5000    48.2800     6.6450
 2767.0000    48.8210  -999.2500
 2767.5000    49.8980  -999.2500
 2768.0000    53.9390  -999.2500
 2768.5000    56.2680  -999.2500
 2769.0000    58.9280  -999.2500
 2769.5000    62.2390  -999.2500
 2770.0000    63.1500  -999.2500
 2770.5000    64.7220  -999.2500
 2771.0000    66.2330  -999.2500
 2771.5000    66.7270  -999.2500
 2772.0000    66.9150  -999.2500
 2772.5000    67.0900  -999.2500
 2773.0000    67.2570  -999.2500
 2773.5000    67.5070  -999.2500
 2774.0000    70.6690  -999.2500
 2774.5000    74.1200  -999.2500
 2775.0000    75.9240  -999.2500
 2775.5000    77.8450  -999.2500
