~VERSION INFORMATION
 VERS.                2.0:   CWLS LOG ASCII STANDARD - VERSION 2.0
 WRAP.                 NO:   ONE LINE PER DEPTH STEP
~WELL INFORMATION
#MNEM.UNIT      DATA TYPE    INFORMATION
#----------   ------------   ------------------------------
 STRT.F          218.0000:   START DEPTH
 STOP.F         2860.0000:   STOP DEPTH
 STEP.F            0.5000:   STEP LENGTH
 NULL.          -999.2500:   NO VALUE
 COMP.    FENIX & SCISSON:   COMPANY
 WELL.  FENIX "AX" #76-20:   WELL
 FLD . TEAPOT DOME NPR -3:   FIELD
 LOC .      S20 T39N R78W:   LOCATION
 CNTY.            NATRONA:   COUNTY
 STAT.            WYOMING:   STATE
 CTRY. UNITED STATES OF AMERICA:   COUNTRY
 SRVC.           BIRDWELL:   SERVICE COMPANY
 DATE.        21-AUG-1978:   LOGDATE
 API .     49025106920000:   API NUMBER
~CURVE INFORMATION
#MNEM.UNIT       API CODE    CURVE DESCRIPTION
#----------   ------------   ------------------------------
 DEPT.F                  :   
 SPR .MV     05 010 01 00:   SPONTANEOUS POTENTIAL FROM RES.
 ILD .OHMM   05 120 46 00:   INDUCTION LOG DEEP
 SN  .OHMM   05 040 16 00:   SHORT NORMAL 16"
 RHOB.G/C3   45 350 01 00:   BULK DENSITY
 CALD.IN     45 280 60 00:   CALIPER FROM DENSITY LOG
 DCOR.G/C3   45 356 01 00:   DENSITY CORRECTION
 GRD .GAPI   45 310 01 00:   GAMMA RAY FROM DENSITY LOG
~PARAMETER INFORMATION
#MNEM.UNIT          VALUE    DESCRIPTION
#----------   ------------   ------------------------------
 EKB .F         5062.0000:   Kelly bushing
 EGL .F         5052.0000:   Ground level
 EDF .F            0.0000:   Drilling floor
 EPD .F            0.0000:   Permanent datum
 TD  .F         2854.0000:   Total depth
 DATE.        21-AUG-1978:   Date logged
 CLNT.            A2DTECH:   Client Code
 SL  . 1500' FNL & 1200' FEL:   Surface Location
 PD  .                 GL:   Permanent Datum
 DD  .F              2850:   Depth driller
 DL  .F              2854:   Depth logger
 BLI .F              2848:   Bottom log interval
 CS1 .IN            8.625:   Casing size
 CBD1.      8.625" @ 200':   Casing driller 1
 CBL1.F               235:   Casing logger 1
 BS1 .IN            7.875:   Bit size
 DFT .                KCL:   Type fluid in hole
 DFD .                9.2:   Density
 DFV .                 30:   Viscosity
 DFL .                8.4:   Fluid loss
 MSS .           FLOWLINE:   Source of sample
 RMS .OHMM            1.2:   Rm
 MST .F                86:   Rm Meas. temp.
 RMF .OHMM            0.8:   Rmf
 MFST.F                68:   Rmf Meas. temp.
 RMC .OHMM            1.6:   Rmc
 MCST.F                70:   Rmc Meas. temp.
 MFSS.              PRESS:   Source Rmf.
 BHT .F               102:   BHT.
 TCS .HRS               3:   Time Circ. stopped
 MRT .F               102:   Maximum recorded temp.
 LUN .               2968:   Logging unit number
 LUL .             CASPER:   Logging unit location
 ENGI.           REYNOLDS:   Recorded By
 ORIG.           5" PRINT:   Origin of data
 UWI .     49025106920000:   Unique Well ID
 DICO. A2D TECHNOLOGIES, INC.:   Digitizing Company
 DAPD.                 12:   Feet Above Permanent Datum
 BSD1.               2850:   Depth drilled with bit1
 MCSS.               MEAS:   Source Rmc.
 TLI .                230:   Top log interval
~OTHER INFORMATION
~A   DEPT      SPR        ILD         SN       RHOB       CALD       DCOR          GRD 
  218.0000  -999.2500  -999.2500  -999.2500  -999.2500  -999.2500  -999.2500     2.6800
  218.5000  -999.2500  -999.2500  -999.2500  -999.2500  -999.2500  -999.2500     2.0070
  219.0000  -999.2500  -999.2500  -999.2500  -999.2500  -999.2500  -999.2500     5.0720
  219.5000  -999.2500  -999.2500  -999.2500  -999.2500  -999.2500  -999.2500     7.3440
  220.0000  -999.2500  -999.2500  -999.2500  -999.2500  -999.2500  -999.2500     9.9520
  220.5000  -999.2500  -999.2500  -999.2500  -999.2500  -999.2500  -999.2500     9.6970
  221.0000  -999.2500  -999.2500  -999.2500  -999.2500  -999.2500  -999.2500     9.4690
  221.5000  -999.2500  -999.2500  -999.2500  -999.2500  -999.2500  -999.2500     9.2530
  222.0000  -999.2500  -999.2500  -999.2500  -999.2500  -999.2500  -999.2500     9.0270
  222.5000  -999.2500  -999.2500  -999.2500  -999.2500  -999.2500  -999.2500     8.8200
  223.0000  -999.2500  -999.2500  -999.2500  -999.2500  -999.2500  -999.2500     8.6070
  223.5000  -999.2500  -999.2500  -999.2500  -999.2500  -999.2500  -999.2500     8.3990
  224.0000  -999.2500  -999.2500  -999.2500  -999.2500  -999.2500  -999.2500     8.2140
  224.5000  -999.2500  -999.2500  -999.2500  -999.2500     7.6190  -999.2500     8.5490
  225.0000  -999.2500  -999.2500  -999.2500  -999.2500     7.6190  -999.2500     9.7710
  225.5000  -999.2500  -999.2500  -999.2500  -999.2500     7.6190  -999.2500    10.9630
  226.0000  -999.2500  -999.2500  -999.2500  -999.2500     7.6190  -999.2500    12.1810
  226.5000  -999.2500  -999.2500  -999.2500  -999.2500     7.6200  -999.2500    11.8020
  227.0000  -999.2500  -999.2500  -999.2500  -999.2500     7.6280  -999.2500    10.6160
  227.5000  -999.2500  -999.2500  -999.2500  -999.2500     7.6350  -999.2500    10.2780
  228.0000  -999.2500  -999.2500  -999.2500  -999.2500     7.6420  -999.2500    14.3890
  228.5000  -999.2500  -999.2500  -999.2500  -999.2500     7.6490  -999.2500    13.5800
  229.0000  -999.2500  -999.2500  -999.2500  -999.2500     7.6560  -999.2500    11.9400
  229.5000  -999.2500  -999.2500  -999.2500  -999.2500     7.6630  -999.2500    10.3160
  230.0000  -999.2500  -999.2500  -999.2500  -999.2500     7.6700  -999.2500     8.6760
  230.5000  -999.2500  -999.2500  -999.2500  -999.2500     7.6780  -999.2500     8.0590
  231.0000  -999.2500  -999.2500  -999.2500  -999.2500     7.6850    -0.1570     8.1370
  231.5000  -999.2500  -999.2500  -999.2500  -999.2500     7.6920    -0.1600     8.6760
  232.0000  -999.2500  -999.2500  -999.2500     2.2590     7.6990    -0.1670     9.2640
  232.5000  -999.2500  -999.2500  -999.2500     2.2410     7.7000    -0.1720     7.7670
  233.0000  -999.2500  -999.2500  -999.2500     2.2440     7.7060    -0.1800     5.6780
  233.5000  -999.2500  -999.2500  -999.2500     2.2470     7.7140    -0.1870     3.5930
  234.0000  -999.2500  -999.2500  -999.2500     2.2470     7.7230    -0.1390     2.8100
  234.5000  -999.2500     6.2290  -999.2500     2.2130     7.7300     0.2600     7.5770
  235.0000  -999.2500     8.0570  -999.2500     2.1440     7.7310     0.2440    11.2400
  235.5000  -999.2500     9.7590  -999.2500     2.0400     8.0390     0.2100    18.4240
  236.0000  -999.2500    11.7250    19.3880     2.1610     8.4040     0.1950    26.7390
  236.5000  -999.2500    11.7020    19.2610     2.2310     8.4300     0.2480    35.0310
  237.0000  -999.2500    12.9310    19.1500     2.0750     8.4350     0.2200    36.7380
  237.5000   -94.5860    12.7240    19.0400     2.1530     8.4400     0.2230    37.5110
  238.0000   -83.3250    12.6900    18.8960     2.2740     8.4390     0.2130    37.7480
  238.5000   -76.5260    13.8910    18.5560     2.2830     8.6790     0.1630    35.8460
  239.0000   -72.4910    14.7890    18.1960     2.3110     8.7320     0.1140    33.8010
  239.5000   -69.4800    14.9060    17.8360     2.3620     8.7130     0.0640    31.6340
  240.0000   -65.4530    14.9310    17.4770     2.4300     8.7700     0.0360    32.3780
  240.5000   -62.1630    14.9560    17.1320     2.4160     9.1220     0.0370    33.8040
  241.0000   -60.9370    14.9800    17.1320     2.3880     9.2450     0.0370    32.7480
  241.5000   -59.6690    15.0050    17.1320     2.3590     8.6860     0.0380    32.0350
  242.0000   -58.7480    15.0300    17.1320     2.3580     8.5890     0.0390    34.6740
  242.5000   -60.0150    15.0540    17.1320     2.3740     8.5920     0.0400    38.1220
  243.0000   -61.5200    15.0790    17.1320     2.3780     8.6080     0.0400    38.7840
  243.5000   -64.6910    15.1040    17.1320     2.3770     8.6230     0.0410    38.0620
  244.0000   -69.0450    15.1290    17.1320     2.3730     8.6730     0.0420    37.3480
  244.5000   -73.4300    15.1530    16.8990     2.3630     8.7250     0.0420    37.4370
  245.0000   -78.0010    15.1660    16.6430     2.3530     8.7780     0.0520    40.0970
  245.5000   -79.5280    15.1670    16.3870     2.3430     8.8310     0.0610    42.3840
  246.0000   -80.9380    15.0780    16.1310     2.3330     8.8830     0.0630    41.4320
  246.5000   -82.0580    14.9440    15.8750     2.3240     8.9270     0.0540    36.7270
  247.0000   -82.2140    14.8100    15.6190     2.3400     8.9100     0.0460    32.4100
  247.5000   -82.2590    14.6760    15.3630     2.3570     8.8950     0.0460    32.9250
  248.0000   -82.3060    14.5420    14.9960     2.3740     8.8800     0.0460    33.9690
  248.5000   -82.3530    14.4080    14.5980     2.3920     8.8650     0.0470    31.1860
  249.0000   -82.4010    14.2740    14.2010     2.4090     8.8490     0.0480    31.0200
  249.5000   -82.4490    14.1400    13.8030     2.4170     8.8340     0.0490    35.8750
  250.0000   -82.4960    14.0060    13.4050     2.4070     8.8190     0.0500    39.7850
  250.5000   -82.5440    13.8320    13.0070     2.3990     8.8080     0.0500    43.6980
  251.0000   -82.5910    13.8080    12.6090     2.3910     8.8080     0.0510    47.6770
  251.5000   -82.6390    13.9380    12.2120     2.3790     8.8090     0.0520    48.2640
  252.0000   -82.6870    13.8920    11.9630     2.3860     8.8080     0.0530    46.9790
  252.5000   -82.7340    13.8220    11.8920     2.4050     8.8090     0.0540    51.7590
  253.0000   -82.7810    13.7520    11.8200     2.4240     8.8110     0.0540    55.4780
  253.5000   -82.8410    13.6820    11.7490     2.4430     8.8130     0.0540    53.9930
  254.0000   -83.3200    13.6120    11.6780     2.4530     8.8150     0.0540    52.3440
  254.5000   -83.8310    13.5410    11.6060     2.4540     8.8160     0.0520    50.7380
  255.0000   -84.3410    13.4710    11.5350     2.4540     8.8180     0.0470    49.1160
  255.5000   -84.8490    13.4010    11.4640     2.4630     8.8200     0.0410    47.4620
  256.0000   -85.3570    13.3310    11.3920     2.4720     8.8210     0.0320    48.6100
  256.5000   -85.7140    13.2480    11.3210     2.4740     8.8230     0.0250    50.2890
  257.0000   -85.8780    13.0990    11.2490     2.4650     8.8250     0.0220    51.9470
  257.5000   -86.0440    12.9500    11.1780     2.4580     8.8270     0.0190    51.4310
  258.0000   -86.2080    12.8010    11.0250     2.4730     8.8280     0.0160    50.9400
  258.5000   -86.3720    12.6530    10.9880     2.4890     8.8460     0.0130    51.0050
  259.0000   -86.5370    12.5040    10.8650     2.5000     8.8830     0.0160    52.9520
  259.5000   -86.6910    12.3550    10.7420     2.4940     8.9190     0.0200    54.7000
  260.0000   -86.8410    12.2060    10.6190     2.4840     8.9510     0.0240    53.0760
  260.5000   -86.8160    12.0570    10.4960     2.4730     8.9530     0.0270    51.3260
  261.0000   -86.7700    11.9090    10.3730     2.4630     8.9570     0.0310    49.5680
  261.5000   -86.7240    11.8840    10.2500     2.4530     8.9600     0.0350    48.5030
  262.0000   -86.6780    11.8960    10.2000     2.4600     8.9630     0.0360    51.7170
  262.5000   -86.6330    11.9070    10.1670     2.4700     8.9660     0.0360    55.3540
  263.0000   -86.5870    11.9180    10.1320     2.4720     8.9700     0.0360    58.2150
