~VERSION INFORMATION
 VERS.                2.0:   CWLS LOG ASCII STANDARD - VERSION 2.0
 WRAP.                 NO:   ONE LINE PER DEPTH STEP
~WELL INFORMATION
#MNEM.UNIT      DATA TYPE    INFORMATION
#----------   ------------   ------------------------------
 STRT.F          200.5000:   START DEPTH
 STOP.F         3118.5000:   STOP DEPTH
 STEP.F            0.5000:   STEP LENGTH
 NULL.          -999.2500:   NO VALUE
 COMP.    FENIX & SCISSON:   COMPANY
 WELL. FENIX SCISSON "A" #16-27:   WELL
 FLD .                NPR:   FIELD
 LOC .      S27 T39N R78W:   LOCATION
 CNTY.            NATRONA:   COUNTY
 STAT.            WYOMING:   STATE
 CTRY. UNITED STATES OF AMERICA:   COUNTRY
 SRVC.       SCHLUMBERGER:   SERVICE COMPANY
 DATE.        31-AUG-1977:   LOGDATE
 API .     49025104180000:   API NUMBER
~CURVE INFORMATION
#MNEM.UNIT       API CODE    CURVE DESCRIPTION
#----------   ------------   ------------------------------
 DEPT.F                  :   
 CALD.IN     45 280 60 00:   CALIPER FROM DENSITY LOG
 GRD .GAPI   45 310 01 00:   GAMMA RAY FROM DENSITY LOG
 DPHI.DEC    42 890 03 00:   DENSITY POROSITY SANDSTONE
 RHOB.G/C3   45 350 01 00:   BULK DENSITY
 CORR.G/C3   45 356 01 00:   DENSITY CORRECTION
 SPR .MV     07 010 01 00:   SPONTANEOUS POTENTIAL
 GURD.OHMM   07 220 05 00:   GUARD LOG RESISTIVITY
 ILD .OHMM   07 120 46 00:   DEEP INDUCTION RESISTIVITY
 ILM .OHMM   07 120 44 00:   INDUCTION LOG MEDIUM RESISTIVITY
~PARAMETER INFORMATION
#MNEM.UNIT          VALUE    DESCRIPTION
#----------   ------------   ------------------------------
 EKB .F         5095.0000:   Kelly bushing
 EGL .F         5085.0000:   Ground level
 EDF .F            0.0000:   Drilling floor
 TD  .F         3121.0000:   Total depth
 DATE.        31-AUG-1977:   Date logged
 CLNT.            A2DTECH:   Client Code
 SL  . 1430' FSL & 330' FNL:   Surface Location
 PD  .                 GL:   Permanent Datum
 EPD .F              5085:   Elevation Permanent Datum
 LMF .                 KB:   Log Measured From
 DMF .                 KB:   Drilling Measured From
 DAPD.F                10:   Feet Above Permanent Datum
 DD  .F              3120:   Depth driller
 DL  .F              3121:   Depth logger
 BLI .F              3119:   Bottom log interval
 TLI .F               200:   Top log interval
 CS1 .IN            8.625:   Casing size
 CBD1.      8.625" @ 206':   Casing driller 1
 CBL1.F               215:   Casing logger 1
 BS1 .IN            7.875:   Bit size
 BSD1.F              3120:   Depth drilled with bit1
 DFT .            KCL/MUD:   Type fluid in hole
 DFD .                  9:   Density
 DFV .                 36:   Viscosity
 DFPH.                 11:   pH
 DFL .                8.4:   Fluid loss
 MSS .           FLOWLINE:   Source of sample
 RMS .OHMM            2.5:   Rm
 MST .F                89:   Rm Meas. temp.
 RMF .OHMM           2.45:   Rmf
 MFST.F                89:   Rmf Meas. temp.
 RMC .OHMM           3.30:   Rmc
 MCST.F                89:   Rmc Meas. temp.
 MFSS.               FANN:   Source Rmf.
 MCSS.                KIT:   Source Rmc.
 RMB .OHMM           1.91:   Rm. at BHT
 BHT .F               116:   BHT.
 TCS .HRS              12:   Time Circ. stopped
 MRT .F               116:   Maximum recorded temp.
 LUN .               9585:   Logging unit number
 LUL .             CASPEN:   Logging unit location
 ENGI.         G. BENTSEN:   Recorded By
 WITN.      W. PETTINGILL:   Witnessed by
 ORIG.           5" PRINT:   Origin of data
 UWI .     49025104180000:   Unique Well ID
 DICO. A2D TECHNOLOGIES, INC.:   Digitizing Company
~OTHER INFORMATION
~A   DEPT     CALD         GRD      DPHI       RHOB        CORR       SPR       GURD        ILD        ILM   
# ...
 2500.0000     8.5892    96.0538     0.0837     2.5090     0.0080   -63.5701    10.0922     5.3552     6.1673
 2500.5000     8.5887    95.8196     0.0853     2.5028     0.0027   -63.5690     9.2014     5.4043     6.5160
 2501.0000     8.5878    95.2245     0.0861     2.5011     0.0098   -63.1753     9.5357     5.4042     6.4564
 2501.5000     8.5674    95.6113     0.0857     2.5019     0.0097   -63.1753     9.9082     5.4041     6.3974
 2502.0000     8.5667    95.5974     0.0821     2.5048     0.0076   -63.1753     8.9432     5.4040     6.2810
 2502.5000     8.5858    95.9787     0.0841     2.5088     0.0076   -63.3726     8.9431     5.4536     6.2808
 2503.0000     8.5851    96.3600     0.0837     2.5107     0.0075   -63.3726     8.9429     5.5036     6.2234
 2503.5000     8.5646    97.1364     0.0846     2.5087     0.0074   -63.5700     8.9428     5.4533     6.2233
 2504.0000     8.5837    97.1225     0.0862     2.5067     0.0053   -63.1753     8.6209     5.4532     6.2231
 2504.5000     8.5830    97.5066     0.0866     2.5057     0.0052   -63.7674     8.8610     5.4033     6.2803
 2505.0000     8.5625    97.4927     0.0874     2.5036     0.0032   -63.5700     8.8608     5.4032     6.3380
 2505.5000     8.6013    97.4788     0.0882     2.5036     0.0011   -63.7674     8.5419     5.3538     6.3379
 2506.0000     8.6006    97.4649     0.0886     2.5036    -0.0010   -63.7674     8.4638     5.3537     6.3378
 2506.5000     8.5802    97.0558     0.0890     2.5035    -0.0051   -63.7674     8.5416     5.3536     6.3376
 2507.0000     8.5597    97.0419     0.0890     2.5035    -0.0032   -63.7674     8.5414     5.3534     6.3958
 2507.5000     8.5393    96.2376     0.0863     2.5084    -0.0092   -63.5700     8.5413     5.2082     6.4546
 2508.0000     8.5386    95.8286     0.0819     2.5114    -0.0073   -63.7674     8.5411     5.2560     6.5139
 2508.5000     8.5379    94.6291     0.0795     2.5153    -0.0034   -63.5700     8.5410     5.2559     6.6343
 2509.0000     8.5372    93.0317     0.0783     2.5203    -0.0015   -63.5700     8.5408     5.4022     6.9455
 2509.5000     8.5365    89.4660     0.0776     2.5213    -0.0016   -63.7674     9.5332     5.6036     7.0739
 2510.0000     8.5359    87.0810     0.0716     2.5251     0.0003   -63.7674     9.8888     5.6036     7.0738
 2510.5000     8.5353    84.3009     0.0696     2.5290     0.0002   -63.7674    10.4474     5.6551     7.4738
 2511.0000     8.5148    82.7063     0.0681     2.5329     0.0021   -63.7674    11.2417     5.9744     7.8243
 2511.5000     8.5141    82.2924     0.0653     2.5367     0.0021   -63.7674    11.6612     5.9743     7.9690
 2512.0000     8.5332    81.0929     0.0617     2.5406     0.0020   -63.5700    11.6610     6.1971     7.9689
 2512.5000     8.5325    79.8935     0.0605     2.5444    -0.0001   -63.1753    11.1387     6.3697     8.1910
 2513.0000     8.5318    77.9037     0.0586     2.5483    -0.0002   -62.9779    10.4467     6.6074     8.3426
 2513.5000     8.5311    75.1207     0.0578     2.5522    -0.0023   -62.9779    10.7376     6.8538     8.8956
 2514.0000     8.5106    73.9213     0.0546     2.5560    -0.0004   -62.9779    13.3782     7.1750     9.3738
 2514.5000     8.5297    73.5122     0.0538     2.5597    -0.0004   -62.9779    35.0111     7.3748     9.5473
 2515.0000     8.5290    74.2887     0.0578     2.5597    -0.0005   -62.7805    74.9001     7.6499     9.5471
 2515.5000     8.5283    76.6486     0.0590     2.5576     0.0014   -63.3726    85.9356     7.7913     9.3734
 2516.0000     8.5276    80.1914     0.0618     2.5536     0.0033   -63.3726    44.4357     7.7911     9.0354
 2516.5000     8.5269    84.1293     0.0661     2.5456     0.0052   -63.5700    22.9769     7.6495     8.3189
 2517.0000     8.5460    87.6720     0.0704     2.5416     0.0031   -63.7674    12.4318     7.4419     7.6804
 2517.5000     8.5650    91.2175     0.0738     2.5336     0.0070   -63.7674    10.1620     7.3067     7.4718
 2518.0000     8.5841    94.7602     0.0766     2.5276     0.0089   -63.7674    10.1619     7.1084     7.3358
 2518.5000     8.6229    97.1174     0.0794     2.5206     0.0068   -63.7674    10.2553     6.7899     7.2023
 2519.0000     8.6420    97.8938     0.0810     2.5136     0.0048   -63.7674    10.3495     6.5454     7.0067
 2519.5000     8.6808    97.4847     0.0814     2.5076     0.0067   -63.7674    10.4446     6.4264     7.1363
 2520.0000     8.6801    96.6805     0.0799     2.5086     0.0066   -63.7674    11.0349     6.1385     6.9424
 2520.5000     8.6794    97.0694     0.0799     2.5105     0.0065   -63.3553    10.5405     6.0824     7.0709
 2521.0000     8.6985    98.2410     0.0815     2.5145     0.0064   -63.5700    10.1610     6.0268     7.0061
 2521.5000     8.6978    99.0175     0.0819     2.5144     0.0063   -63.5700     9.7951     6.0266     7.0706
 2522.0000     8.7169   100.1891     0.0791     2.5114     0.0062   -63.7674     9.5293     6.0265     7.0059
 2522.5000     8.7162   100.1752     0.0823     2.5054     0.0062   -63.7674     9.3561     6.0264     7.0057
 2523.0000     8.7155   100.1613     0.0899     2.5027     0.0041   -63.9647     9.3560     6.0262     6.9416
 2523.5000     8.7347    98.9619     0.0927     2.5001     0.0020   -63.9647     9.6166     6.0261     7.0700
 2524.0000     8.7537    98.5556     0.0947     2.4974     0.0019   -63.9647     9.6164     6.0260     7.0699
 2524.5000     8.7530    97.7485     0.0947     2.4943     0.0019   -63.9647    10.0672     6.0258     7.2670
 2525.0000     8.7721    96.1539     0.0971     2.4933     0.0018   -63.5700    10.1597     6.0257     7.4015
 2525.5000     8.7714    94.9517     0.0991     2.4903     0.0017   -63.5700    10.0669     6.0255     7.6780
 2526.0000     8.7707    94.9461     0.0987     2.4883    -0.0024   -62.9779     9.6158     6.0254     8.0382
 2526.5000     8.7700    94.5287     0.0979     2.4882    -0.0005   -62.9779     9.8837     6.0253     8.1122
 2527.0000     8.7693    94.5176     0.0996     2.4882     0.0014   -62.9779     9.8836     6.0252     8.1868
 2527.5000     8.7884    94.5037     0.0992     2.4881     0.0013   -63.1753    10.0663     6.0250     8.4151
 2528.0000     8.7679    94.0918     0.0972     2.4891     0.0032   -63.1753    10.1589     6.3075     8.2619
 2528.5000     8.7672    94.0779     0.0952     2.4891     0.0012   -63.3726    10.7330     6.3073     8.1864
 2529.0000     8.7863    95.6475     0.0936     2.4910     0.0011   -63.5700    10.3465     6.3072     8.2617
 2529.5000     8.7856    94.4481     0.0937     2.4920     0.0010   -63.5700     9.7926     6.3071     8.4921
 2530.0000     8.7652    94.4342     0.0937     2.4920     0.0009   -63.5700     9.5269     6.3069     8.9725
 2530.5000     8.7645    94.0251     0.0937     2.4919     0.0028   -63.5700    10.1581     6.3068     8.9724
 2531.0000     8.7835    94.7988     0.0933     2.4909     0.0028   -63.5700    10.2514     6.3066     8.9723
 2531.5000     8.7828    94.7876     0.0921     2.4909     0.0027   -63.5700    10.2513     6.3065     9.0548
 2532.0000     8.7821    94.7765     0.0905     2.4938     0.0026   -63.5700    10.0649     6.3064     9.1381
 2532.5000     8.7814    94.7598     0.0898     2.4968     0.0025   -63.1753    10.0647     6.3643     8.6484
 2533.0000     8.7610    94.7459     0.0902     2.4997     0.0023   -63.1753    10.1573     6.3642     8.1102
 2533.5000     8.7800    94.7320     0.0906     2.5007     0.0023   -63.1753    10.2507     6.0789     8.3365
 2534.0000     8.7596    94.3230     0.0890     2.5016     0.0042   -63.1753    10.3449     6.0788     8.5690
 2534.5000     8.7787    94.3091     0.0870     2.5016     0.0021   -63.3726     9.9723     6.0786     8.2600
 2535.0000     8.7780    94.6903     0.0882     2.5016     0.0040   -63.3726     9.6131     6.0230     8.1097
 2535.5000     8.7377    95.8599     0.0871     2.5015     0.0020   -63.3726     8.8516     6.0229     8.0354
 2536.0000     8.7568    96.2384     0.0871     2.5025    -0.0001   -63.3726     7.4365     6.0228     7.6749
