~VERSION INFORMATION
 VERS.                2.0:   CWLS LOG ASCII STANDARD - VERSION 2.0
 WRAP.                 NO:   ONE LINE PER DEPTH STEP
~WELL INFORMATION
#MNEM.UNIT      DATA TYPE    INFORMATION
#----------   ------------   ------------------------------
 STRT.F          200.0000:   START DEPTH
 STOP.F         3060.0000:   STOP DEPTH
 STEP.F            0.5000:   STEP LENGTH
 NULL.          -999.2500:   NO VALUE
 COMP.    FENIX & SCISSON:   COMPANY
 WELL. FENIX NPR 3 "AX" #58-21:   WELL
 FLD .      NPR - WILDCAT:   FIELD
 LOC .      S21 T39N R78W:   LOCATION
 CNTY.            NATRONA:   COUNTY
 STAT.            WYOMING:   STATE
 CTRY. UNITED STATES OF AMERICA:   COUNTRY
 SRVC.              WELEX:   SERVICE COMPANY
 DATE.        12-JUN-1977:   LOGDATE
 API .     49025103790000:   API NUMBER
~CURVE INFORMATION
#MNEM.UNIT       API CODE    CURVE DESCRIPTION
#----------   ------------   ------------------------------
 DEPT.F                  :   
 CALD.IN     45 280 60 00:   CALIPER FROM DENSITY LOG
 GRD .GAPI   45 310 01 00:   GAMMA RAY FROM DENSITY LOG
 CORR.G/C3   45 356 01 00:   DENSITY CORRECTION
 RHOB.G/C3   45 350 01 00:   BULK DENSITY
 SPR .MV     07 010 01 00:   SPONTANEOUS POTENTIAL
 ILD .OHMM   07 120 46 00:   DEEP INDUCTION RESISTIVITY
 GURD.OHMM   07 220 05 00:   GUARD LOG RESISTIVITY
 ILM .OHMM   07 120 44 00:   INDUCTION LOG MEDIUM RESISTIVITY
 DT  .US/F   60 520 00 00:   DELTA TIME
 SPHI.DEC    60 890 00 00:   SONIC POROSITY
~PARAMETER INFORMATION
#MNEM.UNIT          VALUE    DESCRIPTION
#----------   ------------   ------------------------------
 EKB .F         5016.0000:   Kelly bushing
 EGL .F         5006.0000:   Ground level
 EDF .F            0.0000:   Drilling floor
 EPD .F            0.0000:   Permanent datum
 TD  .F         3062.0000:   Total depth
 DATE.        12-JUN-1977:   Date logged
 CLNT.            A2DTECH:   Client Code
 SL  . 280' FSL & 2160' FEL:   Surface Location
 PD  .                 GL:   Permanent Datum
 DD  .F              3060:   Depth driller
 DL  .F              3062:   Depth logger
 BLI .F              3060:   Bottom log interval
 TLI .F              2450:   Top log interval
 CS1 .IN            8.625:   Casing size
 CBD1.      8.625" @ 200':   Casing driller 1
 CBL1.F               218:   Casing logger 1
 BS1 .IN            7.875:   Bit size
 BSD1.F              3060:   Depth drilled with bit1
 DFT .            KCL/MUD:   Type fluid in hole
 DFD .                8.7:   Density
 DFV .                 33:   Viscosity
 DFPH.                7.5:   pH
 DFL .                 36:   Fluid loss
 MSS .           FLOWLINE:   Source of sample
 TCS .HRS             4.5:   Time Circ. stopped
 MRT .F               110:   Maximum recorded temp.
 LUN .               8611:   Logging unit number
 LUL .           GILLETTE:   Logging unit location
 ENGI.            C. DOAK:   Recorded By
 WITN.            RHOADES:   Witnessed by
 ORIG.           5" PRINT:   Origin of data
 UWI .     49025103790000:   Unique Well ID
 DICO. A2D TECHNOLOGIES, INC.:   Digitizing Company
 DAPD.                 10:   Feet Above Permanent Datum
 RMS .OHMM            1.3:   Rm
 MST .F                84:   Rm Meas. temp.
 RMF .OHMM            .52:   Rmf
 MFST.F                84:   Rmf Meas. temp.
 MFSS.               FANN:   Source Rmf.
 RMC .OHMM           1.43:   Rmc
 MCST.F                84:   Rmc Meas. temp.
 MCSS.                KIT:   Source Rmc.
 RMB .OHMM            .99:   Rm. at BHT
 BHT .F               110:   BHT.
~OTHER INFORMATION
~A   DEPT     CALD         GRD      CORR       RHOB        SPR        ILD       GURD        ILM         DT       SPHI   
# ...
 2813.0000     8.8910   120.7260    -0.0020     2.4920   -66.8040     6.0960     7.5540     6.3060    80.8860     0.2060
 2813.5000     8.8940   122.5480    -0.0020     2.4990   -66.7740     6.0960     7.6820     6.2410    80.1390     0.2000
 2814.0000     8.8980   124.3550    -0.0020     2.5070   -66.7420     5.9840     7.8110     6.1770    79.8070     0.1960
 2814.5000     8.9010   126.3550    -0.0020     2.5110   -66.7120     5.8190     7.9390     6.1120    79.4750     0.1910
 2815.0000     8.9040   128.7580     0.0010     2.5110   -66.6810     5.6530     8.0360     6.0470    79.4420     0.1910
 2815.5000     8.9080   131.0840     0.0030     2.5110   -66.6480     5.4330     7.8830     5.9850    79.9400     0.1920
 2816.0000     8.9110   133.4450     0.0060     2.5110   -66.6240     5.1420     7.5310     5.6380    80.9360     0.1940
 2816.5000     8.9150   135.8200     0.0090     2.5050   -66.5120     4.8500     7.1790     5.3020    81.9320     0.2070
 2817.0000     8.9180   138.1470     0.0110     2.4970   -66.2810     4.5590     6.8270     4.9650    83.2270     0.2180
 2817.5000     8.9210   140.5130     0.0140     2.4890   -66.0590     4.2670     6.4740     4.6280    84.7210     0.2310
 2818.0000     8.9250   142.9830     0.0170     2.4810   -65.8330     3.9760     6.2090     4.2920    86.9460     0.2480
 2818.5000     8.9280   144.9730     0.0170     2.4720   -65.6070     3.6840     5.1400     3.9550    89.6570     0.2650
 2819.0000     8.9320   144.9690     0.0130     2.4650   -65.4150     3.1990     4.2270     3.6180    92.3680     0.2820
 2819.5000     8.9350   143.3200     0.0100     2.4560   -65.5090     3.2590     3.8380     3.2590    95.0800     0.2990
 2820.0000     8.9380   140.7080     0.0070     2.4520   -65.7890     3.3190     3.6310     3.5100    95.2790     0.2980
 2820.5000     8.9420   132.1280     0.0040     2.4550   -66.0660     3.6290     3.8460     3.7790    93.0880     0.2860
 2821.0000     8.9450   125.1170     0.0010     2.4650   -66.3460     3.9060     5.8440     4.0490    91.4940     0.2570
 2821.5000     8.9520   117.5930    -0.0020     2.4750   -66.6220     4.1830     7.1950     4.3180    82.5300     0.2270
 2822.0000     8.9580   111.9260    -0.0050     2.4850   -66.9050     4.4590     6.9850     4.5880    81.1350     0.2040
 2822.5000     8.9640   112.9660    -0.0080     2.4950   -67.0030     4.7360     7.0640     4.8570    79.7410     0.1940
 2823.0000     8.9710   116.2560    -0.0100     2.5060   -67.0000     5.0130     7.2700     5.1270    79.7410     0.1940
 2823.5000     8.9770   115.7850    -0.0100     2.5070   -67.0720     5.2890     7.5110     5.3960    79.1430     0.1900
 2824.0000     8.9830   115.1710    -0.0100     2.5060   -67.1440     5.5590     7.7450     5.6660    78.8450     0.1880
 2824.5000     8.9890   116.4770    -0.0080     2.5050   -67.2170     5.5590     7.5650     5.7680    78.5460     0.1850
 2825.0000     8.9950   118.0380    -0.0050     2.5040   -67.2890     5.5350     7.2740     5.8750    78.8450     0.1850
 2825.5000     9.0020   119.7140    -0.0020     2.5030   -67.3610     5.4750     6.9830     5.8750    79.5640     0.1890
 2826.0000     9.0080   121.2970    -0.0020     2.5020   -67.4330     5.4140     6.6920     5.8750    80.6150     0.1990
 2826.5000     9.0140   122.7740    -0.0020     2.5000   -67.5070     5.3540     6.4010     5.8750    81.6670     0.2080
 2827.0000     9.0200   123.6020    -0.0030     2.4990   -67.5750     5.2930     6.0960     5.7590    82.9280     0.2200
 2827.5000     9.0240   125.1660    -0.0050     2.5000   -67.6550     5.2330     6.0960     5.6600    83.3270     0.2210
 2828.0000     9.0200   127.9020    -0.0060     2.5020   -67.7200     5.1720     6.4400     5.5610    82.7290     0.2160
 2828.5000     9.0160   131.2930    -0.0080     2.5040   -67.7610     5.1120     6.7420     5.4610    82.1310     0.2110
 2829.0000     9.0120   134.5350    -0.0090     2.5060   -67.4580     5.0700     7.0440     5.3620    81.2350     0.2060
 2829.5000     9.0090   137.7600    -0.0100     2.5060   -67.1840     4.9830     7.1950     5.2620    80.7370     0.2000
 2830.0000     9.0050   141.0270    -0.0120     2.5030   -66.8880     4.8070     7.0640     5.1630    80.9860     0.1980
 2830.5000     9.0010   144.2740    -0.0140     2.5000   -66.6050     4.6320     6.7580     5.0700    81.7330     0.2050
 2831.0000     8.9970   147.5140    -0.0120     2.4970   -66.3180     4.4570     6.3840     4.9350    82.3310     0.2160
 2831.5000     8.9940   150.7760    -0.0080     2.4950   -66.0250     4.2810     6.0100     4.7320    84.6020     0.2280
 2832.0000     8.9900   154.0490    -0.0060     2.4940   -65.8110     4.1060     5.4010     4.5290    86.4940     0.2410
 2832.5000     8.9860   157.2000    -0.0040     2.4930   -65.7250     3.9300     4.6610     4.3250    88.3860     0.2550
 2833.0000     8.9820   160.7080    -0.0020     2.4930   -65.6080     3.7550     3.7760     4.1220    89.9000     0.2690
 2833.5000     8.9790   162.9430    -0.0020     2.4950   -65.5080     3.5790     5.1120     3.9180    91.0960     0.2880
 2834.0000     8.9750   161.3620    -0.0030     2.4970   -65.4210     3.5080     7.9120     3.9180    91.2950     0.2790
 2834.5000     8.9710   158.0850    -0.0050     2.4990   -65.7430     3.6390    10.7900     3.9910    88.7340     0.2630
 2835.0000     8.9670   152.6240    -0.0070     2.5010   -66.1520     3.7760     5.2610     4.1380    86.5990     0.2480
 2835.5000     8.9640   144.2630    -0.0090     2.5030   -66.5760     3.8460     6.4420     4.3990    84.6020     0.2320
 2836.0000     8.9600   136.1900    -0.0100     2.5030   -66.5940     4.1130     6.5620     4.6600    82.8090     0.2180
 2836.5000     8.9560   128.7270    -0.0090     2.5020   -66.5990     4.4720     6.7890     4.9210    81.5340     0.2050
 2837.0000     8.9520   119.6490    -0.0060     2.5010   -66.4470     4.8310     7.0640     5.1820    81.0360     0.1990
 2837.5000     8.9490   117.9070    -0.0030     2.5000   -66.2900     5.1900     7.2690     5.4430    80.5380     0.2020
 2838.0000     8.9450   116.2520    -0.0020     2.4990   -66.1250     5.5490     7.4540     5.7040    80.2060     0.2000
 2838.5000     8.9410   115.0160    -0.0030     2.4990   -65.9620     5.8750     7.6390     5.9650    79.8740     0.1950
 2839.0000     8.9370   113.3710    -0.0040     2.4980   -65.8000     5.9850     7.8230     6.2090    79.5420     0.1910
 2839.5000     8.9340   112.8270    -0.0050     2.4970   -65.6400     6.1200     8.0360     6.3410    79.2100     0.1870
 2840.0000     8.9300   113.6590    -0.0060     2.4970   -65.4650     6.1560     7.9100     6.4650    78.9440     0.1870
 2840.5000     8.9260   114.3380    -0.0070     2.4980   -65.5060     6.1920     7.6280     6.5890    79.1430     0.1870
 2841.0000     8.9220   115.0420    -0.0080     2.4980   -65.9050     6.2290     7.4650     6.7130    78.7330     0.1860
 2841.5000     8.9190   115.7360    -0.0090     2.4990   -66.1950     6.2650     7.6640     6.8380    78.0480     0.1820
 2842.0000     8.9150   116.6720    -0.0100     2.4990   -66.2070     6.3010     7.8600     6.9620    77.3630     0.1760
 2842.5000     8.9110   117.5370    -0.0110     2.4990   -66.1480     6.3380     8.0560     7.0860    76.7530     0.1710
 2843.0000     8.9070   116.6210    -0.0120     2.4970   -66.0200     6.3740     8.3370     7.2100    77.0140     0.1740
 2843.5000     8.9050   115.1180    -0.0130     2.4940   -65.9090     6.4100     8.2540     7.3340    77.4500     0.1770
 2844.0000     8.9020   113.9560    -0.0140     2.4910   -65.7940     6.4470     8.1050     7.4650    77.8860     0.1800
 2844.5000     8.8960   112.7330    -0.0130     2.4930   -65.6770     6.4830     7.8890     7.3290    78.1470     0.1830
 2845.0000     8.8900   111.5220    -0.0090     2.4980   -65.5710     6.5190     7.8890     7.3290    78.1470     0.1830
 2845.5000     8.8850   110.3240    -0.0060     2.5030   -65.4340     6.5560     8.0360     7.3290    77.3510     0.1770
 2846.0000     8.8790   109.0830    -0.0060     2.5040   -65.5650     6.5920     9.8810     7.3290    75.5450     0.1620
