~VERSION INFORMATION
 VERS.                2.0:   CWLS LOG ASCII STANDARD - VERSION 2.0
 WRAP.                 NO:   ONE LINE PER DEPTH STEP
~WELL INFORMATION
#MNEM.UNIT      DATA TYPE    INFORMATION
#----------   ------------   ------------------------------
 STRT.F            7.5000:   START DEPTH
 STOP.F         3140.0000:   STOP DEPTH
 STEP.F            0.5000:   STEP LENGTH
 NULL.          -999.2500:   NO VALUE
 COMP. LAWRENCE ALLISON WEST:   COMPANY
 WELL. LAWRENCE NPR 3 "AX" #51-3:   WELL
 FLD .                NPR:   FIELD
 LOC .       S3 T38N R78W:   LOCATION
 CNTY.            NATRONA:   COUNTY
 STAT.            WYOMING:   STATE
 CTRY. UNITED STATES OF AMERICA:   COUNTRY
 SRVC.      DRESSER ATLAS:   SERVICE COMPANY
 DATE.        09-NOV-1986:   LOGDATE
 API .     49025111180000:   API NUMBER
~CURVE INFORMATION
#MNEM.UNIT       API CODE    CURVE DESCRIPTION
#----------   ------------   ------------------------------
 DEPT.F                  :   
 CALD.IN     45 280 60 00:   CALIPER FROM DENSITY LOG
 DEN .LBS    45 350 01 00:   BULK DENSITY
 CORR.G/C3   45 356 01 00:   DENSITY CORRECTION
 NPOR.DEC    42 890 03 00:   ALPHA PROCESSED NEUTRON POROSITY
 SPR .MV     07 010 01 00:   SPONTANEOUS POTENTIAL
 GRR .GAPI   07 310 01 00:   GAMMA RAY FROM RESISTIVITY
 SFL .OHMM   07 220 01 00:   SHALLOW FOCUSED LOG RESISTIVITY
 ILD .OHMM   07 120 46 00:   DEEP INDUCTION RESISTIVITY
 ILM .OHMM   07 120 44 00:   INDUCTION LOG MEDIUM RESISTIVITY
 TENR.LBS    07 635 01 00:   TENSION FROM RESISTIVITY
~PARAMETER INFORMATION
#MNEM.UNIT          VALUE    DESCRIPTION
#----------   ------------   ------------------------------
 EKB .F         5132.0000:   Kelly bushing
 EGL .F         5120.0000:   Ground level
 TD  .F         3141.0000:   Total depth
 DATE.        09-NOV-1986:   Date logged
 CLNT.            A2DTECH:   Client Code
 SL  . 249' FNL & 2195' FEL:   Surface Location
 PD  .                 GL:   Permanent Datum
 EPD .F              5120:   Elevation Permanent Datum
 LMF .                 KB:   Log Measured From
 DMF .                 KB:   Drilling Measured From
 DAPD.F                12:   Feet Above Permanent Datum
 DD  .F              3141:   Depth driller
 DL  .F              3132:   Depth logger
 BLI .F              3126:   Bottom log interval
 CS1 .IN            8.625:   Casing size
 CBD1.      8.625" @ 690':   Casing driller 1
 CBL1.F               690:   Casing logger 1
 BS1 .IN            7.875:   Bit size
 BSD1.F              3141:   Depth drilled with bit1
 DFT .        KCL/POLYMER:   Type fluid in hole
 DFD .                8.9:   Density
 DFV .                 34:   Viscosity
 DFPH.                9.5:   pH
 DFL .                9.5:   Fluid loss
 MSS .           FLOWLINE:   Source of sample
 RMS .OHMM           .368:   Rm
 MST .F                66:   Rm Meas. temp.
 RMF .OHMM           .296:   Rmf
 MFST.F                66:   Rmf Meas. temp.
 RMC .OHMM           .468:   Rmc
 MCST.F                66:   Rmc Meas. temp.
 MFSS.               MEAS:   Source Rmf.
 MCSS.               CALC:   Source Rmc.
 RMB .OHMM           .282:   Rm. at BHT
 BHT .F               120:   BHT.
 TCS .HRS             3.5:   Time Circ. stopped
 MRT .F               120:   Maximum recorded temp.
 LUN .            HL-6274:   Logging unit number
 LUL .           GILLETTE:   Logging unit location
 ENGI.             RAUTIO:   Recorded By
 WITN.             STRONG:   Witnessed by
 ORIG.        2" 5" PRINT:   Origin of data
 UWI .     49025111180000:   Unique Well ID
 DICO. A2D TECHNOLOGIES, INC.:   Digitizing Company
~OTHER INFORMATION
~A    DEPT    CALD        DEN       CORR       NPOR        SPR         GRR       SFL        ILD        ILM       TENR   
# ...
  711.0000  -999.2500  -999.2500  -999.2500  -999.2500   -91.7818    94.2091    10.6443    11.6128    11.1899   -37.4136
  711.5000  -999.2500  -999.2500  -999.2500  -999.2500   -92.3835    92.2056    10.8429    11.6123    11.1894   -37.3638
  712.0000  -999.2500  -999.2500  -999.2500  -999.2500   -92.3834    90.6029    11.0451    11.6118    11.1889   -37.3140
  712.5000  -999.2500  -999.2500  -999.2500  -999.2500   -91.7820    90.6033    11.1475    11.6113    11.2926   -37.2642
  713.0000  -999.2500  -999.2500  -999.2500  -999.2500   -90.7796    94.5701    11.1469    11.7190    11.3973   -37.2144
  713.5000  -999.2500  -999.2500  -999.2500  -999.2500   -90.1782    97.4211    11.1464    11.8276    11.5030   -37.1646
  714.0000  -999.2500  -999.2500  -999.2500  -999.2500   -90.1781    96.2193    11.1459    11.9374    11.5025   -37.1148
  714.5000  -999.2500  -999.2500  -999.2500  -999.2500   -90.3784    93.4138    11.1454    11.9367    11.5019   -37.0650
  715.0000  -999.2500  -999.2500  -999.2500  -999.2500   -90.3783    91.8111    11.1449    12.0474    11.5014   -37.0152
  715.5000  -999.2500  -999.2500  -999.2500  -999.2500   -90.5787    92.6138    11.1444    12.0468    11.5009   -26.8949
  716.0000  -999.2500  -999.2500  -999.2500  -999.2500   -90.5786    95.0203    11.1439    12.0462    11.5004   -26.8451
  716.5000  -999.2500  -999.2500  -999.2500  -999.2500   -90.7790    98.2287    11.1433    12.0456    11.4997   -26.7953
  717.0000  -999.2500  -999.2500  -999.2500  -999.2500   -90.7789    97.8287    11.1428    12.0451    11.4992   -26.7455
  717.5000  -999.2500  -999.2500  -999.2500  -999.2500   -90.9793    94.6222    11.1423    12.0445    11.4987   -26.6957
  718.0000  -999.2500  -999.2500  -999.2500  -999.2500   -91.3801    93.4205    11.1417    12.0440    11.4982   -26.6459
  718.5000  -999.2500  -999.2500  -999.2500  -999.2500   -91.5805    94.2233    11.1412    12.0434    11.4976   -26.5862
  719.0000  -999.2500  -999.2500  -999.2500  -999.2500   -91.5804    95.4271    11.1407    11.9316    11.4971   -26.5364
  719.5000  -999.2500  -999.2500  -999.2500  -999.2500   -91.7808    96.6309    11.0375    11.9311    11.3904   -26.4866
  720.0000  -999.2500  -999.2500  -999.2500  -999.2500   -91.5802    97.0328    10.9352    11.8204    11.2848   -26.4368
  720.5000  -999.2500  -999.2500  -999.2500  -999.2500   -91.5802    97.0338    10.7339    11.7108    11.0768   -26.3870
  721.0000  -999.2500  -999.2500  -999.2500  -999.2500   -91.5801    96.2328    10.5364    11.4950    10.8728   -26.3372
  721.5000  -999.2500  -999.2500  -999.2500  -999.2500   -91.5800    95.0308    10.2471    11.2832    10.5739   -36.3579
  722.0000  -999.2500  -999.2500  -999.2500  -999.2500   -91.5799    95.8337     9.8738    10.9731    10.3791   -36.3081
  722.5000  -999.2500  -999.2500  -999.2500  -999.2500   -91.5799    96.6366     9.6027    10.8713    10.1879   -36.2583
  723.0000  -999.2500  -999.2500  -999.2500  -999.2500   -91.5798    97.8406     9.3715    10.7704    10.0933   -36.2085
  723.5000  -999.2500  -999.2500  -999.2500  -999.2500   -90.7777    99.0445     9.3711    10.7699    10.0929   -36.1587
  724.0000  -999.2500  -999.2500  -999.2500  -999.2500   -90.7776    99.4465     9.5460    10.7693    10.5025   -36.1089
  724.5000  -999.2500  -999.2500  -999.2500  -999.2500   -90.9780    98.2445     9.8149    10.7688    10.5020   -36.0591
  725.0000  -999.2500  -999.2500  -999.2500  -999.2500   -90.9780    95.0376     9.9059    10.6689    10.4041   -46.0798
  725.5000  -999.2500  -999.2500  -999.2500  -999.2500   -90.9779    93.8355     9.9055    10.5699    10.3071   -25.8890
  726.0000  -999.2500  -999.2500  -999.2500  -999.2500   -90.7773    93.8364     9.7230    10.5695    10.3067   -25.8392
  726.5000  -999.2500  -999.2500  -999.2500  -999.2500   -90.3762    94.6394     9.5438    10.3747    10.1159   -25.7894
  727.0000  -999.2500  -999.2500  -999.2500  -999.2500   -89.1730    95.8434     9.4553    10.2785    10.0216   -25.7396
  727.5000  -999.2500  -999.2500  -999.2500  -999.2500   -88.1704    96.6464     9.3676    10.0891     9.8360   -25.6798
  728.0000  -999.2500  -999.2500  -999.2500  -999.2500   -88.1702    97.8504     9.2486     9.8118     9.5644   -25.6300
  728.5000  -999.2500  -999.2500  -999.2500  -999.2500   -88.7717    99.0545     9.0784     9.5421     9.3003   -25.5802
  729.0000  -999.2500  -999.2500  -999.2500  -999.2500   -89.9747    99.8575     9.0779     9.3663     9.1281   -25.5304
  729.5000  -999.2500  -999.2500  -999.2500  -999.2500   -90.7766   100.2595     9.0775     9.1937     8.9591   -25.4806
  730.0000  -999.2500  -999.2500  -999.2500  -999.2500   -91.5786   100.2605     9.1616     9.1084     8.8756   -25.4308
  730.5000  -999.2500  -999.2500  -999.2500  -999.2500   -92.1801   100.2615     9.1612     9.0239     8.7929   -25.3810
  731.0000  -999.2500  -999.2500  -999.2500  -999.2500   -92.1800   100.2625     9.2460     8.9402     8.7109   -45.4722
  731.5000  -999.2500  -999.2500  -999.2500  -999.2500   -92.1800   100.2635     9.1603     8.8571     8.6296   -45.4224
  732.0000  -999.2500  -999.2500  -999.2500  -999.2500   -91.9794   100.6656     9.0754     8.7750     8.5492   -45.3726
  732.5000  -999.2500  -999.2500  -999.2500  -999.2500   -91.9793   102.2710     8.9913     8.6133     8.3909   -45.3228
  733.0000  -999.2500  -999.2500  -999.2500  -999.2500   -91.7787   105.4806     8.9079     8.5334     8.3127   -45.2730
  733.5000  -999.2500  -999.2500  -999.2500  -999.2500   -90.9765   108.2895     8.8254     8.3762     8.1588   -55.2738
  734.0000  -999.2500  -999.2500  -999.2500  -999.2500   -90.1742   107.0870     8.8249     8.2985     8.0827   -55.2439
  734.5000  -999.2500  -999.2500  -999.2500  -999.2500   -88.7704   103.8794     8.8246     8.2215     8.0074   -55.1941
  735.0000  -999.2500  -999.2500  -999.2500  -999.2500   -87.1659   100.6717     8.7428     8.2211     8.0070   -55.1443
  735.5000  -999.2500  -999.2500  -999.2500  -999.2500   -88.7695   101.4749     8.7424     8.2973     8.0816   -55.0945
  736.0000  -999.2500  -999.2500  -999.2500  -999.2500   -89.5722   104.6846     8.8235     8.3742     8.1569   -55.0447
  736.5000  -999.2500  -999.2500  -999.2500  -999.2500   -90.7754   107.4933     8.8230     8.4519     8.2329   -34.8439
  737.0000  -999.2500  -999.2500  -999.2500  -999.2500   -90.3742   106.6922     8.9047     8.4515     8.2325   -24.7236
  737.5000  -999.2500  -999.2500  -999.2500  -999.2500   -89.9730   102.6822     8.9872     8.5299     8.3092   -24.6738
  738.0000  -999.2500  -999.2500  -999.2500  -999.2500   -89.3712   104.2877     8.9867     8.6892     8.4652   -24.6240
  738.5000  -999.2500  -999.2500  -999.2500  -999.2500   -88.9700   106.2943     9.1544     8.7698     8.5441   -44.7152
  739.0000  -999.2500  -999.2500  -999.2500  -999.2500   -89.1705   105.8942     9.3251     8.8510     8.6236   -44.6654
  739.5000  -999.2500  -999.2500  -999.2500  -999.2500   -89.3709   102.2854     9.5875     9.0163     8.7854   -44.6156
  740.0000  -999.2500  -999.2500  -999.2500  -999.2500   -89.3708    97.4729     9.7664     9.0999     8.8673   -44.5658
  740.5000  -999.2500  -999.2500  -999.2500  -999.2500   -89.3707    95.4682     9.8570     9.1843     8.9499   -44.5160
  741.0000  -999.2500  -999.2500  -999.2500  -999.2500   -89.3706    95.4692     9.9481     9.2694     9.0333   -44.4662
  741.5000  -999.2500  -999.2500  -999.2500  -999.2500   -89.3705    95.4701    10.0403     9.3556     9.1176   -44.4164
  742.0000  -999.2500  -999.2500  -999.2500  -999.2500   -89.5710    93.4654    10.1333     9.4421     9.2024   -44.3666
  742.5000  -999.2500  -999.2500  -999.2500  -999.2500   -89.5708    93.0651    10.1328     9.5297     9.2881   -44.3168
  743.0000  -999.2500  -999.2500  -999.2500  -999.2500   -89.3702    93.4672    10.2267     9.6180     9.3747   -64.4080
  743.5000  -999.2500  -999.2500  -999.2500  -999.2500   -89.3701    97.0785    10.3214     9.7072     9.4620   -54.2877
  744.0000  -999.2500  -999.2500  -999.2500  -999.2500   -89.3700    97.4806    10.3209     9.7068     9.4616   -54.2379
