~VERSION INFORMATION
 VERS.                2.0:   CWLS LOG ASCII STANDARD - VERSION 2.0
 WRAP.                 NO:   ONE LINE PER DEPTH STEP
~WELL INFORMATION
#MNEM.UNIT      DATA TYPE    INFORMATION
#----------   ------------   ------------------------------
 STRT.F            0.0000:   START DEPTH
 STOP.F         4022.0000:   STOP DEPTH
 STEP.F            0.5000:   STEP LENGTH
 NULL.          -999.2500:   NO VALUE
 COMP. LAWRENCE - ALLISON:   COMPANY
 WELL. LAWRENCE NPR 3 "MX" #58-10:   WELL
 FLD .                MPR:   FIELD
 LOC .      S10 T38N R78W:   LOCATION
 CNTY.            NATRONA:   COUNTY
 STAT.            WYOMING:   STATE
 CTRY. UNITED STATES OF AMERICA:   COUNTRY
 SRVC.      DRESSER ATLAS:   SERVICE COMPANY
 DATE.        12-FEB-1984:   LOGDATE
 API .     49025109610000:   API NUMBER
~CURVE INFORMATION
#MNEM.UNIT       API CODE    CURVE DESCRIPTION
#----------   ------------   ------------------------------
 DEPT.F                  :   
 GRR .GAPI   07 310 01 00:   GAMMA RAY FROM RESISTIVITY
 SPR .MV     07 010 01 00:   SPONTANEOUS POTENTIAL
 TENR.LBS    07 635 01 00:   TENSION FROM RESISTIVITY
 ILD .OHMM   07 120 46 00:   DEEP INDUCTION RESISTIVITY
 ILM .OHMM   07 120 44 00:   INDUCTION LOG MEDIUM RESISTIVITY
 SFL .OHMM   07 220 01 00:   SHALLOW FOCUSED LOG RESISTIVITY
 DT  .US/F   60 520 00 00:   DELTA TIME
 TENS.LBS    60 635 01 00:   TENSION FROM SONIC LOG
 CNC .DEC    42 890 03 00:   NEUTRON PORISITY SANDSTONE
 CALD.IN     45 280 60 00:   CALIPER FROM DENSITY LOG
 RHOB.G/C3   45 350 01 00:   BULK DENSITY
 CORR.G/C3   45 356 01 00:   DENSITY CORRECTION
 TEND.LBS    45 635 01 00:   TENSION FROM DENSITY LOG
~PARAMETER INFORMATION
#MNEM.UNIT          VALUE    DESCRIPTION
#----------   ------------   ------------------------------
 EKB .F         5218.0000:   Kelly bushing
 EGL .F         5208.0000:   Ground level
 EDF .F         5217.0000:   Drilling floor
 TD  .F         4014.0000:   Total depth
 DATE.        12-FEB-1984:   Date logged
 CLNT.            A2DTECH:   Client Code
 SL  . 500' FSL & 2150' FEL:   Surface Location
 PD  .                 GL:   Permanent Datum
 EPD .F              5208:   Elevation Permanent Datum
 LMF .                 KB:   Log Measured From
 DMF .                 KB:   Drilling Measured From
 DD  .F              4014:   Depth driller
 DL  .F              4011:   Depth logger
 BLI .F              4009:   Bottom log interval
 CS1 .IN            8.625:   Casing size
 CBD1.      8.625" @ 526':   Casing driller 1
 CBL1.F               525:   Casing logger 1
 BS1 .IN            7.875:   Bit size
 DFT .            GEL/KCL:   Type fluid in hole
 DFD .                8.9:   Density
 DFV .                 48:   Viscosity
 DFPH.                  8:   pH
 DFL .                1.3:   Fluid loss
 MSS .           MUD/TANK:   Source of sample
 RMS .OHMM           .556:   Rm
 MST .F                61:   Rm Meas. temp.
 RMF .OHMM           .423:   Rmf
 MFST.F                61:   Rmf Meas. temp.
 RMC .OHMM           .662:   Rmc
 MCST.F                61:   Rmc Meas. temp.
 MFSS.           MUD/TANK:   Source Rmf.
 RMB .OHMM            .80:   Rm. at BHT
 BHT .F               119:   BHT.
 TCS .HRS               5:   Time Circ. stopped
 MRT .F               119:   Maximum recorded temp.
 LUN .               6302:   Logging unit number
 ENGI.              GETTY:   Recorded By
 ORIG.           5" PRINT:   Origin of data
 UWI .     49025109610000:   Unique Well ID
 DICO. A2D TECHNOLOGIES, INC.:   Digitizing Company
 TLI .F                 0:   Top log interval
~OTHER INFORMATION
~A    DEPT      GRR       SPR       TENR        ILD        ILM        SFL         DT       TENS        CNC       CALD       RHOB       CORR       TEND   
# ...
 3510.0000   123.0070    -9.3940   -95.4640    15.1210    12.8910    24.7240    78.9340  -153.5520     0.1820     8.1430     2.4560     0.0820  -115.4040
 3510.5000   114.5620    -8.8480   -95.4640    14.7720    11.4220    26.8320    82.1030  -154.6450     0.1930     8.1500     2.4070     0.1470  -106.8980
 3511.0000   115.2490    -8.2810   -95.4640    15.1840    11.9140    19.9480    83.2600  -155.7390     0.2040     8.1570     2.3780     0.1310   -97.4580
 3511.5000   121.9680    -7.7480   -95.4640    14.6390    13.0410    10.4200    83.1590  -156.8320     0.2160     8.1640     2.3740     0.1040   -88.0170
 3512.0000   126.1340    -7.5110   -95.4640    14.1710    13.8520    11.2280    81.7510  -157.9260     0.2100     8.1710     2.4020     0.0760   -94.0060
 3512.5000   121.8530    -7.3120   -95.4640    13.4400    12.8610    14.5760    77.7260  -159.0190     0.2030     8.1780     2.4760     0.0580  -105.6250
 3513.0000   112.8190    -7.1440   -95.4640    12.5300    11.6080    21.4510    77.6260  -159.4570     0.2060     8.1990     2.4650     0.0970  -112.9110
 3513.5000   104.7620    -6.8990   -95.4640    11.4470    10.3550    25.1610    79.3360  -159.4570     0.2100     8.2340     2.4390     0.1380   -97.1770
 3514.0000   107.0620    -6.3420   -95.4640    10.2570     9.5920    17.8840    82.7570  -159.4570     0.2180     8.2690     2.4080     0.1430   -81.4430
 3514.5000   120.7340    -5.8580   -95.4640     9.2500     8.9320    11.1120    84.4160  -159.4570     0.2330     8.3050     2.4010     0.1250   -65.5530
 3515.0000   128.2760    -5.4680   -95.4640     8.2290     7.3430    10.5160    83.9640  -159.4570     0.2400     8.3460     2.4090     0.0990   -78.9750
 3515.5000   126.9030    -5.0760   -95.4640     6.5060     5.7540    11.7260    84.1650  -159.4570     0.2480     8.3920     2.3800     0.0730   -92.5300
 3516.0000   126.0460    -4.6900   -95.4640     5.3050     4.6080    12.2930    85.1710  -159.4570     0.2490     8.4390     2.3120     0.0410  -106.0860
 3516.5000   129.9130    -4.6440   -95.4640     4.5420     3.9370     9.3980    90.6040  -159.4570     0.2580     8.4510     2.1590     0.0060  -119.6410
 3517.0000   136.0870    -4.6390   -95.4640     4.1220     3.7260     6.1290    97.0420  -159.4570     0.2690     8.4620     2.1210    -0.0280  -133.1970
 3517.5000   139.4320    -4.3430   -95.4640     4.0830     3.7260     4.9420    99.8590  -159.4570     0.2750     8.4270     2.1000    -0.0610  -134.1990
 3518.0000   141.5140    -4.0550   -95.4640     4.0520     4.0890     4.6440    99.4570  -159.4570     0.2700     8.3850     2.1040    -0.0460  -132.8380
 3518.5000   148.0400    -4.4150   -99.3380     4.2180     4.4950     4.6440    96.7400  -159.4570     0.2520     8.3430     2.1520    -0.0110  -131.4770
 3519.0000   150.5850    -5.0750  -106.5450     4.3700     4.9010     5.4680    92.0120  -159.4570     0.2350     8.3020     2.2410     0.0070  -130.1160
 3519.5000   156.2300    -5.8010  -113.7520     4.6760     5.9750     8.6700    88.1890  -159.4570     0.2350     8.3140     2.3120     0.0200  -128.7560
 3520.0000   163.1730    -6.7170  -102.4430     5.1040     6.7690    12.8710    86.9820  -159.4570     0.2350     8.3270     2.3680     0.0220  -127.3950
 3520.5000   166.1170    -7.6400   -85.4940     6.0760     7.4220    12.4130    87.1160  -159.4570     0.2350     8.3400     2.4020     0.0080  -126.0340
 3521.0000   165.1090    -8.4240   -89.3440     7.4330     7.8790    11.6340    87.3840  -159.4570     0.2350     8.3530     2.4160     0.0170  -124.5880
 3521.5000   163.2460    -8.5370   -93.2240     8.1320     8.3590    11.9210    87.3840  -159.4570     0.2340     8.3570     2.4300     0.0260  -123.0630
 3522.0000   160.7510    -8.7640   -97.1050     8.1710     8.2070    12.3930    87.3840  -158.1150     0.2400     8.3480     2.4280     0.0380  -121.5370
 3522.5000   158.2590    -8.6190  -100.9860     8.2070     7.6960    12.7530    89.5980  -155.8800     0.2470     8.3390     2.4140     0.0470  -120.0110
 3523.0000   157.2910    -8.4100  -104.8660     8.1510     7.1890    12.1810    91.8110  -153.6440     0.2510     8.3300     2.3860     0.0340  -118.4850
 3523.5000   156.6810    -8.1980   -99.5600     8.0850     7.0210    10.5860    93.2190  -151.4080     0.2500     8.3210     2.3380     0.0430  -116.9600
 3524.0000   157.4560    -8.0030   -92.6810     7.9840     7.3170     9.0690    93.2190  -149.1730     0.2440     8.3120     2.2990     0.0640  -115.4040
 3524.5000   159.2000    -8.1330   -85.8020     7.9930     7.8190     7.9840    91.6900  -146.9370     0.2380     8.3030     2.3250     0.0360  -122.1340
 3525.0000   159.5480    -8.3240   -78.9220     8.0120     7.9840     8.9380    89.3960  -144.7020     0.2320     8.3070     2.3740     0.0030  -128.9990
 3525.5000   157.5180    -8.5140   -85.7330     8.0300     7.8580    10.3180    88.9130  -142.4660     0.2260     8.3150     2.4200    -0.0050  -135.8650
 3526.0000   152.9820    -8.7040   -95.4640     8.0580     7.7190    11.5280    88.1890  -140.2300     0.2190     8.3230     2.4310     0.0020  -142.7310
 3526.5000   152.9670    -8.7620   -95.4640     7.9850     7.5330    11.5280    87.8670  -137.9950     0.2190     8.3320     2.4300     0.0110  -142.0080
 3527.0000   154.9780    -8.7050   -95.4640     7.8490     7.2540    11.2040    87.3840  -135.7590     0.2250     8.3400     2.4320     0.0050  -136.7080
 3527.5000   156.9100    -8.6460   -98.9080     7.7120     6.9760    10.9610    87.3840  -133.5230     0.2340     8.3150     2.4340     0.0000  -131.4080
 3528.0000   158.5000    -8.5170  -103.4940     7.5200     6.6970    10.7110    88.3900  -131.2880     0.2400     8.2870     2.4290     0.0060  -126.1090
 3528.5000   161.5120    -8.0390  -100.5820     7.2330     6.4770    10.1650    88.5920  -129.0520     0.2400     8.2960     2.4220     0.0500  -117.2420
 3529.0000   163.1220    -7.5580   -92.1730     6.9450     6.3530     8.9190    88.3900  -126.8160     0.2290     8.3150     2.4270     0.0830  -107.8020
 3529.5000   165.8400    -7.0740   -88.0860     6.5940     6.2310     7.2170    86.9240  -124.5810     0.2190     8.3340     2.4340     0.0750   -98.3610
 3530.0000   162.2650    -6.6220  -100.6980     6.2000     5.8270     7.6840    85.7030  -122.3450     0.2150     8.3530     2.4390     0.0560  -109.4220
 3530.5000   152.5070    -5.5080  -113.3100     5.7680     5.4270     9.2150    84.9700  -120.1100     0.2250     8.3730     2.3600     0.0350  -129.5610
 3531.0000   137.9650    -5.2230  -105.6940     5.2040     4.9360     9.7720    85.0700  -119.2150     0.2360     8.3780     2.3330     0.0440  -127.3680
 3531.5000   139.6720    -4.8920   -94.0520     4.6400     4.3930     8.0920    85.8420  -119.2150     0.2450     8.3710     2.3170     0.0480  -116.1790
 3532.0000   143.5950    -4.5470   -87.1640     4.0170     3.7850     6.8300    87.7870  -119.2150     0.2500     8.3650     2.3360     0.0340  -104.9910
 3532.5000   149.2070    -4.2610   -93.4700     3.3760     3.1670     6.5830    89.8660  -119.2150     0.2520     8.3590     2.3430     0.0170   -96.2940
 3533.0000   153.8070    -3.9810   -99.7760     2.8650     2.7270     6.3920    90.8050  -119.2150     0.2500     8.3520     2.3480     0.0480  -101.8890
 3533.5000   151.7590    -3.7030  -105.4340     2.7020     2.4870     3.7880    93.2190  -119.2150     0.2460     8.3460     2.3680     0.1310  -107.4830
 3534.0000   202.0060    -3.4540   -95.2860     2.6770     2.6750     3.0390    92.8170  -119.2150     0.2430     8.3390     2.3860     0.1920  -113.0770
 3534.5000   218.1790    -3.6550   -86.1650     2.7860     3.0520     2.8290    89.6480  -119.2150     0.2380     8.3330     2.4600     0.1320  -119.6050
 3535.0000   218.4930    -4.3190   -91.4760     2.9040     3.4290     5.2020    85.5730  -119.2150     0.2340     8.3260     2.4720     0.0740  -126.7980
 3535.5000   160.0920    -5.0310   -96.7860     3.1950     3.8390     7.6720    85.5730  -119.2150     0.2290     8.3200     2.4950     0.0270  -133.9910
