~VERSION INFORMATION
 VERS.                2.0:   CWLS LOG ASCII STANDARD - VERSION 2.0
 WRAP.                 NO:   ONE LINE PER DEPTH STEP
~WELL INFORMATION
#MNEM.UNIT      DATA TYPE    INFORMATION
#----------   ------------   ------------------------------
 STRT.F          545.0000:   START DEPTH
 STOP.F         3193.0000:   STOP DEPTH
 STEP.F            0.5000:   STEP LENGTH
 NULL.          -999.2500:   NO VALUE
 COMP. FENIX & SCISSON-U.S. NAVY:   COMPANY
 WELL.   FENIX "A" #47-34:   WELL
 FLD .          N.P.R. #3:   FIELD
 LOC .      S34 T39N R78W:   LOCATION
 CNTY.            NATRONA:   COUNTY
 STAT.            WYOMING:   STATE
 CTRY. UNITED STATES OF AMERICA:   COUNTRY
 SRVC.       SCHLUMBERGER:   SERVICE COMPANY
 DATE.        26-MAR-1977:   LOGDATE
 API .     49025103260000:   API NUMBER
~CURVE INFORMATION
#MNEM.UNIT       API CODE    CURVE DESCRIPTION
#----------   ------------   ------------------------------
 DEPT.F                  :   
 SPR .MV     07 010 01 00:   SPONTANEOUS POTENTIAL FROM RES.
 ILM .OHMM   07 120 44 00:   INDUCTION LOG MEDIUM RESISTIVITY
 ILD .OHMM   07 120 46 00:   DEEP INDUCTION RESISTIVITY
 LL8 .OHMM   07 220 08 00:   LATEROLOG-8 RES.
 CALD.IN     45 280 60 00:   CALIPER FROM DENSITY LOG
 GRD .GAPI   45 310 01 00:   GAMMA RAY FROM DENSITY LOG
 RHOB.G/C3   45 350 01 00:   BULK DENSITY
 CORR.G/C3   45 356 01 00:   DENSITY CORRECTION
~PARAMETER INFORMATION
#MNEM.UNIT          VALUE    DESCRIPTION
#----------   ------------   ------------------------------
 EKB .F         5144.0000:   Kelly bushing
 EGL .F         5132.0000:   Ground level
 TD  .F         3194.0000:   Total depth
 CLNT.            A2DTECH:   Client Code
 SL  . 2310' FWL & 990' FSL:   Surface Location
 PD  .                 GL:   Permanent Datum
 EPD .F              5132:   Elevation Permanent Datum
 LMF .                 KB:   Log Measured From
 DMF .                 KB:   Drilling Measured From
 DAPD.F                12:   Feet Above Permanent Datum
 DATE.        26-MAR-1977:   Date Logged [DD-MMM-YYYY]
 DD  .F              3188:   Depth driller
 DL  .F              3194:   Depth logger
 BLI .F              3188:   Bottom log interval
 TLI .F               564:   Top log interval
 CS1 .IN            8.625:   Casing size
 CBD1.      8.625" @ 570':   Casing driller 1
 CBL1.F               564:   Casing logger 1
 BS1 .IN            7.875:   Bit size
 BSD1.F              3188:   Depth drilled with bit1
 DFT .                KCL:   Type fluid in hole
 DFD .                9.2:   Density
 DFV .                 30:   Viscosity
 DFL .                9.2:   Fluid loss
 MSS .                PIT:   Source of sample
 RMS .OHMM          0.354:   Rm
 MST .F                70:   Rm Meas. temp.
 RMF .OHMM          0.326:   Rmf
 MFST.F                70:   Rmf Meas. temp.
 MFSS.               MEAS:   Source Rmf.
 RMC .OHMM          0.531:   Rmc
 MCST.F                70:   Rmc Meas. temp.
 MCSS.               CALC:   Source Rmc.
 RMB .OHMM          0.205:   Rm. at BHT
 BHT .F               121:   BHT.
 TLAB.HRS            1900:   Time logger at bottom
 MRT .F               121:   Maximum recorded temp.
 LUN .               5642:   Logging unit number
 LUL .               CSPR:   Logging unit location
 ENGI.             MARTIN:   Recorded By
 WITN.         PETTINGILL:   Witnessed by
 ORIG.           5" PRINT:   Origin of data
 UWI .     49025103260000:   Unique Well ID
 DICO. A2D TECHNOLOGIES, INC.:   Digitizing Company
~OTHER INFORMATION
~A   DEPT      SPR        ILM        ILD        LL8       CALD         GRD      RHOB       CORR   
# ...
 2286.5000   -64.3495     5.9577     5.2633    11.2945     8.1198   128.5260     2.5284     0.0268
 2287.0000   -64.6033     5.8815     5.2033    12.3668     8.1202   143.4299     2.5561     0.0370
 2287.5000   -64.2800     5.8029     5.2094    12.5476     8.1206   154.0203     2.5517     0.0458
 2288.0000   -62.9219     5.6142     5.1074    11.6435     8.1210   172.4956     2.5443     0.0425
 2288.5000   -61.5637     5.4662     5.0749    10.9481     8.1214   170.7328     2.5391     0.0364
 2289.0000   -62.1372     5.3234     4.9434    11.1922     8.1219   157.2914     2.5392     0.0473
 2289.5000   -62.7110     5.2191     4.8813    10.3142     8.1223   149.5047     2.5355     0.0520
 2290.0000   -63.1356     5.1168     4.8178     9.7788     8.1227   145.2045     2.5116     0.0357
 2290.5000   -63.1095     5.0165     4.7246     9.1139     8.1231   149.5487     2.4826     0.0318
 2291.0000   -63.2372     4.9866     4.6963     7.9570     8.1236   153.5933     2.4677     0.0273
 2291.5000   -63.2163     4.9924     4.7008    10.2119     8.1240   151.8305     2.4618     0.0243
 2292.0000   -63.1955     5.0665     4.8370     8.6606     8.1244   150.2166     2.4866     0.0375
 2292.5000   -63.1746     5.2134     4.9780     7.7087     8.1242   151.2812     2.5002     0.0345
 2293.0000   -63.1537     5.2908     5.1220     9.3616     8.1237   153.6851     2.4808     0.0415
 2293.5000   -63.1329     5.4442     5.2703    12.3508     8.1233   156.1270     2.4647     0.0439
 2294.0000   -63.1114     5.6456     5.4228    12.2774     8.1229   159.9867     2.4802     0.0229
 2294.5000   -63.0859     5.8459     5.5797    11.7902     8.1224   162.3906     2.5095     0.0378
 2295.0000   -63.0650     6.0990     5.7850    12.5333     8.1220   163.4552     2.4759     0.0339
 2295.5000   -63.0442     6.3193     5.9495    15.3597     8.1216   160.9484     2.4625     0.0263
 2296.0000   -63.0233     6.5024     6.0378    17.4086     8.1211   158.1440     2.4610     0.0131
 2296.5000   -63.0024     6.6908     6.1698    15.0731     8.1207   155.4884     2.4657     0.0047
 2297.0000   -62.8330     6.8374     6.2614    13.5093     8.1203   153.3694     2.4488     0.0113
 2297.5000   -62.6634     6.9406     6.2672    13.0601     8.1198   150.3317     2.4329     0.0124
 2298.0000   -62.3447     6.9470     6.2731    15.2203     8.1194   147.6531     2.4390     0.0086
 2298.5000   -62.1708     6.9535     6.1928    16.8970     8.1189   144.5740     2.4548     0.0087
 2299.0000   -62.0014     6.8644     6.1136    17.9971     8.1185   145.9362     2.4714     0.0088
 2299.5000   -61.9805     6.7763     5.9953    15.4791     8.1181   147.7449     2.4857     0.0088
 2300.0000   -62.1134     6.6437     5.8780    12.9477     8.1176   156.5514     2.4925     0.0089
 2300.5000   -62.2412     6.4619     5.8015    11.2080     8.1172   154.3423     2.4680     0.0066
 2301.0000   -62.5122     6.2562     5.7286    14.7904     8.1168   153.7642     2.4620     0.0041
 2301.5000   -62.7886     6.1336     5.6554    14.0087     8.1163   157.8108     2.4883    -0.0002
 2302.0000   -62.7625     6.0956     5.6620    12.0459     8.1159   160.0954     2.4734     0.0178
 2302.5000   -63.0388     6.1027     5.6672     9.9288     8.1155   155.0551     2.4578     0.0109
 2303.0000   -63.1694     6.1084     5.6319    13.4663     8.1150   151.7784     2.4279     0.0040
 2303.5000   -63.2994     6.2856     5.5939    15.1549     8.1146   154.9321     2.4237     0.0079
 2304.0000   -63.5758     6.4245     5.6773    14.0573     8.1141   159.2705     2.4261     0.0142
 2304.5000   -63.8477     6.4751     5.7607    12.8604     8.1137   159.5854     2.4532     0.0205
 2305.0000   -63.8260     6.6169     5.8454    11.4449     8.1133   156.6379     2.4646     0.0174
 2305.5000   -63.9537     6.7152     5.8909    12.9978     8.1128   153.2382     2.4534     0.0098
 2306.0000   -63.9276     6.8622     5.9815    16.6447     8.1124   151.9219     2.4468     0.0147
 2306.5000   -63.7582     6.9163     6.0661    15.9815     8.1120   153.2898     2.4694     0.0265
 2307.0000   -63.7373     6.9243     6.0709    14.7220     8.1115   155.0985     2.4957     0.0449
 2307.5000   -63.7164     6.8814     6.0757    14.1327     8.1111   157.5024     2.4919     0.0488
 2308.0000   -63.1890     6.8894     6.0805    15.2624     8.1107   159.4599     2.4837     0.0319
 2308.5000   -63.1647     6.8959     6.0904    16.4827     8.1102   160.4226     2.4714     0.0234
 2309.0000   -63.1404     6.9501     6.1907    12.1212     8.1098   160.8579     2.4371     0.0188
 2309.5000   -63.1159     7.1023     6.2237    12.7862     8.1093   158.9434     2.4278     0.0026
 2310.0000   -63.2404     7.2148     6.3589    16.6316     8.1089   157.4713     2.4553     0.0105
 2310.5000   -63.0615     7.3674     6.4523    15.8621     8.1085   157.0409     2.4748     0.0206
 2311.0000   -62.8886     7.5809     6.5472    17.7283     8.1080   155.7176     2.4532     0.0249
 2311.5000   -62.8643     7.7469     6.6447    20.3690     8.1076   154.3944     2.4354     0.0138
 2312.0000   -62.8400     7.9165     6.7424    22.4700     8.1072   153.6548     2.4273     0.0131
 2312.5000   -62.9643     7.9788     6.7944    22.9451     8.1067   152.7155     2.4401     0.0221
 2313.0000   -62.9391     8.0418     6.6147    21.2833     8.1063   150.5774     2.4732     0.0404
 2313.5000   -62.9097     7.8315     6.4397    19.0720     8.1059   151.7839     2.5070     0.0575
 2314.0000   -63.0401     7.6251     6.2639    17.5689     8.1054   153.2880     2.4854     0.0313
 2314.5000   -63.0097     7.1721     6.0212    16.4094     8.1050   152.8576     2.4623     0.0492
 2315.0000   -62.9854     6.7459     5.8216    18.0946     8.1049   151.5343     2.4803     0.0438
 2315.5000   -62.9611     6.4334     5.6287    13.3505     8.1054   149.9135     2.4970     0.0284
 2316.0000   -62.9361     6.1349     5.4798     7.0852     8.1058   143.9991     2.4806     0.0222
 2316.5000   -62.9065     6.0988     5.4842    10.0141     8.1062   143.3965     2.4628     0.0192
 2317.0000   -62.7336     6.2770     5.4896    16.2494     8.1066   150.6141     2.4502     0.0123
 2317.5000   -62.7093     6.4589     5.4939    18.1613     8.1071   156.8330     2.4383     0.0015
 2318.0000   -62.5364     6.5098     5.5747    19.6093     8.1075   155.4287     2.4594     0.0159
 2318.5000   -62.5121     6.5610     5.6177    18.0219     8.1079   152.5434     2.4917     0.0195
 2319.0000   -62.4874     6.5692     5.6611    15.0061     8.1083   150.6248     2.5090     0.0351
 2319.5000   -62.4575     6.5280     5.4946    13.8235     8.1088   150.3392     2.5159     0.0461
 2320.0000   -62.5818     6.3136     5.1847    13.6417     8.1092   151.5484     2.5190     0.0322
 2320.5000   -62.8547     5.8570     4.9441    13.1006     8.1096   152.6061     2.5169     0.0245
 2321.0000   -63.2762     5.5090     4.8134    11.4197     8.1101   153.9614     2.5110     0.0463
 2321.5000   -63.6976     5.1817     4.6861     8.5516     8.1105   155.0283     2.5029     0.0270
 2322.0000   -64.1191     5.0104     4.6235     6.6610     8.1109   154.2039     2.4903     0.0185
 2322.5000   -64.0888     4.8860     4.4423     8.2187     8.1113   151.3349     2.4867     0.0093
 2323.0000   -63.6187     4.7684     4.3478    10.4013     8.1118   148.3694     2.5085     0.0125
 2323.5000   -63.4458     4.7701     4.3274    11.2284     8.1122   150.0263     2.4914     0.0126
 2324.0000   -63.1244     4.8126     4.3011     9.9945     8.1126   155.8631     2.4751     0.0070
 2324.5000   -62.9515     4.8809     4.3053     9.2068     8.1130   157.6503     2.4714    -0.0005
 2325.0000   -62.7786     4.9537     4.3394     9.9253     8.1135   158.1128     2.4805    -0.0012
 2325.5000   -62.7533     4.8235     4.3429    11.9872     8.1139   158.1288     2.4814     0.0059
 2326.0000   -62.7240     4.6966     4.3463     8.0393     8.1143   157.1032     2.4725     0.0130
 2326.5000   -62.6997     4.4793     4.2901     7.6659     8.1147   155.3335     2.4606     0.0192
