~VERSION INFORMATION
 VERS.                2.0:   CWLS LOG ASCII STANDARD - VERSION 2.0
 WRAP.                 NO:   ONE LINE PER DEPTH STEP
~WELL INFORMATION
#MNEM.UNIT      DATA TYPE    INFORMATION
#----------   ------------   ------------------------------
 STRT.F          720.0000:   START DEPTH
 STOP.F         3416.0000:   STOP DEPTH
 STEP.F            0.5000:   STEP LENGTH
 NULL.          -999.2500:   NO VALUE
 COMP.    FENIX & SCISSON:   COMPANY
 WELL.  FENIX "AX" #31-14:   WELL
 FLD .                NPR:   FIELD
 LOC .      S14 T38N R78W:   LOCATION
 CNTY.            NATRONA:   COUNTY
 STAT.            WYOMING:   STATE
 CTRY. UNITED STATES OF AMERICA:   COUNTRY
 SRVC.       SCHLUMBERGER:   SERVICE COMPANY
 DATE.        04-JUN-1981:   LOGDATE
 API .     49025108730000:   API NUMBER
~CURVE INFORMATION
#MNEM.UNIT       API CODE    CURVE DESCRIPTION
#----------   ------------   ------------------------------
 DEPT.F                  :   
 TEND.LBS    45 635 01 00:   TENSION FROM DENSITY LOG
 CORR.G/C3   45 356 01 00:   DENSITY CORRECTION
 RHOB.G/C3   45 350 01 00:   BULK DENSITY
 CALD.IN     45 280 60 00:   CALIPER FROM DENSITY LOG
 GRD .GAPI   45 310 01 00:   GAMMA RAY FROM DENSITY LOG
 SPR .MV     07 010 01 00:   SPONTANEOUS POTENTIAL
 SFL .OHMM   07 220 01 00:   SHALLOW FOCUSED LOG RESISTIVITY
 ILD .OHMM   07 120 46 00:   INDUCTION LOG DEEP RESISTIVITY
 ILM .OHMM   07 120 44 00:   INDUCTION LOG MEDIUM RESISTIVITY
 TENR.LBS    07 635 01 00:   TENSION FROM RESISTIVITY
~PARAMETER INFORMATION
#MNEM.UNIT          VALUE    DESCRIPTION
#----------   ------------   ------------------------------
 EKB .F         5196.0000:   Kelly bushing
 EGL .F         5186.0000:   Ground level
 EDF .F            0.0000:   Drilling floor
 TD  .F         3402.0000:   Total depth
 DATE.        04-JUN-1981:   Date logged
 CLNT.            A2DTECH:   Client Code
 SL  . 377' FWL & 1733' FWL:   Surface Location
 PD  .                 GL:   Permanent Datum
 DD  .F              3400:   Depth driller
 DL  .F              3402:   Depth logger
 BLI .F              3395:   Bottom log interval
 TLI .F               720:   Top log interval
 CS1 .IN            8.625:   Casing size
 CBD1.      8.625" @ 707':   Casing driller 1
 CBL1.F               751:   Casing logger 1
 BS1 .IN            7.875:   Bit size
 BSD1.F              3400:   Depth drilled with bit1
 DFT .                FGM:   Type fluid in hole
 DFD .                8.8:   Density
 DFV .                 55:   Viscosity
 DFPH.                9.5:   pH
 DFL .                  9:   Fluid loss
 MSS .           MUD TANK:   Source of sample
 RMS .OHMM            1.7:   Rm
 MST .F                78:   Rm Meas. temp.
 RMF .OHMM           1.45:   Rmf
 MFST.F                78:   Rmf Meas. temp.
 MFSS.               MEAS:   Source Rmf.
 RMB .OHMM           1.12:   Rm. at BHT
 BHT .F               118:   BHT.
 TCS .HRS            1200:   Time Circ. stopped
 TLAB.HRS            1600:   Time logger at bottom
 MRT .F               118:   Maximum recorded temp.
 LUN .               8043:   Logging unit number
 LUL .             CASPER:   Logging unit location
 ENGI.             LARSON:   Recorded By
 WITN.              FIVAS:   Witnessed by
 ORIG.      2.5" 5" PRINT:   Origin of data
 UWI .     49025108730000:   Unique Well ID
 DICO. A2D TECHNOLOGIES, INC.:   Digitizing Company
 EPD .               5186:   Elevation Permanent Datum
 LMF .                 KB:   Log Measured From
 DMF .                 KB:   Drilling Measured From
 DAPD.                 10:   Feet Above Permanent Datum
~OTHER INFORMATION
~A   DEPT     TEND       CORR       RHOB       CALD         GRD       SPR        SFL        ILD        ILM       TENR   
# ...
 1624.5000  1082.9540     0.0020     2.5360     8.5800    99.4990   -15.8140     8.1090     7.1580     6.7610  1228.0330
 1625.0000  1083.2130     0.0030     2.5260     8.5790   100.9960   -15.9880     8.0470     7.1660     6.7360  1228.3669
 1625.5000  1083.4640     0.0030     2.5220     8.5780   102.4840   -16.1720     7.9840     7.1760     6.7100  1228.7010
 1626.0000  1083.7159     0.0030     2.5260     8.5770   103.4140   -16.3450     7.9220     7.1850     6.6850  1229.0360
 1626.5000  1083.9670     0.0030     2.5380     8.5750   101.9560   -16.5150     7.8580     7.1940     6.6600  1229.3700
 1627.0000  1084.2180     0.0030     2.5370     8.5740   100.5290   -16.4480     7.8580     7.2030     6.6350  1229.7040
 1627.5000  1084.4700     0.0030     2.5300     8.5730    98.4880   -16.3710     8.1030     7.2120     6.6090  1230.0389
 1628.0000  1084.7209     0.0030     2.5280     8.5720    95.8830   -16.2840     8.3680     7.2210     6.5840  1230.3730
 1628.5000  1084.9730     0.0030     2.5340     8.5710    93.7410   -16.2050     8.6320     7.2300     6.5590  1230.7070
 1629.0000  1085.2240     0.0020     2.5440     8.5700    95.1410   -16.1220     8.9670     7.2400     6.5330  1231.0420
 1629.5000  1085.4750     0.0050     2.5520     8.5690    96.7440   -16.0400     8.8850     7.2490     6.5060  1231.3760
 1630.0000  1085.7271     0.0140     2.5530     8.5680    98.3380   -15.9580     8.6350     7.2580     6.5060  1231.7100
 1630.5000  1085.9780     0.0220     2.5550     8.5670    99.8370   -15.8760     8.3840     7.2670     6.5060  1232.0450
 1631.0000  1086.2300     0.0230     2.5640     8.5660   100.0120   -15.7940     8.1340     7.2750     6.5060  1232.3790
 1631.5000  1086.4810     0.0250     2.5740     8.5650    98.2250   -15.7120     7.8580     7.2850     6.5060  1232.7130
 1632.0000  1086.7321     0.0200     2.5790     8.5640    96.4760   -15.6300     7.8580     7.2570     6.5060  1233.0480
 1632.5000  1086.9840     0.0110     2.5680     8.5630    96.2030   -15.5480     8.1850     7.2260     6.5060  1233.3820
 1633.0000  1087.2350     0.0080     2.5540     8.5620    97.1320   -15.4650     8.5750     7.1930     6.5060  1233.7159
 1633.5000  1087.4871     0.0060     2.5450     8.5610    98.8770   -15.3840     8.5500     7.1610     6.5060  1234.0510
 1634.0000  1087.7380     0.0070     2.5520     8.5600   102.6020   -15.3100     8.2280     7.1290     6.5060  1234.3850
 1634.5000  1087.9900     0.0070     2.5610     8.5590   106.4120   -15.3070     7.8580     7.0970     6.5060  1234.7200
 1635.0000  1088.2410     0.0080     2.5580     8.5580   107.1860   -15.3050     7.8580     7.0650     6.5060  1235.0540
 1635.5000  1088.4919     0.0040     2.5460     8.5570   103.3160   -15.3070     7.8580     7.0330     6.5060  1235.3879
 1636.0000  1088.7440    -0.0010     2.5340     8.5560   100.4850   -15.3060     7.8580     7.0010     6.5060  1235.7230
 1636.5000  1088.9950    -0.0050     2.5270     8.5550    99.2270   -15.3060     7.8580     6.9690     6.5060  1236.0570
 1637.0000  1089.2469    -0.0040     2.5250     8.5540   100.0910   -15.3060     7.8450     6.9370     6.5060  1236.3910
 1637.5000  1089.4980    -0.0040     2.5220     8.5530   101.8940   -15.3060     7.8150     6.9050     6.5060  1236.7260
 1638.0000  1089.7490    -0.0010     2.5240     8.5520   103.6410   -15.3060     7.7840     6.8730     6.5060  1237.0601
 1638.5000  1090.0010     0.0080     2.5340     8.5510   104.4540   -15.3060     7.7540     6.8410     6.5060  1237.3940
 1639.0000  1090.2520     0.0080     2.5390     8.5490   102.2410   -15.3060     7.7240     6.8080     6.5060  1237.7290
 1639.5000  1090.5040     0.0060     2.5310     8.5480    99.5390   -15.3060     7.7110     6.7580     6.5060  1238.0630
 1640.0000  1090.7550     0.0040     2.5220     8.5470    97.9770   -15.3060     7.9060     6.7690     6.5060  1238.3970
 1640.5000  1091.0060     0.0050     2.5140     8.5460    99.1550   -15.3060     7.9680     6.8050     6.5070  1238.7321
 1641.0000  1091.2581     0.0050     2.5140     8.5450   101.1010   -15.3060     8.0300     6.8420     6.5080  1239.0660
 1641.5000  1091.5090     0.0050     2.5170     8.5440   103.0960   -15.3060     8.0930     6.8780     6.5400  1239.4000
 1642.0000  1091.7610     0.0080     2.5250     8.5430   104.3590   -15.3060     8.1600     6.9140     6.5760  1239.7350
 1642.5000  1092.0120     0.0160     2.5350     8.5420   101.6330   -15.3060     8.1600     6.9500     6.6130  1240.0690
 1643.0000  1092.2640     0.0180     2.5410     8.5410    98.4950   -15.3060     8.1600     6.9860     6.6490  1240.4030
 1643.5000  1092.5150     0.0180     2.5440     8.5410    96.3790   -15.3060     8.1600     7.0230     6.6850  1240.7380
 1644.0000  1092.7660     0.0170     2.5430     8.5410    98.0840   -15.3060     8.1600     7.0590     6.7210  1241.0720
 1644.5000  1093.0179     0.0160     2.5370     8.5420    99.8410   -15.3060     8.1600     7.0950     6.7570  1241.4070
 1645.0000  1093.2690     0.0160     2.5340     8.5420    98.2570   -15.3060     8.1600     7.1500     6.7930  1241.7410
 1645.5000  1093.5210     0.0160     2.5330     8.5430    95.3040   -15.3060     8.2300     7.1360     6.8290  1242.0750
 1646.0000  1093.7720     0.0160     2.5330     8.5430    93.9680   -15.3060     8.3770     7.1070     6.8660  1242.4100
 1646.5000  1094.0229     0.0160     2.5380     8.5440    95.8910   -15.3060     8.5250     7.0770     6.8850  1242.7440
 1647.0000  1094.2750     0.0150     2.5470     8.5440    99.9180   -15.3060     8.6350     7.0480     6.8500  1243.0780
 1647.5000  1094.5260     0.0130     2.5510     8.5450   103.9390   -15.3060     8.4890     7.0190     6.8180  1243.4130
 1648.0000  1094.7780     0.0100     2.5530     8.5450   105.8720   -15.3060     8.3160     6.9890     6.7860  1243.7469
 1648.5000  1095.0291     0.0090     2.5500     8.5460   100.5230   -15.3060     8.1430     6.9600     6.7530  1244.0811
 1649.0000  1095.2810     0.0070     2.5480     8.5460    95.4160   -15.3060     8.0070     6.9310     6.7210  1244.4160
 1649.5000  1095.5320     0.0070     2.5480     8.5470    92.7730   -15.3060     8.0070     6.9020     6.6890  1244.7500
 1650.0000  1095.7830     0.0060     2.5510     8.5470    96.0110   -15.3060     8.0070     6.8720     6.6560  1245.0840
 1650.5000  1096.0350     0.0060     2.5530     8.5480   100.9930   -15.3060     8.0070     6.8430     6.6240  1245.4189
 1651.0000  1096.2860     0.0040     2.5530     8.5490   100.0430   -15.3060     8.0070     6.8140     6.5920  1245.7531
 1651.5000  1096.5380     0.0030     2.5530     8.5490    98.6920   -15.3060     8.0070     6.7840     6.5590  1246.0870
 1652.0000  1096.7889     0.0010     2.5390     8.5500    97.7580   -15.3060     8.0070     6.7550     6.5270  1246.4220
 1652.5000  1097.0400    -0.0010     2.5240     8.5500   101.2920   -15.3060     7.7260     6.7260     6.4820  1246.7560
 1653.0000  1097.2920     0.0020     2.5270     8.5510   104.5550   -15.3060     7.4850     6.6970     6.4160  1247.0900
 1653.5000  1097.5430     0.0130     2.5410     8.5510   103.7770   -15.3060     7.5670     6.6670     6.3490  1247.4250
 1654.0000  1097.7950     0.0240     2.5560     8.5520   102.8270   -15.3060     7.6600     6.6330     6.2670  1247.7590
 1654.5000  1098.0460     0.0260     2.5680     8.5520   103.3670   -15.3060     7.7600     6.6390     6.2710  1248.0930
 1655.0000  1098.2970     0.0230     2.5770     8.5530   104.1260   -15.3060     7.8590     6.6510     6.2780  1248.4280
 1655.5000  1098.5490     0.0210     2.5770     8.5530   104.8030   -15.3050     8.0070     6.6630     6.2850  1248.7620
 1656.0000  1098.8000     0.0180     2.5720     8.5540   102.9560   -15.3070     7.9570     6.6750     6.2920  1249.0970
 1656.5000  1099.0520     0.0170     2.5630     8.5540   102.1560   -15.3050     7.8570     6.6870     6.3000  1249.4310
 1657.0000  1099.3030     0.0170     2.5530     8.5550   102.8930   -15.3040     7.7580     6.6990     6.3070  1249.7650
 1657.5000  1099.5551     0.0170     2.5450     8.5550   102.6200   -15.3170     7.6590     6.7110     6.3140  1250.1000
