~VERSION INFORMATION
 VERS.                2.0:   CWLS LOG ASCII STANDARD - VERSION 2.0
 WRAP.                 NO:   ONE LINE PER DEPTH STEP
~WELL INFORMATION
#MNEM.UNIT      DATA TYPE    INFORMATION
#----------   ------------   ------------------------------
 STRT.F          508.0000:   START DEPTH
 STOP.F         3170.0000:   STOP DEPTH
 STEP.F            0.5000:   STEP LENGTH
 NULL.          -999.2500:   NO VALUE
 COMP. FENIX & SCISSON - U.S. NAVY:   COMPANY
 WELL. FENIX NPR-3 "A" #58-34:   WELL
 FLD .                NPR:   FIELD
 LOC .      S34 T39N R78W:   LOCATION
 CNTY.            NATRONA:   COUNTY
 STAT.            WYOMING:   STATE
 CTRY. UNITED STATES OF AMERICA:   COUNTRY
 SRVC.       SCHLUMBERGER:   SERVICE COMPANY
 DATE.        15-MAR-1977:   LOGDATE
 API .     49025103180000:   API NUMBER
~CURVE INFORMATION
#MNEM.UNIT       API CODE    CURVE DESCRIPTION
#----------   ------------   ------------------------------
 DEPT.F                  :   
 CALD.IN     45 280 60 00:   CALIPER FROM DENSITY LOG
 GRD .GAPI   45 310 01 00:   GAMMA RAY FROM DENSITY LOG
 RHOB.G/C3   45 350 01 00:   BULK DENSITY
 CORR.G/C3   45 356 01 00:   DENSITY CORRECTION
 SPR .MV     07 010 01 00:   SPONTANEOUS POTENTIAL
 LL8 .OHMM   07 220 08 00:   LATEROLOG-8 RES.
 ILD .OHMM   07 120 46 00:   DEEP INDUCTION RESISTIVITY
 ILM .OHMM   07 120 44 00:   INDUCTION LOG MEDIUM RESISTIVITY
~PARAMETER INFORMATION
#MNEM.UNIT          VALUE    DESCRIPTION
#----------   ------------   ------------------------------
 EKB .F         5129.0000:   Kelly bushing
 EGL .F         5117.0000:   Ground level
 EDF .F            0.0000:   Drilling floor
 EPD .F            0.0000:   Permanent datum
 TD  .F         3170.0000:   Total depth
 DATE.        15-MAR-1977:   Date logged
 CLNT.            A2DTECH:   Client Code
 SL  . 2310' FEL & 330' FSL:   Surface Location
 PD  .                 GL:   Permanent Datum
 DAPD.F                12:   Feet Above Permanent Datum
 DD  .F              3170:   Depth driller
 DL  .F              3170:   Depth logger
 BLI .F              3169:   Bottom log interval
 TLI .F               508:   Top log interval
 CS1 .IN            8.625:   Casing size
 CBD1.      8.625" @ 524':   Casing driller 1
 CBL1.F               522:   Casing logger 1
 BS1 .IN            7.875:   Bit size
 BSD1.F              3170:   Depth drilled with bit1
 DFT .                KCL:   Type fluid in hole
 DFD .                9.2:   Density
 DFV .                 36:   Viscosity
 DFPH.                  9:   pH
 DFL .                  9:   Fluid loss
 MSS .                PIT:   Source of sample
 RMS .OHMM             .3:   Rm
 MST .F                58:   Rm Meas. temp.
 RMF .OHMM            .29:   Rmf
 MFST.F                58:   Rmf Meas. temp.
 MFSS.               MEAS:   Source Rmf.
 RMB .OHMM            .15:   Rm. at BHT
 BHT .F               120:   BHT.
 TCS .HRS               6:   Time Circ. stopped
 MRT .F               120:   Maximum recorded temp.
 LUN .               7711:   Logging unit number
 LUL .               CSPR:   Logging unit location
 ENGI.             SAYLER:   Recorded By
 WITN.               JAPP:   Witnessed by
 ORIG.           5" PRINT:   Origin of data
 UWI .     49025103180000:   Unique Well ID
 DICO. A2D TECHNOLOGIES, INC.:   Digitizing Company
~OTHER INFORMATION
~A   DEPT       CALD       GRD      RHOB        CORR       SPR        LL8        ILD        ILM   
# ...
 1561.0000     9.0931   142.1461     2.5509     0.0064   -54.3733     8.8409     7.1896     6.7415
 1561.5000     9.0925   141.7438     2.5528     0.0094   -53.5042     8.9190     7.1869     6.8640
 1562.0000     9.1115   139.9537     2.5558     0.0134   -53.0758     8.9978     7.2517     6.8614
 1562.5000     9.1107   138.1647     2.5648     0.0143   -53.0880     9.1609     7.2479     6.9222
 1563.0000     9.0902   136.1776     2.5667     0.0143   -53.1001     9.1576     7.2457     6.9483
 1563.5000     9.0696   136.1714     2.5617     0.0133   -53.1123     9.1542     7.3115     7.0119
 1564.0000     9.0689   136.7595     2.5457     0.0113   -52.9041     8.9845     7.3083     7.0088
 1564.5000     9.0682   136.5552     2.5436     0.0122   -52.9163     8.9812     7.3050     7.0056
 1565.0000     9.0481   135.9546     2.5536     0.0142   -52.4878     9.1441     7.3012     7.0019
 1565.5000     9.0865   135.9484     2.5606     0.0152   -52.4999     9.3099     7.3664     7.0650
 1566.0000     9.0858   136.7346     2.5636     0.0081   -52.9528     9.7431     7.4317     7.1281
 1566.5000     9.0852   136.9266     2.5525     0.0071   -53.1853     9.7395     7.4289     7.1255
 1567.0000     9.0843   136.3222     2.5515     0.0101   -53.4179     9.0472     7.5640     7.2561
 1567.5000     9.0836   134.1403     2.5515     0.0131   -53.2097     8.8796     7.6310     7.3210
 1568.0000     9.1225   131.7552     2.5544     0.0130   -53.2218     9.0406     7.7698     7.4552
 1568.5000     9.1416   131.3526     2.5594     0.0110   -53.4544     9.2893     7.7669     7.2821
 1569.0000     9.1408   130.5537     2.5494     0.0060   -53.6869     9.7216     7.8357     7.3466
 1569.5000     9.1401   130.9437     2.5503     0.0059   -54.1399    10.1740     7.8328     7.3438
 1570.0000     9.1394   131.7312     2.5613    -0.0041   -54.3725    10.7456     7.7582     7.1413
 1570.5000     9.1387   137.6695     2.5653     0.0029   -54.6051    10.0738     7.6139     6.9444
 1571.0000     9.1776   141.4295     2.5593     0.0049   -54.6173     9.1037     7.4724     6.8152
 1571.5000     9.1966   142.6124     2.5512     0.0108   -54.6295     8.9349     7.4012     6.8127
 1572.0000     9.2157   140.2271     2.5652     0.0168   -54.6417     8.8501     7.2630     6.7477
 1572.5000     9.2348   140.2209     2.5612     0.0188   -54.4335     8.8468     7.1279     6.7452
 1573.0000     9.2341   141.9996     2.5541     0.0198   -54.4457     8.8435     6.9954     6.7427
 1573.5000     9.2339   145.5607     2.5591     0.0178   -54.2375     8.8403     7.0574     6.6784
 1574.0000     9.2128   148.5250     2.5671     0.0177   -53.5884     8.8370     7.0547     6.7376
 1574.5000     9.2319   145.7468     2.5691     0.0157   -53.3801     8.8337     7.1173     6.8601
 1575.0000     9.2316   143.1643     2.5650     0.0147   -53.3923     8.8305     7.1804     6.9209
 1575.5000     9.1908   142.1672     2.5620     0.0166   -53.4045     8.9086     7.3785     7.0468
 1576.0000     9.0910   140.9707     2.5600     0.0176   -53.6371     8.9873     7.5827     7.1093
 1576.5000     9.0111   140.3700     2.5629     0.0136   -53.6493     9.1504     7.7920     7.2386
 1577.0000     8.9508   140.1656     2.5639     0.0105   -53.2206     9.3164     8.0071     7.3703
 1577.5000     8.9500   140.3559     2.5609     0.0095   -52.7919     9.3988     8.0041     7.4362
 1578.0000     8.9493   143.1278     2.5499     0.0105   -53.0245     9.5693     8.0011     7.6792
 1578.5000     8.9089   146.2931     2.5408     0.0095   -53.2644     9.3061     7.8523     7.5351
 1579.0000     8.9082   148.2693     2.5438     0.0134   -54.3717     9.3027     7.6357     7.3255
 1579.5000     8.8876   147.6687     2.5498     0.0164   -54.1634     9.2992     7.4937     7.1881
 1580.0000     8.8274   145.4821     2.5597     0.0214   -54.3961     8.9608     7.5100     7.2039
 1580.5000     8.8069   145.6743     2.5697     0.0244   -54.6288     8.7143     7.5072     7.2012
 1581.0000     8.7665   147.6507     2.5707     0.0214   -54.8615     8.5527     7.5044     7.1984
 1581.5000     8.7260   148.2394     2.5666     0.0163   -54.8737     8.4715     7.2982     6.9990
 1582.0000     8.6856   146.8457     2.5606     0.0093   -54.8859     8.5464     7.2955     6.9964
 1582.5000     8.6449   145.6502     2.5396     0.0052   -54.6776     8.6220     7.3599     7.0587
 1583.0000     8.6446   144.0581     2.5365     0.0052   -54.4693     8.8593     7.4932     7.1876
 1583.5000     8.6040   142.6643     2.5515     0.0122   -54.2610     8.9377     7.7706     7.5398
 1584.0000     8.5835   139.2865     2.5595     0.0051   -53.1706    10.1592     7.8392     7.6072
 1584.5000     8.5431   137.2977     2.5575     0.0031   -52.9623    10.2491     7.8363     7.6044
 1585.0000     8.5428   135.9037     2.5614     0.0111   -52.7539    10.3398     7.9055     7.6718
 1585.5000     8.5218   135.8974     2.5704     0.0151   -52.7661    10.2416     7.9026     7.6690
 1586.0000     8.5409   138.8653     2.5804     0.0241   -52.5577     9.8688     7.8276     7.6661
 1586.5000     8.5203   142.2311     2.5644     0.0140   -52.3493     9.5973     7.7533     7.6633
 1587.0000     8.5394   145.5958     2.5603     0.0140   -52.3615     9.2479     7.8218     7.5902
 1587.5000     8.5386   147.3744     2.5733     0.0170   -52.3737     9.0764     7.8189     7.5179
 1588.0000     8.5379   148.9547     2.5613     0.0150   -53.0475     9.1567     7.6034     7.4456
 1588.5000     8.5371   148.3539     2.5212     0.0019   -53.5008     9.3229     7.5312     7.3071
 1589.0000     8.5364   148.9428     2.5272     0.0019   -53.9542     9.7571     7.5284     7.3044
 1589.5000     8.5357   149.5317     2.5382     0.0008   -54.4075     9.7535     7.5256     7.3016
 1590.0000     8.5349   151.1486     2.5561     0.0018   -54.4197     9.7499     7.5228     7.2989
 1590.5000     8.5342   148.5282     2.5621     0.0168   -54.6525     9.4816     7.5893     7.3636
 1591.0000     8.5334   146.1425     2.5671     0.0218   -54.6648     9.3057     7.5864     7.4290
 1591.5000     8.5327   145.1448     2.5691     0.0178   -54.9000     9.3023     7.5836     7.4949
 1592.0000     8.5319   144.7421     2.5480     0.0087   -55.1328     9.2989     7.6506     7.4921
 1592.5000     8.5114   144.1411     2.5470     0.0077   -55.1451     9.3811     7.6478     7.4893
 1593.0000     8.4908   143.3417     2.5680     0.0097   -55.1573     9.7284     7.6449     7.4865
 1593.5000     8.4906   144.1290     2.5760     0.0066   -55.1695     9.8145     7.7124     7.4837
 1594.0000     8.4893   146.7013     2.5729     0.0066   -55.6230     9.8109     7.6392     7.4809
 1594.5000     8.4687   147.8853     2.5779     0.0086   -55.6352     9.5409     7.7067     7.4781
 1595.0000     8.4680   148.2772     2.5689     0.0146   -55.6475     9.4502     7.6335     7.4753
 1595.5000     8.4672   143.1088     2.5578     0.0145   -55.4391     9.2749     7.6307     7.4725
 1596.0000     8.4665   144.8920     2.5618     0.0155   -54.7894     9.1867     7.5582     7.4012
 1596.5000     8.4657   146.0761     2.5658     0.0155   -54.8016     9.2680     7.4865     7.2629
 1597.0000     8.4650   147.2603     2.5497     0.0074   -54.1495     9.4363     7.4837     7.1942
 1597.5000     8.4444   148.0477     2.5437     0.0104   -53.7204     9.2612     7.4126     7.1256
 1598.0000     8.4437   149.8271     2.5717     0.0084   -53.5119     8.9239     7.3422     7.0576
 1598.5000     8.4634   151.4093     2.5767     0.0184   -53.3034     8.9206     7.3395     7.0550
 1599.0000     8.4620   152.1969     2.5606     0.0143   -52.7378     8.9173     7.4043     7.0523
 1599.5000     8.4613   155.1672     2.5486     0.0083   -52.5244     8.9141     7.4697     7.1149
 1600.0000     8.4605   155.9529     2.5415     0.0073   -52.5366     8.9108     7.6051     7.1780
 1600.5000     8.4597   154.8668     2.5471     0.0034   -52.3379     9.2896     7.8140     7.2883
 1601.0000     8.4595   153.9589     2.5545     0.0132   -52.3238     9.7589     7.8823     7.5089
