~VERSION INFORMATION
 VERS.                2.0:   CWLS LOG ASCII STANDARD - VERSION 2.0
 WRAP.                 NO:   ONE LINE PER DEPTH STEP
~WELL INFORMATION
#MNEM.UNIT      DATA TYPE    INFORMATION
#----------   ------------   ------------------------------
 STRT.F          200.0000:   START DEPTH
 STOP.F         3196.5000:   STOP DEPTH
 STEP.F            0.5000:   STEP LENGTH
 NULL.          -999.2500:   NO VALUE
 COMP.    FENIX & SCISSON:   COMPANY
 WELL. FENIX & SCISSON #82-15:   WELL
 FLD .                NPR:   FIELD
 LOC .      S15 T38N R78W:   LOCATION
 CNTY.            NATRONA:   COUNTY
 STAT.            WYOMING:   STATE
 CTRY. UNITED STATES OF AMERICA:   COUNTRY
 SRVC.              WELEX:   SERVICE COMPANY
 DATE.        14-AUG-1977:   LOGDATE
 API .     49025104100000:   API NUMBER
~CURVE INFORMATION
#MNEM.UNIT       API CODE    CURVE DESCRIPTION
#----------   ------------   ------------------------------
 DEPT.F                  :   
 CALD.IN     45 280 60 00:   CALIPER FROM DENSITY LOG
 GRD .GAPI   45 310 01 00:   GAMMA RAY FROM DENSITY LOG
 RHOB.G/C3   45 350 01 00:   BULK DENSITY
 CORR.G/C3   45 356 01 00:   DENSITY CORRECTION
 SPR .MV     07 010 01 00:   SPONTANEOUS POTENTIAL
 ILD .OHMM   07 120 46 00:   DEEP INDUCTION RESISTIVITY
 ILM .OHMM   07 120 44 00:   INDUCTION LOG MEDIUM RESISTIVITY
 GURD.OHMM   07 220 05 00:   GUARD LOG RESISTIVITY
~PARAMETER INFORMATION
#MNEM.UNIT          VALUE    DESCRIPTION
#----------   ------------   ------------------------------
 EKB .F         5259.0000:   Kelly bushing
 EGL .F         5249.0000:   Ground level
 EDF .F            0.0000:   Drilling floor
 EPD .F            0.0000:   Permanent datum
 TD  .F         3197.0000:   Total depth
 CLNT.            A2DTECH:   Client Code
 SL  . 990' FNL & 330' FEL:   Surface Location
 PD  .                 GL:   Permanent Datum
 DAPD.F                10:   Feet Above Permanent Datum
 DATE.        14-AUG-1977:   Date Logged [DD-MMM-YYYY]
 DD  .F              3197:   Depth driller
 DL  .F              3200:   Depth logger
 BLI .F              3198:   Bottom log interval
 TLI .F               200:   Top log interval
 CS1 .IN            8.625:   Casing size
 CBD1.      8.625" @ 236':   Casing driller 1
 CBL1.F               220:   Casing logger 1
 BS1 .IN            7.875:   Bit size
 BSD1.F              3197:   Depth drilled with bit1
 DFT .            KCL MUD:   Type fluid in hole
 DFD .                9.1:   Density
 DFV .                 42:   Viscosity
 DFPH.               10.5:   pH
 DFL .                7.2:   Fluid loss
 MSS .           FLOWLINE:   Source of sample
 RMS .OHMM          0.240:   Rm
 MST .F                92:   Rm Meas. temp.
 RMF .OHMM          0.160:   Rmf
 MFST.F                92:   Rmf Meas. temp.
 MFSS.               MEAS:   Source Rmf.
 RMC .OHMM          0.238:   Rmc
 MCST.F                92:   Rmc Meas. temp.
 MCSS.               MEAS:   Source Rmc.
 RMB .OHMM          0.194:   Rm. at BHT
 BHT .F               114:   BHT.
 TCS .HRS               3:   Time Circ. stopped
 MRT .F               114:   Maximum recorded temp.
 LUN .               9685:   Logging unit number
 LUL .             CASPER:   Logging unit location
 ENGI.            C. DOAK:   Recorded By
 WITN.      W. PETTINGILL:   Witnessed by
 ORIG.           5" PRINT:   Origin of data
 UWI .     49025104100000:   Unique Well ID
 DICO. A2D TECHNOLOGIES, INC.:   Digitizing Company
~OTHER INFORMATION
~A   DEPT       CALD       GRD        RHOB      CORR       SPR        ILD        ILM       GURD   
# ...
 1374.5000    13.3969   111.8580     2.4542     0.0134   -68.6243     6.0738     4.8664     6.2433
 1375.0000    13.3988   113.3433     2.4596     0.0120   -68.6099     6.1201     4.8696     6.1624
 1375.5000    13.3857   112.1722     2.4589     0.0121   -68.6268     6.1257     4.4801     6.1241
 1376.0000    13.3881   111.5900     2.4537     0.0122   -68.7235     6.1284     4.4564     6.0860
 1376.5000    13.3900   112.2189     2.4463     0.0138   -68.7044     6.1334     4.5537     6.0911
 1377.0000    13.3614   113.1419     2.4441     0.0184   -68.6876     6.1375     4.7173     6.0952
 1377.5000    13.3638   112.8654     2.4494     0.0201   -68.6697     6.0572     4.8868     6.0992
 1378.0000    13.3502   112.2833     2.4555     0.0232   -68.6517     6.0184     4.9582     6.1033
 1378.5000    13.3526   112.9122     2.4593     0.0233   -68.6306     6.0235     4.9616     6.1074
 1379.0000    13.3394   113.5353     2.4616     0.0236   -68.6132     6.0275     4.9995     6.1115
 1379.5000    13.3111   112.6306     2.4639     0.0265   -68.5944     6.0315     5.0733     6.1157
 1380.0000    13.2794   113.8878     2.4677     0.0282   -68.5800     6.0357     5.1833     6.2061
 1380.5000    13.2107   112.7117     2.4715     0.0313   -68.5612     6.0406     5.2228     6.2534
 1381.0000    13.1671   110.0364     2.4738     0.0329   -68.5441     6.0447     5.2992     6.3011
 1381.5000    13.1245   111.2592     2.4722     0.0330   -68.5262     6.0488     5.3396     6.3053
 1382.0000    13.1110   112.4820     2.4717     0.0331   -68.5048     6.0949     5.3438     6.3095
 1382.5000    13.1133   112.5054     2.4733     0.0317   -68.4874     6.2270     5.3104     6.3137
 1383.0000    13.1152   111.3294     2.4772     0.0308   -68.4700     6.2745     5.0625     6.3619
 1383.5000    13.1171   111.3528     2.4820     0.0305   -68.4527     6.2354     4.5978     6.3663
 1384.0000    13.1190   110.4690     2.4877     0.0291   -68.4353     6.2397     4.2339     6.4157
 1384.5000    13.1210   111.4393     2.4923     0.0292   -68.4180     6.2448     4.4166     6.5096
 1385.0000    13.1233   112.0226     2.4961     0.0323   -68.4006     6.2490     4.6758     6.6048
 1385.5000    13.1402   111.4463     2.4992     0.0340   -68.3827     6.2532     5.0105     6.6551
 1386.0000    13.2020   111.1699     2.5037     0.0356   -68.3615     6.2574     5.2994     6.7059
 1386.5000    13.2639   111.4989     2.5068     0.0357   -68.3442     6.2616     5.5280     6.7104
 1387.0000    13.3108   112.1220     2.5084     0.0381   -68.3268     6.2658     5.6870     6.7150
 1387.5000    13.3427   111.8397     2.5083     0.0389   -68.3095     6.2700     5.8914     6.7205
 1388.0000    13.3446   111.2684     2.5025     0.0369   -68.2921     6.2309     6.0609     6.7250
 1388.5000    13.3624   110.0929     2.4988     0.0347   -68.2747     6.2794     6.0651     6.7295
 1389.0000    13.3784   111.3163     2.4937     0.0333   -68.2571     6.2836     6.0281     6.6864
 1389.5000    13.3807   110.6917     2.4877     0.0331   -68.2357     6.2445     6.0741     6.6920
 1390.0000    13.3826   109.5637     2.4758     0.0305   -68.2183     6.2487     6.0781     6.6502
 1390.5000    13.3804   109.8927     2.4699     0.0262   -68.0515     6.2095     6.1245     6.6548
 1391.0000    13.3559   110.8157     2.4767     0.0218   -67.8847     6.2139     6.1712     6.6132
 1391.5000    13.3583   111.4388     2.4821     0.0249   -67.5684     6.3049     6.2182     6.6188
 1392.0000    13.3602   111.1623     2.4843     0.0280   -67.4015     6.3100     6.2698     6.5764
 1392.5000    13.3771   110.5801     2.4784     0.0282   -67.3842     6.3143     6.3144     6.5819
 1393.0000    13.3640   110.9092     2.4800     0.0283   -67.3662     6.3185     6.3187     6.5863
 1393.5000    13.3663   111.2354     2.4935     0.0284   -67.4989     6.3227     6.3229     6.5907
 1394.0000    13.3682   110.6288     2.4966     0.0320   -67.4798     6.4152     6.3711     6.5044
 1394.5000    13.3547   108.5864     2.4936     0.0346   -67.4599     6.4641     6.4196     6.4193
 1395.0000    13.3416   108.3041     2.4922     0.0362   -67.4425     6.5135     6.4239     6.3792
 1395.5000    13.3135   110.4323     2.4938     0.0363   -67.4251     6.5180     6.4283     6.3846
 1396.0000    13.3159   109.5502     2.4969     0.0335   -67.4078     6.5233     6.4336     6.3888
 1396.5000    13.3477   108.3742     2.4984     0.0321   -67.3901     6.4815     6.3924     6.4375
 1397.0000    13.3646   108.0978     2.4947     0.0307   -67.3687     6.5320     6.3978     6.4419
 1397.5000    13.3981   109.3264     2.4911     0.0279   -67.3514     6.5818     6.4465     6.5815
 1398.0000    13.4139   110.5492     2.4870     0.0250   -67.3340     6.6320     6.4509     6.7767
 1398.5000    13.4158   110.8798     2.4834     0.0206   -67.3167     6.5907     6.5452     6.8711
 1399.0000    13.4022   111.1964     2.4808     0.0177   -67.2993     6.6410     6.5496     6.8757
 1399.5000    13.4046   110.9192     2.4823     0.0149   -67.2819     6.6465     6.5551     6.8803
 1400.0000    13.4210   110.6072     2.4869     0.0135   -67.2646     6.6509     6.5142     6.8849
 1400.5000    13.4019   110.1701     2.4952     0.0136   -67.3965     6.6084     6.5635     7.0331
 1401.0000    13.3855   109.7331     2.4989     0.0137   -67.5241     6.5672     6.5680     7.0369
 1401.5000    13.3959   108.6264     2.4893     0.0123   -67.5066     6.5263     6.4820     6.9921
 1402.0000    13.3673   110.2569     2.4833     0.0109   -67.4891     6.5318     6.3971     6.9960
 1402.5000    13.3838   111.9836     2.4796     0.0125   -67.4716     6.4909     6.4026     7.0006
 1403.0000    13.4303   111.1102     2.4789     0.0141   -67.4541     6.4955     6.4069     6.9551
 1403.5000    13.4321   109.9304     2.4797     0.0142   -67.4366     6.4999     6.3219     6.8632
 1404.0000    13.4335   110.2630     2.4835     0.0188   -67.4190     6.4148     6.2836     6.8195
 1404.5000    13.4350   109.9827     2.4895     0.0189   -67.4015     6.4202     6.2879     6.7761
 1405.0000    13.4364   109.4157     2.4940     0.0160   -67.5336     6.4245     6.2921     6.7806
 1405.5000    13.4379   108.5423     2.4970     0.0171   -67.6654     6.4735     6.3401     6.7843
 1406.0000    13.4393   110.3741     2.4956     0.0192   -67.6472     6.5229     6.3885     6.7411
 1406.5000    13.4408   110.9935     2.4919     0.0178   -67.7799     6.5273     6.4372     6.6958
 1407.0000    13.4107   109.2271     2.4889     0.0149   -67.7580     6.5317     6.4417     6.6556
 1407.5000    13.3987   108.9468     2.4874     0.0150   -67.7405     6.5815     6.4918     6.6601
 1408.0000    13.4005   109.2794     2.4890     0.0152   -67.7230     6.5860     6.5413     6.7100
 1408.5000    13.3870   110.2051     2.4950     0.0170   -67.7040     6.6373     6.5912     6.7602
 1409.0000    13.3884   111.1308     2.5003     0.0214   -67.5370     6.6418     6.5957     6.8109
 1409.5000    13.3899   111.1574     2.5011     0.0230   -67.2205     6.6462     6.6001     6.8619
 1410.0000    13.4213   112.3890     2.4989     0.0231   -67.0536     6.6507     6.6046     6.8656
 1410.5000    13.3628   112.4152     2.4944     0.0201   -67.0360     6.6552     6.5633     6.8693
 1411.0000    13.3493   111.8351     2.4892     0.0173   -67.1724     6.6597     6.5225     6.8731
 1411.5000    13.3511   111.5614     2.4847     0.0174   -67.3000     6.6182     6.4819     6.8769
 1412.0000    13.3526   112.7935     2.4818     0.0175   -67.7309     6.4865     6.4865     6.8814
 1412.5000    13.3386   111.6192     2.4863     0.0206   -67.7130     6.4909     6.4918     6.8851
 1413.0000    13.2955   111.9463     2.4954     0.0222   -67.6951     6.4963     6.4962     6.8888
 1413.5000    13.2816   110.7476     2.5021     0.0223   -67.6740     6.5007     6.5005     6.8441
 1414.0000    13.2834   109.8997     2.5044     0.0209   -67.6564     6.5051     6.5049     6.8487
 1414.5000    13.2849   110.8319     2.5007     0.0165   -67.6389     6.5095     6.5093     6.8524
