~VERSION INFORMATION
 VERS.                2.0:   CWLS LOG ASCII STANDARD - VERSION 2.0
 WRAP.                 NO:   ONE LINE PER DEPTH STEP
~WELL INFORMATION
#MNEM.UNIT      DATA TYPE    INFORMATION
#----------   ------------   ------------------------------
 STRT.F          590.0000:   START DEPTH
 STOP.F         3123.0000:   STOP DEPTH
 STEP.F            0.5000:   STEP LENGTH
 NULL.          -999.2500:   NO VALUE
 COMP.         U. S. NAVY:   COMPANY
 WELL. U.S. NPR 3 "A" #402-33:   WELL
 FLD .             TEAPOT:   FIELD
 LOC .      S33 T39N R78W:   LOCATION
 CNTY.            NATRONA:   COUNTY
 STAT.            WYOMING:   STATE
 CTRY. UNITED STATES OF AMERICA:   COUNTRY
 SRVC.         MCCULLOUGH:   SERVICE COMPANY
 DATE.        23-OCT-1967:   LOGDATE
 API .     49025104460000:   API NUMBER
~CURVE INFORMATION
#MNEM.UNIT       API CODE    CURVE DESCRIPTION
#----------   ------------   ------------------------------
 DEPT.F                  :   
 GRN .GAPI   35 310 01 00:   GAMMA RAY FROM NEUTRON
 NEUT.NAPI   35 330 01 00:   NEUTRON
~PARAMETER INFORMATION
#MNEM.UNIT          VALUE    DESCRIPTION
#----------   ------------   ------------------------------
 EKB .F            0.0000:   Kelly bushing
 EGL .F         5160.5000:   Ground level
 EDF .F         5162.0000:   Drilling floor
 TD  .F         3123.5000:   Total depth
 CLNT.            A2DTECH:   Client Code
 PD  .                 GL:   Permanent Datum
 EPD .F            5160.5:   Elevation Permanent Datum
 LMF .                 DF:   Log Measured From
 DMF .                 DF:   Drilling Measured From
 DAPD.F               1.5:   Feet Above Permanent Datum
 DATE.        23-OCT-1967:   Date Logged [DD-MMM-YYYY]
 DL  .F            3123.5:   Depth logger
 BLI .F              3122:   Bottom log interval
 TLI .F               600:   Top log interval
 CS1 .IN           5.1875:   Casing size
 DFT .              WATER:   Type fluid in hole
 TCS .HRS             4.5:   Time Circ. stopped
 ENGI.         COWLTHORPE:   Recorded By
 WITN.           THOMASON:   Witnessed by
 ORIG.         2.5" PRINT:   Origin of data
 UWI .     49025104460000:   Unique Well ID
 DICO. A2D TECHNOLOGIES, INC.:   Digitizing Company
 LUN .               1498:   Logging unit number
~OTHER INFORMATION
~A   DEPT       GRN      NEUT   
# ...
 1683.5000    31.9607   379.8647
 1684.0000    30.4136   347.7750
 1684.5000    31.1931   365.0918
 1685.0000    34.5570   379.9382
 1685.5000    35.8087   357.7298
 1686.0000    36.4350   362.6950
 1686.5000    34.3517   372.6007
 1687.0000    34.7696   362.7440
 1687.5000    34.7706   355.3575
 1688.0000    33.7295   352.9108
 1688.5000    31.4377   360.3471
 1689.0000    30.6049   365.3123
 1689.5000    32.8988   352.9851
 1690.0000    34.5674   370.3019
 1690.5000    35.4022   355.5045
 1691.0000    34.7779   365.9897
 1691.5000    33.9452   392.6090
 1692.0000    36.4475   392.1377
 1692.5000    36.2401   379.6901
 1693.0000    32.4892   349.6999
 1693.5000    35.1999   348.2405
 1694.0000    34.7841   364.4064
 1694.5000    34.3375   389.3004
 1695.0000    32.2849   392.7799
 1695.5000    31.2437   359.3320
 1696.0000    32.7038   326.1325
 1696.5000    35.7009   323.6842
 1697.0000    33.9231   353.3555
 1697.5000    35.2082   363.2615
 1698.0000    35.4287   392.9268
 1698.5000    33.9596   384.8445
 1699.0000    33.5438   383.0945
 1699.5000    33.5421   379.9946
 1700.0000    36.0472   358.4403
 1700.5000    37.2988   383.2964
 1701.0000    31.0079   357.4823
 1701.5000    28.5464   343.6224
 1702.0000    30.2373   352.0705
 1702.5000    30.4244   358.1566
 1703.0000    30.2170   366.8198
 1703.5000    30.3036   374.4649
 1704.0000    30.1941   381.9289
 1704.5000    30.4124   385.4778
 1705.0000    31.4824   365.3601
 1705.5000    34.3867   346.7975
 1706.0000    34.8630   323.9402
 1706.5000    31.8509   343.6224
 1707.0000    33.3083   363.3850
 1707.5000    35.3902   318.9191
 1708.0000    35.8721   309.0378
 1708.5000    31.0088   336.2114
 1709.0000    30.7410   353.5037
 1709.5000    32.6722   363.3850
 1710.0000    33.9208   367.4221
 1710.5000    32.4597   348.5630
 1711.0000    31.8323   358.4444
 1711.5000    32.0387   370.7960
 1712.0000    32.6621   365.8553
 1712.5000    30.9923   370.7960
 1713.0000    30.9259   407.8509
 1713.5000    32.4473   397.9696
 1714.0000    30.9862   393.0289
 1714.5000    30.9841   397.9696
 1715.0000    31.8158   395.4993
 1715.5000    32.6475   363.2875
 1716.0000    32.4370   351.0334
 1716.5000    34.1125   363.6217
 1717.0000    34.2745   373.2663
 1717.5000    36.5996   373.2663
 1718.0000    35.5316   370.7960
 1718.5000    34.5344   387.9554
 1719.0000    31.4929   411.8681
 1719.5000    30.3382   422.6729
 1720.0000    32.0868   410.8153
 1720.5000    32.6728   392.4814
 1721.0000    32.6246   395.4334
 1721.5000    32.0273   420.2025
 1722.0000    28.6892   400.7850
 1722.5000    28.7865   396.4462
 1723.0000    29.0731   384.0097
 1723.5000    29.0707   368.3257
 1724.0000    30.2138   400.4095
 1724.5000    31.8972   422.6729
 1725.0000    34.5359   369.9742
 1725.5000    35.4725   376.3780
 1726.0000    36.0680   456.2698
 1726.5000    34.2996   446.3665
 1727.0000    29.4701   446.1647
 1727.5000    29.9605   454.9115
 1728.0000    34.3406   432.0601
 1728.5000    36.6436   389.5458
 1729.0000    34.7338   375.2914
 1729.5000    35.7153   353.5037
 1730.0000    38.2146   313.9785
 1730.5000    35.9197   343.6224
 1731.0000    32.9994   363.3850
 1731.5000    31.3298   363.3850
 1732.0000    29.8687   380.6773
 1732.5000    29.8130   385.6180
 1733.0000    30.4899   363.3850
 1733.5000    30.9047   357.3831
 1734.0000    30.9432   370.7960
 1734.5000    30.0668   397.9696
 1735.0000    31.1070   400.4399
 1735.5000    34.8568   378.2070
 1736.0000    35.7109   402.9102
 1736.5000    33.8105   400.4399
 1737.0000    34.2253   383.1476
 1737.5000    35.0570   358.4444
 1738.0000    35.2634   346.0927
 1738.5000    35.0517   373.2663
 1739.0000    33.3833   358.3274
 1739.5000    33.1633   373.9324
 1740.0000    32.2675   378.2070
 1740.5000    30.6674   355.3192
 1741.0000    32.4245   343.6224
 1741.5000    32.9561   369.2991
 1742.0000    32.1203   380.6773
 1742.5000    34.6666   365.2957
 1743.0000    32.7934   345.1660
 1743.5000    27.3200   318.9191
 1744.0000    32.2534   336.1126
 1744.5000    33.3606   353.5037
 1745.0000    33.2402   336.2114
 1745.5000    32.2684   336.2114
 1746.0000    30.5805   356.6267
 1746.5000    29.8085   403.1320
 1747.0000    30.3233   422.6729
 1747.5000    32.8315   393.0289
 1748.0000    34.8910   403.5038
 1748.5000    35.3103   417.4113
 1749.0000    35.7296   419.0746
 1749.5000    35.3423   400.7618
 1750.0000    33.4417   407.8509
 1750.5000    35.8366   425.2493
 1751.0000    34.7380   418.6475
 1751.5000    33.5396   418.0541
 1752.0000    32.9623   391.4902
 1752.5000    31.8675   389.1613
 1753.0000    33.3245   406.5651
 1753.5000    34.9900   380.6773
 1754.0000    31.9199   383.1476
 1754.5000    28.3161   425.1432
 1755.0000    28.1541   420.2025
 1755.5000    28.2325   412.7915
 1756.0000    29.7384   328.8004
 1756.5000    31.5996   318.3792
 1757.0000    33.0019   321.3895
 1757.5000    31.5397   304.0972
 1758.0000    32.2841   299.1565
 1758.5000    34.5816   346.0927
 1759.0000    35.9172   373.2663
 1759.5000    35.4375   351.0334
 1760.0000    33.2953   368.3257
 1760.5000    32.6679   395.4993
 1761.0000    30.3730   427.6135
 1761.5000    30.5794   402.9102
 1762.0000    31.6196   372.9247
 1762.5000    33.2850   343.6224
 1763.0000    31.6154   341.1521
 1763.5000    27.6530   375.3636
 1764.0000    24.1075   402.9102
 1764.5000    22.6463   382.7648
 1765.0000    26.1877   353.5037
 1765.5000    30.5629   405.8734
 1766.0000    31.1862   391.1180
 1766.5000    31.6010   383.1476
 1767.0000    31.5989   381.9795
 1767.5000    32.4306   350.2266
 1768.0000    33.7459   328.9986
 1768.5000    29.9252   356.2484
 1769.0000    29.7147   363.3850
 1769.5000    30.5489   372.5872
 1770.0000    30.1135   393.0289
 1770.5000    29.7085   316.5915
 1771.0000    30.7964   295.1064
 1771.5000    31.5158   278.6651
 1772.0000    33.9960   291.7199
 1772.5000    35.3282   351.4601
 1773.0000    33.1734   397.9379
 1773.5000    34.1728   417.9152
 1774.0000    35.1136   432.5542
 1774.5000    34.0691   428.6963
 1775.0000    33.9628   426.1723
 1775.5000    32.4747   343.6224
 1776.0000    31.5618   380.6773
 1776.5000    33.2273   396.5015
 1777.0000    31.6915   358.4444
 1777.5000    31.3472   355.2123
 1778.0000    32.5958   388.0883
 1778.5000    29.4240   370.7960
 1779.0000    32.3116   363.3850
 1779.5000    34.9977   390.5586
 1780.0000    33.2401   378.2070
 1780.5000    35.8958   388.0883
 1781.0000    36.0116   378.2070
 1781.5000    35.0952   420.2025
 1782.0000    37.9939   442.4355
 1782.5000    39.6636   420.2025
 1783.0000    34.0332   405.3806
 1783.5000    33.1974   442.4355
 1784.0000    30.4856   452.3168
 1784.5000    31.3173   432.5542
 1785.0000    30.4815   412.7110
 1785.5000    29.9881   392.2681
 1786.0000    34.8546   358.4444
 1786.5000    35.8947   371.8075
 1787.0000    36.1013   390.8136
 1787.5000    36.0990   396.1162
 1788.0000    35.6801   402.9102
 1788.5000    35.2612   397.1380
 1789.0000    33.1747   388.0883
 1789.5000    31.5051   393.0289
 1790.0000    32.3368   332.5876
 1790.5000    34.4192   331.2708
 1791.0000    35.0424   351.9815
 1791.5000    34.8319   377.6873
 1792.0000    35.6636   371.7861
 1792.5000    37.9631   369.9514
 1793.0000    40.0676   340.0327
 1793.5000    41.7022   323.8598
 1794.0000    39.3766   336.8381
 1794.5000    38.7799   374.3247
 1795.0000    39.8442   361.6576
 1795.5000    38.8180   359.1890
 1796.0000    34.8132   394.1818
 1796.5000    34.4325   397.8233
 1797.0000    32.9333   367.3629
 1797.5000    37.5169   384.8144
 1798.0000    36.0069   384.8279
 1798.5000    34.4824   370.8167
 1799.0000    33.9669   402.9102
 1799.5000    34.1596   395.4993
 1800.0000    38.4100   368.3257
 1800.5000    41.4649   393.0289
 1801.0000    41.0970   407.8509
 1801.5000    39.7932   405.8620
 1802.0000    35.6261   425.2414
 1802.5000    35.5974   380.8001
 1803.0000    34.5819   401.2776
 1803.5000    35.4729   396.7326
 1804.0000    36.4558   375.4732
 1804.5000    35.3374   368.5467
