~VERSION INFORMATION
 VERS.                2.0:   CWLS LOG ASCII STANDARD - VERSION 2.0
 WRAP.                 NO:   ONE LINE PER DEPTH STEP
~WELL INFORMATION
#MNEM.UNIT      DATA TYPE    INFORMATION
#----------   ------------   ------------------------------
 STRT.F           57.0000:   START DEPTH
 STOP.F         5817.0000:   STOP DEPTH
 STEP.F            0.5000:   STEP LENGTH
 NULL.          -999.2500:   NO VALUE
 COMP. DEPARTMENT OF ENERGY:   COMPANY
 WELL. DEPARTMENT NPR 371 "X" #1-4:   WELL
 FLD .              NPR-3:   FIELD
 LOC .       S4 T38N R78W:   LOCATION
 CNTY.            NATRONA:   COUNTY
 STAT.            WYOMING:   STATE
 CTRY. UNITED STATES OF AMERICA:   COUNTRY
 SRVC.       SCHLUMBERGER:   SERVICE COMPANY
 DATE.        25-AUG-2002:   LOGDATE
 API .     49025230480000:   API NUMBER
~CURVE INFORMATION
#MNEM.UNIT       API CODE    CURVE DESCRIPTION
#----------   ------------   ------------------------------
 DEPT.F                  :   
 HCAL.IN     07 280 01 00:   HRLT CALIPER
 RLA1.OHMM   06 120 01 00:   HRLT RESISTIVITY 1
 RLA2.OHMM   06 120 02 00:   HRLT RESISTIVITY 2
 RLA3.OHMM   06 120 03 00:   HRLT RESISTIVITY 3
 RXOZ.OHMM   06 270 04 00:   STAN RES. MICROCFL RESISTIVITY
 TENR.LBS    06 635 01 00:   TENSION FROM RESITIVITY
 GRR .GAPI   07 310 01 00:   GAMMA RAY FROM RESISTIVITY
 SPHI.DEC    60 890 22 00:   SONIC POROSITY SANDSTONE
 DT  .US/F   60 520 00 00:   DELTA TIME
 TENS.LBS    60 635 01 00:   TENSION FROM SONIC
 RT  .OHMM   06 120 00 00:   HRLT TRUE RESISTIVITY
~PARAMETER INFORMATION
#MNEM.UNIT          VALUE    DESCRIPTION
#----------   ------------   ------------------------------
 EKB .F         5196.0000:   Kelly bushing
 EGL .F         5186.0000:   Ground level
 EDF .F         5194.0000:   Drilling floor
 TD  .F         5803.0000:   Total depth
 CLNT.            A2DTECH:   Client Code
 SL  . 794' FEL & 333' FNL:   Surface Location
 PD  .                 GL:   Permanent Datum
 EPD .F              5186:   Elevation Permanent Datum
 LMF .                 KB:   Log Measured From
 DMF .                 KB:   Drilling Measured From
 DAPD.F                10:   Feet Above Permanent Datum
 DATE.        25-AUG-2002:   Date Logged [DD-MMM-YYYY]
 DD  .F              5800:   Depth driller
 DL  .F              5803:   Depth logger
 BLI .F              5803:   Bottom log interval
 TLI .F               656:   Top log interval
 CS1 .IN            9.625:   Casing size
 CBD1.      9.625" @ 660':   Casing driller 1
 CBL1.F               656:   Casing logger 1
 BS1 .IN            8.750:   Bit size
 BSD1.F              5800:   Depth drilled with bit1
 DFT .           GEL CHEM:   Type fluid in hole
 DFD .                  9:   Density
 DFV .                 36:   Viscosity
 DFPH.                8.5:   pH
 DFL .                7.6:   Fluid loss
 MSS .           FLOWLINE:   Source of sample
 RMS .OHMM          0.846:   Rm
 MST .F                90:   Rm Meas. temp.
 RMF .OHMM          0.670:   Rmf
 MFST.F                90:   Rmf Meas. temp.
 MFSS.               MEAS:   Source Rmf.
 RMC .OHMM          1.075:   Rmc
 MCST.F                90:   Rmc Meas. temp.
 MCSS.               CALC:   Source Rmc.
 TCS .HRS            0300:   Time Circ. stopped
 TLAB.HRS            0915:   Time logger at bottom
 MRT .F               156:   Maximum recorded temp.
 LUN .               2211:   Logging unit number
 LUL .             CASPER:   Logging unit location
 ENGI.        J.L. FLORES:   Recorded By
 WITN.        STEVE HARDY:   Witnessed by
 ORIG.        2" 5" PRINT:   Origin of data
 UWI .     49025230480000:   Unique Well ID
 DICO. A2D TECHNOLOGIES, INC.:   Digitizing Company
~OTHER INFORMATION
~A   DEPT     HCAL       RLA1       RLA2       RLA3       RXOZ       TENR         GRR      SPHI         DT       TENS         RT   
# ...
 3381.5000     9.8119     5.0385     5.1795     5.0639     4.5929  2003.0907   139.1239     0.2215    81.9761  1611.4458     5.1955
 3382.0000     9.8115     5.0400     4.9013     4.9257     4.5938  2003.9950   140.8233     0.2302    83.7582  1611.4458     5.0141
 3382.5000     9.8110     4.5425     4.5113     4.4709     4.3776  2005.1256   143.6556     0.2396    84.9660  1611.4458     4.2496
 3383.0000     9.7955     3.3707     3.5661     3.9200     3.9169  2006.0304   149.5468     0.2459    84.6630  1611.4458     3.4745
 3383.5000     9.7950     2.6256     2.7157     2.9722     2.1771  2007.1611   150.0000     0.2432    84.0581  1621.1113     2.6343
 3384.0000     9.8097     1.8302     1.8960     1.7325     1.5730  2008.0659   150.0000     0.2356    83.5287  1626.5060     2.0385
 3384.5000    10.5021     1.5387     2.0939     1.7175     1.0978  2008.9701   149.7734     0.2311    83.3014  1626.5060     1.7502
 3385.0000     9.9257     4.1852     5.2648     4.0023     1.2786  2010.1008   142.2961     0.2381    85.4909  1626.5060     3.0470
 3385.5000     9.4770     8.5013     9.8003     9.8399     9.1900  2011.0056   127.7946     0.2994    94.2380  1626.5060     8.3811
 3386.0000     9.4765     3.8526     3.9320     4.7582     6.2415  2012.1364   120.9970     0.2997   112.6041  1626.5060     4.7151
 3386.5000     9.5062     3.5699     3.6443     3.5581     3.3018  2013.0410   117.5982     0.2991   115.3226  1626.5060     3.8035
 3387.0000     9.5208     6.4451     5.6756     6.4071     3.8990  2013.9453   118.2779     0.2994   105.8805  1626.5060     5.9267
 3387.5000     9.4902     9.7116     9.1502     9.1820     7.7370  2015.0760   118.2779     0.2982    96.5143  1626.5060     9.4946
 3388.0000     9.4647     7.7618     7.4876     8.3342     8.7041  2015.9808   121.4501     0.2589    83.9003  1626.5060     7.7660
 3388.5000     9.4592     6.6320     6.5209     6.8189     6.6472  2017.1115   125.0755     0.2311    83.5219  1626.5060     6.9029
 3389.0000     9.4437     6.5878     6.7982     6.5415     6.8350  2017.9103   125.3021     0.2435    84.6542  1626.5060     6.6678
 3389.5000     9.4282     7.9491     7.5429     7.9401     8.9546  2018.9205   124.3958     0.2311    82.2364  1626.5060     8.7977
 3390.0000     9.4278     9.0100     8.4271     9.1820    10.2857  2019.9006   117.8248     0.2190    80.7251  1626.5060     9.5607
 3390.5000     9.4122     9.7285     9.4805     9.6377    10.8732  2020.9561   115.1057     0.2178    81.4796  1626.5060     9.8294
 3391.0000     9.4118     9.7987     9.9523     9.7720    10.8007  2022.0867   115.1057     0.2239    81.7810  1641.5663     9.6941
 3391.5000     9.4113     9.5332     9.2883     9.5053    10.6534  2022.9910   116.0121     0.2178    81.1759  1626.5060     9.3639
 3392.0000     9.4109     8.9571     9.0356     9.0558    10.2943  2023.8958   124.2825     0.2124    79.8157  1626.5060     9.0450
 3392.5000     9.4104     9.4069     9.3554     9.3746    10.0151  2025.0265   126.8882     0.2048    79.3616  1626.5060     9.5607
 3393.0000     9.4250     9.7418     9.7532     9.2458    10.5876  2025.9307   126.4350     0.2045    79.6632  1626.5060     9.8294
 3393.5000     9.4245     8.6595     8.7324     8.4504    10.9624  2027.0614   123.0363     0.2065    79.9645  1626.5060     8.5572
 3394.0000     9.4241     8.4825     8.4362     8.7479    10.3744  2027.9662   119.6375     0.2069    79.8126  1626.5060     8.6167
 3394.5000     9.4236     9.2232     9.0590     9.5053     9.2888  2028.8710   118.9577     0.2069    79.5853  1626.5060     9.4946
 3395.0000     9.4232     9.7527     9.5579     9.7047     9.7521  2030.0016   118.5045     0.2051    79.3580  1626.5060     9.8294
 3395.5000     9.4227     9.6668     9.5623     9.3100    10.3807  2030.9059   122.3565     0.2033    79.2061  1626.5060     9.6272
 3396.0000     9.4223     7.8133     7.7149     7.9401    10.8233  2032.0366   122.8097     0.2024    79.2054  1626.5060     8.0957
 3396.5000     9.4369     7.7075     7.7159     7.5647    10.6029  2032.9414   121.9033     0.2024    79.2047  1626.5060     7.6062
 3397.0000     9.4515     7.8177     8.0998     7.8854     8.7980  2033.8462   121.9033     0.2039    79.7325  1626.5060     7.9842
 3397.5000     9.4510     6.8529     7.0054     6.7251     7.3000  2084.7280   120.5438     0.2095    80.4116  1626.5060     7.0479
 3398.0000     9.4506     5.5270     5.8124     5.5386     5.6133  2085.6323   128.7009     0.2205    82.0724  1626.5060     5.6461
 3398.5000     9.4953     5.6569     5.4245     5.4267     5.3487  2086.7629   128.7009     0.2311    83.1291  1626.5060     5.5299
 3399.0000     9.5250     6.3102     7.1061     6.7472     6.3220  2087.6677   125.7553     0.2393    84.3368  1633.7831     7.9291
 3399.5000     9.5095     9.0582     9.5040     9.9082     9.3729  2088.5720   113.7462     0.2396    83.8073  1641.5663    10.4620
 3400.0000     9.4036    11.0324    11.1143    11.6983    10.9920  2089.7029   105.1359     0.2278    82.7492  1633.4240    11.5280
 3400.5000     9.3882    11.6370    12.1950    12.1933    12.0266  2090.6074   106.7199     0.2024    79.9334  1623.7290    10.5348
 3401.0000     9.3880     7.4115     9.2471     8.0496     6.7718  2091.7383   113.5151     0.1937    77.5362  1614.0341     8.0386
 3401.5000     9.4027     5.8948     6.1479     5.8939     5.8559  2092.5374   118.2710     0.1921    78.5149  1610.9940     6.5746
 3402.0000     9.4250     5.6166     5.6193     5.3878     5.0991  2093.5474   125.0665     0.2045    80.1751  1610.8217     5.6837
 3402.5000     9.3870     5.3518     4.8465     4.7237     4.7253  2094.6780   130.5025     0.2263    82.5906  1610.6830     4.8124
 3403.0000     9.3867     4.9247     5.1367     5.0969     5.1701  2095.5828   132.3125     0.2453    86.1387  1610.5422     5.1933
 3403.5000     9.4467     4.8923     4.6627     5.1495     4.3488  2096.7134   137.7484     0.2650    87.9500  1610.3710     5.3761
 3404.0000     9.4615     4.5336     4.7939     4.4994     5.0290  2097.6177   142.5046     0.2740    89.5347  1610.2322     4.9972
 3404.5000     9.4159     6.1562     5.8192     5.6925     6.1893  2048.7561   144.9947     0.2765    89.2309  1610.0905     6.3131
 3405.0000     9.3855     5.9477     5.9829     6.1850     6.9139  2049.9019   139.1011     0.2728    88.7008  1609.9202     5.9637
 3405.5000     9.3852     5.5887     5.6611     5.6135     6.8189  2050.8066   138.1926     0.2710    88.3217  1594.7211     5.6027
 3406.0000     9.3850     5.3994     5.0681     5.4182     5.6961  2051.9375   129.1270     0.2695    88.3955  1609.6427     4.9112
 3406.5000     9.3621     4.3852     4.5373     4.5605     5.5790  2052.8418   131.5038     0.2710    88.9983  1594.4437     4.4857
 3407.0000     9.3843     4.3255     4.4137     4.3146     5.0828  2061.7490   131.3881     0.2789    90.2054  1609.3373     4.3951
 3407.5000     9.7605     4.6382     4.9308     4.5599     5.0290  2080.9888   130.0265     0.2866    91.4876  1609.1572     4.7429
 3408.0000     9.4590     5.0078     5.2118     4.9544     5.3152  2101.5435   129.5712     0.2904    91.3352  1609.0361     5.0130
 3408.5000     9.4889     5.1146     4.5072     4.8187     4.4400  2151.9900   128.4356     0.2898    91.1072  1608.8855     4.4865
 3409.0000     9.6467     3.2799     3.3941     3.3623     3.1197  2152.8511   131.8322     0.2915    91.9363  1608.7350     3.4237
 3409.5000     9.8196     4.2131     4.1487     4.3732     4.3488  2153.5430   135.0023     0.2998    93.2189  1623.6281     4.0711
 3410.0000     9.7440     4.9442     4.7319     4.8512     5.2422  2104.4778   141.7978     0.3001    94.2749  1623.4894     4.8075
 3410.5000     9.5027     4.4254     4.4159     4.3613     5.5790  2105.3479   141.3420     0.3004    94.1221  1623.3159     4.1850
 3411.0000     9.4422     4.1873     4.0924     4.1945     5.4267  2056.2886   138.6208     0.3004    93.4409  1623.1927     4.1558
 3411.5000     9.4419     4.4899     4.2977     4.4024     5.2422  2056.9807   133.6338     0.2989    92.0045  1623.0421     4.4229
