~VERSION INFORMATION
 VERS.                2.0:   CWLS LOG ASCII STANDARD - VERSION 2.0
 WRAP.                 NO:   ONE LINE PER DEPTH STEP
~WELL INFORMATION
#MNEM.UNIT      DATA TYPE    INFORMATION
#----------   ------------   ------------------------------
 STRT.F            0.0000:   START DEPTH
 STOP.F         4022.0000:   STOP DEPTH
 STEP.F            0.5000:   STEP LENGTH
 NULL.          -999.2500:   NO VALUE
 COMP. LAWRENCE - ALLISON:   COMPANY
 WELL. LAWRENCE NPR 3 "MX" #58-10:   WELL
 FLD .                MPR:   FIELD
 LOC .      S10 T38N R78W:   LOCATION
 CNTY.            NATRONA:   COUNTY
 STAT.            WYOMING:   STATE
 CTRY. UNITED STATES OF AMERICA:   COUNTRY
 SRVC.      DRESSER ATLAS:   SERVICE COMPANY
 DATE.        12-FEB-1984:   LOGDATE
 API .     49025109610000:   API NUMBER
~CURVE INFORMATION
#MNEM.UNIT       API CODE    CURVE DESCRIPTION
#----------   ------------   ------------------------------
 DEPT.F                  :   
 GRR .GAPI   07 310 01 00:   GAMMA RAY FROM RESISTIVITY
 SPR .MV     07 010 01 00:   SPONTANEOUS POTENTIAL
 TENR.LBS    07 635 01 00:   TENSION FROM RESISTIVITY
 ILD .OHMM   07 120 46 00:   DEEP INDUCTION RESISTIVITY
 ILM .OHMM   07 120 44 00:   INDUCTION LOG MEDIUM RESISTIVITY
 SFL .OHMM   07 220 01 00:   SHALLOW FOCUSED LOG RESISTIVITY
 DT  .US/F   60 520 00 00:   DELTA TIME
 TENS.LBS    60 635 01 00:   TENSION FROM SONIC LOG
 CNC .DEC    42 890 03 00:   NEUTRON PORISITY SANDSTONE
 CALD.IN     45 280 60 00:   CALIPER FROM DENSITY LOG
 RHOB.G/C3   45 350 01 00:   BULK DENSITY
 CORR.G/C3   45 356 01 00:   DENSITY CORRECTION
 TEND.LBS    45 635 01 00:   TENSION FROM DENSITY LOG
~PARAMETER INFORMATION
#MNEM.UNIT          VALUE    DESCRIPTION
#----------   ------------   ------------------------------
 EKB .F         5218.0000:   Kelly bushing
 EGL .F         5208.0000:   Ground level
 EDF .F         5217.0000:   Drilling floor
 TD  .F         4014.0000:   Total depth
 DATE.        12-FEB-1984:   Date logged
 CLNT.            A2DTECH:   Client Code
 SL  . 500' FSL & 2150' FEL:   Surface Location
 PD  .                 GL:   Permanent Datum
 EPD .F              5208:   Elevation Permanent Datum
 LMF .                 KB:   Log Measured From
 DMF .                 KB:   Drilling Measured From
 DD  .F              4014:   Depth driller
 DL  .F              4011:   Depth logger
 BLI .F              4009:   Bottom log interval
 CS1 .IN            8.625:   Casing size
 CBD1.      8.625" @ 526':   Casing driller 1
 CBL1.F               525:   Casing logger 1
 BS1 .IN            7.875:   Bit size
 DFT .            GEL/KCL:   Type fluid in hole
 DFD .                8.9:   Density
 DFV .                 48:   Viscosity
 DFPH.                  8:   pH
 DFL .                1.3:   Fluid loss
 MSS .           MUD/TANK:   Source of sample
 RMS .OHMM           .556:   Rm
 MST .F                61:   Rm Meas. temp.
 RMF .OHMM           .423:   Rmf
 MFST.F                61:   Rmf Meas. temp.
 RMC .OHMM           .662:   Rmc
 MCST.F                61:   Rmc Meas. temp.
 MFSS.           MUD/TANK:   Source Rmf.
 RMB .OHMM            .80:   Rm. at BHT
 BHT .F               119:   BHT.
 TCS .HRS               5:   Time Circ. stopped
 MRT .F               119:   Maximum recorded temp.
 LUN .               6302:   Logging unit number
 ENGI.              GETTY:   Recorded By
 ORIG.           5" PRINT:   Origin of data
 UWI .     49025109610000:   Unique Well ID
 DICO. A2D TECHNOLOGIES, INC.:   Digitizing Company
 TLI .F                 0:   Top log interval
~OTHER INFORMATION
~A    DEPT      GRR       SPR       TENR        ILD        ILM        SFL         DT       TENS        CNC       CALD       RHOB       CORR       TEND   
# ...
 1222.0000    90.0330   -27.7370  -105.4340     9.2640     9.4190     9.2090  -999.2500  -999.2500     0.2330     8.5360     2.4950     0.0150  -111.7170
 1222.5000    90.8360   -27.4270  -105.8490     9.2500     9.6380     9.1630  -999.2500  -999.2500     0.2390     8.5230     2.4950     0.0180  -111.4680
 1223.0000    89.2580   -27.0290  -108.6460     9.5780     9.8020     9.3060  -999.2500  -999.2500     0.2390     8.5100     2.5000     0.0210  -111.2180
 1223.5000    86.9230   -26.7090  -111.4430     9.8360     9.9660     9.5620  -999.2500  -999.2500     0.2370     8.4980     2.5050     0.0080  -110.9690
 1224.0000    84.2240   -26.4050  -114.2410    10.0940    10.2120     9.8190  -999.2500  -999.2500     0.2290     8.4850     2.5060    -0.0140  -110.7200
 1224.5000    82.8780   -26.2040  -114.4230    10.3510    10.1690    10.0760  -999.2500  -999.2500     0.2210     8.4870     2.5050    -0.0220  -110.4710
 1225.0000    84.5140   -26.3030  -112.7450    10.6810    10.0100    10.3250  -999.2500  -999.2500     0.2200     8.4980     2.5040     0.0040  -110.2210
 1225.5000    85.8640   -26.3930  -111.0670    10.5330     9.8510    10.1070  -999.2500  -999.2500     0.2310     8.5100     2.5030     0.0200  -109.9720
 1226.0000    84.7550   -26.4840  -109.3890    10.2370     9.6920     9.8890  -999.2500  -999.2500     0.2320     8.5210     2.5060     0.0250  -109.7230
 1226.5000    83.7660   -26.5780  -107.7100     9.9410     9.5330     9.6710  -999.2500  -999.2500     0.2300     8.5330     2.5090     0.0010  -109.4740
 1227.0000    86.2470   -26.5830  -106.0320     9.6460     9.4010     9.4540  -999.2500  -999.2500     0.2210     8.5440     2.5130     0.0120  -109.2240
 1227.5000    89.8340   -26.7020  -106.3870     9.3500     9.2740     9.3980  -999.2500  -999.2500     0.2130     8.5560     2.5220     0.0380  -108.9750
 1228.0000    93.0310   -26.9180  -107.8680     9.1860     9.0790     9.3720  -999.2500  -999.2500     0.2120     8.5550     2.5320     0.0570  -108.7260
 1228.5000    95.9050   -27.2940  -109.3480     9.0920     9.0990     9.3470  -999.2500  -999.2500     0.2250     8.5490     2.5310     0.0570  -108.4770
 1229.0000    98.7700   -27.4760  -110.8290     9.1780     9.1400     9.3220  -999.2500  -999.2500     0.2310     8.5430     2.5260     0.0560  -108.2270
 1229.5000   100.0570   -27.1920  -112.3100     9.2910     9.1810     9.2960  -999.2500  -999.2500     0.2380     8.5360     2.5260     0.0540  -107.9780
 1230.0000    95.3240   -26.9150  -113.7910     9.4040     9.2230     9.2710  -999.2500  -999.2500     0.2420     8.5300     2.5350     0.0450  -107.7290
 1230.5000    88.7190   -26.6310  -115.4040     9.5160     9.2640     9.2460  -999.2500  -999.2500     0.2370     8.5230     2.5460     0.0360  -107.4800
 1231.0000    89.8150   -26.7030  -112.3460     9.6290     9.3050     9.2200  -999.2500  -999.2500     0.2290     8.5200     2.5540     0.0250  -107.2300
 1231.5000    91.4400   -26.8550  -108.9900     9.7420     9.3330     9.1950  -999.2500  -999.2500     0.2210     8.5220     2.5530     0.0010  -106.9810
 1232.0000    90.8490   -27.0270  -105.4340     9.8620     9.1060     9.1700  -999.2500  -999.2500     0.2210     8.5240     2.5430     0.0040  -106.7320
 1232.5000    86.2840   -27.2580  -107.9260     9.4850     8.9350     9.0570  -999.2500  -999.2500     0.2330     8.5250     2.5280     0.0170  -106.4830
 1233.0000    85.5970   -27.4670  -110.5760     9.0840     8.7640     8.9150  -999.2500  -999.2500     0.2360     8.5270     2.5230     0.0290  -106.2330
 1233.5000    87.5580   -27.2250  -113.2260     8.6720     8.5930     8.7720  -999.2500  -999.2500     0.2320     8.5280     2.5190     0.0340  -105.9840
 1234.0000    89.0290   -26.9900  -115.4040     8.2070     8.4220     8.6300  -999.2500  -999.2500     0.2270     8.5300     2.5130     0.0250  -105.7350
 1234.5000    86.3400   -26.7510  -115.4040     8.1010     8.2830     8.4360  -999.2500  -999.2500     0.2490     8.5310     2.5040     0.0040  -105.4860
 1235.0000    83.9240   -26.5130  -114.1580     7.9650     8.1860     8.2790  -999.2500  -999.2500     0.2590     8.5330     2.4920    -0.0120  -105.4340
 1235.5000    83.3460   -26.3330  -111.0110     7.8290     8.0890     8.1770  -999.2500  -999.2500     0.2620     8.5340     2.4750    -0.0250  -105.4340
 1236.0000    88.3710   -26.2130  -107.8640     7.6260     7.9910     8.0580  -999.2500  -999.2500     0.2530     8.5360     2.4720    -0.0330  -105.4340
 1236.5000    92.8760   -26.3800  -105.4340     7.6370     7.8940     8.2870  -999.2500  -999.2500     0.2400     8.5370     2.4760    -0.0240  -105.4340
 1237.0000    94.3980   -26.6630   -99.6730     7.6510     7.8240     8.5670  -999.2500  -999.2500     0.2320     8.5390     2.4790    -0.0130  -105.4340
 1237.5000    93.6690   -26.9700   -97.7300     7.6640     7.7890     8.8330  -999.2500  -999.2500     0.2340     8.5400     2.4830     0.0080  -105.4340
 1238.0000    93.1300   -27.6470  -106.8840     7.6780     7.7540     8.7470  -999.2500  -999.2500     0.2400     8.5400     2.4890     0.0120  -105.4340
 1238.5000    94.6460   -28.1730  -115.4040     7.6960     7.7200     8.6170  -999.2500  -999.2500     0.2440     8.5400     2.5010     0.0000  -105.4340
 1239.0000    94.6040   -28.1720  -113.7210     7.6610     7.6850     8.4870  -999.2500  -999.2500     0.2410     8.5400     2.5090    -0.0130  -105.4340
 1239.5000    94.4590   -27.7670  -112.1480     7.6080     7.6500     8.3560  -999.2500  -999.2500     0.2350     8.5400     2.5080    -0.0070  -105.4340
 1240.0000    92.5470   -27.2260  -110.5750     7.5550     7.6090     8.2260  -999.2500  -999.2500     0.2350     8.5400     2.5050     0.0060  -105.4340
 1240.5000    89.3610   -27.0950  -109.0010     7.5020     7.5510     8.0950  -999.2500  -999.2500     0.2440     8.5400     2.5040     0.0160  -105.4340
 1241.0000    88.8160   -27.2990  -107.4280     7.4490     7.4930     8.0540  -999.2500  -999.2500     0.2440     8.5400     2.5090     0.0360  -105.4340
 1241.5000    89.2940   -27.5030  -105.8540     7.3960     7.4360     8.0180  -999.2500  -999.2500     0.2300     8.5400     2.5210     0.0580  -105.4340
 1242.0000    90.0240   -27.7350  -106.1360     7.3430     7.3780     7.9820  -999.2500  -999.2500     0.2320     8.5400     2.5270     0.0550  -105.4340
 1242.5000    92.0230   -27.8750  -107.0940     7.2900     7.2920     7.9470  -999.2500  -999.2500     0.2410     8.5400     2.5130     0.0330  -105.4340
 1243.0000    93.3260   -29.7110  -108.0520     7.2370     7.3190     7.9110  -999.2500  -999.2500     0.2490     8.5400     2.4890     0.0140  -105.4340
 1243.5000    94.3670   -32.3910  -109.0110     7.1580     7.4170     7.8750  -999.2500  -999.2500     0.2560     8.5400     2.4640     0.0260  -105.4340
 1244.0000    90.3860   -34.0310  -109.9690     7.1830     7.5150     7.8390  -999.2500  -999.2500     0.2570     8.5400     2.4440     0.0670  -105.4340
 1244.5000    88.5680   -32.6740  -110.9270     7.2690     7.6130     7.9310  -999.2500  -999.2500     0.2590     8.5470     2.4480     0.1080  -106.7650
 1245.0000    91.2710   -29.2620  -111.8860     7.3540     7.7090     8.0250  -999.2500  -999.2500     0.2590     8.5590     2.4620     0.0990  -108.4660
 1245.5000    92.9550   -26.6740  -112.8440     7.4390     7.8060     8.1190  -999.2500  -999.2500     0.2560     8.5700     2.4860     0.0840  -110.1680
 1246.0000    90.1710   -26.6310  -113.8020     7.5250     7.9030     8.2120  -999.2500  -999.2500     0.2470     8.5700     2.5100     0.0680  -111.8690
 1246.5000    85.8270   -26.6940  -114.7600     7.6100     7.9990     8.3060  -999.2500  -999.2500     0.2400     8.5190     2.5190     0.0320  -113.5710
 1247.0000    83.9970   -26.7640  -115.7190     7.6960     8.0960     8.3590  -999.2500  -999.2500     0.2420     8.4690     2.5160    -0.0030  -115.2730
 1247.5000    86.1760   -27.6850  -116.6770     7.7810     8.2020     8.3590  -999.2500  -999.2500     0.2450     8.4470     2.5200    -0.0230  -116.9740
