~VERSION INFORMATION
 VERS.                2.0:   CWLS LOG ASCII STANDARD - VERSION 2.0
 WRAP.                 NO:   ONE LINE PER DEPTH STEP
~WELL INFORMATION
#MNEM.UNIT      DATA TYPE    INFORMATION
#----------   ------------   ------------------------------
 STRT.F           16.0000:   START DEPTH
 STOP.F         2860.0000:   STOP DEPTH
 STEP.F            0.5000:   STEP LENGTH
 NULL.          -999.2500:   NO VALUE
 COMP.    FENIX & SCISSON:   COMPANY
 WELL. FENIX NPR 3 "AX" #22-21:   WELL
 FLD .  TEAPOT DOME - NPR:   FIELD
 LOC .      S21 T39N R78W:   LOCATION
 CNTY.            NATRONA:   COUNTY
 STAT.            WYOMING:   STATE
 CTRY. UNITED STATES OF AMERICA:   COUNTRY
 SRVC.      DRESSER ATLAS:   SERVICE COMPANY
 DATE.        07-AUG-1978:   LOGDATE
 API .     49025106790000:   API NUMBER
~CURVE INFORMATION
#MNEM.UNIT       API CODE    CURVE DESCRIPTION
#----------   ------------   ------------------------------
 DEPT.F                  :   
 CALD.IN     45 280 60 00:   CALIPER FROM DENSITY LOG
 GRD .GAPI   45 310 01 00:   GAMMA RAY FROM DENSITY LOG
 CORR.G/C3   45 356 01 00:   DENSITY CORRECTION
 RHOB.G/C3   45 350 01 00:   BULK DENSITY
 SPR .MV     05 010 01 00:   SPONTANEOUS POTENTIAL
 ILD .OHMM   05 120 46 00:   DEEP INDUCTION RESISTIVITY
 SN  .OHMM   05 040 00 00:   SHORT NORMAL
~PARAMETER INFORMATION
#MNEM.UNIT          VALUE    DESCRIPTION
#----------   ------------   ------------------------------
 EKB .F         4989.0000:   Kelly bushing
 EGL .F         4979.0000:   Ground level
 EDF .F            0.0000:   Drilling floor
 TD  .F         2847.0000:   Total depth
 DATE.        07-AUG-1978:   Date logged
 CLNT.            A2DTECH:   Client Code
 SL  . 880' FNL & 660' FWL:   Surface Location
 PD  .                 GL:   Permanent Datum
 DD  .F              2845:   Depth driller
 DL  .F              2847:   Depth logger
 BLI .F              2841:   Bottom log interval
 CS1 .IN            8.625:   Casing size
 CBD1.      8.625" @ 240':   Casing driller 1
 CBL1.F               240:   Casing logger 1
 BS1 .IN            7.875:   Bit size
 DFT .                KCL:   Type fluid in hole
 DFD .                9.2:   Density
 DFV .                 31:   Viscosity
 DFPH.               10.5:   pH
 MSS .           FLOWLINE:   Source of sample
 RMS .OHMM           1.25:   Rm
 MST .F                74:   Rm Meas. temp.
 RMF .OHMM            1.8:   Rmf
 MFST.F                76:   Rmf Meas. temp.
 RMC .OHMM              3:   Rmc
 MCST.F                78:   Rmc Meas. temp.
 MFSS.               MEAS:   Source Rmf.
 TCS .HRS               4:   Time Circ. stopped
 LUN .               3006:   Logging unit number
 LUL .               CASP:   Logging unit location
 ENGI.             MILLER:   Recorded By
 WITN.           MCGINLEY:   Witnessed by
 ORIG.           5" PRINT:   Origin of data
 UWI .     49025106790000:   Unique Well ID
 DICO. A2D TECHNOLOGIES, INC.:   Digitizing Company
 DAPD.                 10:   Feet Above Permanent Datum
 BSD1.F              2845:   Depth drilled with bit1
 EPD .F              4970:   Elevation Permanent Datum
 LMF .                 KB:   Log Measured From
 DMF .                 KB:   Drilling Measured From
 TLI .                240:   Top log interval
~OTHER INFORMATION
~A   DEPT     CALD         GRD      CORR       RHOB        SPR        ILD         SN   
# ...
  607.5000     9.3310    96.5390     0.1430     2.4610   -12.1400     8.0620    11.2130
  608.0000     9.3990    96.3950     0.1430     2.4580   -11.9050     8.0180    11.2040
  608.5000     9.4090    95.2500     0.1430     2.4560   -11.6760     7.9710    11.1940
  609.0000     9.3590    94.3950     0.1430     2.4530   -11.6620     7.9430    11.1850
  609.5000     9.3190    93.2630     0.1430     2.4530   -11.6560     7.9310    11.1760
  610.0000     9.2710    95.2560     0.1430     2.4540   -11.6730     7.9200    11.1670
  610.5000     9.2670    99.1420     0.1430     2.4550   -11.5560     7.9090    11.1570
  611.0000     9.2890   100.7470     0.1430     2.4560   -11.2440     7.8980    11.1480
  611.5000     9.3140   100.8100     0.1430     2.4560   -10.9160     7.8870    11.1390
  612.0000     9.3380   101.0790     0.1430     2.4490   -11.1730     7.8750    11.1290
  612.5000     9.3510   101.2670     0.1440     2.4410   -11.5100     7.8640    11.1200
  613.0000     9.3590   101.3540     0.1450     2.4350   -11.9750     7.8530    11.1110
  613.5000     9.3670   100.7200     0.1450     2.4390   -11.4970     7.8420    11.1020
  614.0000     9.3750    99.6710     0.1460     2.4410   -10.7890     7.8310    11.0920
  614.5000     9.3850    98.7040     0.1470     2.4410   -10.6290     7.8190    11.0830
  615.0000     9.4050    97.6810     0.1540     2.4410   -10.3480     7.8050    11.0740
  615.5000     9.4240    95.6680     0.1600     2.4450   -10.0790     7.8270    11.0640
  616.0000     9.4240    93.6850     0.1530     2.4820   -10.0840     7.8630    11.0570
  616.5000     9.4250    91.4550     0.1420     2.5310   -10.1540     7.9080    11.0460
  617.0000     9.4240    89.8250     0.1240     2.5230   -10.5170     7.9480    11.1540
  617.5000     9.4180    91.0090     0.1150     2.5110   -10.4550     8.0940    11.3050
  618.0000     9.3380    94.4240     0.1160     2.4970   -10.4810     8.2140    11.4550
  618.5000     9.2710    97.4320     0.1150     2.4880   -10.4740     8.3240    11.6060
  619.0000     9.2660    99.5960     0.1150     2.4870   -10.4730     8.4340    11.6940
  619.5000     9.2650    98.7300     0.1160     2.4850   -10.4750     8.5500    11.7410
  620.0000     9.2670    97.4940     0.1170     2.4780   -10.4740     8.7940    11.7890
  620.5000     9.2620    96.1710     0.1180     2.4730   -10.4740     8.8690    11.8360
  621.0000     9.2510    95.5240     0.1190     2.4720   -10.4740     8.8690    11.8810
  621.5000     9.2410    93.8640     0.1190     2.4730   -10.4740     8.8690    11.9090
  622.0000     9.2290    92.1800     0.1190     2.4750   -10.4740     8.8690    11.9350
  622.5000     9.2360    90.6570     0.1190     2.4780   -10.4740     8.8690    11.9620
  623.0000     9.2500    90.3550     0.1190     2.4750   -10.4740     8.8690    11.9880
  623.5000     9.2640    89.9720     0.1180     2.4710   -10.4740     8.8690    12.0150
  624.0000     9.2480    91.3840     0.1130     2.4720   -10.4740     8.8690    12.0410
  624.5000     9.2250    93.9510     0.1090     2.4740   -10.4740     8.8690    12.0680
  625.0000     9.2040    94.2890     0.1040     2.4680   -10.4740     8.8690    12.1000
  625.5000     9.1910    94.4830     0.1030     2.4610   -10.4740     8.8690    12.0110
  626.0000     9.2370    94.7930     0.1020     2.4620   -10.4740     8.8690    11.9000
  626.5000     9.2810    95.6040     0.1010     2.4650   -10.4740     8.8690    11.7880
  627.0000     9.2910    96.7880     0.1000     2.4670   -10.4740     8.8690    11.6760
  627.5000     9.2310    97.9580     0.0990     2.4660   -10.4740     8.8690    11.5650
  628.0000     9.1730    96.1840     0.0990     2.4670   -10.4750     8.8690    11.4510
  628.5000     9.1650    94.6370     0.0980     2.4690   -10.4730     8.8690    11.4560
  629.0000     9.2240    92.7100     0.0970     2.4710   -10.4730     8.8690    11.4540
  629.5000     9.2430    92.4960     0.0960     2.4730   -10.4810     8.8690    11.4530
  630.0000     9.2650    92.3460     0.0950     2.4760   -10.4560     8.8690    11.4540
  630.5000     9.2850    92.2210     0.0940     2.4760   -10.5130     8.8690    11.4540
  631.0000     9.3060    92.4280     0.0930     2.4750   -10.1580     8.8690    11.4540
  631.5000     9.3270    92.9590     0.0930     2.4730   -10.0750     8.8690    11.4550
  632.0000     9.3440    93.4140     0.0920     2.4720   -10.0730     8.8690    11.4560
  632.5000     9.3320    93.9660     0.0940     2.4720   -10.0860     8.8690    11.4810
  633.0000     9.3230    93.8410     0.0960     2.4710   -10.0760     8.8690    11.5030
  633.5000     9.3100    92.9600     0.0980     2.4700   -10.0810     8.8650    11.5270
  634.0000     9.3020    92.4380     0.1000     2.4670   -10.0790     8.8520    11.5500
  634.5000     9.2550    92.1900     0.1020     2.4640   -10.0810     8.8390    11.5730
  635.0000     9.2050    91.1290     0.1040     2.4620   -10.0800     8.8260    11.5950
  635.5000     9.1920    89.8570     0.1060     2.4630   -10.1630     8.8130    11.6180
  636.0000     9.2080    88.4920     0.1090     2.4610   -10.2870     8.8000    11.6410
  636.5000     9.2200    87.2960     0.1110     2.4580   -10.4060     8.7870    11.6640
  637.0000     9.2330    86.0410     0.1110     2.4550   -10.5300     8.7750    11.6870
  637.5000     9.2460    88.3770     0.1110     2.4520   -10.6430     8.7620    11.7100
  638.0000     9.2600    91.0590     0.1120     2.4490   -10.7720     8.7490    11.7330
  638.5000     9.2570    93.8130     0.1110     2.4490   -10.9000     8.7350    11.7560
  639.0000     9.2330    96.7230     0.1130     2.4490   -11.3220     8.7230    11.7780
  639.5000     9.2130    98.0670     0.1170     2.4490   -11.6990     8.7080    11.8010
  640.0000     9.1890    97.3890     0.1210     2.4490   -12.0760     8.7150    11.8210
  640.5000     9.1920    96.9480     0.1250     2.4490   -12.4630     8.7320    11.8520
  641.0000     9.1980    96.4650     0.1290     2.4490   -12.1240     8.7480    11.8920
  641.5000     9.2050    95.8880     0.1320     2.4490   -11.5460     8.7640    11.6330
  642.0000     9.2110    95.2480     0.1360     2.4490   -10.9990     8.7800    11.6550
  642.5000     9.2180    93.7230     0.1390     2.4490   -10.9890     8.7960    11.6230
  643.0000     9.2240    92.2370     0.1390     2.4490   -11.1540     8.8120    11.6030
  643.5000     9.2310    91.5610     0.1390     2.4500   -11.3190     8.8290    11.5870
  644.0000     9.2370    91.1260     0.1390     2.4500   -11.4760     8.8460    11.5690
  644.5000     9.2440    92.5980     0.1410     2.4510   -11.6390     8.8680    11.5490
  645.0000     9.2500    94.0330     0.1420     2.4510   -11.7940     8.8190    11.5300
  645.5000     9.2560    95.6980     0.1440     2.4520   -11.9720     8.7230    11.5120
  646.0000     9.2630    96.6860     0.1460     2.4520   -12.0110     8.6270    11.4920
  646.5000     9.2660    96.7320     0.1470     2.4530   -11.8540     8.5300    11.4710
  647.0000     9.2660    96.9050     0.1490     2.4530   -11.7330     8.3960    11.4510
  647.5000     9.2660    96.5430     0.1500     2.4540   -11.5020     8.4160    11.2900
  648.0000     9.2700    95.6950     0.1520     2.4550   -11.1580     8.4550    11.1240
  648.5000     9.2830    94.0980     0.1540     2.4560   -10.8540     8.4920    11.0430
  649.0000     9.2990    92.5490     0.1540     2.4570   -10.5040     8.5500    11.0430
  649.5000     9.3000    91.0380     0.1520     2.4560   -10.4770     8.5320    11.0430
  650.0000     9.2840    90.3670     0.1490     2.4550   -10.4710     8.4920    11.0430
  650.5000     9.2700    89.7190     0.1460     2.4530   -10.4780     8.4520    11.0430
  651.0000     9.2540    89.1240     0.1440     2.4470   -10.4740     8.4120    11.0430
  651.5000     9.2400    88.4770     0.1430     2.4400   -10.4750     8.3730    11.0430
  652.0000     9.2290    87.8200     0.1420     2.4310   -10.4750     8.3320    11.0430
  652.5000     9.2690    87.4600     0.1410     2.4250   -10.4740     8.2920    11.0430
