~VERSION INFORMATION
 VERS.                2.0:   CWLS LOG ASCII STANDARD - VERSION 2.0
 WRAP.                 NO:   ONE LINE PER DEPTH STEP
~WELL INFORMATION
#MNEM.UNIT      DATA TYPE    INFORMATION
#----------   ------------   ------------------------------
 STRT.F         2144.5000:   START DEPTH
 STOP.F         2870.0000:   STOP DEPTH
 STEP.F            0.5000:   STEP LENGTH
 NULL.          -999.2500:   NO VALUE
 COMP. LAWRENCE ALLISON & ASSOCIATES:   COMPANY
 WELL. LAWRENCE "X" #13-21:   WELL
 FLD .        TEAPOT DOME:   FIELD
 LOC .      S21 T39N R78W:   LOCATION
 CNTY.            NATRONA:   COUNTY
 STAT.            WYOMING:   STATE
 CTRY. UNITED STATES OF AMERICA:   COUNTRY
 SRVC.      DRESSER ATLAS:   SERVICE COMPANY
 DATE.        09-FEB-1987:   LOGDATE
 API .     49025111200000:   API NUMBER
~CURVE INFORMATION
#MNEM.UNIT       API CODE    CURVE DESCRIPTION
#----------   ------------   ------------------------------
 DEPT.F                  :   
 MCAL.IN     15 280 01 00:   CALIPER FROM MICRO LOG
 MTEN.LBS    15 635 01 00:   TENSION FROM MICRO LOG
 GRR .GAPI   05 310 01 00:   GAMMA RAY FROM RES.
 R2SL.OHMM   05 120 00 00:   RESISTIVITY
~PARAMETER INFORMATION
#MNEM.UNIT          VALUE    DESCRIPTION
#----------   ------------   ------------------------------
 EKB .F         4986.0000:   Kelly bushing
 EGL .F         4974.0000:   Ground level
 EDF .F            0.0000:   Drilling floor
 EPD .F         4974.0000:   Permanent datum
 TD  .F         2852.0000:   Total depth
 DATE.        09-FEB-1987:   Date logged
 CLNT.            A2DTECH:   Client Code
 SL  . 1962' FNL & 352' FWL:   Surface Location
 DAPD.F                12:   Feet Above Permanent Datum
 DD  .F              2850:   Depth driller
 DL  .F              2852:   Depth logger
 BLI .F              2846:   Bottom log interval
 TLI .F              2150:   Top log interval
 CS1 .IN            8.625:   Casing size
 CBD1.      8.625" @ 282':   Casing driller 1
 BS1 .IN            7.875:   Bit size
 BSD1.F              2850:   Depth drilled with bit1
 DFT .        KCL POLYMER:   Type fluid in hole
 DFD .                8.9:   Density
 DFV .                 40:   Viscosity
 DFPH.                9.7:   pH
 DFL .                8.6:   Fluid loss
 MSS .           FLOWLINE:   Source of sample
 RMS .OHMM          0.287:   Rm
 MST .F                60:   Rm Meas. temp.
 RMF .OHMM          0.203:   Rmf
 MFST.F                60:   Rmf Meas. temp.
 RMC .OHMM          0.358:   Rmc
 MCST.F                60:   Rmc Meas. temp.
 MFSS.               MEAS:   Source Rmf.
 MCSS.               CALC:   Source Rmc.
 RMB .OHMM          0.154:   Rm. at BHT
 BHT .F               112:   BHT.
 TCS .HRS               7:   Time Circ. stopped
 MRT .F               112:   Maximum recorded temp.
 LUN .            HL-6274:   Logging unit number
 LUL .           GILLETTE:   Logging unit location
 ENGI.             RAUTIO:   Recorded By
 WITN.             STRONG:   Witnessed by
 ORIG.           5" PRINT:   Origin of data
 UWI .     49025111200000:   Unique Well ID
 DICO. A2D TECHNOLOGIES, INC.:   Digitizing Company
~OTHER INFORMATION
~A  DEPT      MCAL       MTEN        GRR       R2SL   
# ...
 2217.5000     8.7460   -34.4140   132.7100     2.4200
 2218.0000     8.7480   -34.1920   131.4410     2.3750
 2218.5000     8.7490   -33.9700   128.3900     2.5490
 2219.0000     8.7510   -33.7490   125.2700     2.7380
 2219.5000     8.7520   -33.5270   122.3670     2.8070
 2220.0000     8.7540   -33.3060   122.3620     2.7500
 2220.5000     8.7560   -33.0840   124.1940     2.6830
 2221.0000     8.7240   -32.8630   122.7860     2.6160
 2221.5000     8.6860   -32.6630   121.5670     2.5580
 2222.0000     8.6550   -33.7150   122.7060     2.5980
 2222.5000     8.6550   -34.6700   123.8440     2.6420
 2223.0000     8.6550   -35.6260   123.8710     2.6790
 2223.5000     8.6540   -36.5810   125.0480     2.6790
 2224.0000     8.6460   -37.5360   126.5590     2.6140
 2224.5000     8.6380   -38.4920   127.4680     2.5570
 2225.0000     8.6310   -39.4470   125.6900     2.5110
 2225.5000     8.6230   -40.4030   123.8340     2.5470
 2226.0000     8.6160   -41.3580   124.2030     2.5820
 2226.5000     8.6080   -42.3130   125.8510     2.5460
 2227.0000     8.6010   -43.2690   127.0980     2.4880
 2227.5000     8.5930   -44.2240   126.8670     2.5270
 2228.0000     8.5860   -45.1800   126.5300     2.6570
 2228.5000     8.5780   -46.1350   123.0540     2.8650
 2229.0000     8.5710   -47.0900   119.6470     3.0400
 2229.5000     8.5630   -48.0460   116.3960     3.1830
 2230.0000     8.5560   -49.0010   114.1320     3.3260
 2230.5000     8.5480   -49.9570   113.3180     3.4750
 2231.0000     8.5410   -50.9120   115.6320     3.4430
 2231.5000     8.5360   -51.8670   117.5900     3.2550
 2232.0000     8.5400   -52.8230   117.4550     3.1150
 2232.5000     8.5450   -53.7780   115.1120     3.0230
 2233.0000     8.5490   -54.7340   113.8270     3.0400
 2233.5000     8.5530   -55.6890   114.1250     3.0810
 2234.0000     8.5580   -56.6440   116.3520     3.1210
 2234.5000     8.5620   -57.6000   120.1410     3.1630
 2235.0000     8.5660   -58.5550   123.9090     3.1350
 2235.5000     8.5710   -59.5110   125.3430     3.0990
 2236.0000     8.5750   -60.4660   123.2420     3.0510
 2236.5000     8.5740   -61.4210   121.1640     3.0690
 2237.0000     8.5730   -62.3770   120.6690     3.1400
 2237.5000     8.5710   -62.8140   120.2400     3.2530
 2238.0000     8.5700   -62.8140   119.7350     3.3480
 2238.5000     8.5690   -62.8140   118.9270     3.3170
 2239.0000     8.5680   -62.8140   116.0920     3.1750
 2239.5000     8.5660   -62.8140   115.6070     3.0290
 2240.0000     8.5650   -62.8140   118.1250     2.8860
 2240.5000     8.5640   -62.8140   123.6850     2.8590
 2241.0000     8.5630   -62.8140   128.7870     2.8880
 2241.5000     8.5610   -62.8140   130.2390     2.9150
 2242.0000     8.5600   -62.8140   127.6180     2.9400
 2242.5000     8.5590   -62.8140   124.2760     3.0510
 2243.0000     8.5580   -62.8140   121.7560     3.0370
 2243.5000     8.5560   -62.8140   122.0590     3.0070
 2244.0000     8.5550   -62.8140   124.1650     2.9770
 2244.5000     8.5540   -62.8140   125.8610     2.9400
 2245.0000     8.5530   -62.8140   123.9830     2.9900
 2245.5000     8.5510   -62.8140   121.9470     3.0570
 2246.0000     8.5500   -62.8140   120.4780     3.1380
 2246.5000     8.5490   -62.8140   120.0110     3.1180
 2247.0000     8.5470   -62.8140   118.8120     3.0940
 2247.5000     8.5460   -62.8140   117.5070     3.0700
 2248.0000     8.5450   -62.8140   116.2160     3.0510
 2248.5000     8.5440   -62.8140   115.2990     3.1360
 2249.0000     8.5420   -62.8140   116.5350     3.2260
 2249.5000     8.5410   -62.8140   119.1470     3.2060
 2250.0000     8.5400   -62.8140   120.0730     3.1760
 2250.5000     8.5390   -62.8140   120.5760     3.1380
 2251.0000     8.5370   -62.8140   119.7600     3.1750
 2251.5000     8.5360   -62.8140   118.9520     3.2450
 2252.0000     8.5350   -62.8140   120.1260     3.3170
 2252.5000     8.5340   -62.8140   125.4590     3.1490
 2253.0000     8.5320   -62.8140   130.6920     2.9750
 2253.5000     8.5310   -62.8140   133.3380     2.8020
 2254.0000     8.5300   -62.8140   130.3970     2.7040
 2254.5000     8.5290   -62.8140   127.5290     2.8970
 2255.0000     8.5270   -62.8140   126.3830     3.1960
 2255.5000     8.5260   -62.8140   128.4650     3.0460
 2256.0000     8.5250   -62.8140   129.1230     2.8270
 2256.5000     8.5240   -62.8140   128.3120     2.6790
 2257.0000     8.5220   -63.0010   127.4980     2.7080
 2257.5000     8.5210   -63.3630   128.4590     2.7300
 2258.0000     8.5200   -63.7250   130.9750     2.6100
 2258.5000     8.5190   -64.0870   133.6010     2.4880
 2259.0000     8.5170   -64.4490   131.0890     2.6060
 2259.5000     8.5160   -64.8110   127.3780     2.9130
 2260.0000     8.5150   -65.1730   123.6640     2.9060
 2260.5000     8.5130   -65.5350   121.2750     2.8940
 2261.0000     8.5120   -65.8980   119.6170     2.8860
 2261.5000     8.5110   -66.2600   117.9690     3.1330
 2262.0000     8.5100   -66.6220   116.3310     3.3590
 2262.5000     8.5080   -66.9840   114.6810     3.5070
 2263.0000     8.5070   -67.3460   114.0920     3.3770
 2263.5000     8.5060   -67.7080   116.3570     3.2480
 2264.0000     8.5050   -68.0700   119.1980     3.0100
 2264.5000     8.5030   -68.4320   120.4180     3.0760
 2265.0000     8.5020   -68.7940   118.7210     3.2560
 2265.5000     8.5010   -69.1560   119.4140     3.2460
 2266.0000     8.5000   -69.5190   120.0660     3.2310
 2266.5000     8.4980   -69.8810   120.7010     3.2160
 2267.0000     8.4970   -70.2430   121.3280     3.2010
 2267.5000     8.4960   -70.6050   121.9660     3.1400
 2268.0000     8.4950   -70.9670   122.7210     3.0610
 2268.5000     8.4930   -71.3290   121.2590     2.9950
 2269.0000     8.4920   -71.6910   118.6610     3.1160
 2269.5000     8.4910   -72.0530   115.9550     3.3420
 2270.0000     8.4900   -72.4150   113.9640     3.5300
 2270.5000     8.4880   -72.7770   111.9190     3.6440
 2271.0000     8.4870   -72.8640   109.9530     3.6610
 2271.5000     8.4860   -72.8640   111.2770     3.6740
 2272.0000     8.4840   -72.8640   112.8230     3.6400
 2272.5000     8.4830   -72.8640   111.6090     3.6140
 2273.0000     8.4820   -72.8640   110.1840     3.5310
 2273.5000     8.4810   -72.8640   111.8950     3.4260
 2274.0000     8.4790   -72.8640   114.4240     3.2740
 2274.5000     8.4780   -72.6260   116.4590     3.0830
 2275.0000     8.4770   -72.1250   117.0460     2.9680
 2275.5000     8.4760   -71.6240   117.9040     3.0300
 2276.0000     8.4740   -71.1230   118.8420     3.1090
 2276.5000     8.4730   -70.6220   119.3930     3.0460
 2277.0000     8.4720   -70.1220   119.8420     2.9950
 2277.5000     8.4710   -69.6210   120.1990     2.9450
 2278.0000     8.4690   -69.1200   118.0830     2.8940
 2278.5000     8.4680   -68.6190   116.1230     2.8590
 2279.0000     8.4670   -68.1180   115.7030     2.9310
 2279.5000     8.4660   -67.6170   115.2470     2.9940
 2280.0000     8.4640   -67.1170   114.7780     3.0570
 2280.5000     8.4630   -66.6160   114.3260     3.1090
 2281.0000     8.4620   -66.1150   114.9140     3.0480
 2281.5000     8.4610   -65.6140   115.6390     2.9470
 2282.0000     8.4590   -65.1130   117.3290     2.8470
 2282.5000     8.4580   -64.6120   119.3700     2.7460
 2283.0000     8.4570   -64.1120   121.3910     2.6550
 2283.5000     8.4560   -63.6110   121.1010     2.6300
 2284.0000     8.4550   -63.1100   120.6890     2.7070
 2284.5000     8.4550   -62.6090   120.2810     2.7760
 2285.0000     8.4550   -62.1080   119.8370     2.8070
 2285.5000     8.4550   -61.6080   118.3580     2.7920
 2286.0000     8.4550   -61.1070   116.8570     2.7260
 2286.5000     8.4550   -60.6060   115.5170     2.6330
 2287.0000     8.4530   -60.1050   116.0740     2.5400
 2287.5000     8.4430   -59.6040   116.6400     2.3970
 2288.0000     8.4340   -59.1030   116.6080     2.4330
 2288.5000     8.4240   -58.6030   114.8940     2.5110
 2289.0000     8.4140   -58.1020   113.3490     2.5820
 2289.5000     8.4050   -57.6010   113.2370     2.5670
 2290.0000     8.3950   -57.1000   114.5430     2.5540
