~VERSION INFORMATION
 VERS.                2.0:   CWLS LOG ASCII STANDARD - VERSION 2.0
 WRAP.                 NO:   ONE LINE PER DEPTH STEP
~WELL INFORMATION
#MNEM.UNIT      DATA TYPE    INFORMATION
#----------   ------------   ------------------------------
 STRT.F            5.0000:   START DEPTH
 STOP.F         4012.0000:   STOP DEPTH
 STEP.F            0.5000:   STEP LENGTH
 NULL.          -999.2500:   NO VALUE
 COMP.   LAWRENCE ALLISON:   COMPANY
 WELL. LAWRENCE "X" 51 #1-15:   WELL
 FLD .                NPR:   FIELD
 LOC .      S15 T38N R78W:   LOCATION
 CNTY.            NATRONA:   COUNTY
 STAT.            WYOMING:   STATE
 CTRY. UNITED STATES OF AMERICA:   COUNTRY
 SRVC.      DRESSER ATLAS:   SERVICE COMPANY
 DATE.        03-JUN-1985:   LOGDATE
 API .     49025110270000:   API NUMBER
~CURVE INFORMATION
#MNEM.UNIT       API CODE    CURVE DESCRIPTION
#----------   ------------   ------------------------------
 DEPT.F                  :   
 NPHI.DEC    42 890 03 00:   NEUTRON POROSITY SANDSTONE
 RHOB.G/C3   45 350 01 00:   BULK DENSITY
 CORR.G/C3   45 356 01 00:   DENSITY CORRECTION
 TEND.LBS    45 635 01 00:   TENSION FROM DENSITY LOG
 CALD.IN     45 280 60 00:   CALIPER FROM DENSITY LOG
 GRR .GAPI   07 310 01 00:   GAMMA RAY FROM RESISTIVITY
 SPR .MV     07 010 01 00:   SPONTANEOUS POTENTIAL
 RSFL.OHMM   07 220 01 00:   SPHERICALLY FOCUSED LOG RES.
 RILD.OHMM   07 120 46 00:   DEEP INDUCTION RESISTIVITY
 RILM.OHMM   07 120 44 00:   INDUCTION LOG MEDIUM RESISTIVITY
 TENR.LBS    07 635 01 00:   TENSION
~PARAMETER INFORMATION
#MNEM.UNIT          VALUE    DESCRIPTION
#----------   ------------   ------------------------------
 EKB .F         5235.0000:   Kelly bushing
 EGL .F         5222.0000:   Ground level
 EDF .F            0.0000:   Drilling floor
 TD  .F         4010.0000:   Total depth
 DATE.        03-JUN-1985:   Date logged
 CLNT.            A2DTECH:   Client Code
 SL  . 202' FNL & 2478' FEL:   Surface Location
 PD  .                 GL:   Permanent Datum
 EPD .F              5222:   Elevation Permanent Datum
 LMF .                 KB:   Log Measured From
 DMF .                 KB:   Drilling Measured From
 DAPD.F                13:   Feet Above Permanent Datum
 DD  .F              4010:   Depth driller
 DL  .F              4005:   Depth logger
 BLI .F              4003:   Bottom log interval
 CS1 .IN            8.625:   Casing size
 CBD1.      8.625" @ 605':   Casing driller 1
 CBL1.F               608:   Casing logger 1
 BS1 .IN            7.875:   Bit size
 BSD1.F              4010:   Depth drilled with bit1
 DFT .            KCL/GEL:   Type fluid in hole
 DFD .                  9:   Density
 DFV .                 45:   Viscosity
 DFPH.                  8:   pH
 DFL .                9.8:   Fluid loss
 MSS .           FLOWLINE:   Source of sample
 RMS .OHMM            .40:   Rm
 MST .F                65:   Rm Meas. temp.
 RMF .OHMM            .32:   Rmf
 MFST.F                65:   Rmf Meas. temp.
 RMC .OHMM            .50:   Rmc
 MCST.F                65:   Rmc Meas. temp.
 MFSS.               MEAS:   Source Rmf.
 MCSS.               CALC:   Source Rmc.
 RMB .OHMM            .20:   Rm. at BHT
 BHT .F               130:   BHT.
 TCS .HRS               3:   Time Circ. stopped
 MRT .F               130:   Maximum recorded temp.
 LUN .               6274:   Logging unit number
 LUL .               GLTE:   Logging unit location
 ENGI.             RAUTIO:   Recorded By
 WITN.             STRONG:   Witnessed by
 ORIG.     2.5", 5" PRINT:   Origin of data
 UWI .     49025110270000:   Unique Well ID
 DICO. A2D TECHNOLOGIES, INC.:   Digitizing Company
~OTHER INFORMATION
~A    DEPT    NPHI       RHOB       CORR       TEND       CALD        GRR        SPR       RSFL       RILD       RILM       TENR   
# ...
  615.0000  -999.2500  -999.2500  -999.2500  -999.2500  -999.2500    95.9610   -87.4840     5.6480     7.2770     6.1330   -49.2830
  615.5000  -999.2500  -999.2500  -999.2500  -999.2500  -999.2500    96.5050   -88.0340     6.0680     7.7190     6.0680   -49.5620
  616.0000  -999.2500  -999.2500  -999.2500  -999.2500  -999.2500    97.0530   -88.5620     6.0020     8.1480     6.2970   -49.8410
  616.5000  -999.2500  -999.2500  -999.2500  -999.2500  -999.2500    97.5800   -87.7900     5.9570     7.8480     6.4590   -50.1200
  617.0000  -999.2500  -999.2500  -999.2500  -999.2500  -999.2500    96.9200   -83.7520     5.9570     7.5570     6.6200   -50.3990
  617.5000  -999.2500  -999.2500  -999.2500  -999.2500  -999.2500    92.9250   -78.4080     6.0350     7.2660     6.7810   -50.6780
  618.0000  -999.2500  -999.2500  -999.2500  -999.2500  -999.2500    88.2410   -72.0660     6.2140     7.1620     6.9430   -50.9570
  618.5000  -999.2500  -999.2500  -999.2500  -999.2500  -999.2500    87.0540   -65.9550     6.3930     7.2280     7.0960   -51.2360
  619.0000  -999.2500  -999.2500  -999.2500  -999.2500  -999.2500    94.1500   -66.1600     6.5720     7.2280     7.0220   -51.5140
  619.5000  -999.2500  -999.2500  -999.2500  -999.2500  -999.2500    98.7450   -66.7270     6.7500     7.2280     6.9080   -51.7930
  620.0000  -999.2500  -999.2500  -999.2500  -999.2500  -999.2500   100.4710   -67.2730     6.9290     7.2280     6.7930   -52.0720
  620.5000  -999.2500  -999.2500  -999.2500  -999.2500  -999.2500   101.9190   -67.8100     7.0960     7.2290     6.6790   -52.3510
  621.0000  -999.2500  -999.2500  -999.2500  -999.2500  -999.2500   100.8160   -68.3430     7.0690     7.2270     6.5640   -52.6300
  621.5000  -999.2500  -999.2500  -999.2500  -999.2500  -999.2500    97.3710   -68.6850     7.0310     7.0130     6.4500   -52.9090
  622.0000  -999.2500  -999.2500  -999.2500  -999.2500  -999.2500    94.3830   -68.3120     6.9600     6.7910     6.3820   -53.1880
  622.5000  -999.2500  -999.2500  -999.2500  -999.2500  -999.2500    92.8840   -67.9560     6.8530     6.5690     6.3160   -53.4670
  623.0000  -999.2500  -999.2500  -999.2500  -999.2500  -999.2500    92.1530   -67.6020     6.7770     6.3470     6.0720   -53.7460
  623.5000  -999.2500  -999.2500  -999.2500  -999.2500  -999.2500    92.7210   -67.2480     6.9020     6.1250     5.7280   -54.0240
  624.0000  -999.2500  -999.2500  -999.2500  -999.2500  -999.2500    95.2480   -66.8930     7.0310     5.9780     5.3840   -54.3030
  624.5000  -999.2500  -999.2500  -999.2500  -999.2500  -999.2500   100.7280   -66.5390     6.6920     5.9570     5.1410   -54.5820
  625.0000  -999.2500  -999.2500  -999.2500  -999.2500  -999.2500   105.8460   -66.1850     6.2010     5.9370     5.0940   -54.8610
  625.5000  -999.2500  -999.2500  -999.2500  -999.2500  -999.2500   106.1790   -65.8310     5.7110     5.9140     5.2480   -55.8260
  626.0000  -999.2500  -999.2500  -999.2500  -999.2500  -999.2500   102.3280   -65.4650     5.2210     5.9020     5.4190   -57.4720
  626.5000  -999.2500  -999.2500  -999.2500  -999.2500  -999.2500   100.3580   -65.2580     4.6880     5.9830     5.5900   -59.1180
  627.0000  -999.2500  -999.2500  -999.2500  -999.2500  -999.2500   106.1660   -65.0900     4.9910     6.0450     5.7750   -60.7640
  627.5000  -999.2500  -999.2500  -999.2500  -999.2500  -999.2500   107.8800   -64.9240     5.4160     6.1070     6.0640   -62.4100
  628.0000  -999.2500  -999.2500  -999.2500  -999.2500  -999.2500   104.7590   -64.7570     5.8400     6.4860     6.3530   -64.0560
  628.5000  -999.2500  -999.2500  -999.2500  -999.2500  -999.2500    99.0840   -64.5910     6.1640     6.9890     6.6410   -65.7020
  629.0000  -999.2500  -999.2500  -999.2500  -999.2500  -999.2500    97.8710   -64.4240     6.4500     7.4910     6.9300   -67.3480
  629.5000  -999.2500  -999.2500  -999.2500  -999.2500  -999.2500    97.6800   -64.2570     6.7360     7.9680     7.2190   -68.9930
  630.0000  -999.2500  -999.2500  -999.2500  -999.2500  -999.2500    95.7060   -64.0910     7.0220     8.2990     7.2950   -70.6390
  630.5000  -999.2500  -999.2500  -999.2500  -999.2500  -999.2500    93.4860   -63.9130     7.1190     8.3070     7.2950   -72.2850
  631.0000  -999.2500  -999.2500  -999.2500  -999.2500  -999.2500    94.5300   -63.7170     7.1620     8.3150     7.2980   -73.9310
  631.5000  -999.2500  -999.2500  -999.2500  -999.2500  -999.2500    96.0000   -63.5200     7.1620     8.3230     7.3180   -75.5770
  632.0000  -999.2500  -999.2500  -999.2500  -999.2500  -999.2500    96.1860   -63.3240     7.1620     8.3310     7.3390   -77.2230
  632.5000  -999.2500  -999.2500  -999.2500  -999.2500  -999.2500    91.9470   -63.1280     7.1070     8.3390     7.3530   -78.8690
  633.0000  -999.2500  -999.2500  -999.2500  -999.2500  -999.2500    88.5660   -62.9320     7.0490     8.3470     7.5440   -80.5150
  633.5000  -999.2500  -999.2500  -999.2500  -999.2500  -999.2500    86.6930   -62.7360     6.9920     8.3550     7.7450   -82.1610
  634.0000  -999.2500  -999.2500  -999.2500  -999.2500  -999.2500    85.0970   -62.5400     6.9670     8.3630     7.9470   -83.8070
  634.5000  -999.2500  -999.2500  -999.2500  -999.2500  -999.2500    83.4910   -62.3420     7.2310     8.3750     8.0730   -85.4520
  635.0000  -999.2500  -999.2500  -999.2500  -999.2500  -999.2500    97.5420   -62.1490     7.4230     8.3740     7.9470   -87.0980
  635.5000  -999.2500  -999.2500  -999.2500  -999.2500  -999.2500    96.4590   -62.1050     7.6160     8.5860     7.8550   -88.7440
  636.0000  -999.2500  -999.2500  -999.2500  -999.2500  -999.2500    98.3230   -62.5780     7.8080     8.8000     7.7810   -90.3900
  636.5000  -999.2500  -999.2500  -999.2500  -999.2500  -999.2500    97.0810   -63.0340     7.9260     9.0160     7.8200   -92.0360
  637.0000  -999.2500  -999.2500  -999.2500  -999.2500  -999.2500    92.1960   -63.4880     7.9260     8.9030     7.8860   -93.6820
  637.5000  -999.2500  -999.2500  -999.2500  -999.2500  -999.2500    87.1400   -63.9430     7.8530     8.7890     7.9260   -94.8390
  638.0000  -999.2500  -999.2500  -999.2500  -999.2500  -999.2500    86.1580   -64.3980     7.9160     8.6750     7.8530   -94.0290
  638.5000  -999.2500  -999.2500  -999.2500  -999.2500  -999.2500    89.1570   -64.8520     7.9950     8.5610     7.7920   -93.2190
  639.0000  -999.2500  -999.2500  -999.2500  -999.2500  -999.2500    94.7970   -65.3070     8.0730     8.4470     7.7810   -92.4100
  639.5000  -999.2500  -999.2500  -999.2500  -999.2500  -999.2500    96.0640   -65.7610     8.0730     8.3330     7.6920   -91.6000
  640.0000  -999.2500  -999.2500  -999.2500  -999.2500  -999.2500    94.1650   -66.2160     7.8030     8.2190     7.6050   -90.7900
  640.5000  -999.2500  -999.2500  -999.2500  -999.2500  -999.2500    92.2840   -66.6700     7.4860     8.1050     7.5170   -89.9810
  641.0000  -999.2500  -999.2500  -999.2500  -999.2500  -999.2500    91.9580   -67.1250     7.2950     7.9910     7.4300   -89.1710
  641.5000  -999.2500  -999.2500  -999.2500  -999.2500  -999.2500    93.0510   -67.5790     7.2100     7.9260     7.3630   -88.3610
  642.0000  -999.2500  -999.2500  -999.2500  -999.2500  -999.2500    95.4670   -68.0260     7.1270     7.9260     7.2770   -87.5520
  642.5000  -999.2500  -999.2500  -999.2500  -999.2500  -999.2500    96.5990   -68.4010     7.0310     7.9260     7.1740   -86.7420
  643.0000  -999.2500  -999.2500  -999.2500  -999.2500  -999.2500    95.3940   -68.7800     7.0480     7.9480     7.0960   -85.9320
  643.5000  -999.2500  -999.2500  -999.2500  -999.2500  -999.2500    95.4400   -69.1590     7.0740     7.9820     7.1650   -85.1230
  644.0000  -999.2500  -999.2500  -999.2500  -999.2500  -999.2500    97.2670   -69.5390     7.1010     8.0170     7.2210   -85.0000
  644.5000  -999.2500  -999.2500  -999.2500  -999.2500  -999.2500    94.1590   -69.9150     7.1270     8.0520     7.2760   -85.0000
  645.0000  -999.2500  -999.2500  -999.2500  -999.2500  -999.2500    90.8290   -70.1060     7.1530     8.0870     7.3570   -85.0000
