~VERSION INFORMATION
 VERS.                2.0:   CWLS LOG ASCII STANDARD - VERSION 2.0
 WRAP.                 NO:   ONE LINE PER DEPTH STEP
~WELL INFORMATION
#MNEM.UNIT      DATA TYPE    INFORMATION
#----------   ------------   ------------------------------
 STRT.F            9.5000:   START DEPTH
 STOP.F         3154.0000:   STOP DEPTH
 STEP.F            0.5000:   STEP LENGTH
 NULL.          -999.2500:   NO VALUE
 COMP. LAWRENCE ALISON AND ASSOCIATES:   COMPANY
 WELL. LAWRENCE "X" #86-3:   WELL
 FLD .          N.P.R. #3:   FIELD
 LOC .       S3 T38N R78W:   LOCATION
 CNTY.            NATRONA:   COUNTY
 STAT.            WYOMING:   STATE
 CTRY. UNITED STATES OF AMERICA:   COUNTRY
 SRVC.       DRESSER ALAS:   SERVICE COMPANY
 DATE.        13-JUN-1986:   LOGDATE
 API .     49025110920000:   API NUMBER
~CURVE INFORMATION
#MNEM.UNIT       API CODE    CURVE DESCRIPTION
#----------   ------------   ------------------------------
 DEPT.F                  :   
 CALD.IN     45 280 60 00:   CALIPER FROM DENSITY LOG
 RHOB.G/C3   45 350 01 00:   BULK DENSITY
 CORR.G/C3   45 356 01 00:   DENSITY CORRECTION
 CNC .DEC    42 890 03 00:   NEUTRON PORISITY LIMESTONE
 SPR .MV     07 010 01 00:   SPONTANEOUS POTENTIAL
 GRR .GAPI   07 310 01 00:   GAMMA RAY FROM RESISTIVITY
 RFOC.OHMM   07 220 04 00:   RESISTIVITY FOCUSED LOG RES.
 ILD .OHMM   07 120 46 00:   DEEP INDUCTION RESISTIVITY
 ILM .OHMM   07 120 44 00:   INDUCTION LOG MEDIUM RESISTIVITY
 TENR.LBS    07 635 01 00:   TENSION FROM RESISTIVITY
~PARAMETER INFORMATION
#MNEM.UNIT          VALUE    DESCRIPTION
#----------   ------------   ------------------------------
 EKB .F         5153.0000:   Kelly bushing
 EGL .F         5142.0000:   Ground level
 EDF .F         5151.0000:   Drilling floor
 TD  .F         3151.0000:   Total depth
 DATE.        13-JUN-1986:   Date logged
 CLNT.            A2DTECH:   Client Code
 SL  . 1450' FSL & 144' FEL:   Surface Location
 PD  .                 GL:   Permanent Datum
 EPD .F              5142:   Elevation Permanent Datum
 LMF .                 KB:   Log Measured From
 DMF .                 KB:   Drilling Measured From
 DAPD.F                11:   Feet Above Permanent Datum
 DD  .F              3151:   Depth driller
 DL  .F              3151:   Depth logger
 BLI .F              3146:   Bottom log interval
 TLI .F                11:   Top log interval
 CS1 .IN            8.625:   Casing size
 CBD1.      8.625" @ 584':   Casing driller 1
 CBL1.F               592:   Casing logger 1
 BS1 .IN            7.875:   Bit size
 BSD1.F              3151:   Depth drilled with bit1
 DFT .            KCL-GEL:   Type fluid in hole
 DFD .                8.8:   Density
 DFV .                 35:   Viscosity
 DFPH.                8.5:   pH
 DFL .               15.5:   Fluid loss
 MSS .           FLOWLINE:   Source of sample
 RMS .OHMM           0.49:   Rm
 MST .F                80:   Rm Meas. temp.
 RMF .OHMM           0.38:   Rmf
 MFST.F                80:   Rmf Meas. temp.
 RMC .OHMM           0.61:   Rmc
 MCST.F                80:   Rmc Meas. temp.
 MFSS.               MEAS:   Source Rmf.
 MCSS.               CALC:   Source Rmc.
 RMB .OHMM           0.37:   Rm. at BHT
 BHT .F               112:   BHT.
 TCS .HRS            0.37:   Time Circ. stopped
 MRT .F               112:   Maximum recorded temp.
 LUN .            HL-6274:   Logging unit number
 LUL .           GILLETTE:   Logging unit location
 WITN.             STRONG:   Witnessed by
 ORIG.           5" PRINT:   Origin of data
 UWI .     49025110920000:   Unique Well ID
 DICO. A2D TECHNOLOGIES, INC.:   Digitizing Company
~OTHER INFORMATION
~A    DEPT    CALD       RHOB       CORR        CNC        SPR        GRR       RFOC        ILD        ILM       TENR   
# ...
 1115.0000  -999.2500  -999.2500  -999.2500  -999.2500  -114.8920    92.7311     8.0919     8.8376     7.2645   -55.7184
 1115.5000  -999.2500  -999.2500  -999.2500  -999.2500  -114.6919    91.9126     8.0912     8.8240     7.2151   -55.6193
 1116.0000  -999.2500  -999.2500  -999.2500  -999.2500  -114.4947    91.9126     8.0905     8.8232     7.1661   -65.5805
 1116.5000  -999.2500  -999.2500  -999.2500  -999.2500  -114.4977    93.1182     8.0899     8.7977     7.1173   -65.4815
 1117.0000  -999.2500  -999.2500  -999.2500  -999.2500  -114.3013    95.5387     8.0890     8.6595     7.0690   -75.3833
 1117.5000  -999.2500  -999.2500  -999.2500  -999.2500  -114.3035    97.9603     8.0883     8.4999     7.0209   -75.3635
 1118.0000  -999.2500  -999.2500  -999.2500  -999.2500  -114.5080    96.7407     7.9390     8.3430     6.8677   -75.2604
 1118.5000  -999.2500  -999.2500  -999.2500  -999.2500  -114.5117    99.1621     7.9386     8.0386     6.6784   -75.1574
 1119.0000  -999.2500  -999.2500  -999.2500  -999.2500  -114.5465   101.5835     7.8649     7.8904     6.6166   -75.0543
 1119.5000  -999.2500  -999.2500  -999.2500  -999.2500  -114.2823   107.2411     7.7374     7.8897     6.5552   -74.9513
 1120.0000  -999.2500  -999.2500  -999.2500  -999.2500  -114.2857   111.6811     7.6473     7.6557     6.4341   -74.8482
 1120.5000  -999.2500  -999.2500  -999.2500  -999.2500  -114.4903   111.6786     7.6470     7.5864     6.3741   -74.7452
 1121.0000  -999.2500  -999.2500  -999.2500  -999.2500  -114.4937   110.8634     7.5062     7.5857     6.3735   -74.6421
 1121.5000  -999.2500  -999.2500  -999.2500  -999.2500  -114.4966   110.4527     7.3677     7.5172     6.3141   -74.5391
 1122.0000  -999.2500  -999.2500  -999.2500  -999.2500  -114.7018   114.0845     7.1651     7.3827     6.1976   -74.4360
 1122.5000  -999.2500  -999.2500  -999.2500  -999.2500  -114.3398   112.4641     7.0331     7.2505     6.0833   -74.3331
 1123.0000  -999.2500  -999.2500  -999.2500  -999.2500  -113.7382   109.2220     6.9677     7.2499     6.0827   -74.2300
 1123.5000  -999.2500  -999.2500  -999.2500  -999.2500  -113.9442   104.1629     7.1634     7.2494     6.0823   -74.1269
 1124.0000  -999.2500  -999.2500  -999.2500  -999.2500  -113.9479   101.1154     7.0312     7.2487     6.0817   -63.9748
 1124.5000  -999.2500  -999.2500  -999.2500  -999.2500  -113.9516   103.1342     7.0305     7.2478     6.0809   -63.8758
 1125.0000  -999.2500  -999.2500  -999.2500  -999.2500  -113.9553   103.9370     7.0299     7.2472     6.0804   -63.7766
 1125.5000  -999.2500  -999.2500  -999.2500  -999.2500  -113.9590   103.5265     7.0292     7.0536     5.9129   -63.6775
 1126.0000  -999.2500  -999.2500  -999.2500  -999.2500  -113.9627   102.3072     6.9638     7.0535     5.9128   -83.6992
 1126.5000  -999.2500  -999.2500  -999.2500  -999.2500  -113.7642    96.6392     6.9632     7.0530     5.9124   -63.4793
 1127.0000  -999.2500  -999.2500  -999.2500  -999.2500  -114.5994    93.8024     6.8345     7.0520     5.9115   -63.3603
 1127.5000  -999.2500  -999.2500  -999.2500  -999.2500  -114.7826    97.8406     6.8344     7.0515     5.9111   -63.2613
 1128.0000  -999.2500  -999.2500  -999.2500  -999.2500  -114.7870   100.2611     6.8339     7.0507     5.9105   -63.1621
 1128.5000  -999.2500  -999.2500  -999.2500  -999.2500  -114.7907   102.0827     6.8965     7.0501     5.9099   -63.0629
 1129.0000  -999.2500  -999.2500  -999.2500  -999.2500  -114.7944   100.2492     7.0248     7.1773     6.0199   -62.9639
 1129.5000  -999.2500  -999.2500  -999.2500  -999.2500  -114.1386   100.2432     7.0896     7.2413     6.0753   -72.9252
 1130.0000  -999.2500  -999.2500  -999.2500  -999.2500  -113.7362   101.4492     7.0233     7.3721     6.1885   -72.9054
 1130.5000  -999.2500  -999.2500  -999.2500  -999.2500  -113.3345   103.8694     7.1539     7.5050     6.3035   -72.7857
 1131.0000  -999.2500  -999.2500  -999.2500  -999.2500  -113.1350   104.2677     7.2869     7.6405     6.4210   -72.6660
 1131.5000  -999.2500  -999.2500  -999.2500  -999.2500  -113.1379   100.6225     7.2863     7.6558     6.5405   -72.5463
 1132.0000  -999.2500  -999.2500  -999.2500  -999.2500  -113.6035    97.3807     7.2856     7.6555     6.7866   -72.4266
 1132.5000  -999.2500  -999.2500  -999.2500  -999.2500  -113.6072    97.3783     7.4900     7.8703     6.6616   -72.3503
 1133.0000  -999.2500  -999.2500  -999.2500  -999.2500  -113.6109    96.9692     7.4894     7.7975     6.4785   -72.2314
 1133.5000  -999.2500  -999.2500  -999.2500  -999.2500  -114.0189    96.5567     7.4887     7.7968     6.3588   -72.1322
 1134.0000  -999.2500  -999.2500  -999.2500  -999.2500  -114.8312    96.1476     7.4880     7.7241     6.2414   -61.9528
 1134.5000  -999.2500  -999.2500  -999.2500  -999.2500  -114.8357    97.3523     7.4183     7.7234     6.0699   -61.8538
 1135.0000  -999.2500  -999.2500  -999.2500  -999.2500  -114.4365    98.9635     7.2815     7.5806     6.0132   -61.7546
 1135.5000  -999.2500  -999.2500  -999.2500  -999.2500  -114.4380   100.1704     6.9515     7.2335     6.0685   -61.6555
 1136.0000  -999.2500  -999.2500  -999.2500  -999.2500  -114.2403   102.1846     6.8234     7.2981     6.1245   -61.5564
 1136.5000  -999.2500  -999.2500  -999.2500  -999.2500  -113.8397   100.1585     7.0801     7.3635     6.1810   -61.4573
 1137.0000  -999.2500  -999.2500  -999.2500  -999.2500  -113.6406    98.1301     7.0795     7.3627     6.1803   -61.3582
 1137.5000  -999.2500  -999.2500  -999.2500  -999.2500  -113.6450    98.1241     7.1447     7.3621     6.1798   -61.2591
 1138.0000  -999.2500  -999.2500  -999.2500  -999.2500  -114.4572    98.1182     7.2104     7.5063     6.1792   -61.1599
 1138.5000  -999.2500  -999.2500  -999.2500  -999.2500  -114.0567    98.5165     7.4128     7.6463     6.1786   -91.2024
 1139.0000  -999.2500  -999.2500  -999.2500  -999.2500  -114.0604    99.7233     7.4121     7.6457     6.1782   -89.8675
 1139.5000  -999.2500  -999.2500  -999.2500  -999.2500  -114.0611   102.5444     7.3666     7.7162     6.2351   -88.5326
 1140.0000  -999.2500  -999.2500  -999.2500  -999.2500  -114.0678   102.9462     7.3660     7.7153     6.2926   -87.1978
 1140.5000  -999.2500  -999.2500  -999.2500  -999.2500  -114.4757   103.3444     7.3654     7.7146     6.3506   -85.8628
 1141.0000  -999.2500  -999.2500  -999.2500  -999.2500  -114.2780   102.1246     7.3647     7.7860     6.3499   -84.5280
 1141.5000  -999.2500  -999.2500  -999.2500  -999.2500  -114.2817    98.4809     7.3658     7.7849     6.3493   -83.1932
 1142.0000  -999.2500  -999.2500  -999.2500  -999.2500  -114.0833    97.2625     7.3507     7.7843     6.4077   -81.8583
 1142.5000  -999.2500  -999.2500  -999.2500  -999.2500  -114.0848    96.6542     7.4072     7.7117     6.2315   -80.3491
 1143.0000  -999.2500  -999.2500  -999.2500  -999.2500  -113.8886    99.2715     7.2707     7.5695     6.1735   -70.2094
 1143.5000  -999.2500  -999.2500  -999.2500  -999.2500  -113.6887    98.8602     7.1367     7.4990     6.1160   -70.1102
 1144.0000  -999.2500  -999.2500  -999.2500  -999.2500  -113.4919    99.6625     7.0703     7.2225     6.0590   -70.0111
 1144.5000  -999.2500  -999.2500  -999.2500  -999.2500  -113.4956   101.0796     6.9400     7.2218     6.0584   -79.9724
 1145.0000  -999.2500  -999.2500  -999.2500  -999.2500  -113.4993   104.5001     7.0039     7.2212     6.0579   -79.8733
 1145.5000  -999.2500  -999.2500  -999.2500  -999.2500  -113.5030   106.5146     7.0033     7.2208     6.0576   -79.7741
 1146.0000  -999.2500  -999.2500  -999.2500  -999.2500  -113.5067   105.7003     7.1335     7.2199     6.0568   -49.4938
 1146.5000  -999.2500  -999.2500  -999.2500  -999.2500  -113.5104   106.9066     7.0020     7.2193     6.0562   -69.5155
 1147.0000  -999.2500  -999.2500  -999.2500  -999.2500  -113.5141   106.4964     7.0013     7.2189     6.0559   -69.3965
 1147.5000  -999.2500  -999.2500  -999.2500  -999.2500  -113.9219   104.8739     6.9362     7.1537     5.9995   -79.3579
 1148.0000  -999.2500  -999.2500  -999.2500  -999.2500  -114.1284   105.6760     6.9356     7.0255     5.8887   -69.1983
