~VERSION INFORMATION
 VERS.                2.0:   CWLS LOG ASCII STANDARD - VERSION 2.0
 WRAP.                 NO:   ONE LINE PER DEPTH STEP
~WELL INFORMATION
#MNEM.UNIT      DATA TYPE    INFORMATION
#----------   ------------   ------------------------------
 STRT.F          211.5000:   START DEPTH
 STOP.F         3103.0000:   STOP DEPTH
 STEP.F            0.5000:   STEP LENGTH
 NULL.          -999.2500:   NO VALUE
 COMP.    FENIX & SCISSON:   COMPANY
 WELL. FENIX NPR 3 "AX" #38-10:   WELL
 FLD .  TEAPOT DOME - NPR:   FIELD
 LOC .      S10 T38N R78W:   LOCATION
 CNTY.            NATRONA:   COUNTY
 STAT.            WYOMING:   STATE
 CTRY. UNITED STATES OF AMERICA:   COUNTRY
 SRVC.           BIRDWELL:   SERVICE COMPANY
 DATE.        01-JUL-1978:   LOGDATE
 API .     49025106550000:   API NUMBER
~CURVE INFORMATION
#MNEM.UNIT       API CODE    CURVE DESCRIPTION
#----------   ------------   ------------------------------
 DEPT.F                  :   
 CALD.IN     45 280 60 00:   CALIPER FROM DENSITY LOG
 GRD .GAPI   45 310 01 00:   GAMMA RAY FROM DENSITY LOG
 RHOB.G/C3   45 350 01 00:   BULK DENSITY
 CORR.G/C3   45 356 01 00:   DENSITY CORRECTION
 NPOR.DEC    42 890 03 00:   ALPHA PROCESSED NEUTRON POROSITY
 SPR .MV     05 010 01 00:   SPONTANEOUS POTENTIAL
 SN  .OHMM   05 040 00 00:   SHORT NORMAL
 ILD .OHMM   05 120 46 00:   DEEP INDUCTION RESISTIVITY
~PARAMETER INFORMATION
#MNEM.UNIT          VALUE    DESCRIPTION
#----------   ------------   ------------------------------
 EKB .F         5240.0000:   Kelly bushing
 EGL .F         5230.0000:   Ground level
 TD  .F         3103.0000:   Total depth
 DATE.        01-JUL-1978:   Date logged
 CLNT.            A2DTECH:   Client Code
 SL  . 200' FSL & 2100' FWL:   Surface Location
 PD  .                 GL:   Permanent Datum
 EPD .F              5230:   Elevation Permanent Datum
 LMF .                 KB:   Log Measured From
 DMF .                 KB:   Drilling Measured From
 DAPD.F                10:   Feet Above Permanent Datum
 DD  .F              3100:   Depth driller
 DL  .F              3103:   Depth logger
 BLI .F              3096:   Bottom log interval
 TLI .F               228:   Top log interval
 CS1 .IN            8.625:   Casing size
 CBD1.      8.625" @ 224':   Casing driller 1
 CBL1.F               228:   Casing logger 1
 BS1 .IN            7.875:   Bit size
 BSD1.F              3100:   Depth drilled with bit1
 DFT .            MUD/GEL:   Type fluid in hole
 DFD .                8.7:   Density
 DFV .                 31:   Viscosity
 DFPH.               10.5:   pH
 DFL .                  7:   Fluid loss
 MSS .           FLOWLINE:   Source of sample
 BHT .F               109:   BHT.
 TCS .HRS             4.5:   Time Circ. stopped
 MRT .F               109:   Maximum recorded temp.
 LUN .               2958:   Logging unit number
 LUL .               CASP:   Logging unit location
 ENGI.             MILLER:   Recorded By
 ORIG.      2.5" 5" PRINT:   Origin of data
 UWI .     49025106550000:   Unique Well ID
 DICO. A2D TECHNOLOGIES, INC.:   Digitizing Company
~OTHER INFORMATION
~A   DEPT     CALD         GRD      RHOB       CORR       NPOR        SPR         SN        ILD   
# ...
  616.5000    10.9362    66.0545     2.4924     0.0228  -999.2500    -3.2476    10.1786    11.8984
  617.0000    10.9360    66.0536     2.4894     0.0228  -999.2500    -3.2524    10.2699    12.0045
  617.5000    10.9357    62.8924     2.4803     0.0226  -999.2500    -3.4546    10.3620    12.2239
  618.0000    10.9355    60.1266     2.4973     0.0246  -999.2500    -3.4595    10.3594    12.5621
  618.5000    10.9353    57.9709     2.5092     0.0246  -999.2500    -3.6616    10.3568    12.3305
  619.0000    10.9351    58.3651     2.5052     0.0226  -999.2500    -3.6675    10.3542    12.3274
  619.5000    10.9349    60.3215     2.5002     0.0186  -999.2500    -3.6723    10.6407    12.3243
  620.0000    10.9149    61.3078     2.4952     0.0144  -999.2500    -4.2692    10.6385    12.3212
  620.5000    10.9344    62.2942     2.4903     0.0144  -999.2500    -3.8793    10.6353    12.3181
  621.0000    10.9342    62.2932     2.4801     0.0144  -999.2500    -3.6868    10.6326    12.3151
  621.5000    10.9340    60.7126     2.4771     0.0164  -999.2500    -3.2970    10.5885    12.3120
  622.0000    10.9338    58.7551     2.4771     0.0222  -999.2500    -3.3018    10.5446    12.3089
  622.5000    10.9336    59.1490     2.4840     0.0242  -999.2500    -3.3067    10.5009    12.4193
  623.0000    10.9334    62.0918     2.4860     0.0282  -999.2500    -3.3115    10.4574    12.4162
  623.5000    10.9332    62.4856     2.4820     0.0280  -999.2500    -3.1190    10.4140    12.4125
  624.0000    10.9329    62.4846     2.4780     0.0280  -999.2500    -2.9265    10.3708    12.2959
  624.5000    10.9327    62.2863     2.4740     0.0280  -999.2500    -2.9323    10.3278    12.2929
  625.0000    10.9325    63.0748     2.4749     0.0300  -999.2500    -2.9371    10.2850    12.0662
  625.5000    10.9323    65.2447     2.4789     0.0298  -999.2500    -2.9420    10.2256    11.9529
  626.0000    10.9321    67.8094     2.4920     0.0298  -999.2500    -2.9468     9.9453    11.9499
  626.5000    10.9318    68.0053     2.4850     0.0278  -999.2500    -3.1490    10.2204    11.9469
  627.0000    10.9316    67.8067     2.4820     0.0218  -999.2500    -3.1538    10.1240    11.9439
  627.5000    10.9314    67.6082     2.4820     0.0178  -999.2500    -3.1587    10.1214    11.9409
  628.0000    10.9312    66.2259     2.4780     0.0058  -999.2500    -2.7688    10.1189    11.9379
  628.5000    10.9310    66.0275     2.4760     0.0038  -999.2500    -3.1684    10.1163    11.6101
  629.0000    10.9308    66.6182     2.4650     0.0018  -999.2500    -3.1732    10.1138    11.6072
  629.5000    10.9305    67.8008     2.4640     0.0018  -999.2500    -3.3764    10.0188    11.4982
  630.0000    10.9303    68.1941     2.4660     0.0036  -999.2500    -3.5786     9.6551    11.4953
  630.5000    10.9301    68.1929     2.4679     0.0036  -999.2500    -3.3861     9.7417    11.0780
  631.0000    10.9299    68.1917     2.4689     0.0016  -999.2500    -3.3909     9.5621    10.9740
  631.5000    10.9297    68.1905     2.4748     0.0016  -999.2500    -3.3957     9.5592    10.7716
  632.0000    10.9295    67.7948     2.4728    -0.0004  -999.2500    -3.5979     9.5568    10.7689
  632.5000    10.9293    68.1881     2.4708    -0.0006  -999.2500    -3.4054     9.1256    10.7662
  633.0000    10.9291    68.5813     2.4678    -0.0006  -999.2500    -3.4103     9.0400    10.2800
  633.5000    10.9288    67.1996     2.4698    -0.0006  -999.2500    -3.4151     8.8732    10.0904
  634.0000    10.9286    66.6065     2.4707    -0.0026  -999.2500    -3.4199     8.8710    10.0879
  634.5000    10.9284    67.1970     2.4608    -0.0026  -999.2500    -3.4248     8.7877    10.0853
  635.0000    10.9282    69.1680     2.4588    -0.0048  -999.2500    -3.4306     8.7855     9.9906
  635.5000    10.9280    70.3498     2.4697    -0.0028  -999.2500    -3.2381     8.7030     9.8968
  636.0000    10.9277    69.7567     2.4766     0.0032  -999.2500    -3.6376     8.3862     9.5375
  636.5000    10.9275    69.7554     2.4746     0.0032  -999.2500    -3.2478     8.4631     9.4480
  637.0000    10.9273    70.3456     2.4745     0.0030  -999.2500    -3.2526     8.4064     9.2732
  637.5000    10.9271    72.7267     2.4735     0.0050  -999.2500    -3.2575     8.3501     9.2709
  638.0000    10.9269    72.7264     2.4735     0.0050  -999.2500    -2.8676     8.2942     9.2686
  638.5000    10.9267    69.1590     2.4784     0.0068  -999.2500    -3.4645     8.2228     9.2662
  639.0000    10.9265    66.0037     2.4923     0.0188  -999.2500    -3.2720     8.2973     9.2639
  639.5000    10.9262    64.8199     2.5012     0.0286  -999.2500    -3.4742     8.2953     9.2616
  640.0000    10.9260    65.2131     2.5032     0.0306  -999.2500    -3.4800     8.5248     9.2592
  640.5000    10.9258    66.3946     2.5032     0.0306  -999.2500    -3.4848     8.2911     9.2569
  641.0000    10.9256    69.5468     2.4992     0.0304  -999.2500    -3.4897     8.2890     9.1700
  641.5000    10.9254    70.9251     2.5001     0.0304  -999.2500    -3.4945     8.2107     9.1677
  642.0000    10.9252    72.8945     2.4941     0.0264  -999.2500    -3.4994     8.2086     9.0816
  642.5000    10.9250    73.4842     2.4860     0.0244  -999.2500    -3.5042     7.9106     8.8321
  643.0000    10.9248    72.6946     2.4850     0.0224  -999.2500    -3.5090     7.8363     8.8299
  643.5000    10.9245    71.1169     2.4820     0.0224  -999.2500    -3.5139     7.7619     8.5878
  644.0000    10.9243    71.7066     2.4809     0.0222  -999.2500    -3.5187     7.6902     8.5857
  644.5000    10.9241    73.0844     2.4920     0.0222  -999.2500    -3.1289     7.4782     8.4273
  645.0000    10.9239    74.6592     2.4960     0.0262  -999.2500    -3.1337     7.2739     8.3481
  645.5000    10.8843    74.0666     2.4999     0.0282  -999.2500    -3.3369     7.2052     8.3460
  646.0000    10.9234    72.2922     2.4999     0.0300  -999.2500    -3.3417     7.2034     8.2676
  646.5000    10.8838    72.0935     2.4979     0.0300  -999.2500    -3.1492     7.1357     8.2656
  647.0000    10.9230    72.8803     2.4969     0.0300  -999.2500    -2.9567     7.1998     8.2631
  647.5000    10.9228    74.4547     2.4768     0.0300  -999.2500    -2.9615     7.1321     8.1855
  648.0000    10.9226    75.0441     2.4668     0.0260  -999.2500    -2.9664     7.0651     8.1086
  648.5000    10.9618    78.6038     2.4499     0.0238  -999.2500    -3.1686     6.9348     7.8862
  649.0000    10.9222    77.4214     2.4499     0.0258  -999.2500    -3.3708     6.8069     7.5308
  649.5000    10.9220    76.4354     2.4411     0.0298  -999.2500    -3.3775     6.8051     7.3057
  650.0000    10.8430    75.8258     2.4242     0.0356  -999.2500    -3.3804     6.5577     7.1231
  650.5000    10.8796    69.3288     2.3957     0.0408  -999.2500    -3.3862     6.2618     7.1870
  651.0000    10.8820    66.7626     2.3696     0.0476  -999.2500    -3.3911     6.2602     7.2515
  651.5000    10.9212    66.7606     2.3297     0.0534  -999.2500    -3.3959     6.4928     7.2493
  652.0000    10.9210    67.1525     2.3982     0.0734  -999.2500    -3.7955     6.4912     7.4499
  652.5000    10.9208    67.3475     2.4002     0.1586  -999.2500    -3.4056     6.5494     7.6561
  653.0000    10.9206    68.3302     2.3932     0.0752  -999.2500    -3.4105     6.9187     7.9409
  653.5000    10.8810    69.3129     2.4667     0.0058  -999.2500    -3.4153     7.4442     8.0126
  654.0000    10.9201    69.9018     2.4766     0.0058  -999.2500    -3.8148     7.7921     8.4636
  654.5000    10.9200    70.0967     2.4865     0.0116  -999.2500    -3.4250     8.0816     8.9401
  655.0000    10.8804    70.2917     2.4885     0.0116  -999.2500    -3.4298     8.2293     9.5314
  655.5000    10.8801    70.4867     2.4875     0.0116  -999.2500    -3.4347     8.3031     9.5300
  656.0000    10.8800    72.0602     2.4815     0.0116  -999.2500    -3.2431     8.4477     9.5290
  656.5000    10.8798    73.4368     2.4785     0.0136  -999.2500    -3.0506     8.5000     9.5014
