~VERSION INFORMATION
 VERS.                2.0:   CWLS LOG ASCII STANDARD - VERSION 2.0
 WRAP.                 NO:   ONE LINE PER DEPTH STEP
~WELL INFORMATION
#MNEM.UNIT      DATA TYPE    INFORMATION
#----------   ------------   ------------------------------
 STRT.F          520.0000:   START DEPTH
 STOP.F         3092.0000:   STOP DEPTH
 STEP.F            0.5000:   STEP LENGTH
 NULL.          -999.2500:   NO VALUE
 COMP.    FENIX & SCISSON:   COMPANY
 WELL. FENIX 87 "AX" #3-3:   WELL
 FLD .              N P R:   FIELD
 LOC .       S3 T38N R78W:   LOCATION
 CNTY.            NATRONA:   COUNTY
 STAT.            WYOMING:   STATE
 CTRY. UNITED STATES OF AMERICA:   COUNTRY
 SRVC.              WELEX:   SERVICE COMPANY
 DATE.        30-OCT-1980:   LOGDATE
 API .     49025108510000:   API NUMBER
~CURVE INFORMATION
#MNEM.UNIT       API CODE    CURVE DESCRIPTION
#----------   ------------   ------------------------------
 DEPT.F                  :   
 CALD.IN     45 280 60 00:   CALIPER FROM DENSITY LOG
 GRD .GAPI   45 310 01 00:   GAMMA RAY FROM DENSITY LOG
 RHOB.G/C3   45 350 01 00:   BULK DENSITY
 CORR.G/C3   45 356 01 00:   DENSITY CORRECTION
 SPR .MV     07 010 01 00:   SPONTANEOUS POTENTIAL
 ILD .OHMM   07 120 46 00:   DEEP INDUCTION RESISTIVITY
 ILM .OHMM   07 120 44 00:   INDUCTION LOG MEDIUM RESISTIVITY
 SGRD.OHMM   07 220 05 00:   SHALLOW SHORT GUARD RESISTIVITY
~PARAMETER INFORMATION
#MNEM.UNIT          VALUE    DESCRIPTION
#----------   ------------   ------------------------------
 EKB .F         5131.0000:   Kelly bushing
 EGL .F         5121.0000:   Ground level
 TD  .F         3095.0000:   Total depth
 DATE.        30-OCT-1980:   Date logged
 CLNT.            A2DTECH:   Client Code
 SL  . 910' FWL & 95' FEL:   Surface Location
 PD  .                 GL:   Permanent Datum
 EPD .F              5121:   Elevation Permanent Datum
 LMF .                 KB:   Log Measured From
 DMF .                 KB:   Drilling Measured From
 DD  .F              3095:   Depth driller
 DL  .F              3094:   Depth logger
 BLI .F              3092:   Bottom log interval
 TLI .F               525:   Top log interval
 CS1 .IN            9.625:   Casing size
 CBD1.      9.625" @ 525':   Casing driller 1
 CBL1.F               525:   Casing logger 1
 BS1 .IN            7.875:   Bit size
 DFT .          DISPERSED:   Type fluid in hole
 DFD .                  9:   Density
 DFV .                 40:   Viscosity
 DFPH.                 10:   pH
 DFL .                  8:   Fluid loss
 MSS .             MUDPIT:   Source of sample
 RMS .OHMM           2.40:   Rm
 MST .F                68:   Rm Meas. temp.
 MFST.F                68:   Rmf Meas. temp.
 RMC .OHMM            2.8:   Rmc
 MCST.F                68:   Rmc Meas. temp.
 MFSS.F              MEAS:   Source Rmf.
 RMB .OHMM           1.36:   Rm. at BHT
 BHT .F               120:   BHT.
 TCS .HRS             5.5:   Time Circ. stopped
 MRT .F               120:   Maximum recorded temp.
 LUN .               1891:   Logging unit number
 LUL .             CASPER:   Logging unit location
 ENGI.          PFERIMMER:   Recorded By
 WITN.              FIVAS:   Witnessed by
 ORIG.           5" PRINT:   Origin of data
 UWI .     49025108510000:   Unique Well ID
 DICO. A2D TECHNOLOGIES, INC.:   Digitizing Company
 DAPD.F                10:   Feet Above Permanent Datum
 BSD1.F              3095:   Depth drilled with bit1
 RMF .OHMM           1.92:   Rmf
 MCSS.               MEAS:   Source Rmc.
~OTHER INFORMATION
~A   DEPT     CALD        GRD       RHOB       CORR        SPR          ILD        ILM      SGRD  
# ...
 1532.5000     8.9110    90.9630     2.5090     0.0140   -26.5130     7.1320     9.4130    11.5370
 1533.0000     8.9070    90.2230     2.4990     0.0190   -26.5040     7.0240     9.3260    11.2300
 1533.5000     8.9030    89.4810     2.4940     0.0230   -26.4950     6.9450     9.1960    10.7190
 1534.0000     8.8990    88.7420     2.4950     0.0280   -26.4860     6.8660     9.0680    10.2080
 1534.5000     8.8950    88.0040     2.5010     0.0320   -26.4770     6.7870     8.9400     9.9500
 1535.0000     8.8910    87.2640     2.5080     0.0370   -26.4680     6.7080     8.8120    10.0200
 1535.5000     8.8870    86.5270     2.5090     0.0360   -26.4580     6.6300     8.6840    10.0980
 1536.0000     8.8830    85.7900     2.5060     0.0320   -26.4490     6.5510     8.5560    10.1760
 1536.5000     8.8790    85.7300     2.5010     0.0290   -26.4400     6.4990     8.5020    10.2530
 1537.0000     8.8750    86.6100     2.5040     0.0250   -26.4310     6.4890     8.5020    10.3310
 1537.5000     8.8830    87.4850     2.5090     0.0210   -26.4210     6.4800     8.5530    10.4210
 1538.0000     8.9110    88.3570     2.5150     0.0190   -26.4080     6.4700     8.6140    10.2420
 1538.5000     8.9380    88.0640     2.5370     0.0200   -26.5890     6.4610     8.6740    10.0320
 1539.0000     8.9660    86.7070     2.5610     0.0240   -26.7900     6.4510     8.7350     9.8230
 1539.5000     8.9910    85.7440     2.5730     0.0330   -26.9910     6.4410     8.7960     9.6780
 1540.0000     8.9760    85.9890     2.5820     0.0420   -26.9970     6.4320     8.8570     9.8580
 1540.5000     8.9560    86.2160     2.5530     0.0460   -26.8960     6.4220     8.9170    10.1050
 1541.0000     8.9370    86.4410     2.5300     0.0450   -26.7900     6.4130     8.9780    10.4180
 1541.5000     8.9170    86.4170     2.5110     0.0450   -26.6850     6.4030     9.0390    10.7320
 1542.0000     8.8970    85.3200     2.5000     0.0440   -26.6070     6.3940     9.0710    11.0450
 1542.5000     8.8780    84.2430     2.4970     0.0430   -26.6080     6.3840     9.0020    11.3250
 1543.0000     8.8580    83.1400     2.5220     0.0430   -26.6070     6.3830     8.8630    10.3770
 1543.5000     8.8380    82.8250     2.5410     0.0420   -26.5410     6.3600     8.7240     9.5210
 1544.0000     8.8380    82.5520     2.5340     0.0410   -26.4110     6.3170     8.5850     8.9880
 1544.5000     8.8470    82.2730     2.5260     0.0400   -26.4370     6.2730     8.5020     8.9880
 1545.0000     8.8560    81.9930     2.5310     0.0350   -26.4650     6.2300     8.5020     9.3210
 1545.5000     8.8650    81.7070     2.5400     0.0290   -26.4940     6.1870     8.5350     9.6500
 1546.0000     8.8740    81.6200     2.5480     0.0240   -26.5230     6.1440     8.6070     9.9500
 1546.5000     8.8830    81.8800     2.5530     0.0180   -26.5520     6.1010     8.6800     9.9500
 1547.0000     8.8920    82.9730     2.5350     0.0170   -26.5810     6.0580     8.7710     9.2400
 1547.5000     8.8890    84.0210     2.5200     0.0180   -26.6100     6.0390     8.8230     9.1550
 1548.0000     8.8860    85.0700     2.5040     0.0180   -26.6390     5.9100     8.7520     9.7440
 1548.5000     8.8830    86.1140     2.4890     0.0190   -26.6680     5.8150     8.5700    10.1360
 1549.0000     8.8800    86.9290     2.4740     0.0200   -26.6970     5.7200     8.3870     9.3520
 1549.5000     8.8780    86.8270     2.4660     0.0200   -26.7260     5.6250     8.2040     8.7070
 1550.0000     8.8750    86.6350     2.4670     0.0250   -26.7550     5.5300     8.0220     8.5020
 1550.5000     8.8930    86.4500     2.4990     0.0310   -26.7840     5.4360     7.8390     9.0710
 1551.0000     8.8870    86.3280     2.5100     0.0370   -26.8020     5.3550     7.6570     8.0460
 1551.5000     8.8820    86.2520     2.5200     0.0420   -26.7980     5.3550     7.4700     7.6800
 1552.0000     8.8770    86.0330     2.5300     0.0400   -26.7950     5.4140     7.4010     8.1480
 1552.5000     8.8720    86.3500     2.5390     0.0340   -26.7920     5.5130     7.7990     8.4890
 1553.0000     8.8670    86.8520     2.5490     0.0270   -26.7880     5.6130     8.0850     8.8310
 1553.5000     8.8620    87.3580     2.5480     0.0200   -26.7850     5.7130     8.3710     9.1720
 1554.0000     8.8580    87.8650     2.5290     0.0200   -26.7810     5.8130     8.6560     9.5140
 1554.5000     8.8530    88.3600     2.5330     0.0230   -26.7780     5.9120     8.9880     9.7680
 1555.0000     8.8480    88.3920     2.5410     0.0270   -26.7750     6.0120     9.0710     9.7220
 1555.5000     8.8430    87.6240     2.5480     0.0300   -26.7710     6.1120     8.9670     9.6400
 1556.0000     8.8380    86.8680     2.5340     0.0340   -26.7680     6.2120     8.8590     9.5570
 1556.5000     8.8330    86.1090     2.5170     0.0380   -26.7640     6.3120     8.7510     9.4740
 1557.0000     8.8280    85.3540     2.5000     0.0370   -26.7610     6.4110     8.6430     9.4130
 1557.5000     8.8240    84.5890     2.4930     0.0360   -26.7570     6.5020     8.5020     9.4130
 1558.0000     8.8190    84.6340     2.5010     0.0340   -26.7540     6.5850     8.5430     9.5290
 1558.5000     8.8140    85.2680     2.5040     0.0330   -26.7510     6.6610     8.5810     9.7820
 1559.0000     8.8090    85.9110     2.4980     0.0310   -26.7470     6.7370     8.6610    10.0350
 1559.5000     8.8040    86.5550     2.4920     0.0300   -26.7440     6.8130     8.7420    10.2880
 1560.0000     8.7990    87.1990     2.4900     0.0290   -26.7400     6.8890     8.8980    10.5410
 1560.5000     8.7940    87.8420     2.4920     0.0300   -26.7370     6.9650     9.0810    10.7940
 1561.0000     8.7940    88.3850     2.4950     0.0310   -26.7330     7.0410     9.2640    11.0470
 1561.5000     8.7890    88.2820     2.4930     0.0320   -26.7300     7.1170     9.4460    11.3000
 1562.0000     8.7830    88.1910     2.4900     0.0290   -26.7270     7.1990     9.5890    11.3250
 1562.5000     8.7780    88.1010     2.4890     0.0240   -26.7230     7.1990     9.2610    10.5180
 1563.0000     8.7720    88.0120     2.4880     0.0180   -26.7200     7.1990     8.9690    10.5180
 1563.5000     8.7670    87.9230     2.4820     0.0140   -26.7160     7.1990     8.9050    10.6420
 1564.0000     8.7610    87.8360     2.4770     0.0150   -26.7130     7.1990     9.1550    10.7700
 1564.5000     8.7560    87.5000     2.4760     0.0150   -26.7090     7.1990     9.4300    10.8980
 1565.0000     8.7500    86.9700     2.4760     0.0160   -26.7060     7.2340     9.7040    11.0150
 1565.5000     8.7450    86.4410     2.4660     0.0160   -26.7030     7.2860     9.9660    11.0150
 1566.0000     8.7390    85.8980     2.4730     0.0160   -26.6990     7.3390    10.0420    10.5180
 1566.5000     8.7360    86.0880     2.4990     0.0170   -26.6960     7.3920     9.9500    10.8580
 1567.0000     8.7370    86.5940     2.5210     0.0230   -26.6920     7.4440    10.0420    11.5540
 1567.5000     8.7390    87.1110     2.5310     0.0290   -26.6890     7.4970    10.0420    11.9710
 1568.0000     8.7400    87.6280     2.5300     0.0350   -26.6860     7.5500     9.9580    11.1330
 1568.5000     8.7420    88.1430     2.5150     0.0410   -26.6820     7.6020     9.8550    10.6150
 1569.0000     8.7430    88.6590     2.5000     0.0470   -26.6790     7.6090     9.7510    11.1690
 1569.5000     8.7440    89.1740     2.4860     0.0490   -26.6750     7.5390     9.6480    11.4300
 1570.0000     8.7460    89.6910     2.4680     0.0490   -26.6720     7.4490     9.5440    11.0540
 1570.5000     8.7470    90.2180     2.4490     0.0500   -26.6680     7.3240     9.4410    10.6440
 1571.0000     8.7490    90.7570     2.4340     0.0500   -26.6650     7.1990     9.3380    10.2300
 1571.5000     8.7500    90.7220     2.4520     0.0480   -26.6620     7.0730     9.2340    10.1360
 1572.0000     8.7520    90.0400     2.4740     0.0410   -26.6580     6.9480     9.0710    10.2120
 1572.5000     8.7530    89.3290     2.4860     0.0340   -26.6550     6.8230     8.9050    10.2750
