~VERSION INFORMATION
 VERS.                2.0:   CWLS LOG ASCII STANDARD - VERSION 2.0
 WRAP.                 NO:   ONE LINE PER DEPTH STEP
~WELL INFORMATION
#MNEM.UNIT      DATA TYPE    INFORMATION
#----------   ------------   ------------------------------
 STRT.F          648.0000:   START DEPTH
 STOP.F         3196.0000:   STOP DEPTH
 STEP.F            0.5000:   STEP LENGTH
 NULL.          -999.2500:   NO VALUE
 COMP.    FENIX & SCISSON:   COMPANY
 WELL.   FENIX "AX" #18-2:   WELL
 FLD .             NPR #3:   FIELD
 LOC .       S2 T38N R78W:   LOCATION
 CNTY.            NATRONA:   COUNTY
 STAT.            WYOMING:   STATE
 CTRY. UNITED STATES OF AMERICA:   COUNTRY
 SRVC.              WELEX:   SERVICE COMPANY
 DATE.        05-OCT-1980:   LOGDATE
 API .     49025108500000:   API NUMBER
~CURVE INFORMATION
#MNEM.UNIT       API CODE    CURVE DESCRIPTION
#----------   ------------   ------------------------------
 DEPT.F                  :   
 GRD .GAPI   45 310 01 00:   GAMMA RAY FROM DENSITY LOG
 CALD.IN     45 280 60 00:   CALIPER FROM DENSITY LOG
 CORR.G/C3   45 356 01 00:   DENSITY CORRECTION
 RHOB.G/C3   45 350 01 00:   BULK DENSITY
 SPR .MV     07 010 01 00:   SPONTANEOUS POTENTIAL FROM RES.
 ILD .OHMM   07 120 46 00:   INDUCTION LOG DEEP RESISTIVITY
 ILM .OHMM   07 120 44 00:   INDUCTION LOG MEDIUM RESISTIVITY
 SGRD.OHMM   07 220 05 00:   SHORT GUARD RESISTIVITY
~PARAMETER INFORMATION
#MNEM.UNIT          VALUE    DESCRIPTION
#----------   ------------   ------------------------------
 EKB .F         5162.0000:   Kelly bushing
 EGL .F         5152.0000:   Ground level
 EDF .F            0.0000:   Drilling floor
 TD  .F         3200.0000:   Total depth
 CLNT.            A2DTECH:   Client Code
 PD  .                 GL:   Permanent Datum
 EPD .F              5152:   Elevation Permanent Datum
 LMF .                 KB:   Log Measured From
 DMF .                 KB:   Drilling Measured From
 DAPD.F                10:   Feet Above Permanent Datum
 DATE.        05-OCT-1980:   Date Logged [DD-MMM-YYYY]
 DD  .F              3200:   Depth driller
 DL  .F              3198:   Depth logger
 BLI .F              3196:   Bottom log interval
 TLI .F               646:   Top log interval
 CS1 .IN            8.625:   Casing size
 CBD1.      8.625" @ 647':   Casing driller 1
 CBL1.F               650:   Casing logger 1
 BS1 .IN            7.875:   Bit size
 BSD1.F              3200:   Depth drilled with bit1
 DFT .           CHEM GEL:   Type fluid in hole
 DFD .                8.6:   Density
 DFV .                 38:   Viscosity
 DFPH.                9.5:   pH
 MSS .           FLOWLINE:   Source of sample
 MFSS.               MEAS:   Source Rmf.
 MCSS.               MEAS:   Source Rmc.
 RMB .OHMM           1.24:   Rm. at BHT
 BHT .F               118:   BHT.
 TCS .HRS               5:   Time Circ. stopped
 MRT .F               118:   Maximum recorded temp.
 LUN .               1892:   Logging unit number
 LUL .             CASPER:   Logging unit location
 ORIG.           5" PRINT:   Origin of data
 UWI .     49025108500000:   Unique Well ID
 DICO. A2D TECHNOLOGIES, INC.:   Digitizing Company
 SL  . 313' FSL & 565' FWL:   Surface Location
 RMS .               2.34:   Rm
~OTHER INFORMATION
~A   DEPT       GRD      CALD       CORR       RHOB        SPR        ILD        ILM       SGRD   
# ...
 2835.0000    76.4961    10.0193     0.0667     2.5917   -36.5144     9.9826    11.2457    13.7569
 2835.5000    77.8243    10.0203     0.0653     2.5827   -36.6358     9.7822    11.2518    14.2498
 2836.0000    76.0734    10.0213     0.0640     2.5706   -36.7565     9.5182    11.0270    14.0650
 2836.5000    75.6421    10.0224     0.0642     2.5664   -36.8772     9.2548    10.2969    13.7847
 2837.0000    76.5308    10.0234     0.0673     2.5776   -36.9978     8.9553     9.6151    13.7974
 2837.5000    78.7406    10.0096     0.0735     2.5896   -37.1185     8.5959     8.9064    12.9764
 2838.0000    82.2683    10.0106     0.0752     2.5979   -37.2391     8.2509     8.2131    14.1064
 2838.5000    86.2358     9.9969     0.0708     2.5927   -37.3599     7.8113     7.6693    13.7249
 2839.0000    90.4233     9.9832     0.0695     2.5868   -37.4806     7.3951     7.2111    11.9751
 2839.5000    93.9509     9.9547     0.0651     2.5838   -37.6005     7.0495     6.7803    10.0867
 2840.0000   100.3378     9.9410     0.0574     2.5689   -37.6714     6.7171     6.3313     8.6140
 2840.5000   103.8655     9.9128     0.0429     2.5471   -37.6355     6.3190     6.0358     8.1563
 2841.0000   106.5134     9.8844     0.0325     2.5356   -37.5497     5.9412     5.9975     8.8679
 2841.5000   109.8370     9.8707     0.0206     2.5166   -37.4644     5.6636     6.1794     7.9476
 2842.0000   112.1085     9.8419     0.0102     2.5039   -37.3789     5.3618     6.3897     7.1228
 2842.5000   114.4592     9.8282     0.0058     2.5039   -37.2935     5.2175     6.2190     6.6992
 2843.0000   115.3454     9.8147     0.0090     2.5122   -37.2080     5.1486     6.1362     8.1893
 2843.5000   108.9778     9.7863     0.0197     2.5362   -37.1225     5.1864     6.3122     8.4245
 2844.0000   105.0275     9.7873     0.0304     2.5594   -37.0368     5.1923     6.6283     8.2581
 2844.5000   103.7142     9.7736     0.0397     2.5658   -36.9520     5.4103     6.9124     7.9827
 2845.0000   105.9244     9.7748     0.0459     2.5558   -36.9077     5.6410     7.4158     7.1556
 2845.5000   108.1324     9.7611     0.0521     2.5536   -37.0041     5.8816     7.9626     7.5669
 2846.0000   105.0618     9.7621     0.0553     2.5650   -37.0964     6.2176     8.5180    11.5311
 2846.5000    92.5338     9.7484     0.0599     2.5851   -37.1885     6.4827     8.7612    12.3631
 2847.0000    82.0350     9.7347     0.0631     2.5978   -37.2805     6.7592     8.8266    12.1190
 2847.5000    77.5971     9.7357     0.0603     2.5904   -37.3726     7.0483     8.8925    11.7980
 2848.0000    75.6262     9.7219     0.0514     2.5530   -37.4647     7.2549     8.9589    11.8089
 2848.5000    81.1333     9.7082     0.0455     2.5448   -37.5567     7.5054     9.0258    11.1066
 2849.0000    83.1214     9.6945     0.0426     2.5366   -37.6488     7.6653     9.0980    10.5911
 2849.5000    82.0303     9.6663     0.0428     2.5314   -37.7409     7.8286     9.2258    10.3106
 2850.0000    81.1569     9.6523     0.0430     2.5292   -37.8331     8.0622     9.2947    10.6067
 2850.5000    82.4873     9.6239     0.0432     2.5309   -37.9247     8.1230     9.2997    11.3041
 2851.0000    82.2760     9.5957     0.0433     2.5450   -38.0173     8.1843     9.3046    11.6204
 2851.5000    81.1848     9.5820     0.0465     2.5555   -37.9308     8.0769     9.1820    11.3106
 2852.0000    86.2707     9.4645     0.0436     2.5615   -37.6720     7.9109     8.8141    11.5554
 2852.5000    90.4624     9.4361     0.0455     2.5488   -37.4128     7.6529     8.4609    11.2494
 2853.0000    90.2554     9.4370     0.0455     2.5384   -37.1530     7.5005     8.2349    11.6546
 2853.5000    88.5017     9.4378     0.0441     2.5287   -36.8935     7.3004     8.4128    11.1137
 2854.0000    87.8617     9.4387     0.0368     2.5228   -36.6335     7.0568     8.7130     9.8116
 2854.5000    90.5171     9.4543     0.0309     2.5190   -36.3622     6.7743     9.0864     7.1953
 2855.0000    92.9494     9.4551     0.0265     2.5161   -36.3817     6.5032     9.2815     8.8639
 2855.5000    91.2027     9.4412     0.0222     2.5109   -36.4906     6.3735     9.3508    11.9060
 2856.0000    86.1569     9.4274     0.0193     2.5379   -36.6021     6.5562     9.2913    11.4302
 2856.5000    84.4071     9.3981     0.0240     2.5529   -36.7130     6.7959     9.2964    11.0469
 2857.0000    87.2824     9.3384     0.0302     2.5642   -36.8237     7.0417     9.3016    10.9018
 2857.5000    90.1545     9.2827     0.0365     2.5732   -36.9344     7.2865     9.3721    10.6105
 2858.0000    91.9269     9.2396     0.0428     2.5799   -37.0451     7.4952     9.4421    10.4701
 2858.5000    92.3797     9.2108     0.0504     2.5867   -37.1558     7.6568     9.6126    10.9176
 2859.0000    91.7327     9.1822     0.0550     2.5927   -37.2665     7.7681     9.6864    10.9238
 2859.5000    91.3089     9.1683     0.0597     2.5875   -37.3774     7.8810     9.6935    11.5486
 2860.0000    90.8819     9.1545     0.0629     2.5831   -37.4883     7.9955     9.6322    12.3777
 2860.5000    90.0150     9.1555     0.0646     2.5887   -37.5966     8.1116     9.3785    13.4531
 2861.0000    88.2684     9.1564     0.0647     2.5981   -37.6072     8.1165     9.1921    13.7391
 2861.5000    86.7416     9.1573     0.0649     2.6071   -37.4077     7.9549     8.8805    12.3966
 2862.0000    86.0915     9.1583     0.0604     2.5698   -37.2119     7.7964     8.5940    11.6563
 2862.5000    87.6472     9.1443     0.0499     2.5616   -37.0157     7.5896     8.3661    12.2384
 2863.0000    88.9797     9.1304     0.0458     2.5653   -36.8196     7.4888     8.1442    12.0765
 2863.5000    89.4326     9.1315     0.0444     2.5736   -36.6233     7.3396     7.9832    11.1228
 2864.0000    89.1963     9.1174     0.0446     2.5512   -36.4271     7.2433     8.0444    10.2445
 2864.5000    88.7984     9.1035     0.0463     2.5423   -36.2328     7.0990     8.1062    10.7631
 2865.0000    89.0344     9.0898     0.0449     2.5347   -36.1046     6.9586     8.2250    10.5421
 2865.5000    90.8068     9.0688     0.0421     2.5333   -36.1645     6.9149     8.2881     9.6429
 2866.0000    92.3593     9.0474     0.0377     2.5326   -36.3323     6.9192     8.4679     8.6997
 2866.5000    92.8120     9.0335     0.0318     2.5274   -36.4987     7.0207     8.6530     9.3895
 2867.0000    92.3850     9.0197     0.0200     2.5222   -36.6653     7.1227     8.9019    11.4729
 2867.5000    91.5181     8.9913     0.0051     2.5200   -36.8318     7.2262     9.0949    11.3994
 2868.0000    90.4313     8.9627    -0.0053     2.5178   -36.9983     7.3820     9.2921    10.8675
 2868.5000    89.5504     8.9341    -0.0067     2.5201   -37.1648     7.4893     9.3634    11.1766
 2869.0000    88.4198     8.9200    -0.0005     2.5261   -37.3312     7.5981     9.3704    10.9489
 2869.5000    87.6139     8.9063     0.0057     2.5314   -37.4978     7.6554     9.3125    11.5516
 2870.0000    87.6268     8.8925     0.0119     2.5337   -37.6650     7.7666     9.3197    12.3279
 2870.5000    87.8596     8.8934     0.0181     2.5315   -37.8350     7.8252     9.3267    12.1648
 2871.0000    88.5323     8.8795     0.0243     2.5293   -37.8364     7.8844     9.3337    12.0038
 2871.5000    89.6449     8.8953     0.0275     2.5301   -37.6520     7.8902     9.3421    12.5167
 2872.0000    90.3176     8.8962     0.0292     2.5338   -37.4687     7.8950     9.3490    12.3511
 2872.5000    88.7909     8.9117     0.0309     2.5391   -37.2862     7.8998     9.3559    12.1039
 2873.0000    88.1437     8.9273     0.0356     2.5451   -37.1038     7.8501     9.3629    11.8617
 2873.5000    88.6042     8.9577     0.0387     2.5519   -36.9214     7.8549     9.3698    12.2039
 2874.0000    89.7392     8.9732     0.0389     2.5497   -36.7389     7.8043     9.3767    12.8971
 2874.5000    88.6256     9.0036     0.0345     2.5437   -36.5569     7.8102     9.4487    12.7278
 2875.0000    86.4391     9.0191     0.0317     2.5407   -36.3723     7.8150     9.5212    12.2178
