~VERSION INFORMATION
 VERS.                2.0:   CWLS LOG ASCII STANDARD - VERSION 2.0
 WRAP.                 NO:   ONE LINE PER DEPTH STEP
~WELL INFORMATION
#MNEM.UNIT      DATA TYPE    INFORMATION
#----------   ------------   ------------------------------
 STRT.F            0.0000:   START DEPTH
 STOP.F         4022.0000:   STOP DEPTH
 STEP.F            0.5000:   STEP LENGTH
 NULL.          -999.2500:   NO VALUE
 COMP. LAWRENCE - ALLISON:   COMPANY
 WELL. LAWRENCE NPR 3 "MX" #58-10:   WELL
 FLD .                MPR:   FIELD
 LOC .      S10 T38N R78W:   LOCATION
 CNTY.            NATRONA:   COUNTY
 STAT.            WYOMING:   STATE
 CTRY. UNITED STATES OF AMERICA:   COUNTRY
 SRVC.      DRESSER ATLAS:   SERVICE COMPANY
 DATE.        12-FEB-1984:   LOGDATE
 API .     49025109610000:   API NUMBER
~CURVE INFORMATION
#MNEM.UNIT       API CODE    CURVE DESCRIPTION
#----------   ------------   ------------------------------
 DEPT.F                  :   
 GRR .GAPI   07 310 01 00:   GAMMA RAY FROM RESISTIVITY
 SPR .MV     07 010 01 00:   SPONTANEOUS POTENTIAL
 TENR.LBS    07 635 01 00:   TENSION FROM RESISTIVITY
 ILD .OHMM   07 120 46 00:   DEEP INDUCTION RESISTIVITY
 ILM .OHMM   07 120 44 00:   INDUCTION LOG MEDIUM RESISTIVITY
 SFL .OHMM   07 220 01 00:   SHALLOW FOCUSED LOG RESISTIVITY
 DT  .US/F   60 520 00 00:   DELTA TIME
 TENS.LBS    60 635 01 00:   TENSION FROM SONIC LOG
 CNC .DEC    42 890 03 00:   NEUTRON PORISITY SANDSTONE
 CALD.IN     45 280 60 00:   CALIPER FROM DENSITY LOG
 RHOB.G/C3   45 350 01 00:   BULK DENSITY
 CORR.G/C3   45 356 01 00:   DENSITY CORRECTION
 TEND.LBS    45 635 01 00:   TENSION FROM DENSITY LOG
~PARAMETER INFORMATION
#MNEM.UNIT          VALUE    DESCRIPTION
#----------   ------------   ------------------------------
 EKB .F         5218.0000:   Kelly bushing
 EGL .F         5208.0000:   Ground level
 EDF .F         5217.0000:   Drilling floor
 TD  .F         4014.0000:   Total depth
 DATE.        12-FEB-1984:   Date logged
 CLNT.            A2DTECH:   Client Code
 SL  . 500' FSL & 2150' FEL:   Surface Location
 PD  .                 GL:   Permanent Datum
 EPD .F              5208:   Elevation Permanent Datum
 LMF .                 KB:   Log Measured From
 DMF .                 KB:   Drilling Measured From
 DD  .F              4014:   Depth driller
 DL  .F              4011:   Depth logger
 BLI .F              4009:   Bottom log interval
 CS1 .IN            8.625:   Casing size
 CBD1.      8.625" @ 526':   Casing driller 1
 CBL1.F               525:   Casing logger 1
 BS1 .IN            7.875:   Bit size
 DFT .            GEL/KCL:   Type fluid in hole
 DFD .                8.9:   Density
 DFV .                 48:   Viscosity
 DFPH.                  8:   pH
 DFL .                1.3:   Fluid loss
 MSS .           MUD/TANK:   Source of sample
 RMS .OHMM           .556:   Rm
 MST .F                61:   Rm Meas. temp.
 RMF .OHMM           .423:   Rmf
 MFST.F                61:   Rmf Meas. temp.
 RMC .OHMM           .662:   Rmc
 MCST.F                61:   Rmc Meas. temp.
 MFSS.           MUD/TANK:   Source Rmf.
 RMB .OHMM            .80:   Rm. at BHT
 BHT .F               119:   BHT.
 TCS .HRS               5:   Time Circ. stopped
 MRT .F               119:   Maximum recorded temp.
 LUN .               6302:   Logging unit number
 ENGI.              GETTY:   Recorded By
 ORIG.           5" PRINT:   Origin of data
 UWI .     49025109610000:   Unique Well ID
 DICO. A2D TECHNOLOGIES, INC.:   Digitizing Company
 TLI .F                 0:   Top log interval
~OTHER INFORMATION
~A    DEPT      GRR       SPR       TENR        ILD        ILM        SFL         DT       TENS        CNC       CALD       RHOB       CORR       TEND   
# ...
 3276.0000   143.3610    -5.3630   -91.0220     4.8830     5.0040     5.9760    84.4450  -123.6420     0.2170     8.6250     2.5060     0.0690  -127.8780
 3276.5000   144.0310    -5.1000   -95.4640     4.7960     4.8980     5.6840    86.1770  -130.8850     0.2150     8.6320     2.4800     0.0920  -127.2200
 3277.0000   142.9340    -4.8570   -86.8230     4.7200     4.7910     5.8660    86.7760  -139.3360     0.2290     8.6390     2.4820     0.0700  -126.5630
 3277.5000   142.4260    -5.2350   -78.4310     4.6770     4.7540     6.1090    87.3840  -141.5600     0.2450     8.6360     2.4860     0.0310  -125.9050
 3278.0000   139.9800    -5.8740   -87.8610     4.6440     4.7310     6.0460    87.5070  -144.2290     0.2470     8.6330     2.4930     0.0120  -125.0780
 3278.5000   135.7880    -6.4220  -105.4340     4.7170     4.8330     5.9620    87.6970  -146.8970     0.2430     8.6290     2.4910     0.0070  -123.5430
 3279.0000   131.9620    -6.2920   -87.4880     4.7750     4.9300     5.9510    87.8870  -149.5660     0.2370     8.6260     2.4840     0.0000  -122.0080
 3279.5000   132.2180    -6.1800   -70.7050     4.8330     4.9980     6.0620    87.9880  -152.2340     0.2320     8.6230     2.4810    -0.0120  -120.4730
 3280.0000   133.3660    -6.0690   -67.6060     4.8850     5.0220     6.4720    87.3540  -154.9030     0.2260     8.6200     2.4890    -0.0090  -118.9390
 3280.5000   132.6110    -6.0280   -70.5680     4.9080     5.0450     6.5840    86.7630  -157.5720     0.2210     8.6270     2.5020     0.0060  -117.4040
 3281.0000   131.4150    -6.0130   -73.5290     4.7570     4.9130     6.3470    86.5790  -159.4570     0.2180     8.6330     2.5150     0.0220  -115.8690
 3281.5000   132.7580    -5.9460   -76.2390     4.6090     4.7690     6.1750    86.5790  -155.9590     0.2160     8.6400     2.5290     0.0440  -114.3340
 3282.0000   133.8610    -5.8770   -78.4280     4.4610     4.6310     6.0170    87.4190  -152.0590     0.2150     8.6470     2.5430     0.0710  -112.7990
 3282.5000   132.2540    -5.7380   -80.6170     4.3130     4.4960     5.8600    88.1790  -148.1580     0.2260     8.6540     2.5500     0.1060  -111.2650
 3283.0000   130.4960    -5.3660   -82.8060     4.1620     4.3550     5.6920    88.9400  -144.2580     0.2370     8.6590     2.5450     0.1420  -109.7300
 3283.5000   132.4420    -5.0120   -84.9950     4.0100     4.1860     5.5170    89.5980  -140.3580     0.2490     8.6530     2.5340     0.1780  -108.1950
 3284.0000   137.8850    -4.7370   -85.4940     3.8580     4.0090     5.3420    90.3170  -139.9810     0.2520     8.6470     2.5040     0.2130  -106.6600
 3284.5000   139.4840    -4.4540   -85.4940     3.7660     3.8580     5.1670    90.9510  -140.8550     0.2510     8.6410     2.4460     0.2480  -105.8820
 3285.0000   137.1450    -4.2400   -85.4940     3.7170     3.8180     4.9920    91.6100  -141.7300     0.2490     8.6350     2.4100     0.2840  -108.1170
 3285.5000   134.1330    -4.1880   -85.4940     3.6580     3.7950     4.8180    91.8110  -142.6040     0.2460     8.6290     2.3810     0.2920  -110.3510
 3286.0000   135.8660    -4.1360   -85.4940     3.6970     3.8230     4.8180    91.8110  -143.4780     0.2410     8.6230     2.3920     0.2840  -112.5860
 3286.5000   140.8430    -4.0840   -86.4490     3.7450     3.8900     4.9330    91.4990  -144.3520     0.2340     8.6200     2.4320     0.2730  -114.8200
 3287.0000   143.9400    -4.0510   -90.6450     3.7940     3.9570     5.1180    90.9600  -145.2270     0.2330     8.6200     2.4580     0.2610  -117.0550
 3287.5000   141.8590    -4.0510   -94.8400     3.8580     4.0240     5.3030    90.4210  -146.1010     0.2370     8.6200     2.4640     0.2610  -119.2890
 3288.0000   138.5340    -4.0520   -85.9370     3.9720     4.1510     5.4300    89.8830  -146.9750     0.2420     8.6190     2.4530     0.2700  -121.5240
 3288.5000   136.8370    -4.0510   -75.5230     4.0870     4.2680     5.5470    89.3440  -147.8490     0.2440     8.5660     2.4580     0.3090  -123.7580
 3289.0000   137.5580    -4.0470   -86.2910     4.2010     4.3350     5.6320    88.8050  -148.7230     0.2390     8.5090     2.4690     0.3040  -125.9930
 3289.5000   137.3900    -4.1720   -96.3610     4.2680     4.4020     5.6320    88.3670  -149.5980     0.2330     8.4600     2.4740     0.2940  -128.2270
 3290.0000   137.9180    -4.3150  -105.4340     4.3140     4.4440     5.6320    88.2660  -150.4720     0.2300     8.4710     2.4770     0.2740  -130.4620
 3290.5000   140.0770    -4.4390   -96.2110     4.3540     4.4600     5.5750    88.1890  -151.3460     0.2300     8.4800     2.4870     0.2520  -132.6960
 3291.0000   138.7990    -4.2700   -87.8200     4.3440     4.4770     5.5370    88.1890  -152.2200     0.2310     8.4890     2.4980     0.2380  -134.9310
 3291.5000   135.0750    -3.9120   -85.4940     4.3330     4.4610     5.6270    88.3220  -153.0940     0.2350     8.4990     2.5010     0.2410  -134.1590
 3292.0000   131.1070    -3.5320   -85.4940     4.3220     4.4360     5.6840    88.8290  -153.9690     0.2390     8.5000     2.4950     0.2850  -131.3450
 3292.5000   127.6440    -3.1500   -85.4940     4.3150     4.4810     5.3820    89.3360  -154.8430     0.2420     8.5000     2.4890     0.3100  -128.5310
 3293.0000   128.0060    -2.7550   -85.4940     4.5600     4.6630     5.0450    89.7990  -155.7170     0.2450     8.5000     2.4730     0.2080  -125.7170
 3293.5000   131.1800    -2.8250   -87.6790     4.7760     4.9240     5.0910    89.7990  -156.5910     0.2470     8.4890     2.4380     0.1380  -122.9040
 3294.0000   133.6240    -3.0320   -91.5520     4.9530     5.1380     5.5570    88.8890  -157.4650     0.2470     8.4740     2.4290     0.0990  -120.0900
 3294.5000   132.1850    -3.2460   -95.4640     4.6750     5.0450     6.0360    87.7870  -158.3400     0.2420     8.4590     2.4540     0.0810  -117.2760
 3295.0000   130.4200    -3.4570   -95.4640     4.3010     4.7130     6.7060    87.7870  -159.2140     0.2380     8.4430     2.4600     0.0690  -115.4040
 3295.5000   128.6170    -3.4570   -95.4640     3.6340     4.2080     6.5840    89.2090  -159.4570     0.2370     8.4280     2.4740     0.0520  -115.4040
 3296.0000   127.8690    -3.1040   -95.4640     3.0260     3.4430     6.3380    92.6960  -159.4570     0.2420     8.4120     2.4880     0.0140  -115.4040
 3296.5000   128.8370    -1.2330   -95.4640     2.5310     2.7020     5.9360    98.0480  -159.4570     0.2600     8.3970     2.4940    -0.0090  -115.4040
 3297.0000   137.6360    -0.3370   -95.4640     2.2410     2.2180     5.0350   102.7410  -159.4570     0.2810     8.3820     2.4750    -0.0030  -115.4040
 3297.5000   149.8680    -0.0540   -90.0630     2.1280     1.9590     3.8430   107.9070  -159.4570     0.3030     8.3660     2.4020     0.0060  -115.4040
 3298.0000   175.0200     0.0200   -81.6720     2.0700     1.9410     2.7890   113.5880  -159.4570     0.3120     8.3860     2.2980     0.0670   -94.2670
 3298.5000   204.3410     0.0960   -78.2150     2.0700     2.1460     2.0700   115.1510  -159.4570     0.2970     8.4250     2.2230     0.1230   -60.5020
 3299.0000   208.9750     0.0940   -88.2850     2.0890     2.3640     2.3570   112.8410  -159.4570     0.2760     8.4650     2.2580     0.1120   -35.6430
 3299.5000   183.7730    -1.3150   -98.3550     2.1930     2.5810     2.9700   103.2800  -159.4570     0.2550     8.5040     2.3300     0.0960   -35.6430
 3300.0000   151.5600    -2.9190  -102.2290     2.2900     2.7770     4.6450    95.3930  -159.4570     0.2450     8.5400     2.4040     0.0020   -75.3260
 3300.5000   133.5270    -4.1870   -91.4400     2.4310     3.1230     5.2820    87.9880  -159.4570     0.2370     8.5460     2.4700    -0.0250  -115.2510
 3301.0000   127.7990    -4.9920   -80.6510     2.9330     3.4620     5.1300    87.9880  -159.4570     0.2320     8.5520     2.4820    -0.0230  -114.7500
 3301.5000   127.5990    -5.5090   -76.5400     3.4750     3.8030     4.9530    89.3320  -159.4570     0.2310     8.5580     2.4890    -0.0170  -114.2480
