~VERSION INFORMATION
 VERS.                2.0:   CWLS LOG ASCII STANDARD - VERSION 2.0
 WRAP.                 NO:   ONE LINE PER DEPTH STEP
~WELL INFORMATION
#MNEM.UNIT      DATA TYPE    INFORMATION
#----------   ------------   ------------------------------
 STRT.F          218.5000:   START DEPTH
 STOP.F         3291.0000:   STOP DEPTH
 STEP.F            0.5000:   STEP LENGTH
 NULL.          -999.2500:   NO VALUE
 COMP.    FENIX & SCISSON:   COMPANY
 WELL.   FENIX SHX #63-23:   WELL
 FLD .  TEAPOT DOME NPR-3:   FIELD
 LOC .      S23 T38N R78W:   LOCATION
 CNTY.            NATRONA:   COUNTY
 STAT.            WYOMING:   STATE
 CTRY. UNITED STATES OF AMERICA:   COUNTRY
 SRVC.           BIRDWELL:   SERVICE COMPANY
 DATE.        08-JUL-1978:   LOGDATE
 API .     49025106600000:   API NUMBER
~CURVE INFORMATION
#MNEM.UNIT       API CODE    CURVE DESCRIPTION
#----------   ------------   ------------------------------
 DEPT.F                  :   
 GRD .GAPI   45 310 01 00:   GAMMA RAY FROM DENSITY LOG
 CALD.IN     45 280 60 00:   CALIPER FROM DENSITY LOG
 CORR.G/C3   45 356 01 00:   DENSITY CORRECTION
 RHOB.G/C3   45 350 01 00:   BULK DENSITY
 GR  .GAPI   35 310 01 00:   GAMMA RAY
 NEUT.NAPI   35 330 01 00:   NEUTRON
~PARAMETER INFORMATION
#MNEM.UNIT          VALUE    DESCRIPTION
#----------   ------------   ------------------------------
 EKB .F         5368.0000:   Kelly bushing
 EGL .F         5358.0000:   Ground level
 TD  .F         3299.0000:   Total depth
 CLNT.            A2DTECH:   Client Code
 PD  .                 GL:   Permanent Datum
 EPD .F              5358:   Elevation Permanent Datum
 LMF .                 KB:   Log Measured From
 DMF .                 KB:   Drilling Measured From
 DAPD.F                10:   Feet Above Permanent Datum
 DATE.        08-JUL-1978:   Date Logged [DD-MMM-YYYY]
 DD  .F              3299:   Depth driller
 DL  .F              3291:   Depth logger
 BLI .F              3291:   Bottom log interval
 TLI .F              1430:   Top log interval
 CS1 .IN            9.625:   Casing size
 CBD1.     9.625" @ 1450':   Casing driller 1
 CBL1.F              1442:   Casing logger 1
 BS1 .IN            8.750:   Bit size
 BSD1.F              3299:   Depth drilled with bit1
 DFT .          KCL WATER:   Type fluid in hole
 BHT .F               118:   BHT.
 TCS .HRS               2:   Time Circ. stopped
 MRT .F               118:   Maximum recorded temp.
 LUN .               2958:   Logging unit number
 LUL .               CASP:   Logging unit location
 ENGI.             MILLER:   Recorded By
 WITN.           MCGINLEY:   Witnessed by
 ORIG.           5" PRINT:   Origin of data
 UWI .     49025106600000:   Unique Well ID
 DICO. A2D TECHNOLOGIES, INC.:   Digitizing Company
 SL  . 1800' FNL & 1825' FEL:   Surface Location
~OTHER INFORMATION
~A   DEPT      GRD       CALD       CORR       RHOB          GR      NEUT   
# ...
 1778.5000    76.6632     9.3511     0.0497     2.5520  -999.2500  -999.2500
 1779.0000    75.9264     9.3498     0.0466     2.5423  -999.2500  -999.2500
 1779.5000    76.5034     9.3481     0.0450     2.5350  -999.2500  -999.2500
 1780.0000    77.9758     9.3468     0.0495     2.5335  -999.2500  -999.2500
 1780.5000    79.4075     9.3455     0.0554     2.5505  -999.2500  -999.2500
 1781.0000    80.5685     9.3290     0.0614     2.5623  -999.2500  -999.2500
 1781.5000    80.8553     9.3277     0.0644     2.5637  -999.2500  -999.2500
 1782.0000    79.9707     9.2957     0.0658     2.5571  -999.2500  -999.2500
 1782.5000    79.0862     9.2791     0.0642     2.5482  -999.2500  -999.2500
 1783.0000    78.9350     9.2626     0.0626     2.5497  -999.2500  -999.2500
 1783.5000    79.3643     9.2461     0.0610     2.5570  -999.2500  -999.2500
 1784.0000    80.0873     9.2293     0.0593     2.5472  -999.2500  -999.2500
 1784.5000    79.7770     9.2127     0.0577     2.5489  -999.2500  -999.2500
 1785.0000    79.1959     9.2114     0.0577     2.5496  -999.2500  -999.2500
 1785.5000    78.8970     9.2102     0.0545     2.5481  -999.2500  -999.2500
 1786.0000    79.4740     9.2253     0.0514     2.5444  -999.2500  -999.2500
 1786.5000    81.2189     9.2531     0.0498     2.5407  -999.2500  -999.2500
 1787.0000    82.5242     9.2820     0.0497     2.5377  -999.2500  -999.2500
 1787.5000    82.9569     9.2960     0.0526     2.5406  -999.2500  -999.2500
 1788.0000    80.6125     9.2947     0.0556     2.5510  -999.2500  -999.2500
 1788.5000    78.1239     9.2930     0.0601     2.5598  -999.2500  -999.2500
 1789.0000    77.0822     9.3070     0.0630     2.5598  -999.2500  -999.2500
 1789.5000    76.7962     9.3057     0.0629     2.5568  -999.2500  -999.2500
 1790.0000    77.3715     9.3044     0.0628     2.5687  -999.2500  -999.2500
 1790.5000    77.5123     9.3335     0.0627     2.5716  -999.2500  -999.2500
 1791.0000    77.2116     9.3474     0.0627     2.5701  -999.2500  -999.2500
 1791.5000    77.6410     9.3614     0.0626     2.5642  -999.2500  -999.2500
 1792.0000    78.8019     9.3790     0.0625     2.5568  -999.2500  -999.2500
 1792.5000    79.6709     9.3999     0.0624     2.5560  -999.2500  -999.2500
 1793.0000    79.8102     9.4208     0.0623     2.5568  -999.2500  -999.2500
 1793.5000    79.1907     9.4417     0.0622     2.5575  -999.2500  -999.2500
 1794.0000    78.0426     9.4759     0.0621     2.5567  -999.2500  -999.2500
 1794.5000    78.3277     9.5355     0.0620     2.5493  -999.2500  -999.2500
 1795.0000    80.4580     9.7625     0.0619     2.5486  -999.2500  -999.2500
 1795.5000    83.5682     9.5785     0.0603     2.5545  -999.2500  -999.2500
 1796.0000    84.5849     9.4704     0.0602     2.5648  -999.2500  -999.2500
 1796.5000    80.9266     9.4691     0.0586     2.5589  -999.2500  -999.2500
 1797.0000    77.4160     9.4678     0.0570     2.5549  -999.2500  -999.2500
 1797.5000    76.2395     9.4513     0.0584     2.5507  -999.2500  -999.2500
 1798.0000    76.2326     9.4347     0.0583     2.5610  -999.2500  -999.2500
 1798.5000    76.3717     9.4179     0.0613     2.5728  -999.2500  -999.2500
 1799.0000    76.8027     9.4014     0.0642     2.5795  -999.2500  -999.2500
 1799.5000    78.0279     9.4001     0.0657     2.5785  -999.2500  -999.2500
 1800.0000    83.0645     9.4140     0.0655     2.5661  -999.2500  -999.2500
 1800.5000    84.2255     9.4010     0.0650     2.5654  -999.2500  -999.2500
 1801.0000    84.0726     9.3970     0.0645     2.5595  -999.2500  -999.2500
 1801.5000    82.3139     9.3959     0.0639     2.5494  -999.2500  -999.2500
 1802.0000    81.4272     9.3646     0.0638     2.5639  -999.2500  -999.2500
 1802.5000    81.1089     9.3637     0.0637     2.5661  -999.2500  -999.2500
 1803.0000    81.0942     9.3476     0.0637     2.5652  -999.2500  -999.2500
 1803.5000    81.2322     9.3314     0.0606     2.5564  -999.2500  -999.2500
 1804.0000    80.7584     9.3153     0.0529     2.5476  -999.2500  -999.2500
 1804.5000    79.5283     9.3144     0.0498     2.5483  -999.2500  -999.2500
 1805.0000    79.0580     9.3135     0.0482     2.5551  -999.2500  -999.2500
 1805.5000    81.0158     9.3279     0.0482     2.5512  -999.2500  -999.2500
 1806.0000    82.0652     9.3268     0.0481     2.5460  -999.2500  -999.2500
 1806.5000    83.1147     9.3260     0.0465     2.5578  -999.2500  -999.2500
 1807.0000    80.8125     9.3099     0.0465     2.5593  -999.2500  -999.2500
 1807.5000    78.9791     9.3088     0.0449     2.5578  -999.2500  -999.2500
 1808.0000    78.6644     9.3080     0.0448     2.5556  -999.2500  -999.2500
 1808.5000    79.1024     9.3225     0.0463     2.5600  -999.2500  -999.2500
 1809.0000    79.8480     9.3367     0.0477     2.5735  -999.2500  -999.2500
 1809.5000    80.7419     9.3510     0.0477     2.5747  -999.2500  -999.2500
 1810.0000    81.1871     9.3347     0.0491     2.5762  -999.2500  -999.2500
 1810.5000    81.6251     9.2882     0.0506     2.5799  -999.2500  -999.2500
 1811.0000    81.6107     9.2874     0.0505     2.5828  -999.2500  -999.2500
 1811.5000    80.9849     9.2863     0.0504     2.5762  -999.2500  -999.2500
 1812.0000    80.5147     9.2854     0.0534     2.5606  -999.2500  -999.2500
 1812.5000    79.5885     9.2846     0.0564     2.5510  -999.2500  -999.2500
 1813.0000    77.5984     9.2989     0.0594     2.5570  -999.2500  -999.2500
 1813.5000    78.4100     9.3285     0.0699     2.5657  -999.2500  -999.2500
 1814.0000    81.3656     9.3429     0.0866     2.5768  -999.2500  -999.2500
 1814.5000    83.0230     9.3418     0.0865     2.5598  -999.2500  -999.2500
 1815.0000    83.4646     9.3409     0.0864     2.5576  -999.2500  -999.2500
 1815.5000    80.0578     9.3096     0.0879     2.5576  -999.2500  -999.2500
 1816.0000    77.9612     9.2781     0.0894     2.5553  -999.2500  -999.2500
 1816.5000    77.7985     9.2772     0.0908     2.5605  -999.2500  -999.2500
 1817.0000    78.3920     9.2764     0.0908     2.5635  -999.2500  -999.2500
 1817.5000    79.1440     9.2755     0.0907     2.5730  -999.2500  -999.2500
 1818.0000    80.7878     9.2746     0.0891     2.5634  -999.2500  -999.2500
 1818.5000    81.6853     9.2736     0.0860     2.5589  -999.2500  -999.2500
 1819.0000    81.9785     9.2727     0.0799     2.5544  -999.2500  -999.2500
 1819.5000    81.9605     9.2718     0.0768     2.5493  -999.2500  -999.2500
 1820.0000    81.3348     9.2708     0.0737     2.5463  -999.2500  -999.2500
 1820.5000    81.0165     9.2699     0.0736     2.5582  -999.2500  -999.2500
 1821.0000    81.7620     9.2691     0.0735     2.5670  -999.2500  -999.2500
 1821.5000    83.1155     9.2682     0.0735     2.5566  -999.2500  -999.2500
 1822.0000    82.9456     9.2673     0.0734     2.5426  -999.2500  -999.2500
 1822.5000    82.4753     9.2662     0.0718     2.5418  -999.2500  -999.2500
 1823.0000    81.8531     9.2654     0.0718     2.5411  -999.2500  -999.2500
 1823.5000    81.3828     9.2797     0.0732     2.5388  -999.2500  -999.2500
 1824.0000    81.2165     9.2939     0.0732     2.5588  -999.2500  -999.2500
 1824.5000    83.0223     9.3082     0.0792     2.5780  -999.2500  -999.2500
 1825.0000    84.2237     9.3228     0.1004     2.5750  -999.2500  -999.2500
 1825.5000    84.6653     9.3674     0.1170     2.5765  -999.2500  -999.2500
 1826.0000    84.8136     9.3992     0.1747     2.5920  -999.2500  -999.2500
 1826.5000    85.0926     9.4418     0.1169     2.6001  -999.2500  -999.2500
 1827.0000    85.6826     9.4407     0.1025     2.5727  -999.2500  -999.2500
 1827.5000    86.8840     9.4398     0.0757     2.5705  -999.2500  -999.2500
 1828.0000    88.1175     9.4542     0.0681     2.5720  -999.2500  -999.2500
 1828.5000    88.8274     9.4531     0.0620     2.5668  -999.2500  -999.2500
 1829.0000    89.2690     9.4370     0.0589     2.5660  -999.2500  -999.2500
 1829.5000    89.5586     9.4362     0.0649     2.5675  -999.2500  -999.2500
 1830.0000    89.8483     9.4353     0.0724     2.5734  -999.2500  -999.2500
