~VERSION INFORMATION
 VERS.                2.0:   CWLS LOG ASCII STANDARD - VERSION 2.0
 WRAP.                 NO:   ONE LINE PER DEPTH STEP
~WELL INFORMATION
#MNEM.UNIT      DATA TYPE    INFORMATION
#----------   ------------   ------------------------------
 STRT.F          200.0000:   START DEPTH
 STOP.F         2968.0000:   STOP DEPTH
 STEP.F            0.5000:   STEP LENGTH
 NULL.          -999.2500:   NO VALUE
 COMP. FENIX & SCISSON U.S. NAVY:   COMPANY
 WELL.   FENIX "A" #23-28:   WELL
 FLD .              NPR 3:   FIELD
 LOC .      S28 T39N R78W:   LOCATION
 CNTY.            NATRONA:   COUNTY
 STAT.            WYOMING:   STATE
 CTRY. UNITED STATES OF AMERICA:   COUNTRY
 SRVC.       SCHLUMBERGER:   SERVICE COMPANY
 DATE.        10-JUN-1977:   LOGDATE
 API .     49025103860000:   API NUMBER
~CURVE INFORMATION
#MNEM.UNIT       API CODE    CURVE DESCRIPTION
#----------   ------------   ------------------------------
 DEPT.F                  :   
 SPR .MV     07 010 01 00:   SPONTANEOUS POTENTIAL
 RILM.OHMM   07 120 44 00:   INDUCTION LOG MEDIUM RESISTIVITY
 RILD.OHMM   07 120 46 00:   DEEP INDUCTION RESISTIVITY
 LL8 .None   99 022 08 00:   LATEROLOG
 GRD .GAPI   45 310 01 00:   GAMMA RAY FROM DENSITY LOG
 CALD.IN     45 280 60 00:   CALIPER FROM DENSITY LOG
 RHOB.G/C3   45 350 01 00:   BULK DENSITY
 DRHO.G/C3   45 356 01 00:   DENSITY CORRECTION
~PARAMETER INFORMATION
#MNEM.UNIT          VALUE    DESCRIPTION
#----------   ------------   ------------------------------
 EKB .F         5019.0000:   Kelly bushing
 EGL .F         5009.0000:   Ground level
 EDF .F            0.0000:   Drilling floor
 EPD .F         5009.0000:   Permanent datum
 TD  .F         2971.0000:   Total depth
 DATE.        10-JUN-1977:   Date logged
 CLNT.            A2DTECH:   Client Code
 SL  . 1650' FNL & 990' FWL:   Surface Location
 DAPD.F                10:   Feet Above Permanent Datum
 DD  .F              2970:   Depth driller
 DL  .F              2971:   Depth logger
 BLI .F              2905:   Bottom log interval
 TLI .F               216:   Top log interval
 CS1 .IN            8.625:   Casing size
 CBD1.      9.625" @ 216':   Casing driller 1
 CBL1.F               216:   Casing logger 1
 BS1 .IN            7.875:   Bit size
 BSD1.F              2970:   Depth drilled with bit1
 DFT .            KCL MUD:   Type fluid in hole
 DFD .                8.8:   Density
 DFV .                 32:   Viscosity
 DFPH.                8.5:   pH
 DFL .                7.4:   Fluid loss
 MSS .               CIRC:   Source of sample
 RMS .OHMM           1.87:   Rm
 MST .F                85:   Rm Meas. temp.
 RMF .OHMM           1.69:   Rmf
 MFST.F                85:   Rmf Meas. temp.
 RMC .OHMM           2.80:   Rmc
 MCST.F                85:   Rmc Meas. temp.
 MFSS.               MEAS:   Source Rmf.
 MCSS.               CALC:   Source Rmc.
 RMB .OHMM           1.43:   Rm. at BHT
 BHT .F               111:   BHT.
 TCS .HRS            1600:   Time Circ. stopped
 TLAB.HRS            0945:   Time logger at bottom
 MRT .F               111:   Maximum recorded temp.
 LUN .               7711:   Logging unit number
 LUL .               CSPR:   Logging unit location
 ENGI.             SAYLER:   Recorded By
 WITN.         HARRINGTON:   Witnessed by
 ORIG.           5" PRINT:   Origin of data
 UWI .     49025103860000:   Unique Well ID
 DICO. A2D TECHNOLOGIES, INC.:   Digitizing Company
~OTHER INFORMATION
~A  DEPTH      SPR       RILM       RILD        LL8        GRD       CALD       RHOB       DRHO
# ...
 2022.5000   -72.6220     5.6650     5.2640     5.8990    91.8260     8.8260     2.4830    -0.0040
 2023.0000   -72.5630     5.2850     5.1880     5.2850    90.5730     8.8360     2.4910    -0.0030
 2023.5000   -72.5030     5.7060     5.2360     6.2800    90.2850     8.8470     2.5030     0.0020
 2024.0000   -72.4440     6.7360     5.2850     7.0850    89.9590     8.8570     2.4980    -0.0010
 2024.5000   -72.3850     7.7660     5.9570     7.7810    90.6400     8.8650     2.4930     0.0030
 2025.0000   -72.3260     8.6010     5.4060     9.0850    91.7930     8.8730     2.4950     0.0110
 2025.5000   -72.2660     7.7370     5.7420     8.1270    93.6050     8.8800     2.5010     0.0200
 2026.0000   -72.2070     6.8730     5.4830     7.1690    95.3860     8.8880     2.4980     0.0170
 2026.5000   -72.1480     6.0120     5.6790     6.4130    97.1010     8.8970     2.4910     0.0110
 2027.0000   -72.0880     6.1240     5.7920     7.1080    95.7080     8.8570     2.4870     0.0050
 2027.5000   -72.0290     6.0850     5.7650     7.3630    92.6400     8.8180     2.4970     0.0070
 2028.0000   -71.9700     6.0680     5.7420     6.9030    94.3780     8.8180     2.4970     0.0050
 2028.5000   -71.9110     6.7170     6.0020     7.0950    96.9730     8.8150     2.4970     0.0200
 2029.0000   -71.8510     7.3010     6.3000     7.4850    96.1110     8.8060     2.5110     0.0360
 2029.5000   -71.7920     7.9990     6.5320     8.3200    94.6680     8.7970     2.5250     0.0520
 2030.0000   -71.7330     7.9460     6.4720     9.7540    93.5270     8.7880     2.5340     0.0590
 2030.5000   -71.6730     7.8120     6.9560    11.5620   100.1620     8.7790     2.5160     0.0180
 2031.0000   -71.6140     7.6780     7.5690    10.8910   106.1330     8.7700     2.5070     0.0190
 2031.5000   -71.5550     7.6390     7.4810     9.9840   109.9830     8.7610     2.5050     0.0150
 2032.0000   -71.5280     7.5170     7.3040     9.0770   110.8920     8.7580     2.4990     0.0100
 2032.5000   -71.5280     7.4310     7.1280     8.3760   110.6840     8.7580     2.4960     0.0090
 2033.0000   -71.5280     7.4990     6.9510     8.4600   110.3170     8.7580     2.4940     0.0080
 2033.5000   -71.5280     7.4220     6.8490     8.5320   112.4640     8.7580     2.4850     0.0010
 2034.0000   -71.5280     7.2950     6.9030     8.4720   114.6430     8.7580     2.4720    -0.0020
 2034.5000   -71.5280     7.4880     6.7150     8.4090   110.6930     8.7580     2.4780     0.0050
 2035.0000   -71.5280     7.7580     7.2280     8.3760   106.3830     8.7580     2.4920     0.0090
 2035.5000   -71.5280     7.9100     7.2050     9.1920   102.0820     8.7580     2.5060     0.0070
 2036.0000   -71.5270     7.9990     7.1620     9.7060    97.6760     8.7580     2.5160     0.0060
 2036.5000   -71.5260     8.1180     7.2440     9.3960    94.9080     8.7580     2.5210     0.0100
 2037.0000   -71.4300     8.1760     7.3850     8.9340    93.9590     8.7580     2.5270     0.0170
 2037.5000   -71.1780     8.2230     7.5690     9.1820    93.0400     8.7530     2.5330     0.0230
 2038.0000   -70.9290     8.2780     7.4310     9.5290    90.6910     8.7480     2.5400     0.0180
 2038.5000   -70.6790     8.3400     7.5880     9.1380    87.3970     8.7420     2.5460     0.0140
 2039.0000   -70.4250     8.5930     7.9360     8.7710    85.7180     8.7360     2.5530     0.0190
 2039.5000   -70.4000     9.6240     8.2230     9.6760    85.3010     8.7300     2.5480     0.0250
 2040.0000   -70.4940    10.6540     7.6220    11.3510    85.0020     8.7240     2.5390     0.0120
 2040.5000   -70.5890    11.1440     7.3630    11.2470    86.3870     8.7190     2.5390     0.0020
 2041.0000   -70.6850     9.9150     7.2580    10.2580    88.4900     8.7240     2.5480     0.0180
 2041.5000   -70.7140     9.0590     6.9130     9.4410    90.5240     8.7290     2.5560     0.0150
 2042.0000   -70.6760     8.0870     6.7150     8.7670    92.1580     8.7340     2.5500     0.0130
 2042.5000   -70.6380     7.2580     6.5150     7.7880    91.0050     8.7390     2.5380     0.0150
 2043.0000   -70.6000     7.0570     6.1820     7.2280    89.5760     8.7440     2.5370     0.0160
 2043.5000   -70.5620     6.8570     5.9570     7.0830    90.0590     8.7490     2.5360     0.0110
 2044.0000   -70.5230     6.7150     6.0120     6.8430    93.5960     8.7540     2.5280     0.0060
 2044.5000   -70.4850     6.6530     5.9020     6.7150    97.8930     8.7590     2.5250     0.0050
 2045.0000   -70.4470     6.6530     6.0680     8.2030   102.2080     8.7640     2.5290     0.0120
 2045.5000   -70.4080     6.5420     5.9020     9.8860   106.2100     8.7690     2.5280     0.0090
 2046.0000   -70.3700     6.4800     5.9590     9.2830   108.0690     8.7740     2.5220     0.0080
 2046.5000   -70.3370     6.4130     6.1240     8.2330   109.7880     8.7770     2.5210     0.0150
 2047.0000   -70.3380     6.4130     6.1240     7.4490   111.0470     8.7730     2.5180     0.0170
 2047.5000   -70.3330     6.4590     6.1240     7.2570   110.2930     8.7680     2.5070     0.0190
 2048.0000   -70.2240     6.6090     6.2800     7.6390   110.2830     8.7640     2.4980     0.0230
 2048.5000   -70.1170     6.7770     6.3450     8.0730   109.5590     8.7590     2.4900     0.0280
 2049.0000   -70.0100     6.7320     6.4100     7.7280   107.8730     8.7550     2.4810     0.0180
 2049.5000   -69.9040     6.7150     6.4750     7.3630   109.5010     8.7510     2.4970     0.0080
 2050.0000   -69.7970     6.9800     6.5400     8.1270   112.6370     8.7460     2.5190     0.0030
 2050.5000   -69.7340     7.1620     6.6050     9.1840   115.7780     8.7420     2.5350     0.0220
 2051.0000   -69.7180     7.0210     6.6530    10.8400   118.2720     8.7390     2.5170     0.0190
 2051.5000   -69.7010     6.8900     6.5350    10.2560   120.0830     8.7440     2.5040     0.0160
 2052.0000   -69.6840     6.7580     6.4220     8.9090   121.5250     8.7490     2.5160     0.0260
 2052.5000   -69.6670     6.6270     6.3090     7.9610   117.0840     8.7540     2.5090     0.0200
 2053.0000   -69.6510     6.4960     6.1960     7.6650   113.1280     8.7590     2.5050     0.0230
 2053.5000   -69.6340     6.3540     6.0830     7.3690   111.3260     8.7640     2.5080     0.0180
 2054.0000   -69.6170     6.3450     5.9700     7.1620   108.9960     8.7700     2.4970     0.0140
 2054.5000   -69.6010     6.3330     5.9370     7.5570   106.7210     8.7750     2.5030     0.0170
 2055.0000   -69.5840     6.3200     5.9070     7.8610   107.2410     8.7780     2.5080     0.0170
 2055.5000   -69.5670     6.3080     5.8860     8.2230   109.3510     8.7780     2.4960     0.0180
 2056.0000   -69.5510     6.2950     5.7950     7.4310   110.1810     8.7780     2.5020     0.0180
 2056.5000   -69.5440     6.2540     5.8550     7.7030   104.6250     8.7780     2.5120     0.0110
 2057.0000   -69.5670     6.2010     5.9020     8.0730   100.0420     8.7780     2.5210     0.0130
 2057.5000   -69.6080     6.1490     5.8240     7.7030    99.2510     8.7780     2.5160     0.0010
 2058.0000   -69.6490     6.0960     5.7950     7.4310    96.6530     8.7780     2.5240    -0.0080
 2058.5000   -69.6900     6.0680     5.7730     7.5690    95.5380     8.7780     2.5370     0.0160
 2059.0000   -69.7310     6.1130     5.7420     7.0960    96.7250     8.7780     2.5360     0.0100
 2059.5000   -69.7720     6.1760     5.7420     7.4100    97.8910     8.7780     2.5340     0.0050
 2060.0000   -69.8130     6.0740     5.6430     7.3400   101.4390     8.7780     2.5400     0.0090
 2060.5000   -69.8540     5.8640     5.5210     7.0960   105.5620     8.7780     2.5490     0.0110
 2061.0000   -69.8960     5.6890     5.3990     7.2000   109.7080     8.7780     2.5430     0.0080
 2061.5000   -69.9400     5.6370     5.2760     7.2950   112.3100     8.7780     2.5300     0.0140
 2062.0000   -69.8600     5.5850     5.1880     7.0310   113.2350     8.7780     2.5120     0.0100
 2062.5000   -69.7440     5.5420     5.2260     6.7770   116.4590     8.7780     2.5180     0.0150
