~VERSION INFORMATION
 VERS.                2.0:   CWLS LOG ASCII STANDARD - VERSION 2.0
 WRAP.                 NO:   ONE LINE PER DEPTH STEP
~WELL INFORMATION
#MNEM.UNIT      DATA TYPE    INFORMATION
#----------   ------------   ------------------------------
 STRT.F          216.0000:   START DEPTH
 STOP.F         3184.0000:   STOP DEPTH
 STEP.F            0.5000:   STEP LENGTH
 NULL.          -999.2500:   NO VALUE
 COMP.    FENIX & SCISSON:   COMPANY
 WELL. FENIX & SCISSON INCNRP "A" #311-14:   WELL
 FLD .                NPR:   FIELD
 LOC .      S14 T38N R78W:   LOCATION
 CNTY.            NATRONA:   COUNTY
 STAT.            WYOMING:   STATE
 CTRY. UNITED STATES OF AMERICA:   COUNTRY
 SRVC.              WELEX:   SERVICE COMPANY
 DATE.        22-JUN-1977:   LOGDATE
 API .     49025103810000:   API NUMBER
~CURVE INFORMATION
#MNEM.UNIT       API CODE    CURVE DESCRIPTION
#----------   ------------   ------------------------------
 DEPT.F                  :   
 CALD.IN     45 280 60 00:   CALIPER FROM DENSITY LOG
 GRD .GAPI   45 310 01 00:   GAMMA RAY FROM DENSITY LOG
 DPHI.DEC    45 890 12 00:   DENSITY POROSITY SANDSTONE
 RHOB.G/C3   45 350 01 00:   BULK DENSITY
 CORR.G/C3   45 356 01 00:   DENSITY CORRECTION
 SPR .MV     07 010 01 00:   SPONTANEOUS POTENTIAL
 SFLU.OHMM   07 220 01 00:   SPHERICALLY FOCUSED LOG UNAVERAGED RESISTIVITY
 ILD .OHMM   07 120 46 00:   DEEP INDUCTION RESISTIVITY
 ILM .OHMM   07 120 44 00:   INDUCTION LOG MEDIUM RESISTIVITY
~PARAMETER INFORMATION
#MNEM.UNIT          VALUE    DESCRIPTION
#----------   ------------   ------------------------------
 EKB .F         5225.0000:   Kelly bushing
 EGL .F         5215.0000:   Ground level
 TD  .F         3183.0000:   Total depth
 DATE.        22-JUN-1977:   Date logged
 CLNT.            A2DTECH:   Client Code
 CTRY.                USA:   Country
 SL  . 330' FNL & 330' FWL:   Surface Location
 PD  .                 GL:   Permanent Datum
 EPD .F              5215:   Elevation Permanent Datum
 LMF .                 KB:   Log Measured From
 DMF .                 KB:   Drilling Measured From
 DAPD.F                10:   Feet Above Permanent Datum
 DD  .F              3178:   Depth driller
 DL  .F              3183:   Depth logger
 BLI .F              3181:   Bottom log interval
 TLI .F                20:   Top log interval
 CS1 .IN            8.625:   Casing size
 CBD1.      8.625" @ 217':   Casing driller 1
 BS1 .IN            7.875:   Bit size
 BSD1.F              3178:   Depth drilled with bit1
 DFT .            KCL MUD:   Type fluid in hole
 DFD .                9.5:   Density
 DFV .                 40:   Viscosity
 DFPH.                7.5:   pH
 DFL .               13.6:   Fluid loss
 MSS .           FLOWLINE:   Source of sample
 RMS .OHMM            .36:   Rm
 MST .F                80:   Rm Meas. temp.
 RMF .OHMM            .30:   Rmf
 MFST.F                80:   Rmf Meas. temp.
 RMC .OHMM            .86:   Rmc
 MCST.F                80:   Rmc Meas. temp.
 MFSS.               FANN:   Source Rmf.
 MCSS.                KIT:   Source Rmc.
 RMB .OHMM            .25:   Rm. at BHT
 BHT .F               114:   BHT.
 TCS .HRS             2.5:   Time Circ. stopped
 MRT .F               114:   Maximum recorded temp.
 LUN .               8766:   Logging unit number
 LUL .             CASPER:   Logging unit location
 ENGI.          T. TOYNER:   Recorded By
 WITN.      B. HARRINGTON:   Witnessed by
 PWI .                  -:   Primary Well Identifier
 ORIG.           5" PRINT:   Origin of data
 UWI .     49025103810000:   Unique Well ID
 DICO. A2D TECHNOLOGIES, INC.:   Digitizing Company
~OTHER INFORMATION
~A   DEPT       CALD       GRD        DPHI       RHOB       CORR      SPR         SFLU      ILD        ILM   
# ...
 3136.0000     7.8083    76.9968     0.1429     2.4147     0.0247   -51.1526     7.3805     5.1531     5.2868
 3136.5000     7.7884    78.9854     0.1373     2.4177     0.0207   -51.1567     7.6562     5.1055     5.1893
 3137.0000     7.7487    80.5762     0.1333     2.4277     0.0207   -50.9622     6.7913     5.0115     5.2365
 3137.5000     7.7885    81.7702     0.1257     2.4357     0.0188   -50.9662     4.8740     5.0105     5.3332
 3138.0000     7.7885    83.3614     0.1229     2.4437     0.0208   -51.5656     5.3927     5.0097     5.4819
 3138.5000     7.8084    84.9528     0.1217     2.4467     0.0188   -51.1727     6.0221     5.1020     5.5319
 3139.0000     7.8283    85.7494     0.1209     2.4507     0.0168   -50.9783     6.4814     5.2926     5.5820
 3139.5000     7.8284    86.9434     0.1209     2.4517     0.0188   -51.1808     7.0403     5.4903     5.6328
 3140.0000     7.8284    88.1376     0.1209     2.4537     0.0189   -50.9863     7.1043     5.6954     5.6319
 3140.5000     7.8086    90.5242     0.1205     2.4538     0.0229   -51.9834     6.9735     5.8003     5.6832
 3141.0000     7.8086    91.7184     0.1189     2.4538     0.0209   -52.1859     7.1677     5.8530     5.5271
 3141.5000     7.8087    91.7202     0.1149     2.4658     0.0209   -52.1899     7.7858     5.7984     5.5262
 3142.0000     7.8087    91.7220     0.1125     2.4698     0.0229   -51.7970     7.5030     5.5878     5.3745
 3142.5000     7.8087    92.1214     0.1089     2.4818     0.0270   -52.3963     7.2305     5.4350     5.1789
 3143.0000     7.8088    92.1232     0.1061     2.4918     0.0310   -52.2027     6.7780     5.2372     5.0367
 3143.5000     7.8088    94.1126     0.1037     2.5048     0.0330   -52.4043     6.2376     5.0007     4.8984
 3144.0000     7.8088    98.8848     0.1009     2.5118     0.0370   -51.8130     5.9560     4.9091     4.7201
 3144.5000     7.8089   100.4768     0.1009     2.5118     0.0370   -52.4123     5.7396     4.6870     4.5065
 3145.0000     7.8089   101.2740     0.1017     2.4988     0.0350   -52.6148     5.8994     4.5167     4.3026
 3145.5000     7.7891   101.6736     0.1033     2.4968     0.0330   -52.6188     5.5304     4.3930     4.1080
 3146.0000     7.8090   102.0726     0.1065     2.4928     0.0331   -51.8291     5.1841     4.2726     3.8857
 3146.5000     7.8090   104.8576     0.1069     2.4858     0.0331   -52.6267     4.7710     4.0795     3.7098
 3147.0000     7.8090   106.0524     0.1077     2.4839     0.0331   -52.8292     4.3907     4.0045     3.5747
 3147.5000     7.8091   106.8498     0.1085     2.4809     0.0291   -53.0316     4.3899     3.9307     3.5741
 3148.0000     7.8091   106.8518     0.1104     2.4709     0.0232   -53.2340     4.4298     3.8940     3.5735
 3148.5000     7.8092   106.8540     0.1116     2.4719     0.0252   -53.0396     4.1910     3.8934     3.5729
 3149.0000     7.8092   107.2538     0.1104     2.4739     0.0232   -53.2420     4.3077     3.8570     3.6057
 3149.5000     7.8092   107.6534     0.1064     2.4809     0.0252   -53.2460     4.5938     3.8564     3.6049
 3150.0000     7.8093   105.6676     0.1040     2.4849     0.0252   -53.4491     4.8095     3.8558     3.6377
 3150.5000     7.8093   107.5434     0.1064     2.4780     0.0253   -53.4531     4.8087     3.8551     3.6372
 3151.0000     7.8093   107.6558     0.1096     2.4759     0.0233   -53.2587     4.7638     3.8902     3.6366
 3151.5000     7.8093   108.0534     0.1108     2.4720     0.0213   -53.4611     4.6333     3.8895     3.6697
 3152.0000     7.8093   108.8488     0.1104     2.4730     0.0193   -53.4651     4.5901     3.9249     3.6691
 3152.5000     7.8093   109.2464     0.1064     2.4770     0.0193   -53.2707     4.7615     3.9242     3.7028
 3153.0000     7.8093   108.4510     0.1052     2.4840     0.0193   -53.0763     4.8048     3.9965     3.7019
 3153.5000     7.8093   108.4510     0.1060     2.4770     0.0153   -53.0803     4.7600     3.9959     3.7013
 3154.0000     7.8093   107.6558     0.1116     2.4600     0.0093   -53.2827     4.6295     3.9952     3.7697
 3154.5000     7.8291   108.0534     0.1192     2.4560     0.0073   -53.0883     4.6716     4.0688     3.8040
 3155.0000     7.7894   108.8488     0.1184     2.4580     0.0073   -53.0923     4.7140     4.0682     3.8387
 3155.5000     7.8291   109.6440     0.1136     2.4600     0.0073   -53.0963     4.7568     4.1051     3.8380
 3156.0000     7.8291   110.8368     0.1200     2.4551     0.0093   -53.1003     4.7561     4.1424     3.8730
 3156.5000     7.8093   111.6320     0.1208     2.4531     0.0133   -53.1042     4.6685     4.1038     3.8724
 3157.0000     7.8093   111.6320     0.1184     2.4551     0.0173   -52.9099     4.5826     4.1415     3.8362
 3157.5000     7.8093   111.6320     0.1156     2.4631     0.0214   -53.1122     4.4570     4.0276     3.8712
 3158.0000     7.8093   112.0296     0.1128     2.4741     0.0234   -52.9179     4.4562     4.0642     3.8704
 3158.5000     7.8291   112.0296     0.1040     2.4851     0.0254   -52.9219     4.4967     4.0263     3.8342
 3159.0000     7.8291   111.2344     0.1000     2.4921     0.0254   -52.9259     4.5376     3.9888     3.8230
 3159.5000     7.8093   110.8368     0.0968     2.4971     0.0294   -52.7315     4.5788     3.9879     3.7977
 3160.0000     7.8093   110.8368     0.0952     2.4991     0.0314   -52.7355     4.7063     3.9874     3.7972
 3160.5000     7.8093   107.2582     0.0936     2.4991     0.0414   -52.7395     4.6624     3.9869     3.7634
 3161.0000     7.8291   107.6558     0.0912     2.5021     0.0414   -52.3468     4.5766     3.9494     3.7299
 3161.5000     7.8093   105.2702     0.0924     2.5021     0.0414   -52.1525     4.1731     3.9489     3.6967
 3162.0000     7.8093   103.2822     0.0952     2.5001     0.0414   -51.9581     4.3691     3.9847     3.6638
 3162.5000     7.8291   103.2822     0.1024     2.4931     0.0374   -51.9646     4.4907     3.9398     3.6312
 3163.0000     7.8291   101.2940     0.1059     2.4911     0.0314   -52.9586     4.7451     3.9253     3.5989
 3163.5000     7.7695    98.5108     0.1107     2.4761     0.0274   -52.9626     4.7882     3.9108     3.5669
 3164.0000     7.6701    93.7394     0.1139     2.4702     0.0234   -52.9666     4.6569     3.8964     3.5351
 3164.5000     7.7099    85.7870     0.1143     2.4662     0.0214   -52.7723     4.5712     3.8821     3.5037
 3165.0000     7.7496    82.2086     0.1123     2.4702     0.0194   -52.9746     4.6127     3.8677     3.4725
 3165.5000     7.7496    69.0872     0.1135     2.4672     0.0155   -52.7803     4.6547     3.8535     3.4416
 3166.0000     7.7894    61.9302     0.1163     2.4622     0.0155   -52.9826     4.3634     3.8353     3.4110
 3166.5000     7.7496    39.6638     0.1167     2.4652     0.0155   -52.9866     4.1666     3.7649     3.3604
 3167.0000     7.7496  -999.2500     0.1139     2.4652     0.0155   -52.9905     3.9782     3.6618     3.2379
 3167.5000     7.7297  -999.2500     0.1047     2.4852     0.0155   -52.9945     3.8691     3.5947     3.1199
 3168.0000     7.7496  -999.2500     0.1091     2.4742     0.0155   -52.8002     3.8331     3.4958     3.0062
 3168.5000     7.8093  -999.2500     0.1123     2.4782     0.0155   -52.8042     3.8324     3.4315     2.9507
 3169.0000     7.8093  -999.2500     0.1019     2.4902     0.0175   -52.8082     3.7967     3.2464     2.9504
 3169.5000     7.8093  -999.2500     0.0983     2.5002     0.0255   -52.6139     3.7613     3.2458     2.9771
 3170.0000     7.7496  -999.2500     0.0987     2.5002     0.0295   -52.6179     3.7262     3.1861     2.9766
 3170.5000     7.8093  -999.2500     0.0991     2.4912     0.0315   -52.4244     3.6239     3.1856     2.9762
 3171.0000     7.8093  -999.2500     0.1015     2.4883     0.0315   -53.0225     3.6907     3.2145     3.0032
 3171.5000     7.8291  -999.2500     0.1023     2.4873     0.0275   -52.4316     3.8287     3.2437     3.0306
 3172.0000     7.8888  -999.2500     0.1023     2.4883     0.0275   -52.4356     3.8633     3.2732     3.1734
