~VERSION INFORMATION
 VERS.                2.0:   CWLS LOG ASCII STANDARD - VERSION 2.0
 WRAP.                 NO:   ONE LINE PER DEPTH STEP
~WELL INFORMATION
#MNEM.UNIT      DATA TYPE    INFORMATION
#----------   ------------   ------------------------------
 STRT.F          742.0000:   START DEPTH
 STOP.F         3406.0000:   STOP DEPTH
 STEP.F            0.5000:   STEP LENGTH
 NULL.          -999.2500:   NO VALUE
 COMP. FENIX & SCISSON - US NAVY:   COMPANY
 WELL.   FENIX "AX" #85-4:   WELL
 FLD .      NPR - WILDCAT:   FIELD
 LOC .       S4 T38N R78W:   LOCATION
 CNTY.            NATRONA:   COUNTY
 STAT.            WYOMING:   STATE
 CTRY. UNITED STATES OF AMERICA:   COUNTRY
 SRVC.              WELEX:   SERVICE COMPANY
 DATE.        03-MAY-1977:   LOGDATE
 API .     49025103520000:   API NUMBER
~CURVE INFORMATION
#MNEM.UNIT       API CODE    CURVE DESCRIPTION
#----------   ------------   ------------------------------
 DEPT.F                  :   
 SNP .DEC    41 890 00 00:   SIDEWALL NEUTRON POROSITY
 GR  .GAPI   30 310 01 00:   GAMMA RAY
 SPR .MV     07 010 01 00:   SPONTANEOUS POTENTIAL
 RXO .OHMM   11 220 01 00:   FLUSHED ZONE RESISTIVITY
 GURD.OHMM   07 220 05 00:   GUARD LOG RESISTIVITY
 CALD.IN     45 280 60 00:   CALIPER FROM DENSITY LOG
 RHOB.G/C3   45 350 01 00:   BULK DENSITY
 GRD .GAPI   45 310 01 00:   GAMMA RAY FROM DENSITY LOG
 CORR.G/C3   45 356 01 00:   DENSITY CORRECTION
~PARAMETER INFORMATION
#MNEM.UNIT          VALUE    DESCRIPTION
#----------   ------------   ------------------------------
 EKB .F         5254.0000:   Kelly bushing
 EGL .F         5240.0000:   Ground level
 EDF .F            0.0000:   Drilling floor
 TD  .F         3467.0000:   Total depth
 DATE.        03-MAY-1977:   Date logged
 CLNT.            A2DTECH:   Client Code
 SL  . 2200' FSL & 100' FEL:   Surface Location
 PD  .                 GL:   Permanent Datum
 EPD .F              5240:   Elevation Permanent Datum
 LMF .                 KB:   Log Measured From
 DMF .                 KB:   Drilling Measured From
 DAPD.F                14:   Feet Above Permanent Datum
 DD  .F              3647:   Depth driller
 DL  .F              3404:   Depth logger
 BLI .F              3402:   Bottom log interval
 TLI .F               720:   Top log interval
 CS1 .IN            8.625:   Casing size
 CBD1.      8.625" @ 720':   Casing driller 1
 CBL1.F               760:   Casing logger 1
 BS1 .IN            7.875:   Bit size
 BSD1.F              3467:   Depth drilled with bit1
 DFT .            KCL/MUD:   Type fluid in hole
 DFD .                9.1:   Density
 DFV .                 36:   Viscosity
 DFPH.                  8:   pH
 DFL .                  5:   Fluid loss
 MSS .           FLOWLINE:   Source of sample
 RMS .OHMM            .30:   Rm
 MST .F                66:   Rm Meas. temp.
 RMF .OHMM            .21:   Rmf
 MFST.F                66:   Rmf Meas. temp.
 RMC .OHMM            .49:   Rmc
 MCST.F                66:   Rmc Meas. temp.
 MFSS.               FANN:   Source Rmf.
 MCSS.                KIT:   Source Rmc.
 RMB .OHMM            .18:   Rm. at BHT
 BHT .F               107:   BHT.
 TCS .HRS             2.5:   Time Circ. stopped
 MRT .F               107:   Maximum recorded temp.
 LUN .               8611:   Logging unit number
 LUL .             CASPER:   Logging unit location
 ENGI.            C. DOAK:   Recorded By
 WITN.      B. HARRINGTON:   Witnessed by
 ORIG.     2.5", 5" PRINT:   Origin of data
 UWI .     49025103520000:   Unique Well ID
 DICO. A2D TECHNOLOGIES, INC.:   Digitizing Company
~OTHER INFORMATION
~A   DEPT        SNP       GR        SPR        RXO       GURD         CALD       RHOB       GRD       CORR  
# ...
 2494.0000     0.1860   132.9970   -45.1180     5.3100     4.1930     8.7230     2.5310   103.4950     0.0090
 2494.5000     0.1930   134.5850   -45.1160     4.9380     4.0430     8.7350     2.5370   102.9370     0.0090
 2495.0000     0.1890   133.1370   -45.1180     5.0790     4.1930     8.7250     2.5430   102.4170     0.0090
 2495.5000     0.1820   130.9590   -45.1170     5.4070     4.1930     8.7170     2.5450   101.8730     0.0060
 2496.0000     0.1790   130.3960   -45.1170     4.8490     3.8290     8.7080     2.5370   101.3030     0.0040
 2496.5000     0.1790   131.6360   -45.1170     5.0030     4.0470     8.6990     2.5290   100.7480     0.0010
 2497.0000     0.1820   132.6770   -45.1170     5.3100     4.1550     8.6910     2.5250   100.2080     0.0050
 2497.5000     0.1860   129.3350   -45.1170     5.0990     3.6130     8.6820     2.5300    99.5410     0.0090
 2498.0000     0.1900   127.8750   -45.1170     4.6760     3.7700     8.6730     2.5350    99.9160     0.0120
 2498.5000     0.1940   131.4640   -45.1170     4.9530     4.1180     8.6640     2.5400   100.7690     0.0160
 2499.0000     0.1890   135.2640   -45.1170     5.5060     4.1180     8.6550     2.5430   101.4900     0.0190
 2499.5000     0.1840   136.2670   -45.1180     5.3750     4.1390     8.6460     2.5450   102.2520     0.0230
 2500.0000     0.1900   134.1490   -45.1160     5.3100     4.1660     8.6380     2.5480   102.9940     0.0270
 2500.5000     0.1850   139.5790   -45.1190     6.0300     4.1930     8.6290     2.5500   103.6000     0.0270
 2501.0000     0.1910   135.3840   -45.1200     5.5750     4.1930     8.6200     2.5490   102.5780     0.0200
 2501.5000     0.2000   132.3360   -45.2590     5.5060     4.1930     8.6180     2.5390   101.5540     0.0140
 2502.0000     0.2100   132.2920   -45.4450     5.7100     3.9070     8.6180     2.5310   102.9720     0.0080
 2502.5000     0.2200   130.6210   -45.6320     4.7110     3.5470     8.6180     2.5210   104.5010     0.0020
 2503.0000     0.2140   126.0300   -45.8150     4.1930     3.2510     8.6180     2.5200   106.1480    -0.0030
 2503.5000     0.2080   124.9260   -45.9980     4.1930     3.2510     8.6180     2.5240   106.4790    -0.0020
 2504.0000     0.2040   128.9340   -46.1910     4.1930     3.2670     8.6180     2.5280   106.5520    -0.0010
 2504.5000     0.2060   131.4550   -46.3580     4.3640     3.2840     8.6180     2.5300   106.2350     0.0010
 2505.0000     0.2100   130.6490   -46.5660     4.4750     3.3000     8.6180     2.5300   107.3270     0.0020
 2505.5000     0.2120   133.0620   -46.7670     4.4100     3.3110     8.6180     2.5250   108.5660     0.0040
 2506.0000     0.2060   132.1500   -47.1060     4.2780     3.2510     8.6180     2.5150   109.6360     0.0050
 2506.5000     0.2130   123.1240   -47.0540     4.1930     3.2180     8.6180     2.5090   109.7940     0.0070
 2507.0000     0.2190   121.6220   -47.0780     4.1930     3.1930     8.6180     2.5110   109.9600     0.0090
 2507.5000     0.2250   122.9250   -47.1040     4.1930     3.1350     8.6180     2.5110   110.0440     0.0080
 2508.0000     0.2310   122.5170   -47.1310     3.9750     2.9050     8.6180     2.5040   110.0530     0.0060
 2508.5000     0.2310   120.6810   -47.1650     3.5700     2.4760     8.6180     2.4910   109.9710     0.0050
 2509.0000     0.2270   118.8610   -47.1940     3.1660     2.1020     8.6180     2.4810   110.7340     0.0040
 2509.5000     0.2150   117.0440   -47.2240     2.5680     2.2430     8.6180     2.4850   112.1590     0.0020
 2510.0000     0.2030   115.3270   -47.2550     3.1460     2.6740     8.6180     2.4910   113.5670     0.0010
 2510.5000     0.2050   115.5490   -47.2850     4.3480     3.0240     8.6180     2.4980   112.4150     0.0070
 2511.0000     0.2080   117.0770   -47.3150     4.2230     3.0240     8.6180     2.5040   110.0120     0.0110
 2511.5000     0.1950   119.9560   -47.3460     3.9790     2.8500     8.6180     2.5080   107.7610     0.0160
 2512.0000     0.2000   119.5010   -47.3760     3.7600     2.6930     8.6180     2.5010   105.8660     0.0110
 2512.5000     0.1970   119.2310   -47.4060     3.5520     2.5210     8.6180     2.4940   107.0030     0.0040
 2513.0000     0.1890   121.0970   -47.4370     3.3720     2.8220     8.6180     2.4900   107.9650     0.0010
 2513.5000     0.1800   123.4020   -47.4600     4.5090     3.1930     8.6180     2.4970   109.0640     0.0040
 2514.0000     0.1730   126.5760   -47.4610     3.8780     2.9570     8.6180     2.5030   107.2090     0.0060
 2514.5000     0.1810   129.8330   -47.4630     3.3720     2.6630     8.6180     2.5080   104.6910     0.0080
 2515.0000     0.1900   131.8990   -47.4800     3.6060     2.7110     8.6180     2.5100   105.1310     0.0090
 2515.5000     0.1870   132.1470   -47.4950     4.3480     2.8500     8.6180     2.5080   106.4830     0.0090
 2516.0000     0.1900   133.9490   -47.5110     4.2190     2.9690     8.6180     2.5060   107.8930     0.0080
 2516.5000     0.1980   136.3630   -47.5270     3.9470     2.7110     8.6180     2.5100   109.1470     0.0080
 2517.0000     0.2010   136.9540   -47.5430     3.6920     2.7610     8.6180     2.5140   110.2910     0.0080
 2517.5000     0.1930   135.8530   -47.5590     4.1180     2.8300     8.6180     2.5160   108.9000     0.0070
 2518.0000     0.1870   134.8920   -47.5750     3.9530     2.9330     8.6180     2.5180   107.5400     0.0070
 2518.5000     0.1910   133.2540   -47.5910     3.7600     2.9690     8.6180     2.5160   106.8170     0.0070
 2519.0000     0.1950   132.9720   -47.6070     4.0430     2.7990     8.6180     2.5110   108.0680     0.0060
 2519.5000     0.2000   134.3460   -47.6220     3.4970     2.5680     8.6180     2.5060   109.4680     0.0060
 2520.0000     0.1950   135.9340   -47.6380     3.7010     2.8070     8.6180     2.5000   109.3350     0.0060
 2520.5000     0.1930   135.2790   -47.6540     4.4280     3.0070     8.6180     2.4950   107.4170     0.0050
 2521.0000     0.1960   132.6430   -47.6700     4.3330     2.9130     8.6180     2.4950   105.9030     0.0050
 2521.5000     0.1980   133.1690   -47.6860     4.1130     2.7110     8.6180     2.5010   106.9460     0.0070
 2522.0000     0.2010   134.4520   -47.7020     3.8990     2.9890     8.6180     2.5080   107.9020     0.0090
 2522.5000     0.1960   134.9180   -47.7180     4.4840     3.7600     8.6180     2.5100   107.0910     0.0110
 2523.0000     0.1850   133.9650   -47.7340     5.4070     3.7600     8.6180     2.5120   106.0680     0.0130
 2523.5000     0.1940   131.6910   -47.7490     5.1210     3.6260     8.6180     2.5190   105.1250     0.0150
 2524.0000     0.1920   129.3110   -47.7660     4.7770     3.3480     8.6180     2.5210   104.3400     0.0170
 2524.5000     0.1900   130.1690   -47.7810     4.3540     3.0050     8.6180     2.5110   106.5190     0.0170
 2525.0000     0.1930   130.4680   -47.7980     3.9310     2.6630     8.6180     2.5010   108.8560     0.0170
 2525.5000     0.1960   129.7570   -47.8130     3.5080     2.3880     8.6180     2.4950   111.2000     0.0170
 2526.0000     0.1930   132.2200   -47.8270     3.2510     2.1020     8.6180     2.4900   113.3960     0.0150
 2526.5000     0.1870   137.0520   -47.8520     3.1510     2.9690     8.6180     2.4870   112.6850     0.0120
 2527.0000     0.1960   141.9000   -47.7820     3.3110     2.7110     8.6180     2.4920   111.9300     0.0090
 2527.5000     0.2080   142.3460   -47.6370     4.3480     2.9160     8.6180     2.4970   111.0380     0.0060
 2528.0000     0.2100   135.0050   -47.5020     4.1150     2.7560     8.6180     2.5020   111.9960     0.0060
 2528.5000     0.2050   133.5010   -47.3680     3.4990     2.0650     8.6180     2.5090   113.5940     0.0080
 2529.0000     0.1990   138.2810   -47.2310     2.6150     2.1020     8.6180     2.5170   113.5450     0.0100
 2529.5000     0.1870   141.5200   -47.0960     3.0430     2.3960     8.6180     2.5260   112.9070     0.0120
 2530.0000     0.1900   140.8280   -46.9600     3.8290     2.7110     8.6180     2.5280   111.1270     0.0130
