~VERSION INFORMATION
 VERS.                2.0:   CWLS LOG ASCII STANDARD - VERSION 2.0
 WRAP.                 NO:   ONE LINE PER DEPTH STEP
~WELL INFORMATION
#MNEM.UNIT      DATA TYPE    INFORMATION
#----------   ------------   ------------------------------
 STRT.F           36.0000:   START DEPTH
 STOP.F         3488.0000:   STOP DEPTH
 STEP.F            0.5000:   STEP LENGTH
 NULL.          -999.2500:   NO VALUE
 COMP. LAWRENCE - ALLISON  & ASSOCIATE:   COMPANY
 WELL. LAWRENCE "STX" #76-23:   WELL
 FLD .              NPR 3:   FIELD
 LOC .      S23 T38N R78W:   LOCATION
 CNTY.            NATRONA:   COUNTY
 STAT.            WYOMING:   STATE
 CTRY. UNITED STATES OF AMERICA:   COUNTRY
 SRVC.       SCHLUMBERGER:   SERVICE COMPANY
 DATE.        07-MAY-1982:   LOGDATE
 API .     49025108920000:   API NUMBER
~CURVE INFORMATION
#MNEM.UNIT       API CODE    CURVE DESCRIPTION
#----------   ------------   ------------------------------
 DEPT.F                  :   
 CORR.G/C3   45 356 01 00:   DENSITY CORRECTION
 CALD.IN     45 280 60 00:   CALIPER FROM DENSITY LOG
 GRD .GAPI   45 310 01 00:   GAMMA RAY FROM DENSITY LOG
 RHOB.G/C3   45 350 01 00:   BULK DENSITY
 SFL .OHMM   07 220 01 00:   SHALLOW FOCUSED LOG RESISTIVITY
 ILD .OHMM   07 120 46 00:   DEEP INDUCTION RESISTIVITY
 ILM .OHMM   07 120 44 00:   INDUCTION LOG MEDIUM RESISTIVITY
 TENR.LBS    07 635 01 00:   TENSION
 SPR .MV     07 010 01 00:   SPONTANEOUS POTENTIAL
 NPHI.DEC    42 890 03 00:   NEUTRON POROSITY SANDSTONE
 TEND.LBS    45 635 01 00:   TENSION FROM DENSITY LOG
~PARAMETER INFORMATION
#MNEM.UNIT          VALUE    DESCRIPTION
#----------   ------------   ------------------------------
 EKB .F         5441.0000:   Kelly bushing
 EGL .F         5431.0000:   Ground level
 EDF .F            0.0000:   Drilling floor
 EPD .F            0.0000:   Permanent datum
 TD  .F         3788.0000:   Total depth
 DATE.        07-MAY-1982:   Date logged
 CLNT.            A2DTECH:   Client Code
 SL  . 1327' FSL & 1190' FEL:   Surface Location
 PD  .                 GL:   Permanent Datum
 DAPD.F                10:   Feet Above Permanent Datum
 DD  .F              3788:   Depth driller
 DL  .F              3478:   Depth logger
 BLI .F              3471:   Bottom log interval
 TLI .F              1615:   Top log interval
 CS1 .IN            9.625:   Casing size
 CBD1.     9.625" @ 1603':   Casing driller 1
 CBL1.F              1615:   Casing logger 1
 BS1 .IN            7.875:   Bit size
 BSD1.F              3788:   Depth drilled with bit1
 DFT .                AIR:   Type fluid in hole
 TCS .HRS            1230:   Time Circ. stopped
 TLAB.HRS            1500:   Time logger at bottom
 MRT .F               125:   Maximum recorded temp.
 LUN .               8035:   Logging unit number
 LUL .               CSPR:   Logging unit location
 ENGI.              PENNY:   Recorded By
 WITN.    JENNINGS/STRONG:   Witnessed by
 ORIG.       2.5"5" PRINT:   Origin of data
 UWI .     49025108920000:   Unique Well ID
 DICO. A2D TECHNOLOGIES, INC.:   Digitizing Company
~OTHER INFORMATION
~A   DEPT       CORR     CALD        GRD         RHOB      SFL        ILD        ILM       TENR        SPR        NPHI      TEND   
# ...
  249.5000     0.0170    12.5700    95.8570     2.4040     7.1360     8.9080     8.8320   471.9040   -24.9400     0.3190   910.0040
  250.0000     0.0100    12.5690    95.5040     2.4010     7.4690     8.8840     8.7050   471.3570   -24.7260     0.3230   908.5180
  250.5000     0.0020    12.5680    94.9990     2.4020     7.8040     8.8610     8.5770   470.8090   -24.5240     0.3280   907.0330
  251.0000     0.0020    12.5660    91.7480     2.4100     8.1400     8.8370     8.4500   470.2620   -24.6750     0.3190   905.5480
  251.5000     0.0040    12.5650    88.6180     2.4140     8.4760     8.8140     8.3220   469.7150   -24.8360     0.3100   904.0630
  252.0000     0.0060    12.5640    85.5190     2.4110     8.9170     8.7900     8.1950   469.1680   -25.0110     0.3050   902.5770
  252.5000     0.0110    12.5620    83.7110     2.4090     8.2160     8.7660     8.0670   468.6210   -25.1730     0.3080   901.0920
  253.0000     0.0170    12.5610    85.7080     2.4120     7.0050     8.7430     7.9770   468.0740   -25.3480     0.3210   899.6070
  253.5000     0.0360    12.5600    88.9790     2.4260     7.1360     8.7190     7.9500   467.5270   -25.5080     0.3340   898.1210
  254.0000     0.0540    12.5570    90.8440     2.4480     7.3900     8.6960     7.9210   466.9800   -25.6800     0.3450   896.6360
  254.5000     0.0650    12.5490    92.5020     2.4690     7.6190     8.6720     7.8910   466.4320   -25.5870     0.3380   895.1510
  255.0000     0.0500    12.5410    92.6410     2.4590     7.8470     8.6490     7.8620   465.8850   -25.4710     0.3300   893.6660
  255.5000     0.0370    12.5330    92.7890     2.4400     8.0760     8.6250     7.8320   465.3380   -25.3450     0.3230   892.1800
  256.0000     0.0240    12.5260    91.7200     2.4280     7.9380     8.6010     7.8030   464.7910   -25.2270     0.3430   911.5820
  256.5000     0.0210    12.5180    90.2600     2.4240     7.6960     8.5910     7.7730   464.2440   -25.1050     0.3520   911.5820
  257.0000     0.0200    12.5110    88.7850     2.4220     7.4540     8.5900     7.7440   463.7100   -24.9840     0.3450   911.5820
  257.5000     0.0190    12.5030    87.4340     2.4190     7.2700     8.5950     7.7140   504.8920   -24.8630     0.3340   911.5820
  258.0000     0.0170    12.4950    90.2900     2.4170     7.2700     8.5920     7.5450   506.2580   -24.7430     0.3230   911.5820
  258.5000     0.0120    12.4880    94.0810     2.4140     7.2700     8.2820     7.5750   507.6240   -24.6200     0.3120   911.5820
  259.0000     0.0060    12.4800    97.3060     2.4120     7.2700     8.3620     7.6880   508.9890   -24.4980     0.3110   911.5820
  259.5000     0.0030    12.4720    95.9520     2.4090     7.3640     8.4570     7.8010   510.3550   -24.3230     0.3160   911.5820
  260.0000     0.0080    12.4650    93.7970     2.4130     7.5000     8.5530     7.9140   511.7200   -24.1490     0.3210   911.5820
  260.5000     0.0200    12.4570    91.7890     2.4250     7.6360     8.6480     8.0270   513.0860   -23.9730     0.3250   911.5820
  261.0000     0.0310    12.4490    91.6130     2.4370     7.7720     8.7440     8.1400   514.4520   -23.7970     0.3280   911.5820
  261.5000     0.0350    12.4420    92.1630     2.4380     7.9080     8.8390     8.2530   515.8170   -23.6230     0.3350   911.5820
  262.0000     0.0340    12.4340    92.9790     2.4320     8.0440     8.9170     8.3650   517.1830   -23.4470     0.3410   911.5820
  262.5000     0.0240    12.4260    93.7200     2.4200     8.1260     8.9660     8.4340   518.5480   -23.2690     0.3450   911.5820
  263.0000     0.0170    12.4130    96.5700     2.4170     8.1060     9.0280     8.4340   519.9140   -23.1050     0.3390   911.5820
  263.5000     0.0150    12.3600    99.9960     2.4160     8.0120     9.0900     8.4340   521.2800   -22.9040     0.3320   911.5820
  264.0000     0.0120    12.1750   103.4030     2.4140     7.9180     9.1520     8.4340   522.6450   -23.0960     0.3280   911.5820
  264.5000     0.0100    11.9570   106.2850     2.4080     7.8300     9.2140     8.4340   524.0110   -23.5060     0.3330   911.5820
  265.0000     0.0110    11.8080   105.0990     2.4090     7.9390     9.2760     8.4340   525.3760   -23.8900     0.3380   911.5820
  265.5000     0.0120    11.7990   101.0110     2.4090     8.1010     9.3380     8.4340   526.7420   -24.2700     0.3390   911.5820
  266.0000     0.0140    11.7880    96.7240     2.4060     8.2640     9.4010     8.4830   528.1080   -24.6930     0.3390   911.5820
  266.5000     0.0160    11.7770    93.6560     2.3990     8.4260     9.4630     8.5520   529.4730   -24.8830     0.3390   911.5820
  267.0000     0.0170    11.7660    94.2720     2.3920     8.5880     9.5250     8.6220   530.8390   -24.7530     0.3370   911.5820
  267.5000     0.0210    11.7530    95.5980     2.3920     8.7510     9.5870     8.6910   532.2040   -24.6600     0.3290   911.5820
  268.0000     0.0250    11.6460    96.9450     2.3940     8.9170     9.6490     8.7610   533.5700   -24.5600     0.3220   911.5820
  268.5000     0.0310    11.5110    97.8650     2.4010     8.7530     9.7110     8.8300   534.9350   -24.4560     0.3150   911.5820
  269.0000     0.0380    11.3770    96.2670     2.4090     8.7950     9.7730     8.8990   536.3010   -24.3580     0.3080   911.5820
  269.5000     0.0340    11.2610    94.7110     2.4110     8.9170     9.8350     8.9690   537.6670   -24.2560     0.3080   911.5820
  270.0000     0.0270    11.2560    93.1610     2.4090     8.9940     9.8970     9.0380   539.0320   -24.1550     0.3090   911.5820
  270.5000     0.0140    11.2460    92.8730     2.4090     9.0860     9.9680     9.1080   540.3980   -24.0580     0.3090   911.5820
  271.0000     0.0070    11.2770    94.6840     2.4180     9.1790     9.9350     9.1770   541.7630   -23.9670     0.3090   911.5820
  271.5000     0.0120    11.3250    97.3420     2.4270     9.2720     9.8960     9.2540   543.1290   -23.8760     0.3100   911.5820
  272.0000     0.0160    11.4960    99.4870     2.4340     9.3640     9.8570     9.0840   544.3550   -23.7840     0.3120   911.5820
  272.5000     0.0210    11.6240    97.4860     2.4410     9.4280     9.8180     9.0840   544.3550   -23.6920     0.3140   911.5820
  273.0000     0.0250    11.9610    94.9150     2.4480     9.2540     9.7850     8.9670   544.3550   -23.6020     0.3140   937.4200
  273.5000     0.0290    12.3100    92.6250     2.4560     8.8460     9.4140     8.7440   544.3550   -23.5070     0.3140   962.2750
  274.0000     0.0290    12.6500    92.1990     2.4590     8.5230     9.0880     8.5210   544.3550   -23.4210     0.3150   987.1300
  274.5000     0.0280    12.7510    93.0030     2.4520     8.2010     8.7610     8.2980   544.3550   -23.3310     0.3150   984.5430
  275.0000     0.0260    12.7750    95.0570     2.4420     7.8780     8.4340     8.0760   544.3550   -23.5150     0.3150   976.2580
  275.5000     0.0240    12.7740    95.7120     2.4360     7.5560     8.1080     7.8530   544.0870   -23.7880     0.3200   967.9730
  276.0000     0.0220    12.7740    94.5570     2.4300     7.2330     7.7810     7.6300   543.7530   -24.0560     0.3270   959.6880
  276.5000     0.0200    12.7750    93.4370     2.4160     6.9110     7.4540     7.4080   543.4190   -24.3290     0.3370   951.4030
  277.0000     0.0160    12.7750    92.4030     2.4010     6.5890     7.1280     7.1850   543.0850   -24.5880     0.3410   943.1180
  277.5000     0.0100    12.7750    92.0440     2.3850     6.2660     6.8010     6.9620   542.7510   -24.8780     0.3450   934.8330
  278.0000     0.0120    12.7750    92.1200     2.3850     5.9690     6.4740     6.7390   542.4170   -24.8980     0.3590   931.2310
  278.5000     0.0210    12.7750    92.6330     2.3960     5.7330     5.9270     6.5170   542.0830   -24.9040     0.3710   931.2310
  279.0000     0.0250    12.7750    93.1420     2.4070     5.4970     5.9340     6.2940   541.7490   -24.8990     0.3720   931.2310
  279.5000     0.0210    12.7750    93.6510     2.4110     5.2610     5.9570     6.0710   541.4150   -24.8990     0.3770   931.2310
