~VERSION INFORMATION
 VERS.                2.0:   CWLS LOG ASCII STANDARD - VERSION 2.0
 WRAP.                 NO:   ONE LINE PER DEPTH STEP
~WELL INFORMATION
#MNEM.UNIT      DATA TYPE    INFORMATION
#----------   ------------   ------------------------------
 STRT.F          728.0000:   START DEPTH
 STOP.F         3296.0000:   STOP DEPTH
 STEP.F            0.5000:   STEP LENGTH
 NULL.          -999.2500:   NO VALUE
 COMP.    FENIX & SCISSON:   COMPANY
 WELL. FENIX TX "AX" #55-34:   WELL
 FLD . N. P. R. - WILDCAT:   FIELD
 LOC .      S34 T39N R78W:   LOCATION
 CNTY.            NATRONA:   COUNTY
 STAT.            WYOMING:   STATE
 CTRY. UNITED STATES OF AMERICA:   COUNTRY
 SRVC.       SCHLUMBERGER:   SERVICE COMPANY
 DATE.        22-JUL-1981:   LOGDATE
 API .     49025108770000:   API NUMBER
~CURVE INFORMATION
#MNEM.UNIT       API CODE    CURVE DESCRIPTION
#----------   ------------   ------------------------------
 DEPT.F                  :   
 TENS.LBS    60 635 01 00:   TENSION FROM SONIC LOG
 DT  .US/F   60 520 00 00:   DELTA TIME
 RHOB.G/C3   45 350 01 00:   BULK DENSITY
 TEND.LBS    45 635 01 00:   TENSION FROM DENSITY LOG
 CORR.G/C3   45 356 01 00:   DENSITY CORRECTION
 CALD.IN     45 280 60 00:   CALIPER FROM DENSITY LOG
 NPHI.DEC    42 890 03 00:   NEUTRON POROSITY SANDSTONE
 TENR.LBS    07 635 01 00:   TENSION FROM RESISTIVITY
 SPR .MV     07 010 01 00:   SPONTANEOUS POTENTIAL
 GRR .GAPI   07 310 01 00:   GAMMA RAY FROM RESISTIVITY
 SFL .OHMM   07 220 01 00:   SHALLOW FOCUSED LOG RESISTIVITY
 ILM .OHMM   07 120 44 00:   INDUCTION LOG MEDIUM RESISTIVITY
 ILD .OHMM   07 120 46 00:   DEEP INDUCTION RESISTIVITY
~PARAMETER INFORMATION
#MNEM.UNIT          VALUE    DESCRIPTION
#----------   ------------   ------------------------------
 EKB .F         5092.0000:   Kelly bushing
 EGL .F         5082.0000:   Ground level
 EDF .F            0.0000:   Drilling floor
 TD  .F         3170.0000:   Total depth
 DATE.        22-JUL-1981:   Date logged
 CLNT.            A2DTECH:   Client Code
 SL  . 2012' FSL & 2774' FWL:   Surface Location
 PD  .                 GL:   Permanent Datum
 EPD .F              5082:   Elevation Permanent Datum
 LMF .                 KB:   Log Measured From
 DMF .                 KB:   Drilling Measured From
 DAPD.F                10:   Feet Above Permanent Datum
 DD  .F              3170:   Depth driller
 DL  .F              3110:   Depth logger
 BLI .F              3104:   Bottom log interval
 TLI .F               753:   Top log interval
 CS1 .IN            9.625:   Casing size
 CBD1.      9.625" @ 751':   Casing driller 1
 CBL1.F               753:   Casing logger 1
 BS1 .IN            7.875:   Bit size
 BSD1.F              3170:   Depth drilled with bit1
 DFT .                FGM:   Type fluid in hole
 DFD .                  9:   Density
 DFV .                  9:   Viscosity
 DFPH.                9.8:   pH
 DFL .                8.6:   Fluid loss
 MSS .           MUD/TANK:   Source of sample
 RMS .OHMM           1.72:   Rm
 MST .F                72:   Rm Meas. temp.
 RMF .OHMM           1.17:   Rmf
 MFST.F                70:   Rmf Meas. temp.
 MFSS.               MEAS:   Source Rmf.
 RMB .OHMM           0.90:   Rm. at BHT
 BHT .F               144:   BHT.
 TCS .HRS            1215:   Time Circ. stopped
 TLAB.HRS            0400:   Time logger at bottom
 MRT .F               144:   Maximum recorded temp.
 LUN .               8035:   Logging unit number
 LUL .               CSPR:   Logging unit location
 ENGI.            PURPICH:   Recorded By
 WITN.           R. SCOTT:   Witnessed by
 ORIG.           5" PRINT:   Origin of data
 UWI .     49025108770000:   Unique Well ID
 DICO. A2D TECHNOLOGIES, INC.:   Digitizing Company
~OTHER INFORMATION
~A   DEPT     TENS         DT         RHOB      TEND      CORR       CALD         NPHI     TENR        SPR         GRR       SFL        ILM        ILD   
# ...
  910.0000  -999.2500  -999.2500     2.5280   748.9880     0.0140     8.1080     0.2920   416.7130   -69.5160   112.6320     8.4570     7.6200     8.0150
  910.5000  -999.2500  -999.2500     2.5340   748.9880     0.0150     8.1080     0.2790   416.9260   -69.6340   111.8320     8.6720     7.8900     8.3030
  911.0000  -999.2500  -999.2500     2.5320   748.9880     0.0160     8.1080     0.2820   417.1380   -69.7520   111.0600     8.8860     8.1770     8.7190
  911.5000  -999.2500  -999.2500     2.5250   748.9880     0.0110     8.1080     0.2890   417.3510   -69.8700   110.9120     9.1010     8.1560     8.7050
  912.0000  -999.2500  -999.2500     2.5250   748.9880     0.0060     8.1080     0.2940   417.5630   -69.9880   112.0560     9.1280     8.1350     8.6830
  912.5000  -999.2500  -999.2500     2.5290   748.9880     0.0030     8.1080     0.2880   417.7760   -70.0820   112.1010     9.0450     8.1150     8.6610
  913.0000  -999.2500  -999.2500     2.5330   748.9880     0.0110     8.1080     0.2820   417.9890   -70.0700   111.8380     9.0450     8.1020     8.6390
  913.5000  -999.2500  -999.2500     2.5280   748.9880     0.0160     8.1080     0.2760   418.2010   -69.9040   111.6430     9.1590     8.1020     8.6410
  914.0000  -999.2500  -999.2500     2.5190   748.9880     0.0130     8.1080     0.2740   418.4140   -69.7410   111.3150     9.2930     8.1770     8.6330
  914.5000  -999.2500  -999.2500     2.5150   748.9880     0.0100     8.1080     0.2780   418.6260   -69.5810   111.7490     9.4270     8.3090     8.7960
  915.0000  -999.2500  -999.2500     2.5190   748.9880     0.0060     8.1080     0.2840   418.8390   -69.4930   111.7680     9.5620     8.4590     8.9520
  915.5000  -999.2500  -999.2500     2.5230   748.9880     0.0050     8.1080     0.2920   419.0520   -69.4930   110.3000     9.6960     8.6100     9.1080
  916.0000  -999.2500  -999.2500     2.5230   748.9880     0.0050     8.1080     0.2890   419.2640   -69.4930   108.9020     9.8300     8.7600     9.2630
  916.5000  -999.2500  -999.2500     2.5230   748.9880     0.0060     8.1080     0.2820   419.4770   -69.4930   108.2300     9.9650     8.9100     9.4190
  917.0000  -999.2500  -999.2500     2.5280   748.9880     0.0130     8.1090     0.2760   419.6890   -69.4940   110.7780    10.0980     9.1280     9.5740
  917.5000  -999.2500  -999.2500     2.5340   748.9880     0.0210     8.1080     0.2700   419.9020   -69.4920   113.2680    10.0980     9.1020     9.6450
  918.0000  -999.2500  -999.2500     2.5260   748.9880     0.0230     8.1080     0.2740   420.1150   -69.4130   114.1950    10.0980     9.0550     9.5830
  918.5000  -999.2500  -999.2500     2.5150   748.9880     0.0170     8.0820     0.2780   420.3270   -69.1680   112.8580    10.0980     9.0070     9.5300
  919.0000  -999.2500  -999.2500     2.5060   748.9880     0.0090     8.0460     0.2810   420.5400   -68.9250   110.8030    10.0960     8.9600     9.4760
  919.5000  -999.2500  -999.2500     2.4950   748.9880     0.0030     8.0270     0.2880   420.7520   -68.6850   110.1200    10.1070     8.9120     9.4230
  920.0000  -999.2500  -999.2500     2.5050   749.8230     0.0030     8.0300     0.2930   420.9650   -68.5390   111.3250     9.9960     8.8640     9.3700
  920.5000  -999.2500  -999.2500     2.5210   750.6580     0.0090     8.0310     0.2950   421.1770   -68.6150   113.0020    10.0030     8.7990     9.3170
  921.0000  -999.2500  -999.2500     2.5330   751.4930     0.0170     8.0320     0.2910   421.3900   -68.6880   114.6760    10.0050     8.8810     9.2970
  921.5000  -999.2500  -999.2500     2.5440   752.3280     0.0250     8.0330     0.2890   421.6030   -68.7610   115.4150    10.0570     8.9620     9.3890
  922.0000  -999.2500  -999.2500     2.5570   753.1630     0.0320     8.0340     0.2910   421.8150   -68.8330   114.1760    10.1620     9.0630     9.5240
  922.5000  -999.2500  -999.2500     2.5550   753.9980     0.0340     8.0350     0.2910   422.0280   -68.9060   112.1270    10.2670     9.1750     9.6600
  923.0000  -999.2500  -999.2500     2.5450   754.8330     0.0310     8.0360     0.2890   422.2400   -68.9790   110.7310    10.3730     9.2860     9.7950
  923.5000  -999.2500  -999.2500     2.5330   755.6680     0.0210     8.0370     0.2850   422.4530   -69.0520   110.4610    10.4780     9.3970     9.9300
  924.0000  -999.2500  -999.2500     2.5330   756.5030     0.0120     8.0380     0.2800   422.6660   -69.1250   112.4970    10.5860     9.5080    10.0660
  924.5000  -999.2500  -999.2500     2.5410   757.3380     0.0090     8.0390     0.2820   422.8780   -69.1980   115.3410    10.6690     9.6190    10.2010
  925.0000  -999.2500  -999.2500     2.5460   758.1730     0.0140     8.0400     0.2840   423.0910   -69.2700   119.2760    10.6690     9.6450    10.2850
  925.5000  -999.2500  -999.2500     2.5380   759.0070     0.0190     8.0410     0.2830   423.3030   -69.3430   122.8500    10.6690     9.5600    10.2290
  926.0000  -999.2500  -999.2500     2.5290   759.8420     0.0180     8.0420     0.2810   423.5160   -69.4170   119.5360    10.5930     9.4760    10.1390
  926.5000  -999.2500  -999.2500     2.5200   760.6770     0.0160     8.0430     0.2790   423.7290   -69.4910   114.8310    10.4770     9.3910    10.0490
  927.0000  -999.2500  -999.2500     2.5270   761.5120     0.0190     8.0440     0.2770   423.9410   -69.5000   111.0770    10.3610     9.3070     9.9590
  927.5000  -999.2500  -999.2500     2.5340   762.3470     0.0220     8.0450     0.2770   424.1540   -69.2530   112.8250    10.2450     9.2220     9.8690
  928.0000  -999.2500  -999.2500     2.5390   763.1820     0.0170     8.0460     0.2810   424.3660   -68.9490   114.4420    10.1290     9.1380     9.7790
  928.5000  -999.2500  -999.2500     2.5420   764.0170     0.0100     8.0480     0.2860   424.5790   -68.6450   115.2030    10.0130     9.0530     9.6890
  929.0000  -999.2500  -999.2500     2.5450   764.8520     0.0070     8.0490     0.2910   424.7920   -68.3410   113.7650     9.8970     8.9690     9.5980
  929.5000  -999.2500  -999.2500     2.5470   765.6870     0.0250     8.0500     0.2880   425.0040   -68.0370   112.3760     9.7810     8.8850     9.5080
  930.0000  -999.2500  -999.2500     2.5440   766.5220     0.0360     8.0510     0.2750   425.2170   -67.7340   110.9770     9.6650     8.8000     9.4180
  930.5000  -999.2500  -999.2500     2.5290   767.3570     0.0270     8.0520     0.2780   425.4290   -67.4300   111.5180     9.6450     8.7160     9.3280
  931.0000  -999.2500  -999.2500     2.5150   768.1920     0.0160     8.0530     0.2850   425.6420   -67.1260   112.4590     9.6450     8.5610     9.2380
  931.5000  -999.2500  -999.2500     2.5070   769.0270     0.0050     8.0540     0.2910   425.8540   -66.8170   112.2970     9.6450     8.5610     9.1280
  932.0000  -999.2500  -999.2500     2.5110   769.8620     0.0070     8.0550     0.2910   426.0670   -66.7630   112.1350     9.5590     8.5570     9.1280
  932.5000  -999.2500  -999.2500     2.5260   770.6970     0.0160     8.0560     0.2860   426.2800   -66.7610   113.5010     9.4690     8.5350     9.1100
  933.0000  -999.2500  -999.2500     2.5340   771.5320     0.0280     8.0570     0.2820   426.4920   -66.8940   114.8710     9.3780     8.5130     9.0870
  933.5000  -999.2500  -999.2500     2.5310   772.3670     0.0260     8.0580     0.2770   426.7050   -67.0830   115.7570     9.2970     8.4920     9.0640
  934.0000  -999.2500  -999.2500     2.5260   773.2020     0.0230     8.0590     0.2750   426.9170   -67.1700   113.2750     9.3830     8.4700     9.0410
  934.5000  -999.2500  -999.2500     2.5300   774.0370     0.0190     8.0600     0.2780   427.1300   -67.1610   109.4550     9.4830     8.4490     9.0180
  935.0000  -999.2500  -999.2500     2.5360   774.8720     0.0230     8.0610     0.2840   427.3430   -67.5890   105.6350     9.5540     8.4270     8.9950
  935.5000  -999.2500  -999.2500     2.5390   775.7070     0.0270     8.0620     0.2870   427.5550   -68.0190   103.8930     9.6250     8.4050     8.9720
