~VERSION INFORMATION
 VERS.                2.0:   CWLS LOG ASCII STANDARD - VERSION 2.0
 WRAP.                 NO:   ONE LINE PER DEPTH STEP
~WELL INFORMATION
#MNEM.UNIT      DATA TYPE    INFORMATION
#----------   ------------   ------------------------------
 STRT.F          211.5000:   START DEPTH
 STOP.F         3103.0000:   STOP DEPTH
 STEP.F            0.5000:   STEP LENGTH
 NULL.          -999.2500:   NO VALUE
 COMP.    FENIX & SCISSON:   COMPANY
 WELL. FENIX NPR 3 "AX" #38-10:   WELL
 FLD .  TEAPOT DOME - NPR:   FIELD
 LOC .      S10 T38N R78W:   LOCATION
 CNTY.            NATRONA:   COUNTY
 STAT.            WYOMING:   STATE
 CTRY. UNITED STATES OF AMERICA:   COUNTRY
 SRVC.           BIRDWELL:   SERVICE COMPANY
 DATE.        01-JUL-1978:   LOGDATE
 API .     49025106550000:   API NUMBER
~CURVE INFORMATION
#MNEM.UNIT       API CODE    CURVE DESCRIPTION
#----------   ------------   ------------------------------
 DEPT.F                  :   
 CALD.IN     45 280 60 00:   CALIPER FROM DENSITY LOG
 GRD .GAPI   45 310 01 00:   GAMMA RAY FROM DENSITY LOG
 RHOB.G/C3   45 350 01 00:   BULK DENSITY
 CORR.G/C3   45 356 01 00:   DENSITY CORRECTION
 NPOR.DEC    42 890 03 00:   ALPHA PROCESSED NEUTRON POROSITY
 SPR .MV     05 010 01 00:   SPONTANEOUS POTENTIAL
 SN  .OHMM   05 040 00 00:   SHORT NORMAL
 ILD .OHMM   05 120 46 00:   DEEP INDUCTION RESISTIVITY
~PARAMETER INFORMATION
#MNEM.UNIT          VALUE    DESCRIPTION
#----------   ------------   ------------------------------
 EKB .F         5240.0000:   Kelly bushing
 EGL .F         5230.0000:   Ground level
 TD  .F         3103.0000:   Total depth
 DATE.        01-JUL-1978:   Date logged
 CLNT.            A2DTECH:   Client Code
 SL  . 200' FSL & 2100' FWL:   Surface Location
 PD  .                 GL:   Permanent Datum
 EPD .F              5230:   Elevation Permanent Datum
 LMF .                 KB:   Log Measured From
 DMF .                 KB:   Drilling Measured From
 DAPD.F                10:   Feet Above Permanent Datum
 DD  .F              3100:   Depth driller
 DL  .F              3103:   Depth logger
 BLI .F              3096:   Bottom log interval
 TLI .F               228:   Top log interval
 CS1 .IN            8.625:   Casing size
 CBD1.      8.625" @ 224':   Casing driller 1
 CBL1.F               228:   Casing logger 1
 BS1 .IN            7.875:   Bit size
 BSD1.F              3100:   Depth drilled with bit1
 DFT .            MUD/GEL:   Type fluid in hole
 DFD .                8.7:   Density
 DFV .                 31:   Viscosity
 DFPH.               10.5:   pH
 DFL .                  7:   Fluid loss
 MSS .           FLOWLINE:   Source of sample
 BHT .F               109:   BHT.
 TCS .HRS             4.5:   Time Circ. stopped
 MRT .F               109:   Maximum recorded temp.
 LUN .               2958:   Logging unit number
 LUL .               CASP:   Logging unit location
 ENGI.             MILLER:   Recorded By
 ORIG.      2.5" 5" PRINT:   Origin of data
 UWI .     49025106550000:   Unique Well ID
 DICO. A2D TECHNOLOGIES, INC.:   Digitizing Company
~OTHER INFORMATION
~A   DEPT     CALD         GRD      RHOB       CORR       NPOR        SPR         SN        ILD   
# ...
 1548.0000    10.9119    79.2508     2.5186     0.0188  -999.2500   -16.7250     9.1281     8.9622
 1548.5000    10.9121    77.0816     2.5312     0.0208  -999.2500   -16.9267     9.1274     8.9614
 1549.0000    10.9123    77.0836     2.5302     0.0188  -999.2500   -16.9306     9.2104     8.8789
 1549.5000    10.9125    77.2833     2.5253     0.0188  -999.2500   -17.1338     9.2096     8.8784
 1550.0000    10.9522    78.0747     2.5203     0.0108  -999.2500   -17.1362     9.2088     8.8779
 1550.5000    10.9179    79.3977     2.5177     0.0176  -999.2500   -17.1401     9.2078     8.8266
 1551.0000    10.9127    78.8642     2.5253     0.0228  -999.2500   -17.1440     9.1230     8.7755
 1551.5000    10.9127    77.3026     2.5354     0.0268  -999.2500   -17.1479     9.1218     8.7248
 1552.0000    10.9127    73.5526     2.5423     0.0288  -999.2500   -16.9540     9.0381     8.6744
 1552.5000    10.9127    69.4079     2.5374     0.0288  -999.2500   -17.1557     9.0377     8.6242
 1553.0000    10.9127    70.3947     2.5324     0.0288  -999.2500   -16.9618     9.0367     8.5744
 1553.5000    10.9127    71.9737     2.5285     0.0288  -999.2500   -16.9665     8.9535     8.5248
 1554.0000    10.9127    74.1447     2.5245     0.0288  -999.2500   -16.9704     8.9525     8.4755
 1554.5000    10.9127    74.7368     2.5216     0.0288  -999.2500   -16.9743     9.0246     8.4265
 1555.0000    10.9127    74.5395     2.5255     0.0328  -999.2500   -17.1760     9.0974     8.3778
 1555.5000    10.9127    71.7589     2.5374     0.0428  -999.2500   -16.9821     9.1707     8.3294
 1556.0000    10.8930    69.7853     2.5602     0.0726  -999.2500   -16.5904     9.2446     8.2812
 1556.5000    10.9127    69.2105     2.5977     0.0924  -999.2500   -16.3965     9.1976     8.2401
 1557.0000    10.9127    70.1974     2.5543     0.0884  -999.2500   -16.5982     9.1899     8.2393
 1557.5000    10.9127    74.9168     2.5373     0.0370  -999.2500   -16.6021     9.1823     8.2386
 1558.0000    10.8733    79.0789     2.5392     0.0232  -999.2500   -16.8038     9.1746     8.2378
 1558.5000    10.9127    78.4868     2.5303     0.0232  -999.2500   -17.0055     9.1669     8.3896
 1559.0000    10.9127    75.5089     2.5323     0.0212  -999.2500   -17.0094     9.1592     8.5438
 1559.5000    10.9127    74.5221     2.5393     0.0212  -999.2500   -17.0133     9.1516     8.5430
 1560.0000    10.9127    74.5221     2.5343     0.0132  -999.2500   -16.4238     9.1439     8.5632
 1560.5000    10.9127    71.7589     2.5323     0.0094  -999.2500   -17.2197     9.1363     8.5834
 1561.0000    10.9127    69.9826     2.5345     0.0074  -999.2500   -17.2236     9.1286     8.6037
 1561.5000    10.9127    70.5747     2.5375     0.0074  -999.2500   -17.2275     9.1210     8.6184
 1562.0000    10.8930    72.3511     2.5197     0.0074  -999.2500   -16.8358     9.1134     8.6176
 1562.5000    10.9127    74.3247     2.5157     0.0054  -999.2500   -17.2353     9.1034     8.6171
 1563.0000    10.9127    75.5089     2.5157     0.0056  -999.2500   -17.2392     9.1026     8.6165
 1563.5000    10.9127    75.7063     2.5147     0.0076  -999.2500   -17.0453     9.0187     8.6148
 1564.0000    10.8930    75.1142     2.5177     0.0134  -999.2500   -16.8514     9.0183     8.6145
 1564.5000    10.9127    77.3026     2.5187     0.0254  -999.2500   -17.0531     8.9352     8.5353
 1565.0000    10.9127    70.9695     2.5157     0.0294  -999.2500   -17.0570     8.7722     8.5347
 1565.5000    10.9127    70.5747     2.5068     0.0314  -999.2500   -17.0609     8.6914     8.3785
 1566.0000    10.8930    71.3642     2.5078     0.0474  -999.2500   -16.8670     8.6906     8.3779
 1566.5000    10.9127    74.3247     2.5959     0.0612  -999.2500   -17.0687     8.6897     8.3770
 1567.0000    10.9127    77.0879     2.5475     0.0830  -999.2500   -16.8748     8.7690     8.3902
 1567.5000    10.9127    79.2589     2.5106     0.0454  -999.2500   -16.4831     8.8488     8.4035
 1568.0000    10.8930    79.2589     2.5316     0.0156  -999.2500   -16.4878     8.8480     8.4167
 1568.5000    10.9127    78.6668     2.5465     0.0176  -999.2500   -16.4917     8.9286     8.4300
 1569.0000    10.9127    76.4958     2.5495     0.0178  -999.2500   -16.4956     8.9278     8.4498
 1569.5000    10.8930    74.9168     2.5525     0.0158  -999.2500   -16.4995     8.9270     8.4495
 1570.0000    10.8930    73.9300     2.5495     0.0138  -999.2500   -16.5034     8.6842     8.3719
 1570.5000    10.9127    72.9432     2.5386     0.0078  -999.2500   -16.5073     8.5258     8.2191
 1571.0000    10.8930    74.3247     2.5317     0.0060  -999.2500   -16.7090     8.3702     8.1777
 1571.5000    10.9127    76.2984     2.5297     0.0020  -999.2500   -16.5151     8.3694     8.1365
 1572.0000    10.8930    77.6800     2.5327     0.0100  -999.2500   -16.7168     8.2924     8.0955
 1572.5000    10.9127    76.6932     2.5436     0.0198  -999.2500   -17.1163     8.1409     8.0547
 1573.0000    10.8930    76.4958     2.5466     0.0258  -999.2500   -17.5157     8.1402     8.0142
 1573.5000    10.9127    76.6932     2.5426     0.0238  -999.2500   -17.5196     8.1395     7.9917
 1574.0000    10.9127    76.8905     2.5357     0.0200  -999.2500   -17.5236     8.0645     7.9181
 1574.5000    10.9127    76.4958     2.5287     0.0160  -999.2500   -17.5282     8.0638     7.8455
 1575.0000    10.9127    76.6932     2.5178     0.0100  -999.2500   -17.5321     7.9895     7.8297
 1575.5000    10.8930    76.2984     2.5168     0.0062  -999.2500   -17.5360     8.0623     7.8139
 1576.0000    10.8930    75.7063     2.5178     0.0062  -999.2500   -17.1444     7.9881     7.7982
 1576.5000    10.8930    72.9432     2.5119     0.0062  -999.2500   -16.9505     7.9874     7.7825
 1577.0000    10.8930    71.9563     2.5188     0.0062  -999.2500   -16.7566     8.0601     7.7669
 1577.5000    10.8930    71.7589     2.5288     0.0082  -999.2500   -16.9583     7.9859     7.7512
 1578.0000    10.8733    72.3511     2.5298     0.0102  -999.2500   -16.9622     7.9852     7.7357
 1578.5000    10.8930    73.9300     2.5308     0.0182  -999.2500   -16.9661     7.9843     7.7201
 1579.0000    10.8930    75.1142     2.5365     0.0182  -999.2500   -16.7722     7.9108     7.7046
 1579.5000    10.8930    77.8774     2.5218     0.0182  -999.2500   -16.7761     7.8380     7.6958
 1580.0000    10.8733    78.4868     2.5149     0.0084  -999.2500   -16.7800     7.8370     7.5552
 1580.5000    10.8733    78.6842     2.4990     0.0044  -999.2500   -16.7839     7.8365     7.4417
 1581.0000    10.8535    74.9168     2.4950     0.0064  -999.2500   -16.7878     7.6937     7.3299
 1581.5000    10.8930    71.7589     2.4921     0.0084  -999.2500   -16.7917     7.6227     7.2198
 1582.0000    10.8930    70.1800     2.4839     0.0164  -999.2500   -16.7956     7.5527     7.1486
 1582.5000    10.8930    70.7721     2.4839     0.0244  -999.2500   -16.9981     7.5520     7.1479
 1583.0000    10.8930    71.1668     2.4839     0.0402  -999.2500   -17.0020     7.4823     7.1474
 1583.5000    10.8930    72.3511     2.5398     0.0720  -999.2500   -17.2037     7.4818     7.1466
 1584.0000    10.8930    72.1711     2.5813     0.1178  -999.2500   -16.8120     7.6894     7.2116
 1584.5000    10.8930    72.5658     2.5368     0.1098  -999.2500   -17.4092     7.8309     7.4119
 1585.0000    10.8535    75.3116     2.5249     0.0364  -999.2500   -17.4131     8.0484     7.6178
 1585.5000    10.8930    75.1142     2.5219     0.0066  -999.2500   -17.4170     8.4250     7.8415
 1586.0000    10.8930    74.5221     2.5239     0.0066  -999.2500   -17.4210     8.5802     7.9734
 1586.5000    10.8535    73.7326     2.5170     0.0066  -999.2500   -17.2271     8.8991     8.3464
 1587.0000    10.8930    73.5353     2.5219     0.0068  -999.2500   -17.2310     9.1463     8.6569
 1587.5000    10.8338    73.5353     2.5319     0.0108  -999.2500   -17.2349     9.3147     8.8166
 1588.0000    10.8930    72.9432     2.5378     0.0206  -999.2500   -17.2388     9.3996     8.9788
