~VERSION INFORMATION
 VERS.                2.0:   CWLS LOG ASCII STANDARD - VERSION 2.0
 WRAP.                 NO:   ONE LINE PER DEPTH STEP
~WELL INFORMATION
#MNEM.UNIT      DATA TYPE    INFORMATION
#----------   ------------   ------------------------------
 STRT.F            0.0000:   START DEPTH
 STOP.F         2775.5000:   STOP DEPTH
 STEP.F            0.5000:   STEP LENGTH
 NULL.          -999.2500:   NO VALUE
 COMP.          U.S. NAVY:   COMPANY
 WELL.   U.S. "A" #107-29:   WELL
 FLD .        TEAPOT DOME:   FIELD
 LOC .      S29 T39N R78W:   LOCATION
 CNTY.            NATRONA:   COUNTY
 STAT.            WYOMING:   STATE
 CTRY. UNITED STATES OF AMERICA:   COUNTRY
 SRVC.         MCCULLOUGH:   SERVICE COMPANY
 DATE.        07-SEP-1966:   LOGDATE
 API .     49025095920000:   API NUMBER
~CURVE INFORMATION
#MNEM.UNIT       API CODE    CURVE DESCRIPTION
#----------   ------------   ------------------------------
 DEPT.F                  :   
 GR  .GAPI   30 310 01 00:   GAMMA RAY
 CALI.IN     70 280 01 00:   CALIPER
~PARAMETER INFORMATION
#MNEM.UNIT          VALUE    DESCRIPTION
#----------   ------------   ------------------------------
 EKB .F            0.0000:   Kelly bushing
 EGL .F            0.0000:   Ground level
 EDF .F            0.0000:   Drilling floor
 EPD .F            0.0000:   Permanent datum
 TD  .F         2777.5000:   Total depth
 DATE.        07-SEP-1966:   Date logged
 CLNT.            A2DTECH:   Client Code
 PD  .                 GL:   Permanent Datum
 LMF .                 GL:   Log Measured From
 DMF .                 GL:   Drilling Measured From
 DL  .F            2777.5:   Depth logger
 BLI .F              2776:   Bottom log interval
 TLI .F              2200:   Top log interval
 CS1 .IN                5:   Casing size
 CBD1.         5" @ 2722':   Casing driller 1
 DFT .              WATER:   Type fluid in hole
 RMB .OHMM           .053:   Rm. at BHT
 TCS .HRS             1.5:   Time Circ. stopped
 LUN .               1460:   Logging unit number
 ENGI.        FITZSIMMONS:   Recorded By
 WITN.             TUTTLE:   Witnessed by
 ORIG.           5" PRINT:   Origin of data
 UWI .     49025095920000:   Unique Well ID
 DICO. A2D TECHNOLOGIES, INC.:   Digitizing Company
~OTHER INFORMATION
~A    DEPT      GR         CALI 
# ...
 2551.5000    79.1820     6.6370
 2552.0000    82.3400     6.6370
 2552.5000    85.3840     6.6370
 2553.0000    87.3270     6.6370
 2553.5000    88.0960     6.6370
 2554.0000    90.2830     6.6380
 2554.5000    91.7000     6.6270
 2555.0000    92.9410     6.6170
 2555.5000    93.7370     6.6290
 2556.0000    93.7620     6.6530
 2556.5000    94.2160     6.6570
 2557.0000    99.7340     6.6570
 2557.5000   100.9210     6.6570
 2558.0000   103.7210     6.6570
 2558.5000   106.5580     6.6570
 2559.0000   109.2920     6.6570
 2559.5000   109.8060     6.6580
 2560.0000   110.9830     6.6600
 2560.5000   108.3930     6.6610
 2561.0000   103.9670     6.6620
 2561.5000   101.8360     6.6630
 2562.0000    99.9970     6.6640
 2562.5000    99.2450     6.6650
 2563.0000    99.2060     6.6660
 2563.5000   100.3820     6.6690
 2564.0000   100.6160     6.6730
 2564.5000    99.6180     6.6770
 2565.0000   100.2670     6.6800
 2565.5000    98.2390     6.6840
 2566.0000    91.0840     6.6880
 2566.5000    80.1610     6.6920
 2567.0000    78.1950     6.6960
 2567.5000    79.7380     6.6890
 2568.0000    80.7100     6.6800
 2568.5000    83.4190     6.6700
 2569.0000    86.8080     6.6610
 2569.5000    89.3910     6.6560
 2570.0000    90.4250     6.6540
 2570.5000    89.0460     6.6520
 2571.0000    88.9030     6.6500
 2571.5000    86.7150     6.6480
 2572.0000    85.0150     6.6450
 2572.5000    85.0180     6.6430
 2573.0000    84.5050     6.6410
 2573.5000    84.0100     6.6390
 2574.0000    83.5260     6.6380
 2574.5000    83.0870     6.6410
 2575.0000    79.8070     6.6430
 2575.5000    75.8360     6.6460
 2576.0000    73.6940     6.6680
 2576.5000    70.0190     6.6980
 2577.0000    68.8970     6.7110
 2577.5000    70.4890     6.7170
 2578.0000    71.3880     6.7150
 2578.5000    70.6280     6.6860
 2579.0000    68.1640     6.6580
 2579.5000    67.0780     6.6600
 2580.0000    67.2910     6.6640
 2580.5000    68.3230     6.6670
 2581.0000    69.2980     6.6700
 2581.5000    71.2610     6.6730
 2582.0000    73.1720     6.6760
 2582.5000    77.5980     6.6800
 2583.0000    82.2310     6.6830
 2583.5000    85.7160     6.6860
 2584.0000    88.5860     6.6730
 2584.5000    88.6800     6.6560
 2585.0000    88.2560     6.6400
 2585.5000    87.8070     6.6390
 2586.0000    88.7660     6.6730
 2586.5000    92.7590     6.7050
 2587.0000    95.5690     6.6960
 2587.5000    94.6030     6.6800
 2588.0000    93.5910     6.6640
 2588.5000    92.1450     6.6490
 2589.0000    90.5840     6.6380
 2589.5000    90.1690     6.6400
 2590.0000    90.6050     6.6430
 2590.5000    91.1200     6.6450
 2591.0000    90.9490     6.6470
 2591.5000    90.7930     6.6490
 2592.0000    89.8630     6.6520
 2592.5000    87.4590     6.6540
 2593.0000    85.6100     6.6560
 2593.5000    88.0540     6.6580
 2594.0000    92.9520     6.6610
 2594.5000    93.9230     6.6630
 2595.0000    91.3150     6.6650
 2595.5000    89.3570     6.6680
 2596.0000    89.0790     6.6730
 2596.5000    87.8860     6.6780
 2597.0000    89.3720     6.6830
 2597.5000    90.7160     6.6870
 2598.0000    91.5140     6.6920
 2598.5000    88.1420     6.6970
 2599.0000    83.8770     6.7020
 2599.5000    79.1940     6.7050
 2600.0000    77.8320     6.6950
 2600.5000    79.9620     6.6850
 2601.0000    82.4350     6.6750
 2601.5000    84.3920     6.6650
 2602.0000    85.7930     6.6600
 2602.5000    86.8730     6.6720
 2603.0000    87.8880     6.6830
 2603.5000    87.5530     6.6950
 2604.0000    87.0020     6.7060
 2604.5000    86.2900     6.7180
 2605.0000    84.9840     6.7290
 2605.5000    83.6970     6.7440
 2606.0000    82.6350     6.8160
 2606.5000    82.5540     7.1830
 2607.0000    82.4490    10.4890
 2607.5000    82.3370    10.2530
 2608.0000    82.5910    11.2420
 2608.5000    86.0820    11.0040
 2609.0000    89.5190    10.5900
 2609.5000    88.6710    14.1570
 2610.0000    87.7220    14.0740
 2610.5000    89.4910    13.9090
 2611.0000    90.6170    16.1980
 2611.5000    90.2470    20.1850
 2612.0000    91.2000    19.3480
 2612.5000    93.1740    17.5470
 2613.0000    93.2020    15.7460
 2613.5000    92.7840    13.9450
 2614.0000    92.8910    12.1810
 2614.5000    93.7300    12.3080
 2615.0000    98.8070    11.3310
 2615.5000    99.5790    12.9420
 2616.0000    99.5670    12.0550
 2616.5000    98.7810    10.8960
 2617.0000    98.9160    11.7190
 2617.5000    98.2790    12.7900
 2618.0000    97.3380    15.1530
 2618.5000    96.3830    17.9520
 2619.0000    95.0810    20.2950
 2619.5000    90.8740    19.3310
 2620.0000    90.2030    16.8800
 2620.5000    87.5560    12.8530
 2621.0000    85.0020    13.1220
 2621.5000    84.0100    14.1110
 2622.0000    85.1330    15.3870
 2622.5000    86.5510    16.5980
 2623.0000    86.0350    14.7480
 2623.5000    85.6850    12.6850
 2624.0000    89.2300    15.6980
 2624.5000    89.0200    18.5640
 2625.0000    88.7750    14.7500
 2625.5000    90.3550    15.6170
 2626.0000    90.6610    17.1020
 2626.5000    87.0510    13.2380
 2627.0000    85.7670    13.4910
 2627.5000    85.7020    13.9690
 2628.0000    86.4270    13.3820
 2628.5000    92.3460    12.5180
 2629.0000    95.9250    13.1000
 2629.5000    96.5610    12.5600
 2630.0000    95.2050    12.0330
 2630.5000    92.6300    14.4830
 2631.0000    92.9820    13.8710
 2631.5000    94.0670    14.4270
 2632.0000    96.9810    15.2480
 2632.5000    95.7170    16.0700
 2633.0000    92.9380    16.3800
 2633.5000    91.6010    16.0350
 2634.0000    90.7630    16.5620
 2634.5000    90.0300    17.2300
 2635.0000    86.6570    13.9600
 2635.5000    82.6460    10.1850
 2636.0000    81.9950    10.5530
 2636.5000    84.7060    12.3630
 2637.0000    86.7460    18.6530
 2637.5000    88.1070    15.2500
 2638.0000    88.6530    11.4890
 2638.5000    85.6130    13.8110
 2639.0000    81.1340    18.4850
 2639.5000    79.9630    16.1530
 2640.0000    79.8950    16.6370
 2640.5000    79.7670    14.4140
 2641.0000    78.6220    13.1390
 2641.5000    77.4530    14.8880
 2642.0000    76.8110    12.5760
 2642.5000    78.2570    13.5710
 2643.0000    81.1370    15.7580
 2643.5000    82.7250    17.4380
 2644.0000    82.2380    15.6620
 2644.5000    80.9950    14.2360
 2645.0000    79.7720    14.8040
 2645.5000    78.8860    15.7780
 2646.0000    78.7750    15.4050
 2646.5000    78.7790    14.8410
 2647.0000    78.4390    16.2320
 2647.5000    78.4680    14.9880
 2648.0000    78.9520    12.1610
 2648.5000    78.7570    15.1190
 2649.0000    78.7630    15.3960
 2649.5000    80.2390    17.1740
 2650.0000    81.5870    20.6990
 2650.5000    83.2700    20.4080
 2651.0000    81.5870    18.0310
 2651.5000    80.2650    18.1340
 2652.0000    79.1840    18.1890
 2652.5000    78.2270    18.0010
 2653.0000    79.4010    16.7860
 2653.5000    79.9320    19.4040
 2654.0000    80.1810    16.6380
 2654.5000    81.0880    13.6430
 2655.0000    81.3740    14.1970
 2655.5000    83.8180    11.7120
 2656.0000    83.2670     9.3050
 2656.5000    83.8160     9.9180
 2657.0000    85.7180    11.1430
 2657.5000    87.7720    13.1860
 2658.0000    89.8080    16.1060
 2658.5000    88.8280    18.9580
 2659.0000    85.0990    20.2140
 2659.5000    82.1630    20.6080
 2660.0000    80.0760    20.7280
 2660.5000    76.6270    20.7280
 2661.0000    75.9320    20.2140
 2661.5000    76.2430    15.2410
 2662.0000    76.7410     8.8510
 2662.5000    81.6540     8.8410
 2663.0000    89.7010     8.9840
 2663.5000    98.3120     9.1990
 2664.0000   104.7080     9.0830
 2664.5000   104.6020     8.9310
 2665.0000   104.1810     8.8470
 2665.5000   103.5580     8.8670
 2666.0000   101.9930     9.3870
 2666.5000   100.4350    10.7080
 2667.0000    97.7740    15.4420
 2667.5000    93.5760    14.4240
 2668.0000    89.3780    16.6290
 2668.5000    86.3190    19.6310
 2669.0000    83.9710    18.3780
 2669.5000    83.0190    15.2790
 2670.0000    82.8210    10.7760
 2670.5000    83.8380    10.1490
 2671.0000    85.8900     9.4140
 2671.5000    90.2920    10.9110
 2672.0000    94.5140    15.5680
 2672.5000    95.3440    19.4350
