~VERSION INFORMATION
 VERS.                2.0:   CWLS LOG ASCII STANDARD - VERSION 2.0
 WRAP.                 NO:   ONE LINE PER DEPTH STEP
~WELL INFORMATION
#MNEM.UNIT      DATA TYPE    INFORMATION
#----------   ------------   ------------------------------
 STRT.F          199.0000:   START DEPTH
 STOP.F         2951.0000:   STOP DEPTH
 STEP.F            0.5000:   STEP LENGTH
 NULL.          -999.2500:   NO VALUE
 COMP.    FENIX & SCISSON:   COMPANY
 WELL. FENIX & SCISSON "A" #3-21:   WELL
 FLD .              XPR-3:   FIELD
 LOC .      S21 T39N R78W:   LOCATION
 CNTY.            NATRONA:   COUNTY
 STAT.            WYOMING:   STATE
 CTRY. UNITED STATES OF AMERICA:   COUNTRY
 SRVC.              WELEX:   SERVICE COMPANY
 DATE.        27-JUN-1977:   LOGDATE
 API .     49025103880000:   API NUMBER
~CURVE INFORMATION
#MNEM.UNIT       API CODE    CURVE DESCRIPTION
#----------   ------------   ------------------------------
 DEPT.F                  :   
 CALD.IN     45 280 60 00:   CALIPER FROM DENSITY LOG
 GRD .GAPI   45 310 01 00:   GAMMA RAY FROM DENSITY LOG
 CORR.G/C3   45 356 01 00:   DENSITY CORRECTION
 RHOB.G/C3   45 350 01 00:   BULK DENSITY
 SPR .MV     07 010 01 00:   SPONTANEOUS POTENTIAL
 ILD .OHMM   07 120 46 00:   DEEP INDUCTION RESISTIVITY
 ILM .OHMM   07 120 44 00:   INDUCTION LOG MEDIUM RESISTIVITY
 SGRD.OHMM   07 220 05 00:   SHALLOW SHORT GUARD RESISTIVITY
~PARAMETER INFORMATION
#MNEM.UNIT          VALUE    DESCRIPTION
#----------   ------------   ------------------------------
 EKB .F         4981.0000:   Kelly bushing
 EGL .F         4971.0000:   Ground level
 TD  .F         2953.0000:   Total depth
 CLNT.            A2DTECH:   Client Code
 SL  . 330' FSL & 1650' FWL:   Surface Location
 DATE.        27-JUN-1977:   Date Logged [DD-MMM-YYYY]
 DD  .F              2930:   Depth driller
 DL  .F              2953:   Depth logger
 BLI .F              2951:   Bottom log interval
 TLI .F               200:   Top log interval
 CS1 .              8.625:   Casing size
 CBD1.      8.625" @ 217':   Casing driller 1
 BS1 .IN            7.875:   Bit size
 BSD1.F              2930:   Depth drilled with bit1
 DFT .            KCL MUD:   Type fluid in hole
 DFD .                9.4:   Density
 DFV .                 37:   Viscosity
 DFPH.                9.0:   pH
 DFL .               16.0:   Fluid loss
 MSS .           FLOWLINE:   Source of sample
 RMS .OHMM           1.10:   Rm
 MST .F                92:   Rm Meas. temp.
 RMF .OHMM           0.85:   Rmf
 MFST.F                92:   Rmf Meas. temp.
 MFSS.           FANN KIT:   Source Rmf.
 RMC .OHMM           1.44:   Rmc
 MCST.F                92:   Rmc Meas. temp.
 MCSS.           FANN KIT:   Source Rmc.
 RMB .OHMM           0.93:   Rm. at BHT
 BHT .F               109:   BHT.
 TCS .HRS            0230:   Time Circ. stopped
 MRT .F               109:   Maximum recorded temp.
 LUN .               8611:   Logging unit number
 LUL .             CASPER:   Logging unit location
 ENGI.         G. BENTSEN:   Recorded By
 WITN.  MR. W. PETTINGILL:   Witnessed by
 ORIG.      2.5" 5" PRINT:   Origin of data
 UWI .     49025103880000:   Unique Well ID
 DICO. A2D TECHNOLOGIES, INC.:   Digitizing Company
 PD  .                 GL:   Permanent Datum
 EPD .               4971:   Elevation Permanent Datum
 LMF .                 KB:   Log Measured From
 DMF .                 KB:   Drilling Measured From
 DAPD.                 10:   Feet Above Permanent Datum
~OTHER INFORMATION
~A   DEPT       CALD       GRD       CORR        RHOB      SPR        ILD        ILM       SGRD   
# ...
  361.0000     9.8754    74.1143     0.0633     2.5512   -28.0297     6.2388     7.2562     8.7664
  361.5000     9.8746    73.7157     0.0633     2.5572   -28.1572     6.1146     7.2094     8.5328
  362.0000     9.8903    75.3496     0.0633     2.5618   -28.4323     5.9510     7.2123     8.3618
  362.5000     9.9043    76.8961     0.0602     2.5631   -28.7092     5.8325     7.0192     8.6013
  363.0000     9.9037    77.8233     0.0602     2.5555   -29.1335     5.6780     6.6915     8.6655
  363.5000     9.9031    79.0602     0.0570     2.5430   -29.7054     5.5650     6.4676     8.4346
  364.0000     9.9024    80.2971     0.0556     2.5320   -30.2790     5.5291     6.2512     7.5585
  364.5000     9.9017    81.2243     0.0539     2.5197   -31.2960     5.5329     6.1681     6.4102
  365.0000     9.9011    82.1516     0.0492     2.5409   -32.0171     5.5360     6.2564     5.2879
  365.5000     9.9315    83.3884     0.0445     2.5595   -32.4415     5.6158     6.5231     8.3951
  366.0000     9.9308    79.9813     0.0414     2.5815   -33.1626     5.7361     6.9912     8.8757
  366.5000     9.9301    76.2646     0.0397     2.5815   -34.0321     5.9402     7.2892     8.8805
  367.0000     9.9295    73.7863     0.0383     2.5800   -35.4950     6.1941     7.5999     9.1968
  367.5000     9.9289    70.3792     0.0383     2.5800   -36.8096     6.6391     7.7086     9.4590
  368.0000     9.9283    71.9256     0.0383     2.5892   -37.3828     6.9229     7.9272     9.8635
  368.5000     9.9277    74.0913     0.0413     2.5985   -38.6969     7.2187     8.1520    10.0059
  369.0000     9.9271    75.6377     0.0382     2.5969   -40.1598     7.5273     8.2685    10.1503
  369.5000     9.9265    77.1842     0.0289     2.5814   -40.7326     7.7417     8.5031    10.2260
  370.0000     9.9259    78.4211     0.0227     2.5690   -41.6020     7.8533     8.8047    10.2317
  370.5000     9.9252    75.3184     0.0195     2.5566   -41.5813     7.9665     8.8692    10.3081
  371.0000     9.9555    75.0020     0.0195     2.5458   -41.8573     7.9162     8.5724    10.3850
  371.5000     9.9549    74.7013     0.0195     2.5380   -43.0235     7.9206     8.5760    10.4626
  372.0000     9.9543    75.0299     0.0195     2.5427   -43.4541     7.8705     8.5795    10.5407
  372.5000     9.9537    76.3495     0.0195     2.5488   -42.9820     7.8748     8.5241    10.5465
  373.0000     9.9530    78.7833     0.0195     2.5535   -42.6646     7.7714     8.5276    10.4798
  373.5000     9.9524    79.9943     0.0195     2.5581   -42.3471     7.7224     8.5312    10.3421
  374.0000     9.9518    79.5644     0.0194     2.5583   -42.3263     7.7267     8.5347    10.2765
  374.5000     9.9512    78.3142     0.0194     2.5519   -42.6023     7.7390     8.5382    10.0719
  375.0000     9.9506    76.3417     0.0225     2.5395   -42.8783     7.7887     8.5417    10.2306
  375.5000     9.9191    73.5899     0.0225     2.5302   -41.9664     7.7930     8.5453    10.3103
  376.0000     9.9185    71.7771     0.0225     2.5271   -40.7576     7.7981     8.5488    10.4625
  376.5000     9.9179    70.6612     0.0256     2.5286   -40.4361     7.8024     8.5523    10.5440
  377.0000     9.8864    71.3509     0.0287     2.5301   -40.4214     7.7521     8.4956    10.5532
  377.5000     9.8858    71.5869     0.0286     2.5301   -41.4541     7.7574     8.4423    10.5624
  378.0000     9.8852    69.7895     0.0317     2.5285   -40.9614     7.7616     8.3855    10.4989
  378.5000     9.8846    68.3121     0.0348     2.5270   -40.9801     7.7126     8.2196    10.2222
  379.0000     9.8840    67.5575     0.0379     2.5270   -42.2910     7.6639     8.1105    10.0195
  379.5000     9.8833    69.7074     0.0379     2.5269   -41.7833     7.6145     8.0548     9.7575
  380.0000     9.8847    71.5788     0.0410     2.5254   -40.8903     7.5155     7.9475     9.3703
  380.5000     9.9130    73.0325     0.0472     2.5254   -40.8694     7.3659     7.7878     9.0606
  381.0000     9.8815    74.0529     0.0471     2.5255   -40.8487     7.1206     7.5748     8.8218
  381.5000     9.8809    74.4793     0.0409     2.5269   -40.8283     6.8363     7.0729     8.5887
  382.0000     9.8494    75.1022     0.0378     2.5240   -41.5494     6.4291     6.8828     8.3049
  382.5000     9.8179    75.2864     0.0375     2.5036   -41.2166     5.9226     6.6108     7.9205
  383.0000     9.7556    74.7068     0.0347     2.4833   -40.7655     5.3445     6.3408     7.5539
  383.5000     9.7188    75.6703     0.0316     2.4634   -40.7448     4.9575     5.7996     7.2043
  384.0000     9.6560    79.4098     0.0316     2.4450   -40.7241     4.2926     5.4263     6.7767
  384.5000     9.5931    82.6898     0.0315     2.4266   -41.2974     3.6914     4.7443     6.2012
  385.0000     9.4995    85.8049     0.0315     2.4082   -42.0185     3.4006     4.1995     5.4823
  385.5000     9.5198    83.6051     0.0315     2.3898   -41.8487     3.0059     3.9521     4.0794
  386.0000     9.6436    80.8070     0.0315     2.3921   -42.4431     2.7691     3.3976     3.2973
  386.5000     9.7593    78.9582     0.0315     2.4230   -42.6981     2.6950     2.8552     2.9555
  387.0000     9.8209    77.3985     0.0346     2.4447   -42.3798     2.6780     2.8066     2.8969
  387.5000     9.8824    75.6579     0.0354     2.4942   -42.9773     2.6798     2.9164     3.1501
  388.0000     9.9441    74.0307     0.0384     2.5422   -43.5261     2.7562     3.2174     4.0971
  388.5000     9.9141    72.4811     0.0407     2.5638   -43.5045     2.8740     3.6535     5.7091
  389.0000     9.7891    70.9316     0.0447     2.5731   -43.1593     3.1017     4.2252     6.8830
  389.5000     9.7167    73.4069     0.0479     2.5794   -43.2236     3.6109     4.9065     7.3892
  390.0000     9.7048    75.2629     0.0531     2.5840   -43.7399     4.2036     5.5654     7.3266
  390.5000     9.6847    76.8094     0.0573     2.5886   -43.4173     4.6634     5.8026     7.4067
  391.0000     9.7270    78.6654     0.0624     2.5948   -42.6547     5.4664     6.1339     7.7706
  391.5000     9.7451    79.9023     0.0667     2.5995   -40.7052     5.9404     7.0429     8.1603
  392.0000     9.7576    79.2815     0.0729     2.6074   -39.9426     6.3672     7.1922     8.5148
  392.5000     9.7883    78.9704     0.0792     2.6137   -39.7735     6.6851     6.9996     8.7523
  393.0000     9.8050    79.8977     0.0854     2.6194   -40.4946     6.8755     7.0516     8.7598
  393.5000     9.8044    81.4441     0.0844     2.6028   -41.0673     6.9268     7.2018     8.8281
  394.0000     9.8037    82.6810     0.0718     2.5870   -41.3485     6.9306     7.4573     8.8357
  394.5000     9.8030    81.4410     0.0639     2.5685   -40.8775     6.9344     7.5639     8.8434
  395.0000     9.8024    78.9627     0.0545     2.5532   -40.7084     6.9862     7.4115     8.9123
  395.5000     9.8183    78.0324     0.0513     2.5435   -40.9844     6.9900     7.4665     8.9200
  396.0000     9.8321    78.3405     0.0481     2.5519   -41.7055     6.9458     7.5205     8.9278
  396.5000     9.8006    79.2677     0.0450     2.5574   -41.8383     6.9497     7.5764     8.9973
  397.0000     9.8000    79.8854     0.0436     2.5593   -41.9659     6.9535     7.6847     9.0674
  397.5000     9.7994    79.8838     0.0436     2.5624   -41.7916     6.9573     7.9026     9.2013
  398.0000     9.7986    78.6439     0.0497     2.5734   -40.7323     6.9611     7.9059     9.4675
  398.5000     9.7980    78.0232     0.0528     2.5870   -40.8599     6.9171     7.8001     9.3459
  399.0000     9.7666    78.3312     0.0528     2.5960   -40.9928     6.7795     7.6966     9.0996
  399.5000     9.7659    79.2585     0.0497     2.5934   -40.6701     6.7832     7.7005     8.9211
  400.0000     9.7345    81.4241     0.0435     2.5893   -41.2724     6.6941     7.6500     9.2874
  400.5000     9.7339    83.5898     0.0404     2.5856   -41.5656     6.6560     7.6006     9.4764
  401.0000     9.7332    82.6491     0.0341     2.5809   -40.8977     6.6041     7.4997     9.2882
