~VERSION INFORMATION
 VERS.                2.0:   CWLS LOG ASCII STANDARD - VERSION 2.0
 WRAP.                 NO:   ONE LINE PER DEPTH STEP
~WELL INFORMATION
#MNEM.UNIT      DATA TYPE    INFORMATION
#----------   ------------   ------------------------------
 STRT.F           46.0000:   START DEPTH
 STOP.F         2952.5000:   STOP DEPTH
 STEP.F            0.5000:   STEP LENGTH
 NULL.          -999.2500:   NO VALUE
 COMP.    FENIX & SCISSON:   COMPANY
 WELL. FENIX NPR 3 "SHX" #11-15:   WELL
 FLD .        TEAPOT DOME:   FIELD
 LOC .      S15 T38N R78W:   LOCATION
 CNTY.            NATRONA:   COUNTY
 STAT.            WYOMING:   STATE
 CTRY. UNITED STATES OF AMERICA:   COUNTRY
 SRVC.           BIRDWELL:   SERVICE COMPANY
 DATE.        19-JAN-1979:   LOGDATE
 API .     49025107640000:   API NUMBER
~CURVE INFORMATION
#MNEM.UNIT       API CODE    CURVE DESCRIPTION
#----------   ------------   ------------------------------
 DEPT.F                  :   
 GRD .GAPI   45 310 01 00:   GAMMA RAY FROM DENSITY LOG
 CALD.IN     45 280 60 00:   CALIPER FROM DENSITY LOG
 RHOB.G/C3   45 350 01 00:   BULK DENSITY
 CORR.G/C3   45 356 01 00:   DENSITY CORRECTION
 SPR .MV     07 010 01 00:   SPONTANEOUS POTENTIAL
 SN  .OHMM   01 040 00 00:   SHORT NORMAL
 ILD .OHMM   07 120 46 00:   INDUCTION LOG DEEP RESISTIVITY
~PARAMETER INFORMATION
#MNEM.UNIT          VALUE    DESCRIPTION
#----------   ------------   ------------------------------
 EKB .F         5258.0000:   Kelly bushing
 EGL .F         5248.0000:   Ground level
 EDF .F            0.0000:   Drilling floor
 TD  .F         1300.0000:   Total depth
 DATE.        19-JAN-1979:   Date logged
 CLNT.            A2DTECH:   Client Code
 SL  . 177' FNL & 155' FWL:   Surface Location
 PD  .                 GL:   Permanent Datum
 EPD .F              5248:   Elevation Permanent Datum
 LMF .                 KB:   Log Measured From
 DMF .                 KB:   Drilling Measured From
 DAPD.F                10:   Feet Above Permanent Datum
 DD  .F              1300:   Depth driller
 DL  .F              1283:   Depth logger
 BLI .F              1277:   Bottom log interval
 TLI .F               100:   Top log interval
 CBD1.F                40:   Casing driller 1
 CBL1.F                40:   Casing logger 1
 BS1 .IN            7.875:   Bit size
 BSD1.F              1300:   Depth drilled with bit1
 DFT .           CHEM/GEL:   Type fluid in hole
 DFD .                8.8:   Density
 DFV .                 37:   Viscosity
 DFL .               15.4:   Fluid loss
 MSS .           FLOWLINE:   Source of sample
 RMS .OHMM            .75:   Rm
 MST .F                68:   Rm Meas. temp.
 RMF .OHMM            .75:   Rmf
 MFST.F                64:   Rmf Meas. temp.
 RMC .OHMM            1.3:   Rmc
 MCST.F                68:   Rmc Meas. temp.
 MFSS.               MEAS:   Source Rmf.
 MCSS.               MEAS:   Source Rmc.
 RMB .OHMM            .73:   Rm. at BHT
 BHT .F                70:   BHT.
 TCS .HRS               2:   Time Circ. stopped
 MRT .F                70:   Maximum recorded temp.
 LUN .               3029:   Logging unit number
 LUL .               CSPR:   Logging unit location
 ENGI.            ROLLINS:   Recorded By
 WITN.           DINSMORE:   Witnessed by
 ORIG.           5" PRINT:   Origin of data
 UWI .     49025107640000:   Unique Well ID
 DICO. A2D TECHNOLOGIES, INC.:   Digitizing Company
~OTHER INFORMATION
~A   DEPT      GRD       CALD       RHOB       CORR        SPR           SN        ILD 
# ...
  956.0000    65.4730    10.2510  -999.2500  -999.2500   -46.7030    16.2570    14.7430
  956.5000    67.4690    10.2520  -999.2500  -999.2500   -46.7170    15.9310    15.5250
  957.0000    69.4930    10.2540  -999.2500  -999.2500   -47.5670    15.3890    15.1410
  957.5000    72.5000    10.2550  -999.2500  -999.2500   -47.0660    14.8720    14.6130
  958.0000    64.8440    10.2560  -999.2500  -999.2500   -47.3780    14.3650    14.0850
  958.5000    55.0180    10.2570     2.3460  -999.2500   -48.5540    13.8590    13.5220
  959.0000    48.0100    10.2580     2.3460  -999.2500   -47.7470    13.5130    13.3720
  959.5000    46.8970    10.2600     2.3460  -999.2500   -46.9390    13.4880    13.2110
  960.0000    46.2330    10.2610     2.3600  -999.2500   -46.1400    13.4640    13.0510
  960.5000    46.0040    10.2620     2.3770  -999.2500   -45.4460    13.4390    12.9300
  961.0000    49.7820    10.2630     2.3890  -999.2500   -46.2200    13.4140    13.1140
  961.5000    53.9230    10.2640     2.3730  -999.2500   -47.0100    13.3980    13.2010
  962.0000    53.7120    10.2650     2.3470  -999.2500   -47.0290    13.7020    13.2750
  962.5000    54.0300    10.2670     2.2870  -999.2500   -46.9460    13.9280    13.4190
  963.0000    53.5700    10.2680     2.2670  -999.2500   -45.4580    14.0290    13.6110
  963.5000    53.0990    10.2690     2.2400  -999.2500   -44.4290    13.8490    13.7730
  964.0000    52.9420    10.2700     2.2050  -999.2500   -45.6070    13.7160    13.4570
  964.5000    53.1980    10.2710     2.1720  -999.2500   -46.9560    13.5830    13.3400
  965.0000    53.3530    10.2730     2.1680  -999.2500   -47.4420    13.4500    13.2240
  965.5000    53.3760    10.2740     2.1650  -999.2500   -47.6180    13.3170    13.1070
  966.0000    53.0180    10.2750     2.1710  -999.2500   -47.2220    13.1840    13.0120
  966.5000    52.4410    10.2760     2.2010  -999.2500   -46.6570    13.1050    12.9540
  967.0000    50.9790    10.2770     2.2130  -999.2500   -47.1600    12.9720    12.8960
  967.5000    47.5190    10.2790     2.2070  -999.2500   -47.6690    12.8390    12.8390
  968.0000    49.6540    10.2800     2.2040  -999.2500   -48.1980    12.7060    12.7810
  968.5000    56.6640    10.2810     2.2060  -999.2500   -47.9640    12.5740    12.7240
  969.0000    52.1180    10.2820     2.2220  -999.2500   -46.8160    12.4410    12.6660
  969.5000    49.4310    10.2830     2.2420  -999.2500   -46.4290    12.3320    12.6080
  970.0000    46.9460    10.2840     2.2820  -999.2500   -46.7740    12.2620    12.5510
  970.5000    47.0300    10.2860     2.3100  -999.2500   -46.0720    12.1720    12.4930
  971.0000    47.5090    10.2870     2.2920  -999.2500   -46.2790    12.0820    12.4460
  971.5000    48.7410    10.2880     2.2800  -999.2500   -46.5480    11.9930    12.6180
  972.0000    50.6530    10.2890     2.2700  -999.2500   -46.5790    11.9030    12.7950
  972.5000    52.9050    10.2900     2.2680  -999.2500   -46.4340    11.8130    12.7620
  973.0000    54.2890    10.2920     2.2680  -999.2500   -46.4070    11.7230    12.7200
  973.5000    52.4390    10.2930     2.2680  -999.2500   -46.0710    11.6690    12.6780
  974.0000    49.8970    10.2940     2.2680  -999.2500   -46.9100    11.7080    12.6360
  974.5000    49.0350    10.2950     2.2680  -999.2500   -47.2400    11.7410    12.5950
  975.0000    49.5700    10.2960     2.2680  -999.2500   -47.0300    11.7740    12.5510
  975.5000    51.2230    10.2970     2.2660  -999.2500   -47.4880    11.8070    12.5020
  976.0000    53.0100    10.2990     2.2620  -999.2500   -47.6360    11.8400    12.4520
  976.5000    54.0690    10.3000     2.2530  -999.2500   -46.9670    11.8810    12.4030
  977.0000    53.4140    10.3010     2.2250  -999.2500   -47.2400    11.8200    12.3530
  977.5000    52.7580    10.3020     2.2190  -999.2500   -47.7100    11.7130    12.3040
  978.0000    52.0190    10.3030     2.2270  -999.2500   -48.1900    11.6050    12.2540
  978.5000    51.8470    10.3050     2.2330  -999.2500   -48.2100    11.4560    12.2050
  979.0000    53.4960    10.3060     2.2380  -999.2500   -47.4960    11.4610    12.1550
  979.5000    55.8900    10.3070     2.2580  -999.2500   -46.8380    11.4740    12.1070
  980.0000    55.5320    10.3080     2.2950  -999.2500   -46.4260    11.4860    12.0980
  980.5000    55.3340    10.3090     2.3210  -999.2500   -45.6630    11.4990    12.0850
  981.0000    55.2770    10.3100     2.3420  -999.2500   -46.4580    11.5120    12.0710
  981.5000    55.3090    10.3120     2.3530  -999.2500   -47.1860    11.5240    12.0580
  982.0000    54.2110    10.3130     2.3620  -999.2500   -47.7490    11.5370    12.0440
  982.5000    52.5840    10.3140     2.3630  -999.2500   -46.8140    11.5500    12.0310
  983.0000    51.3830    10.3150     2.3660  -999.2500   -47.2020    11.5630    12.0170
  983.5000    51.4040    10.3160     2.3690  -999.2500   -46.3040    11.5220    12.0040
  984.0000    51.3650    10.3180     2.3790  -999.2500   -46.3970    11.4280    11.9800
  984.5000    51.3820    10.3190     2.3910  -999.2500   -47.5740    11.3350    11.9120
  985.0000    51.4160    10.3190     2.4020  -999.2500   -47.1640    11.2420    11.8450
  985.5000    51.6620    10.3180     2.4020  -999.2500   -47.7170    11.1490    11.7770
  986.0000    51.9920    10.3180     2.3930  -999.2500   -47.3010    11.0560    11.7090
  986.5000    52.1790    10.3170     2.3800  -999.2500   -45.7460    10.9520    11.6420
  987.0000    51.5250    10.3170     2.3690  -999.2500   -46.4610    10.8280    11.5740
  987.5000    53.1890    10.3170     2.3610  -999.2500   -47.1900    10.8020    11.5070
  988.0000    56.0030    10.3160     2.3540  -999.2500   -47.9120    10.7760    11.4560
  988.5000    55.4210    10.3160     2.3490  -999.2500   -48.6590    10.7500    11.7770
  989.0000    54.9840    10.3160     2.3490  -999.2500   -49.0070    10.6880    11.7650
  989.5000    55.6620    10.3150     2.3650  -999.2500   -48.9940    10.6060    11.7400
  990.0000    56.1940    10.3150     2.3810  -999.2500   -48.7400    10.5250    11.7150
  990.5000    56.7350    10.3150     2.3820  -999.2500   -47.7210    10.4440    11.6900
  991.0000    54.8230    10.3140     2.3720  -999.2500   -46.8110    10.3630    11.6650
  991.5000    52.1240    10.3140     2.3640  -999.2500   -47.7110    10.3520    11.6400
  992.0000    56.0620    10.3130     2.3450  -999.2500   -48.3310    10.3990    11.6150
  992.5000    57.5940    10.3130     2.3380  -999.2500   -47.1090    10.4350    11.5900
  993.0000    57.5820    10.3130     2.3440  -999.2500   -47.4770    10.4720    11.5650
  993.5000    57.9010    10.3120     2.3490  -999.2500   -47.5020    10.5090    11.5380
  994.0000    58.4210    10.3120     2.3610  -999.2500   -45.6910    10.5460    11.5030
  994.5000    57.1730    10.3120     2.3890  -999.2500   -45.6950    10.5820    11.4680
  995.0000    51.6260    10.3110     2.4250  -999.2500   -46.3020    10.6190    11.4330
  995.5000    57.8360    10.3110     2.4150  -999.2500   -46.9470    10.6560    11.3980
  996.0000    52.5680    10.3110     2.3550  -999.2500   -47.6310    10.6920    11.3630
  996.5000    48.6570    10.3100     2.2700  -999.2500   -47.4850    10.7290    11.3280
  997.0000    46.6450    10.3100     2.2820  -999.2500   -47.1690    10.7640    11.2930
  997.5000    49.0640    10.3090     2.4360  -999.2500   -47.3080    10.7990    11.2470
  998.0000    50.9260    10.3090     2.3720  -999.2500   -47.3850    10.8330    11.2600
  998.5000    52.9450    10.3090     2.3820  -999.2500   -47.9030    10.8680    11.2790
  999.0000    54.1420    10.3080     2.3770  -999.2500   -48.4990    10.9020    11.2990
  999.5000    54.5940    10.3080     2.3800  -999.2500   -48.0130    10.9400    11.3180
 1000.0000    56.1090    10.3080     2.3670  -999.2500   -48.3240    10.9800    11.3370
 1000.5000    58.3410    10.3070     2.3430  -999.2500   -46.6470    11.0250    11.3610
 1001.0000    58.5910    10.3070     2.3260  -999.2500   -46.8720    11.0700    11.3960
