~VERSION INFORMATION
 VERS.                2.0:   CWLS LOG ASCII STANDARD - VERSION 2.0
 WRAP.                 NO:   ONE LINE PER DEPTH STEP
~WELL INFORMATION
#MNEM.UNIT      DATA TYPE    INFORMATION
#----------   ------------   ------------------------------
 STRT.F          545.0000:   START DEPTH
 STOP.F         3193.0000:   STOP DEPTH
 STEP.F            0.5000:   STEP LENGTH
 NULL.          -999.2500:   NO VALUE
 COMP. FENIX & SCISSON-U.S. NAVY:   COMPANY
 WELL.   FENIX "A" #47-34:   WELL
 FLD .          N.P.R. #3:   FIELD
 LOC .      S34 T39N R78W:   LOCATION
 CNTY.            NATRONA:   COUNTY
 STAT.            WYOMING:   STATE
 CTRY. UNITED STATES OF AMERICA:   COUNTRY
 SRVC.       SCHLUMBERGER:   SERVICE COMPANY
 DATE.        26-MAR-1977:   LOGDATE
 API .     49025103260000:   API NUMBER
~CURVE INFORMATION
#MNEM.UNIT       API CODE    CURVE DESCRIPTION
#----------   ------------   ------------------------------
 DEPT.F                  :   
 SPR .MV     07 010 01 00:   SPONTANEOUS POTENTIAL FROM RES.
 ILM .OHMM   07 120 44 00:   INDUCTION LOG MEDIUM RESISTIVITY
 ILD .OHMM   07 120 46 00:   DEEP INDUCTION RESISTIVITY
 LL8 .OHMM   07 220 08 00:   LATEROLOG-8 RES.
 CALD.IN     45 280 60 00:   CALIPER FROM DENSITY LOG
 GRD .GAPI   45 310 01 00:   GAMMA RAY FROM DENSITY LOG
 RHOB.G/C3   45 350 01 00:   BULK DENSITY
 CORR.G/C3   45 356 01 00:   DENSITY CORRECTION
~PARAMETER INFORMATION
#MNEM.UNIT          VALUE    DESCRIPTION
#----------   ------------   ------------------------------
 EKB .F         5144.0000:   Kelly bushing
 EGL .F         5132.0000:   Ground level
 TD  .F         3194.0000:   Total depth
 CLNT.            A2DTECH:   Client Code
 SL  . 2310' FWL & 990' FSL:   Surface Location
 PD  .                 GL:   Permanent Datum
 EPD .F              5132:   Elevation Permanent Datum
 LMF .                 KB:   Log Measured From
 DMF .                 KB:   Drilling Measured From
 DAPD.F                12:   Feet Above Permanent Datum
 DATE.        26-MAR-1977:   Date Logged [DD-MMM-YYYY]
 DD  .F              3188:   Depth driller
 DL  .F              3194:   Depth logger
 BLI .F              3188:   Bottom log interval
 TLI .F               564:   Top log interval
 CS1 .IN            8.625:   Casing size
 CBD1.      8.625" @ 570':   Casing driller 1
 CBL1.F               564:   Casing logger 1
 BS1 .IN            7.875:   Bit size
 BSD1.F              3188:   Depth drilled with bit1
 DFT .                KCL:   Type fluid in hole
 DFD .                9.2:   Density
 DFV .                 30:   Viscosity
 DFL .                9.2:   Fluid loss
 MSS .                PIT:   Source of sample
 RMS .OHMM          0.354:   Rm
 MST .F                70:   Rm Meas. temp.
 RMF .OHMM          0.326:   Rmf
 MFST.F                70:   Rmf Meas. temp.
 MFSS.               MEAS:   Source Rmf.
 RMC .OHMM          0.531:   Rmc
 MCST.F                70:   Rmc Meas. temp.
 MCSS.               CALC:   Source Rmc.
 RMB .OHMM          0.205:   Rm. at BHT
 BHT .F               121:   BHT.
 TLAB.HRS            1900:   Time logger at bottom
 MRT .F               121:   Maximum recorded temp.
 LUN .               5642:   Logging unit number
 LUL .               CSPR:   Logging unit location
 ENGI.             MARTIN:   Recorded By
 WITN.         PETTINGILL:   Witnessed by
 ORIG.           5" PRINT:   Origin of data
 UWI .     49025103260000:   Unique Well ID
 DICO. A2D TECHNOLOGIES, INC.:   Digitizing Company
~OTHER INFORMATION
~A   DEPT      SPR        ILM        ILD        LL8       CALD         GRD      RHOB       CORR   
# ...
 1233.5000   -61.9591     7.3041     7.1813    10.5025     8.2431   131.9274     2.5290     0.0358
 1234.0000   -62.0057     7.3611     7.2380    10.8038     8.2431   130.3066     2.5488     0.0295
 1234.5000   -62.0269     7.4739     7.2556    10.8110     8.2431   128.8349     2.5286     0.0197
 1235.0000   -61.5873     7.5821     7.2997    10.3747     8.2431   128.5508     2.5302     0.0143
 1235.5000   -61.1906     7.6413     7.3561    10.1033     8.2431   129.6173     2.5385     0.0299
 1236.0000   -61.2155     7.6479     7.4129    10.3950     8.2431   126.6794     2.5596     0.0385
 1236.5000   -61.6341     7.7076     7.4716    10.8419     8.2431   123.1018     2.5634     0.0495
 1237.0000   -61.6138     7.7389     7.4766    11.0000     8.2431   122.3753     2.5553     0.0491
 1237.5000   -61.6084     7.7746     7.4835    11.0074     8.2431   122.2402     2.5433     0.0326
 1238.0000   -61.6333     7.8368     7.5698    10.9371     8.2431   122.2635     2.5336     0.0233
 1238.5000   -61.2029     7.8980     7.6519    10.8708     8.2431   122.5801     2.5450     0.0265
 1239.0000   -61.2143     8.0704     7.7113    10.2937     8.2431   124.2712     2.5427     0.0312
 1239.5000   -61.2619     8.0967     7.7741    10.2297     8.2431   125.6027     2.5377     0.0360
 1240.0000   -61.4823     8.1968     7.8867    10.9702     8.2431   126.3664     2.5250     0.0157
 1240.5000   -61.6962     8.2614     7.9195    11.2849     8.2431   127.4283     2.5273     0.0206
 1241.0000   -61.8772     8.3256     7.9717    11.5288     8.2431   129.3843     2.5222     0.0168
 1241.5000   -62.3461     8.3331     8.1267    11.6970     8.2431   127.6145     2.5072     0.0130
 1242.0000   -62.0647     8.3993     8.1895    11.7048     8.2431   125.2173     2.5103     0.0085
 1242.5000   -61.8164     8.4649     8.3115    11.8755     8.2431   122.5893     2.5164     0.0078
 1243.0000   -61.5981     8.5510     8.4337    11.9658     8.2431   120.0744     2.5120     0.0055
 1243.5000   -61.3821     8.5974     8.4988    12.0570     8.2431   117.2614     2.5038     0.0025
 1244.0000   -61.0949     8.6720     8.6237    12.0669     8.2431   118.0252     2.5219     0.0126
 1244.5000   -60.6442     8.7947     8.7505    12.0750     8.2431   120.1303     2.5355     0.0267
 1245.0000   -60.6061     8.9247     8.9406    12.0831     8.2431   120.5961     2.5498     0.0306
 1245.5000   -60.6178     9.1195     9.0828    12.1750     8.2431   120.4702     2.5679     0.0260
 1246.0000   -60.5885     9.3186     9.2072    12.4381     8.2431   117.8063     2.5660     0.0316
 1246.5000   -61.0472     9.3913     9.2783    12.7950     8.2431   117.6712     2.5456     0.0278
 1247.0000   -61.0422     9.6004     9.3500    13.1621     8.2431   118.7377     2.5299     0.0178
 1247.5000   -60.5254     9.7404     9.3574    13.3542     8.2431   119.7995     2.5420     0.0217
 1248.0000   -60.2245     9.8844     9.4297    13.3652     8.2431   121.6125     2.5338     0.0102
 1248.5000   -60.3302     9.8930     9.3097    13.2822     8.2431   123.7162     2.5076     0.0033
 1249.0000   -60.8674     9.7635     9.2531    12.8401     8.2431   125.8213     2.4987     0.0002
 1249.5000   -61.4195     9.7065     9.2604    12.3273     8.2431   127.6282     2.5101     0.0065
 1250.0000   -61.7909     9.6483     9.2678    11.8330     8.2431   126.0075     2.5184     0.0136
 1250.5000   -61.5043     9.6570     9.2752    13.5966     8.2431   122.8965     2.5207     0.0191
 1251.0000   -61.1767     9.6671     9.2825    13.9867     8.2431   121.4248     2.5185     0.0153
 1251.5000   -60.8487     9.7414     9.2918    13.6100     8.2431   119.8834     2.5254     0.0082
 1252.0000   -60.6107     9.7510     9.2992    13.2265     8.2431   119.3756     2.5256     0.0123
 1252.5000   -60.6157     9.7594     9.3065    13.8250     8.2438   119.6922     2.5240     0.0194
 1253.0000   -60.6150     9.7678     9.3139    14.0266     8.2451   118.2252     2.5466     0.0295
 1253.5000   -60.6151     9.7765     9.3859    13.6537     8.2465   116.7535     2.5302     0.0412
 1254.0000   -60.6151     9.8547     9.3933    12.7513     8.2478   115.8779     2.5265     0.0243
 1254.5000   -60.6123     9.9445     9.4678    13.7667     8.2491   116.4056     2.5304     0.0198
 1255.0000   -60.6058    10.0785     9.5409    13.7884     8.2505   118.3043     2.5245     0.0244
 1255.5000   -60.7264    10.1572     9.6146    13.3174     8.2518   117.7268     2.5223     0.0167
 1256.0000   -61.3024    10.3074     9.7559    12.7671     8.2531   116.2551     2.5321     0.0207
 1256.5000   -61.3090    10.4627     9.8993    13.1546     8.2545   116.7208     2.5405     0.0231
 1257.0000   -60.6329    10.7646    10.1144    13.7202     8.2558   118.9749     2.5405     0.0209
 1257.5000   -60.6190    10.9996    10.2753    13.9203     8.2571   120.7998     2.5091     0.0124
 1258.0000   -60.6140    11.3176    10.4988    14.0261     8.2584   120.0600     2.5242     0.0109
 1258.5000   -60.6151    11.6448    10.7902    14.2307     8.2598   116.3528     2.5385     0.0180
 1259.0000   -60.6151    11.9815    11.0246    14.6390     8.2611   113.2418     2.5536     0.0274
 1259.5000   -60.6158    12.4995    11.1866    15.5879     8.2624   113.1067     2.5515     0.0329
 1260.0000   -60.6174    12.9624    11.5088    16.3863     8.2638   112.6835     2.5418     0.0322
 1260.5000   -60.6025    13.4197    11.8426    17.6773     8.2651   111.6591     2.5320     0.0292
 1261.0000   -60.3264    13.8077    12.1836    18.6937     8.2664   110.9260     2.5142     0.0253
 1261.5000   -60.2447    14.1091    12.4483    19.6325     8.2678   111.3010     2.5263     0.0309
 1262.0000   -59.7329    14.2192    12.8068    19.1105     8.2691   112.3163     2.5316     0.0410
 1262.5000   -59.4385    14.5296    12.9951    18.4744     8.2704   111.1428     2.5152     0.0403
 1263.0000   -59.4177    14.6432    12.9414    17.9833     8.2718   109.2242     2.5175     0.0381
 1263.5000   -59.4704    14.6588    12.8632    17.7483     8.2731   107.7527     2.5341     0.0436
 1264.0000   -60.2250    14.5673    12.7850    18.5151     8.2744   109.4108     2.5486     0.0537
 1264.5000   -60.3232    14.5831    12.7707    19.3080     8.2757   112.1122     2.5328     0.0399
 1265.0000   -60.6004    14.2931    12.6060    18.9276     8.2771   113.9399     2.5126     0.0221
 1265.5000   -60.6506    13.9181    12.5192    18.1717     8.2784   115.9462     2.5059     0.0160
 1266.0000   -60.1569    13.5508    12.2008    18.5644     8.2797   115.4520     2.5113     0.0036
 1266.5000   -59.8350    13.1048    11.9605    18.3191     8.2811   113.8314     2.5294     0.0068
 1267.0000   -59.7982    12.7586    11.8855    17.7123     8.2825   113.1051     2.5444     0.0227
 1267.5000   -60.3676    12.5050    11.6515    16.6563     8.2811   113.7200     2.5513     0.0341
 1268.0000   -60.7598    12.2591    11.4988    15.8811     8.2792   115.2291     2.5506     0.0381
 1268.5000   -61.1605    12.1013    11.2769    15.4478     8.2774   117.6324     2.5537     0.0389
 1269.0000   -61.5509    11.8657    11.1314    14.9468     8.2756   120.0478     2.5598     0.0320
 1269.5000   -61.7948    11.7513    10.9874    14.9569     8.2737   121.7374     2.5741     0.0453
 1270.0000   -62.5066    11.6000    10.6973    15.8168     8.2719   123.2076     2.5419     0.0314
 1270.5000   -62.6024    11.4486    10.4850    16.4941     8.2701   123.5198     2.5270     0.0229
 1271.0000   -62.6145    11.2973    10.3436    15.5134     8.2682   120.2646     2.5331     0.0277
 1271.5000   -62.3310    11.1459    10.2111    14.9970     8.2664   115.3653     2.5309     0.0138
 1272.0000   -62.0195    10.9946    10.1558    15.0071     8.2646   113.4420     2.5468     0.0302
 1272.5000   -61.8317    10.8432    10.0267    15.0173     8.2628   117.7874     2.5851     0.0550
 1273.0000   -61.4398    10.6733     9.9638    14.8211     8.2609   120.6414     2.5762     0.0404
 1273.5000   -60.9844    10.5339     9.9033    14.5295     8.2591   120.8056     2.5320     0.0242
