~VERSION INFORMATION
 VERS.                2.0:   CWLS LOG ASCII STANDARD - VERSION 2.0
 WRAP.                 NO:   ONE LINE PER DEPTH STEP
~WELL INFORMATION
#MNEM.UNIT      DATA TYPE    INFORMATION
#----------   ------------   ------------------------------
 STRT.F         3500.0000:   START DEPTH
 STOP.F         6855.0000:   STOP DEPTH
 STEP.F            0.5000:   STEP LENGTH
 NULL.          -999.2500:   NO VALUE
 COMP.          U.S. NAVY:   COMPANY
 WELL.  US NAVY "G" #1-10:   WELL
 FLD . TEAPOT NAVAL RESERVE:   FIELD
 LOC .      S10 T38N R78W:   LOCATION
 CNTY.            NATRONA:   COUNTY
 STAT.            WYOMING:   STATE
 CTRY. UNITED STATES OF AMERICA:   COUNTRY
 SRVC.         LANE WELLS:   SERVICE COMPANY
 DATE.        23-MAR-1952:   LOGDATE
 API .     49025063380000:   API NUMBER
~CURVE INFORMATION
#MNEM.UNIT       API CODE    CURVE DESCRIPTION
#----------   ------------   ------------------------------
 DEPT.F                  :   
 GRN .GAPI   35 310 01 00:   GAMMA RAY
 NEUT.NAPI   35 330 01 00:   NEUTRON
~PARAMETER INFORMATION
#MNEM.UNIT          VALUE    DESCRIPTION
#----------   ------------   ------------------------------
 EKB .F         5195.0000:   Kelly bushing
 EGL .F         5184.0000:   Ground level
 EDF .F         5195.0000:   Drilling floor
 EPD .F            0.0000:   Permanent datum
 TD  .F         6861.0000:   Total depth
 CLNT.            A2DTECH:   Client Code
 PD  .                 GL:   Permanent Datum
 DATE.        23-MAR-1952:   Date Logged [DD-MMM-YYYY]
 DD  .F              6861:   Depth driller
 DL  .F              6861:   Depth logger
 BLI .F              6855:   Bottom log interval
 TLI .F              3500:   Top log interval
 BSD1.F              6861:   Depth drilled with bit1
 DFT .                MUD:   Type fluid in hole
 ENGI.            GAMBERG:   Recorded By
 WITN.           GRIBBENS:   Witnessed by
 ORIG.         2.5" PRINT:   Origin of data
 UWI .     49025063380000:   Unique Well ID
 DICO. A2D TECHNOLOGIES, INC.:   Digitizing Company
~OTHER INFORMATION
~A  DEPT       GRN        NEUT  
# ...
 4593.5000    92.6022   416.4251
 4594.0000    90.1620   434.2425
 4594.5000    84.7877   438.2549
 4595.0000    84.0589   445.8347
 4595.5000    83.5746   510.0101
 4596.0000    79.8307   557.7326
 4596.5000    74.5099   603.9667
 4597.0000    70.6820   638.5225
 4597.5000    71.6656   659.3162
 4598.0000    71.1859   685.0353
 4598.5000    69.9745   706.1705
 4599.0000    69.2018   716.6265
 4599.5000    68.7711   725.2574
 4600.0000    69.5928   737.6218
 4600.5000    71.8872   745.0356
 4601.0000    74.7157   742.5485
 4601.5000    77.1001   740.0613
 4602.0000    78.5715   730.1484
 4602.5000    81.0186   702.0800
 4603.0000    83.4982   684.8448
 4603.5000    84.9378   677.5688
 4604.0000    84.9463   675.6436
 4604.5000    85.2922   674.6733
 4605.0000    86.3049   671.9864
 4605.5000    88.3881   666.5959
 4606.0000    90.3474   635.9879
 4606.5000    92.3067   601.3225
 4607.0000    94.7538   554.2809
 4607.5000    96.7961   517.1403
 4608.0000    96.4282   482.4749
 4608.5000    92.5196   447.4170
 4609.0000    90.4621   415.4726
 4609.5000    89.2964   378.4777
 4610.0000    89.9282   375.9917
 4610.5000    89.9362   380.1670
 4611.0000    88.9687   400.7112
 4611.5000    87.0095   426.2182
 4612.0000    85.5702   463.3663
 4612.5000    86.8598   489.0638
 4613.0000    87.5390   500.5363
 4613.5000    86.3522   489.4260
 4614.0000    84.1431   458.4984
 4614.5000    84.1511   439.9495
 4615.0000    84.6470   456.0668
 4615.5000    88.0697   465.9872
 4616.0000    91.4924   475.9076
 4616.5000    89.7932   486.7690
 4617.0000    91.0950   500.0902
 4617.5000    91.5183   511.5473
 4618.0000    91.0229   537.8713
 4618.5000    90.0734   602.2520
 4619.0000    87.6424   629.4991
 4619.5000    89.6017   651.7958
 4620.0000    90.5854   656.7657
 4620.5000    87.3798   643.4838
 4621.0000    83.5454   629.5768
 4621.5000    81.4047   635.7931
 4622.0000    79.2045   659.3389
 4622.5000    75.0200   686.5754
 4623.0000    72.3451   687.2138
 4623.5000    70.4020   674.2380
 4624.0000    68.7027   689.1089
 4624.5000    66.9915   691.6048
 4625.0000    66.7676   682.9697
 4625.5000    69.1423   651.4156
 4626.0000    71.3705   616.1716
 4626.5000    71.1841   533.2751
 4627.0000    71.6820   486.2648
 4627.5000    73.1535   459.0565
 4628.0000    74.8688   464.0264
 4628.5000    75.6086   474.5643
 4629.0000    76.2283   488.1936
 4629.5000    79.0080   493.7912
 4630.0000    80.9995   504.9505
 4630.5000    81.4963   526.0144
 4631.0000    83.5851   540.8853
 4631.5000    86.8805   568.1324
 4632.0000    87.6203   625.0825
 4632.5000    85.4333   684.8069
 4633.0000    82.7343   719.1729
 4633.5000    80.0849   739.3094
 4634.0000    77.8978   747.6898
 4634.5000    75.4308   726.6744
 4635.0000    75.2310   672.2383
 4635.5000    78.5123   637.6044
 4636.0000    81.0037   602.9703
 4636.5000    82.7178   536.6934
 4637.0000    85.9990   444.5933
 4637.5000    88.4461   401.0170
 4638.0000    90.4054   376.5677
 4638.5000    92.1208   355.5523
 4639.0000    93.8850   360.5222
 4639.5000    95.0638   380.3436
 4640.0000    94.1792   405.1155
 4640.5000    92.3387   434.5252
 4641.0000    89.1368   467.0482
 4641.5000    85.1001   489.0328
 4642.0000    84.1325   524.0305
 4642.5000    83.6528   556.2124
 4643.0000    84.1649   578.5090
 4643.5000    85.7662   588.4294
 4644.0000    89.6290   588.4489
 4644.5000    94.3533   553.8263
 4645.0000   100.5979   507.3975
 4645.5000   101.5101   468.1428
 4646.0000   103.7133   436.3036
 4646.5000   106.5627   380.6348
 4647.0000   109.5844   348.4760
 4647.5000   111.2998   326.2182
 4648.0000   114.7225   336.1386
 4648.5000   120.6235   360.5933
 4649.0000   123.8033   398.6568
 4649.5000   124.7476   456.2654
 4650.0000   124.2696   499.5875
 4650.5000   122.8143   556.5424
 4651.0000   119.1638   583.9164
 4651.5000   114.9893   625.4701
 4652.0000   109.4103   639.1106
 4652.5000   105.4085   633.7648
 4653.0000   102.4101   564.0717
 4653.5000    99.8370   479.9327
 4654.0000    96.0428   410.6452
 4654.5000    96.9152   351.2586
 4655.0000    98.7439   293.1259
 4655.5000   101.2237   244.8618
 4656.0000   103.2972   255.6225
 4656.5000   105.3710   296.4745
 4657.0000   107.8039   291.9595
 4657.5000   108.7876   287.0256
 4658.0000   108.7957   306.8498
 4658.5000   110.5110   331.6217
 4659.0000   114.1070   357.4214
 4659.5000   117.1341   383.2216
 4660.0000   119.3977   399.3331
 4660.5000   121.6064   405.9612
 4661.0000   121.7409   339.1542
 4661.5000   119.5879   287.1934
 4662.0000   117.1569   250.1833
 4662.5000   117.6528   232.8989
 4663.0000   118.6689   235.4165
 4663.5000   120.7803   240.5095
 4664.0000   122.8161   228.0754
 4664.5000   125.2259   233.7480
 4665.0000   127.4512   238.0658
 4665.5000   131.3637   231.5967
 4666.0000   134.0547   217.3499
 4666.5000   133.3311   220.8413
 4667.0000   131.1440   253.1029
 4667.5000   129.3239   277.8976
 4668.0000   125.1602   282.8905
 4668.5000   121.6699   280.4576
 4669.0000   120.4792   268.1236
 4669.5000   118.8332   238.1611
 4670.0000   116.3184   222.4843
 4670.5000   113.3997   207.8105
 4671.0000   111.4565   201.4612
 4671.5000   111.4646   214.6658
 4672.0000   111.9610   238.4623
 4672.5000   110.8110   259.1774
 4673.0000   107.8080   283.3348
 4673.5000   106.5109   318.0305
 4674.0000   105.6553   347.7758
 4674.5000   105.6633   347.8181
 4675.0000   106.1592   345.2339
 4675.5000   106.1673   320.6750
 4676.0000   105.9156   320.2506
 4676.5000   105.9851   305.6211
 4677.0000   107.3875   278.1951
 4677.5000   108.7008   242.2825
 4678.0000   110.8923   218.9391
 4678.5000   112.0734   249.1679
 4679.0000   110.3741   288.8142
 4679.5000   108.1871   308.6584
 4680.0000   106.2439   338.4037
 4680.5000   102.4074   353.2975
 4681.0000    96.9927   363.6568
 4681.5000    99.7003   368.2336
 4682.0000   101.3355   334.6910
 4682.5000   103.0755   304.5754
 4683.0000   101.4183   286.7802
 4683.5000   100.9378   272.5992
 4684.0000   101.6783   268.5056
 4684.5000   102.4304   291.7760
 4685.0000   102.9555   301.7192
 4685.5000   103.4800   294.3358
 4686.0000   103.6144   279.5267
 4686.5000   105.0336   282.3689
 4687.0000   107.8283   292.3748
 4687.5000   111.2510   299.4607
 4688.0000   113.2103   282.9865
 4688.5000   114.4379   260.7130
 4689.0000   114.1540   237.6013
 4689.5000   113.2345   208.0618
 4690.0000   113.3250   225.4309
 4690.5000   113.9594   252.7009
 4691.0000   115.0005   284.9214
 4691.5000   116.1976   304.7657
 4692.0000   116.4973   322.8343
 4692.5000   114.7503   349.4048
 4693.0000   113.2963   339.5461
 4693.5000   111.5971   341.1542
 4694.0000   109.4100   360.5100
 4694.5000   106.6870   395.2705
 4695.0000   105.1593   431.3207
 4695.5000   102.4035   451.1650
 4696.0000    97.9026   468.5340
 4696.5000    95.3067   463.6258
 4697.0000    92.3879   488.4207
 4697.5000    84.9717   523.7535
 4698.0000    82.2262   572.1863
 4698.5000    80.7187   658.1014
 4699.0000    79.6335   695.2466
 4699.5000    78.9917   717.3229
 4700.0000    73.9038   718.9986
 4700.5000    73.7534   667.1588
 4701.0000    76.8467   595.2159
 4701.5000    79.5459   540.8028
 4702.0000    79.7897   478.9639
 4702.5000    78.0305   469.1036
 4703.0000    77.6107   461.6918
 4703.5000    78.4623   456.5682
 4704.0000    81.5333   451.4356
 4704.5000    84.2243   434.7330
 4705.0000    88.6226   397.6685
 4705.5000    97.4112   349.0920
 4706.0000    99.9147   301.0558
 4706.5000   104.7979   244.2174
 4707.0000   107.1716   251.6854
 4707.5000   108.0307   264.1040
 4708.0000   106.0783   271.5721
 4708.5000   107.5422   281.5153
 4709.0000   110.4656   302.1881
 4709.5000   106.0742   322.9084
 4710.0000   101.1950   344.3054
 4710.5000    97.1529   365.2442
 4711.0000    95.6917   395.0003
 4711.5000    94.6493   422.1623
 4712.0000    91.1018   465.0010
 4712.5000    89.5731   499.6967
 4713.0000    88.0169   519.5411
 4713.5000    89.4791   531.9596
 4714.0000    90.6974   529.5267
 4714.5000    88.5012   524.4583
