~VERSION INFORMATION
 VERS.                2.0:   CWLS LOG ASCII STANDARD - VERSION 2.0
 WRAP.                 NO:   ONE LINE PER DEPTH STEP
~WELL INFORMATION
#MNEM.UNIT      DATA TYPE    INFORMATION
#----------   ------------   ------------------------------
 STRT.F           50.0000:   START DEPTH
 STOP.F         3270.0000:   STOP DEPTH
 STEP.F            0.5000:   STEP LENGTH
 NULL.          -999.2500:   NO VALUE
 COMP.   LAWRENCE ALLISON:   COMPANY
 WELL. LAWRENCE NPR 3 "AX" #12-11:   WELL
 FLD .                NPR:   FIELD
 LOC .      S11 T38N R78W:   LOCATION
 CNTY.            NATRONA:   COUNTY
 STAT.            WYOMING:   STATE
 CTRY. UNITED STATES OF AMERICA:   COUNTRY
 SRVC.      DRESSER ATLAS:   SERVICE COMPANY
 DATE.        18-JUL-1985:   LOGDATE
 API .     49025110460000:   API NUMBER
~CURVE INFORMATION
#MNEM.UNIT       API CODE    CURVE DESCRIPTION
#----------   ------------   ------------------------------
 DEPT.F                  :   
 TEND.LBS    45 635 01 00:   TENSION FROM DENSITY LOG
 RHOB.G/C3   45 350 01 00:   BULK DENSITY
 CORR.G/C3   45 356 01 00:   DENSITY CORRECTION
 NPHI.DEC    42 890 03 00:   NEUTRON POROSITY SANDSTONE
 TENR.LBS    07 635 01 00:   TENSION
 GRR .GAPI   07 310 01 00:   GAMMA RAY FROM RESISTIVITY
 RFOC.OHMM   07 220 01 00:   RESISTIVITY FOCUSED LOG RES.
 RILD.OHMM   07 120 46 00:   INDUCTION LOG DEEP RESISTIVITY
 RILM.OHMM   07 120 44 00:   INDUCTION LOG MEDIUM RESISTIVITY
 SN  .OHMM   01 040 00 00:   SHORT NORMAL
 ILD .OHMM   07 120 46 00:   INDUCTION LOG DEEP RESISTIVITY
 TENS.LBS    60 635 01 00:   TENSION FROM SONIC LOG
 DT  .US/F   60 520 00 00:   DELTA TIME
 SPR .MV     07 010 01 00:   SPONTANEOUS POTENTIAL
~PARAMETER INFORMATION
#MNEM.UNIT          VALUE    DESCRIPTION
#----------   ------------   ------------------------------
 EKB .F         5152.0000:   Kelly bushing
 EGL .F         5140.0000:   Ground level
 EDF .F            0.0000:   Drilling floor
 TD  .F         3271.0000:   Total depth
 DATE.        18-JUL-1985:   Date logged
 CLNT.            A2DTECH:   Client Code
 SL  . 1050' FNL & 150' FWL:   Surface Location
 PD  .                 GL:   Permanent Datum
 EPD .F              5140:   Elevation Permanent Datum
 LMF .                 KB:   Log Measured From
 DMF .                 KB:   Drilling Measured From
 DAPD.F                12:   Feet Above Permanent Datum
 DD  .F              3271:   Depth driller
 DL  .F              3262:   Depth logger
 BLI .F              3259:   Bottom log interval
 CS1 .IN            8.625:   Casing size
 CBD1.      8.625" @ 560':   Casing driller 1
 CBL1.F               560:   Casing logger 1
 BS1 .IN            7.875:   Bit size
 BSD1.F              3271:   Depth drilled with bit1
 DFT .            GEL/KCL:   Type fluid in hole
 DFD .                8.8:   Density
 DFV .                 40:   Viscosity
 DFPH.                  8:   pH
 DFL .                  8:   Fluid loss
 MSS .           MUD/TANK:   Source of sample
 RMS .OHMM            .31:   Rm
 MST .F                82:   Rm Meas. temp.
 RMF .OHMM            .25:   Rmf
 MFST.F                82:   Rmf Meas. temp.
 RMC .OHMM            .39:   Rmc
 MCST.F                82:   Rmc Meas. temp.
 MFSS.               MEAS:   Source Rmf.
 MCSS.               CALC:   Source Rmc.
 RMB .OHMM           .198:   Rm. at BHT
 BHT .F               128:   BHT.
 TCS .HRS               3:   Time Circ. stopped
 MRT .F               128:   Maximum recorded temp.
 LUN .            HL-6274:   Logging unit number
 LUL .           GILLETTE:   Logging unit location
 ENGI.             RAUTIO:   Recorded By
 WITN.             STRONG:   Witnessed by
 ORIG.           5" PRINT:   Origin of data
 UWI .     49025110460000:   Unique Well ID
 DICO. A2D TECHNOLOGIES, INC.:   Digitizing Company
~OTHER INFORMATION
~A   DEPT     TEND       RHOB       CORR       NPHI       TENR        GRR       RFOC       RILD       RILM           SN        ILD     TENS         DT         SPR  
# ...
 2745.0000   -72.9550     2.5650     0.0200     0.1750   -37.4230    93.3790    10.3250     8.1420     7.8710  -999.2500  -999.2500   -58.7200    73.8310    47.6250
 2745.5000   -71.8440     2.5510     0.0140     0.1780   -37.3110    92.2230     9.9860     8.3500     8.0760  -999.2500  -999.2500   -57.5040    73.2600    46.9050
 2746.0000   -70.7330     2.5380     0.0040     0.1860   -37.1990    95.7940     9.5910     8.5590     8.2810  -999.2500  -999.2500   -56.2890    73.5800    46.5830
 2746.5000   -69.6220     2.5300    -0.0090     0.1940   -37.0870    99.1250     9.1970     8.7520     8.4850  -999.2500  -999.2500   -55.0740    74.1900    46.4050
 2747.0000   -68.5110     2.5310    -0.0120     0.1980   -36.9750    98.8810     8.8330     8.8710     8.6300  -999.2500  -999.2500   -53.8580    74.8000    46.2320
 2747.5000   -67.4000     2.5330    -0.0100     0.1950   -36.8630    95.7360     8.6630     9.0070     8.7630  -999.2500  -999.2500   -52.6430    75.1200    46.0570
 2748.0000   -66.2890     2.5340    -0.0070     0.1910   -36.7510    93.0950     8.5050     9.1440     8.8970  -999.2500  -999.2500   -51.4280    75.2870    45.8300
 2748.5000   -65.1780     2.5360     0.0070     0.1890   -36.6390    91.9150     8.3470     9.2800     9.0310  -999.2500  -999.2500   -50.2120    75.1900    45.4220
 2749.0000   -64.0670     2.5390     0.0170     0.1910   -36.5270    90.7720     8.1900     9.4160     9.1650  -999.2500  -999.2500   -48.9970    74.8120    45.0280
 2749.5000   -62.9560     2.5430     0.0170     0.1980   -36.4150    90.7930     8.0320     9.5520     9.2990  -999.2500  -999.2500   -47.7820    74.4120    44.8640
 2750.0000   -61.8450     2.5400     0.0040     0.2030   -36.3040    95.9980     7.8080     9.7490     9.4190  -999.2500  -999.2500   -46.5660    74.0990    45.0370
 2750.5000   -60.7330     2.5290    -0.0020     0.2060   -36.1920   102.4560     7.4190     9.4770     9.5940  -999.2500  -999.2500   -45.3510    74.6220    44.9470
 2751.0000   -59.6220     2.5190     0.0090     0.2090   -36.0800   107.8000     7.5560     8.7930     9.0360  -999.2500  -999.2500   -44.1350    75.6270    45.1050
 2751.5000   -58.5110     2.5130     0.0180     0.2110   -35.9680   108.4730     7.2590     8.1090     8.3640  -999.2500  -999.2500   -42.9200    77.8930    45.2560
 2752.0000   -57.4000     2.5210     0.0080     0.2010   -35.8560   105.9370     6.7060     7.6260     7.6260  -999.2500  -999.2500   -41.7050    79.0440    45.4070
 2752.5000   -56.2890     2.5310    -0.0040     0.1930   -35.7440   103.0280     7.1150     7.6570     7.4870  -999.2500  -999.2500   -40.4890    79.4530    45.5560
 2753.0000   -55.1780     2.5370    -0.0060     0.1990   -35.6430   100.4950     8.0660     7.6960     7.5350  -999.2500  -999.2500   -39.2740    78.5190    45.7060
 2753.5000   -54.0670     2.5300    -0.0090     0.2060   -35.6430    99.0340     9.0170     7.7850     7.5910  -999.2500  -999.2500   -38.0590    77.5850    45.8600
 2754.0000   -52.9560     2.5240    -0.0120     0.2140   -35.6430    99.4740     9.7720     7.8460     7.6960  -999.2500  -999.2500   -36.8430    76.9020    46.0610
 2754.5000   -51.8450     2.5160    -0.0110     0.2210   -35.6430   101.2910     9.4220     7.9060     7.7960  -999.2500  -999.2500   -37.4340    77.5190    46.5580
 2755.0000   -50.7340     2.5190    -0.0060     0.2190   -35.6430   102.3700     9.1040     7.9660     7.8960  -999.2500  -999.2500   -45.8170    78.1470    47.0400
 2755.5000   -49.6230     2.5240     0.0040     0.2150   -35.6430   101.8680     8.7860     8.1330     7.9970  -999.2500  -999.2500   -44.0740    78.5270    47.5200
 2756.0000   -48.5120     2.5320     0.0200     0.2120   -35.6430   100.4860     8.4360     8.2840     8.0970  -999.2500  -999.2500   -35.8570    78.6270    48.0000
 2756.5000   -47.4010     2.5410     0.0300     0.2100   -35.6430    98.2680     8.7340     8.5300     8.2070  -999.2500  -999.2500   -37.4930    78.3120    48.4810
 2757.0000   -46.2900     2.5490     0.0160     0.2090   -35.6430    95.1780     8.9960     8.8720     8.5810  -999.2500  -999.2500   -44.6780    77.5840    48.9760
 2757.5000   -51.4210     2.5510     0.0060     0.2010   -35.6430    91.9590     9.5230     9.2140     8.9970  -999.2500  -999.2500   -45.8170    76.6170    49.1840
 2758.0000   -58.5570     2.5490     0.0070     0.1930   -35.6430    92.0880    10.1070     9.5560     9.4120  -999.2500  -999.2500   -45.8170    75.7070    49.3030
 2758.5000   -65.9200     2.5390     0.0030     0.2000   -35.6430    97.9150    10.6130     9.8980     9.8280  -999.2500  -999.2500   -45.8170    75.3080    49.4170
 2759.0000   -65.0650     2.5290    -0.0060     0.2060   -35.6430   103.2170    11.0250    10.1370     9.9530  -999.2500  -999.2500   -38.8450    75.2420    49.5300
 2759.5000   -64.1800     2.5210    -0.0150     0.2160   -35.6430   105.5400    11.3980    10.0240     9.7480  -999.2500  -999.2500   -45.1320    75.5220    49.6430
 2760.0000   -63.2960     2.5230    -0.0180     0.2250   -35.6430   101.8820    11.7720     9.8040     9.3400  -999.2500  -999.2500   -51.4190    75.7980    49.7060
 2760.5000   -62.4120     2.5250    -0.0180     0.2290   -35.6430   100.7550    12.0690     9.3070     8.9310  -999.2500  -999.2500   -54.2120    76.0720    50.1480
 2761.0000   -61.5280     2.5280    -0.0160     0.2310   -35.6430   102.7700    11.2380     8.8100     8.5220  -999.2500  -999.2500   -39.8410    76.3460    50.6440
 2761.5000   -60.6440     2.5310    -0.0110     0.2310   -35.6430   104.1820    10.3130     8.3140     8.1130  -999.2500  -999.2500   -38.2040    76.6210    51.1410
 2762.0000   -59.7600     2.5300     0.0000     0.2280   -35.6430   102.5990     9.3890     7.7670     7.7050  -999.2500  -999.2500   -45.8170    77.0720    51.6370
 2762.5000   -58.8760     2.5250     0.0190     0.2250   -35.6430   102.3410     8.4650     7.6260     7.3330  -999.2500  -999.2500   -49.9670    77.8710    52.1290
 2763.0000   -57.9920     2.5140     0.0100     0.2210   -35.6430   101.7320     7.5400     7.4290     7.0210  -999.2500  -999.2500   -35.8570    78.6690    52.4920
 2763.5000   -57.1080     2.5100     0.0040     0.2130   -35.6430   100.0170     6.7060     7.2350     6.8930  -999.2500  -999.2500   -38.9280    79.4920    52.8910
 2764.0000   -56.2240     2.5260    -0.0040     0.2100   -35.6430    98.3000     7.0780     7.0210     6.8930  -999.2500  -999.2500   -45.8170    79.1140    53.2650
 2764.5000   -55.3400     2.5400    -0.0040     0.2100   -35.6430    98.1410     7.6100     7.1400     6.8930  -999.2500  -999.2500   -45.8170    78.1080    53.1650
 2765.0000   -54.4560     2.5450     0.0010     0.2090   -35.6430    96.8220     8.1420     7.3770     7.1030  -999.2500  -999.2500   -45.8170    77.2650    53.0620
 2765.5000   -53.5720     2.5410     0.0050     0.2070   -35.6430    95.4910     8.5140     7.6140     7.3360  -999.2500  -999.2500   -46.4990    76.6700    52.9610
 2766.0000   -52.6870     2.5330     0.0050     0.2110   -35.6430    95.4520     8.4640     7.8510     7.5690  -999.2500  -999.2500   -47.6300    76.2200    52.8600
 2766.5000   -51.8030     2.5280     0.0010     0.2110   -35.6430    97.6340     8.4360     8.0880     7.8020  -999.2500  -999.2500   -48.7600    76.2870    52.7590
 2767.0000   -50.9190     2.5240    -0.0040     0.2110   -35.6430    98.8660     8.7160     8.2450     8.0580  -999.2500  -999.2500   -49.8900    76.3540    52.6580
 2767.5000   -50.0350     2.5240    -0.0060     0.2080   -35.6430    96.6470     9.0380     8.3710     8.1680  -999.2500  -999.2500   -51.0210    76.4040    52.5580
 2768.0000   -49.1510     2.5270     0.0000     0.2020   -35.6430    94.5210     9.2480     8.4980     8.3260  -999.2500  -999.2500   -52.1510    76.2870    52.4570
 2768.5000   -48.2670     2.5310    -0.0050     0.1980   -35.6430    94.2430     9.1490     8.6240     8.4660  -999.2500  -999.2500   -53.2810    76.1380    52.3560
 2769.0000   -47.3830     2.5300    -0.0100     0.2000   -35.6430    98.5970     9.0590     8.7500     8.5650  -999.2500  -999.2500   -54.4120    75.8860    52.2550
