~VERSION INFORMATION
 VERS.                2.0:   CWLS LOG ASCII STANDARD - VERSION 2.0
 WRAP.                 NO:   ONE LINE PER DEPTH STEP
~WELL INFORMATION
#MNEM.UNIT      DATA TYPE    INFORMATION
#----------   ------------   ------------------------------
 STRT.F         2299.0000:   START DEPTH
 STOP.F         3387.5000:   STOP DEPTH
 STEP.F            0.5000:   STEP LENGTH
 NULL.          -999.2500:   NO VALUE
 COMP. LAWRENCE ALLISON AND ASSOCIATES:   COMPANY
 WELL. 		  62-AX-3:   WELL
 FLD .                NPR:   FIELD
 LOC .       S3 T38N R78W:   LOCATION
 CNTY.            NATRONA:   COUNTY
 STAT.            WYOMING:   STATE
 CTRY. UNITED STATES OF AMERICA:   COUNTRY
 SRVC.      DRESSER ATLAS:   SERVICE COMPANY
 DATE.        14-JUN-1985:   LOGDATE
 API .     49025110330000:   API NUMBER
~CURVE INFORMATION
#MNEM.UNIT       API CODE    CURVE DESCRIPTION
#----------   ------------   ------------------------------
 DEPT.F                  :   
 NPHI.DEC    42 890 01 00:   NEUTRON POROSITY
 TEND.LBS    45 635 01 00:   TENSION
 RHOB.G/C3   45 350 01 00:   BULK DENSITY
 CORR.DEC    45 356 01 00:   CORRECTION
~PARAMETER INFORMATION
#MNEM.UNIT          VALUE    DESCRIPTION
#----------   ------------   ------------------------------
 EKB .F         5160.0000:   Kelly bushing
 EGL .F         5148.0000:   Ground level
 EDF .F            0.0000:   Drilling floor
 EPD .F         5148.0000:   Permanent datum
 TD  .F         3380.0000:   Total depth
 DATE.        14-JUN-1985:   Date logged
 CLNT.            A2DTECH:   Client Code
 PD  .                 GL:   Permanent Datum
 LMF .                 KB:   Log Measured From
 DMF .                 KB:   Drilling Measured From
 DL  .F              3380:   Depth logger
 BLI .F              3378:   Bottom log interval
 CS1 .IN            8.625:   Casing size
 CBD1.      8.625" @ 603':   Casing driller 1
 DFT .        KCL POLYMER:   Type fluid in hole
 ENGI.               MACK:   Recorded By
 WITN.             STRONG:   Witnessed by
 ORIG.       2.5"5" PRINT:   Origin of data
 UWI .     49025110330000:   Unique Well ID
 DICO. A2D TECHNOLOGIES, INC.:   Digitizing Company
 DAPD.F                12:   Feet Above Permanent Datum
 BS1 .IN            7.875:   Bit size
 DFD .                8.9:   Density
 DFV .                 46:   Viscosity
 DFPH.                8.5:   pH
 DFL .                9.6:   Fluid loss
 MSS .           FLOWLINE:   Source of sample
 RMS .OHMM           0.38:   Rm
 MST .F                74:   Rm Meas. temp.
 RMF .OHMM           0.29:   Rmf
 MFST.F                74:   Rmf Meas. temp.
 MFSS.               MEAS:   Source Rmf.
 RMC .OHMM           0.23:   Rmc
 MCST.F               120:   Rmc Meas. temp.
 MCSS.               MEAS:   Source Rmc.
 RMB .OHMM           0.23:   Rm. at BHT
 BHT .F               120:   BHT.
 TCS .                  8:   Time Circ. stopped
 MRT .                122:   Maximum recorded temp.
 LUN .            HL-6274:   Logging unit number
 LUL .               GLTE:   Logging unit location
~OTHER INFORMATION
~A     DEPTH         CORR         NPHI         RHOB         TEND
# ...
   2671.0000      -0.0040       0.2364       2.3630       0.1586
   2671.5000       0.0040       0.2291       2.3660       0.1644
   2672.0000       0.0110       0.2203       2.3640       0.1701
   2672.5000       0.0010       0.2206       2.3760       0.1713
   2673.0000       0.0130       0.2217       2.3850       0.1645
   2673.5000       0.0070       0.2197       2.3910       0.1577
   2674.0000      -0.0010       0.2068       2.3900       0.1508
   2674.5000      -0.0040       0.2064       2.3900       0.1440
   2675.0000       0.0040       0.2115       2.3910       0.1582
   2675.5000       0.0130       0.2159       2.3930       0.1725
   2676.0000       0.0080       0.2176       2.3900       0.1774
   2676.5000      -0.0030       0.2185       2.3880       0.1560
   2677.0000      -0.0050       0.2201       2.3860       0.1653
   2677.5000      -0.0020       0.2239       2.3900       0.1747
   2678.0000       0.0000       0.2305       2.4010       0.1837
   2678.5000       0.0080       0.2334       2.4110       0.1790
   2679.0000       0.0080       0.2291       2.4080       0.1745
   2679.5000      -0.0020       0.2161       2.3980       0.1699
   2680.0000      -0.0080       0.2056       2.3960       0.1654
   2680.5000       0.0000       0.2079       2.4070       0.1780
   2681.0000      -0.0110       0.2123       2.4180       0.1994
   2681.5000      -0.0200       0.2150       2.4290       0.2208
   2682.0000      -0.0050       0.2161       2.4440       0.2172
   2682.5000       0.0100       0.2196       2.4590       0.2135
   2683.0000       0.0210       0.2231       2.4700       0.2135
   2683.5000       0.0250       0.2218       2.4720       0.2135
   2684.0000       0.0220       0.2128       2.4670       0.2135
   2684.5000       0.0170       0.2019       2.4620       0.2194
   2685.0000       0.0140       0.1982       2.4670       0.2277
   2685.5000       0.0110       0.1999       2.4730       0.2237
   2686.0000       0.0030       0.2064       2.4730       0.1937
   2686.5000      -0.0060       0.2088       2.4520       0.1637
   2687.0000       0.0010       0.2111       2.4410       0.1510
   2687.5000       0.0090       0.2134       2.4390       0.1716
   2688.0000       0.0020       0.2185       2.4420       0.1922
   2688.5000       0.0080       0.2224       2.4450       0.2135
   2689.0000       0.0160       0.2311       2.4450       0.1937
   2689.5000       0.0210       0.2359       2.4420       0.1731
   2690.0000       0.0260       0.2277       2.4370       0.1526
   2690.5000       0.0240       0.2147       2.4320       0.1440
   2691.0000       0.0180       0.2081       2.4290       0.1440
   2691.5000       0.0110       0.2080       2.4260       0.1440
   2692.0000       0.0020       0.2101       2.4200       0.1440
   2692.5000      -0.0030       0.2093       2.4150       0.1486
   2693.0000       0.0000       0.2080       2.4270       0.1708
   2693.5000       0.0020       0.2095       2.4430       0.1884
   2694.0000      -0.0030       0.2172       2.4560       0.1995
   2694.5000      -0.0060       0.2210       2.4620       0.2048
   2695.0000       0.0000       0.2200       2.4650       0.2068
   2695.5000       0.0050       0.2146       2.4700       0.2088
   2696.0000       0.0090       0.1956       2.4790       0.2108
   2696.5000       0.0040       0.1838       2.4890       0.2128
   2697.0000       0.0020       0.1843       2.4940       0.2217
   2697.5000       0.0050       0.1906       2.4990       0.2334
   2698.0000       0.0110       0.2085       2.5070       0.2215
   2698.5000       0.0240       0.2153       2.5100       0.2135
   2699.0000       0.0130       0.2206       2.5020       0.2135
   2699.5000       0.0010       0.2241       2.4950       0.2135
   2700.0000      -0.0070       0.2240       2.4940       0.2135
   2700.5000      -0.0050       0.2146       2.4930       0.2118
   2701.0000       0.0010       0.2094       2.4910       0.2084
   2701.5000       0.0060       0.2046       2.4900       0.2051
   2702.0000       0.0100       0.2040       2.4880       0.2041
   2702.5000       0.0180       0.2039       2.4850       0.2077
   2703.0000       0.0200       0.2038       2.4840       0.2113
   2703.5000       0.0110       0.2044       2.4850       0.2111
   2704.0000      -0.0050       0.2073       2.4860       0.2051
   2704.5000      -0.0290       0.2162       2.4800       0.1991
   2705.0000      -0.0310       0.2204       2.4690       0.1930
   2705.5000      -0.0200       0.2188       2.4410       0.1870
   2706.0000      -0.0050       0.2118       2.4120       0.1887
   2706.5000       0.0090       0.2040       2.4040       0.1995
   2707.0000       0.0060       0.2033       2.4110       0.2103
   2707.5000       0.0040       0.2026       2.4300       0.2130
   2708.0000       0.0070       0.2019       2.4490       0.2122
   2708.5000       0.0160       0.2013       2.4480       0.2115
   2709.0000       0.0280       0.2054       2.4480       0.2107
   2709.5000       0.0210       0.2124       2.4590       0.2100
   2710.0000       0.0050       0.2223       2.4720       0.2092
   2710.5000      -0.0080       0.2301       2.4920       0.2085
   2711.0000       0.0000       0.2357       2.4920       0.2077
   2711.5000       0.0070       0.2353       2.4900       0.2070
   2712.0000       0.0170       0.2203       2.4900       0.2062
   2712.5000       0.0200       0.2190       2.4970       0.2055
   2713.0000       0.0140       0.2216       2.4970       0.2047
   2713.5000       0.0080       0.2258       2.4860       0.2040
   2714.0000       0.0020       0.2325       2.4690       0.2219
   2714.5000       0.0070       0.2478       2.4540       0.2272
   2715.0000       0.0170       0.2585       2.4510       0.2183
   2715.5000       0.0290       0.2769       2.4470       0.2094
   2716.0000       0.0260       0.3077       2.4440       0.2029
   2716.5000       0.0170       0.3263       2.4370       0.2008
   2717.0000       0.0060       0.3240       2.4180       0.1987
   2717.5000      -0.0060       0.3028       2.3930       0.1966
   2718.0000      -0.0040       0.2819       2.3670       0.1945
   2718.5000       0.0320       0.2567       2.3610       0.1998
   2719.0000       0.0320       0.2289       2.3910       0.2234
   2719.5000       0.0150       0.1875       2.4430       0.2302
   2720.0000      -0.0070       0.1705       2.4790       0.2368
   2720.5000      -0.0240       0.1649       2.4960       0.2433
   2721.0000      -0.0290       0.1678       2.4920       0.2499
   2721.5000      -0.0170       0.1755       2.4810       0.2523
   2722.0000      -0.0040       0.1856       2.4720       0.2504
   2722.5000       0.0060       0.1928       2.4680       0.2486
   2723.0000       0.0020       0.1963       2.4630       0.2467
   2723.5000      -0.0040       0.2010       2.4570       0.2448
   2724.0000      -0.0090       0.2040       2.4580       0.2448
   2724.5000      -0.0150       0.2039       2.4620       0.2540
   2725.0000      -0.0200       0.1957       2.4670       0.2632
   2725.5000      -0.0230       0.1839       2.4730       0.2548
   2726.0000      -0.0110       0.1815       2.4770       0.2464
   2726.5000      -0.0010       0.1832       2.4640       0.2380
   2727.0000       0.0020       0.1874       2.4500       0.2334
   2727.5000      -0.0020       0.1921       2.4430       0.2334
   2728.0000      -0.0070       0.2028       2.4500       0.2334
   2728.5000      -0.0120       0.2168       2.4650       0.2311
   2729.0000      -0.0030       0.2200       2.4790       0.2265
   2729.5000       0.0110       0.2212       2.4810       0.2220
   2730.0000       0.0130       0.2286       2.4820       0.2174
   2730.5000       0.0150       0.2214       2.4840       0.2150
   2731.0000       0.0160       0.2157       2.4920       0.2251
   2731.5000       0.0210       0.2059       2.4990       0.2352
   2732.0000       0.0260       0.1983       2.5070       0.2411
   2732.5000       0.0280       0.1924       2.5150       0.2299
