~VERSION INFORMATION
 VERS.                2.0:   CWLS LOG ASCII STANDARD - VERSION 2.0
 WRAP.                 NO:   ONE LINE PER DEPTH STEP
~WELL INFORMATION
#MNEM.UNIT      DATA TYPE    INFORMATION
#----------   ------------   ------------------------------
 STRT.F          204.0000:   START DEPTH
 STOP.F         3024.0000:   STOP DEPTH
 STEP.F            0.5000:   STEP LENGTH
 NULL.          -999.2500:   NO VALUE
 COMP.    FENIX & SCISSON:   COMPANY
 WELL. FENIX NPR 3 "AX" #87-33:   WELL
 FLD .      NPR - WILDCAT:   FIELD
 LOC .      S33 T39N R78W:   LOCATION
 CNTY.            NATRONA:   COUNTY
 STAT.            WYOMING:   STATE
 CTRY. UNITED STATES OF AMERICA:   COUNTRY
 SRVC.              WELEX:   SERVICE COMPANY
 DATE.        20-JUN-1977:   LOGDATE
 API .     49025103840000:   API NUMBER
~CURVE INFORMATION
#MNEM.UNIT       API CODE    CURVE DESCRIPTION
#----------   ------------   ------------------------------
 DEPT.F                  :   
 SPR .MV     07 010 01 00:   SPONTANEOUS POTENTIAL
 ILD .OHMM   07 120 46 00:   DEEP INDUCTION RESISTIVITY
 ILM .OHMM   07 120 44 00:   INDUCTION LOG MEDIUM RESISTIVITY
 SGRD.OHMM   07 220 05 00:   SHALLOW SHORT GUARD RESISTIVITY
 CALD.IN     45 280 60 00:   CALIPER FROM DENSITY LOG
 GRD .GAPI   45 310 01 00:   GAMMA RAY FROM DENSITY LOG
 RHOB.G/C3   45 350 01 00:   BULK DENSITY
 CORR.G/C3   45 356 01 00:   DENSITY CORRECTION
~PARAMETER INFORMATION
#MNEM.UNIT          VALUE    DESCRIPTION
#----------   ------------   ------------------------------
 EKB .F         5170.0000:   Kelly bushing
 EGL .F         5160.0000:   Ground level
 TD  .F         3040.0000:   Total depth
 DATE.        20-JUN-1977:   Date logged
 CLNT.            A2DTECH:   Client Code
 SL  . 800' FSL & 100' FEL:   Surface Location
 PD  .                 GL:   Permanent Datum
 EPD .F              5160:   Elevation Permanent Datum
 LMF .                 KB:   Log Measured From
 DMF .                 KB:   Drilling Measured From
 DD  .F              3040:   Depth driller
 DL  .F              3027:   Depth logger
 BLI .F              3025:   Bottom log interval
 TLI .F               200:   Top log interval
 CS1 .IN            8.625:   Casing size
 CBD1.      8.625" @ 230':   Casing driller 1
 CBL1.F               210:   Casing logger 1
 BS1 .IN            7.875:   Bit size
 BSD1.F              3040:   Depth drilled with bit1
 DFT .                KCL:   Type fluid in hole
 DFD .                9.2:   Density
 DFV .                 38:   Viscosity
 DFPH.                7.5:   pH
 DFL .                5.4:   Fluid loss
 MSS .           FLOWLINE:   Source of sample
 RMS .OHMM            .60:   Rm
 MST .F                92:   Rm Meas. temp.
 RMF .OHMM            .29:   Rmf
 MFST.F                92:   Rmf Meas. temp.
 RMC .OHMM            .76:   Rmc
 MCST.F                92:   Rmc Meas. temp.
 MFSS.               MEAS:   Source Rmf.
 MCSS.               MEAS:   Source Rmc.
 RMB .OHMM            .49:   Rm. at BHT
 BHT .F               112:   BHT.
 TCS .HRS               2:   Time Circ. stopped
 MRT .F               112:   Maximum recorded temp.
 LUN .               8611:   Logging unit number
 LUL .           GILLETTE:   Logging unit location
 ENGI.            C. DOAK:   Recorded By
 WITN.      B. HARRINGTON:   Witnessed by
 ORIG.     2.5", 5" PRINT:   Origin of data
 UWI .     49025103840000:   Unique Well ID
 DICO. A2D TECHNOLOGIES, INC.:   Digitizing Company
~OTHER INFORMATION
~A   DEPT      SPR        ILD        ILM       SGRD         CALD       GRD        RHOB      CORR  
# ...
 2269.5000   -61.6830     6.0230     7.4110     9.2510     8.6970   131.4200     2.4560     0.0000
 2270.0000   -61.6460     6.1310     7.4840     8.8970     8.6950   129.7110     2.4510    -0.0030
 2270.5000   -61.6100     6.2390     7.5750     8.5440     8.6920   127.9440     2.4460    -0.0060
 2271.0000   -61.5740     6.3400     7.6930     9.9610     8.6900   127.8560     2.4400    -0.0080
 2271.5000   -61.5380     6.4360     7.8100    10.8100     8.6880   128.0060     2.4330    -0.0100
 2272.0000   -61.5020     6.5320     7.9280     9.5240     8.6850   128.5570     2.4310    -0.0110
 2272.5000   -61.4660     6.6290     8.0930     9.5240     8.6830   129.1100     2.4310    -0.0100
 2273.0000   -61.4290     6.7250     8.0010     9.7440     8.6800   130.4900     2.4310    -0.0090
 2273.5000   -61.3930     6.8220     7.8490    10.6160     8.6780   131.8140     2.4340    -0.0080
 2274.0000   -61.3570     6.9180     7.6650    10.2890     8.6780   133.0220     2.4420    -0.0070
 2274.5000   -61.3210     7.0140     7.7770     9.7430     8.6780   133.6550     2.4490    -0.0040
 2275.0000   -61.2850     7.1300     7.9170     9.5240     8.6780   134.2520     2.4570    -0.0020
 2275.5000   -61.2490     7.1830     8.0560     9.5240     8.6780   134.8550     2.4680     0.0010
 2276.0000   -61.2110     7.2490     8.1960     9.9140     8.6780   135.3020     2.4760     0.0050
 2276.5000   -61.1780     7.3160     8.3350    10.3040     8.6720   133.7900     2.4760     0.0080
 2277.0000   -61.1370     7.3820     8.5970    10.6160     8.6590   132.3180     2.4720     0.0040
 2277.5000   -61.1690     7.4480     8.9410    11.3330     8.6470   130.8650     2.4620     0.0010
 2278.0000   -61.2140     7.5280     9.3530    12.0500     8.6350   129.6830     2.4460    -0.0040
 2278.5000   -61.2600     7.4740     9.1400    12.0500     8.6220   129.1880     2.4360    -0.0100
 2279.0000   -61.3050     7.3930     8.8720    12.0500     8.6100   128.7040     2.4310    -0.0130
 2279.5000   -61.3510     7.1830     8.6050    11.1900     8.6000   129.8030     2.4300    -0.0130
 2280.0000   -61.3960     6.9900     8.3910    10.6160     8.6190   132.6320     2.4320    -0.0130
 2280.5000   -61.4420     6.7980     8.0120     9.8750     8.6380   134.6640     2.4370    -0.0120
 2281.0000   -61.4870     6.6050     7.6970     9.8750     8.6580   133.0000     2.4420    -0.0100
 2281.5000   -61.5330     6.4120     7.3810     9.8160     8.6850   131.4040     2.4490    -0.0080
 2282.0000   -61.5780     6.2200     7.0020     9.6980     8.7160   131.9500     2.4560    -0.0060
 2282.5000   -61.6230     6.0270     7.0660     6.2820     8.6730   133.4330     2.4610    -0.0060
 2283.0000   -61.6690     5.9160     7.1300     7.9900     8.6240   132.6500     2.4670    -0.0090
 2283.5000   -61.7140     5.8600     7.2790     9.6980     8.5790   132.7960     2.4660    -0.0110
 2284.0000   -61.7600     5.8040     7.4040    10.0560     8.5790   133.9310     2.4590    -0.0130
 2284.5000   -61.8050     5.7480     7.5280    10.0560     8.5790   135.0960     2.4590    -0.0150
 2285.0000   -61.8500     5.6920     7.4040     9.9650     8.5790   137.8340     2.4640    -0.0170
 2285.5000   -61.8970     5.6350     7.2790     9.5900     8.5790   139.7590     2.4680    -0.0150
 2286.0000   -61.9150     5.4890     7.1300     9.2350     8.5830   139.1500     2.4720    -0.0130
 2286.5000   -61.9140     5.3430     6.8080     8.9670     8.5870   136.5310     2.4750    -0.0120
 2287.0000   -61.9140     5.1970     6.4060     8.8590     8.5910   132.9720     2.4760    -0.0140
 2287.5000   -61.9140     5.0510     6.0040     7.6650     8.5950   128.3020     2.4740    -0.0170
 2288.0000   -61.9150     4.8760     5.7130     7.0020     8.5990   127.4760     2.4700    -0.0190
 2288.5000   -61.9130     4.8020     5.4960     6.0290     8.6020   128.3460     2.4650    -0.0190
 2289.0000   -61.9150     4.7100     5.2780     5.0560     8.6050   129.3430     2.4640    -0.0180
 2289.5000   -61.9190     4.6180     5.1480     6.8220     8.6080   130.3710     2.4690    -0.0170
 2290.0000   -62.0130     4.5930     5.1480     7.3930     8.6110   130.3760     2.4700    -0.0150
 2290.5000   -62.1080     4.5500     5.1480     7.8050     8.6140   130.0320     2.4680    -0.0140
 2291.0000   -62.2080     4.5080     5.1480     7.4900     8.6170   130.6020     2.4650    -0.0120
 2291.5000   -62.3050     4.4660     5.1480     6.9640     8.6150   132.5540     2.4640    -0.0100
 2292.0000   -62.4020     4.4230     5.0790     6.7530     8.6070   134.7530     2.4680    -0.0100
 2292.5000   -62.5010     4.3810     5.0100     7.9480     8.6000   136.8890     2.4710    -0.0100
 2293.0000   -62.5960     4.3380     4.9410     5.7380     8.5920   139.1330     2.4650    -0.0110
 2293.5000   -62.6920     4.2960     4.8720     6.0770     8.5840   140.0030     2.4620    -0.0110
 2294.0000   -62.6760     4.3330     4.7890     6.7530     8.5770   140.1090     2.4720    -0.0110
 2294.5000   -62.6400     4.3710     4.9320     5.7650     8.5690   138.9770     2.4820    -0.0080
 2295.0000   -62.6040     4.4080     5.1120     5.3380     8.5610   137.7050     2.4930    -0.0050
 2295.5000   -62.5700     4.4460     5.2910     5.9500     8.5530   136.5810     2.4970    -0.0010
 2296.0000   -62.5350     4.4830     5.4350     9.6980     8.5450   136.5380     2.5000     0.0020
 2296.5000   -62.5000     4.5210     5.3270     8.7340     8.5460   134.3020     2.5000     0.0020
 2297.0000   -62.4650     4.5940     5.2380     7.5300     8.5720   131.7410     2.4970     0.0020
 2297.5000   -62.4300     4.6920     5.1480     6.3250     8.5970   129.5320     2.4990     0.0010
 2298.0000   -62.3950     4.7900     5.3410     5.4350     8.6170   127.3780     2.5010     0.0010
 2298.5000   -62.3610     4.8880     5.5340     7.2280     8.5860   126.3130     2.4980    -0.0010
 2299.0000   -62.3230     4.9850     5.7270     9.0210     8.5560   128.0680     2.4910    -0.0030
 2299.5000   -62.3030     5.0830     6.0010     8.7720     8.5270   131.6750     2.4800    -0.0050
 2300.0000   -62.3050     5.1810     6.6320     8.1500     8.5000   132.7480     2.4710    -0.0070
 2300.5000   -62.3050     5.2790     6.6140     7.5280     8.5040   133.7500     2.4620    -0.0090
 2301.0000   -62.3050     5.4350     6.5690     9.5240     8.5080   133.7890     2.4530    -0.0120
 2301.5000   -62.3050     5.4240     6.5230     9.5240     8.5120   132.9370     2.4440    -0.0130
 2302.0000   -62.3050     5.3950     6.4780     7.3930     8.5160   130.9220     2.4410    -0.0130
 2302.5000   -62.3050     5.3670     6.4330     7.7470     8.5200   128.5340     2.4450    -0.0130
 2303.0000   -62.3050     5.3390     6.3960     8.6340     8.5200   127.4500     2.4530    -0.0110
 2303.5000   -62.3050     5.3100     6.0670     9.5210     8.5200   128.7700     2.4540    -0.0080
 2304.0000   -62.3050     5.2820     5.7380     9.8750     8.5200   130.3090     2.4540    -0.0060
 2304.5000   -62.3050     5.2530     5.7380     5.9500     8.5200   130.2240     2.4540    -0.0030
 2305.0000   -62.3050     5.2160     6.1450     6.0590     8.5200   127.9470     2.4530    -0.0010
 2305.5000   -62.3050     5.1730     6.5510     7.4580     8.5200   127.1300     2.4520    -0.0010
 2306.0000   -62.3050     5.1290     6.8770     9.1330     8.5200   128.4340     2.4520     0.0000
 2306.5000   -62.3050     5.0860     6.7950     9.8750     8.5200   129.6420     2.4560     0.0000
 2307.0000   -62.3040     5.0430     6.6320     9.4300     8.5160   130.8360     2.4600     0.0010
 2307.5000   -62.3050     5.0000     6.3960     8.6880     8.5070   130.7770     2.4590    -0.0020
 2308.0000   -62.3040     4.9650     6.0240     8.2420     8.4980   129.6700     2.4510    -0.0040
 2308.5000   -62.3050     4.8650     5.6520     8.0930     8.4900   128.6720     2.4410    -0.0070
 2309.0000   -62.3110     4.7810     5.2790     7.8050     8.4810   128.8450     2.4300    -0.0090
 2309.5000   -62.3850     4.6970     4.9650     6.6320     8.4720   129.2600     2.4200    -0.0120
