~VERSION INFORMATION
 VERS.                2.0:   CWLS LOG ASCII STANDARD - VERSION 2.0
 WRAP.                 NO:   ONE LINE PER DEPTH STEP
~WELL INFORMATION
#MNEM.UNIT      DATA TYPE    INFORMATION
#----------   ------------   ------------------------------
 STRT.F          397.0000:   START DEPTH
 STOP.F         5516.0000:   STOP DEPTH
 STEP.F            0.5000:   STEP LENGTH
 NULL.          -999.2500:   NO VALUE
 COMP.  FENIX AND SCISSON:   COMPANY
 WELL.   FENIX TPX #54-10:   WELL
 FLD . NAVAL PETROLEUM RESERVE=3:   FIELD
 LOC .      S10 T38N R78W:   LOCATION
 CNTY.            NATRONA:   COUNTY
 STAT.            WYOMING:   STATE
 CTRY. UNITED STATES OF AMERICA:   COUNTRY
 SRVC.       SCHLUMBERGER:   SERVICE COMPANY
 DATE.        03-APR-1981:   LOGDATE
 API .     49025108690000:   API NUMBER
~CURVE INFORMATION
#MNEM.UNIT       API CODE    CURVE DESCRIPTION
#----------   ------------   ------------------------------
 DEPT.F                  :   
 SPR .MV     11 010 01 00:   SPONTANEOUS POTENTIAL FROM RES.
 TENR.LBS    11 635 01 00:   TENSION FROM RES.
 LLD .OHMM   11 220 10 00:   LATEROLOG DEEP
 LLS .OHMM   11 220 09 00:   LATEROLOG LOG SHALLOW
 TEND.LBS    45 635 01 00:   TENSION FORM DENSITY LOG
 GRD .GAPI   45 310 01 00:   GAMMA RAY FROM DENSITY LOG
 NPHI.DEC    42 890 03 00:   NEUTRON POROSITY SANDSTONE
 CALD.IN     45 280 60 00:   CALIPER FROM DENSITY LOG
 CORR.G/C3   45 356 01 00:   DENSITY CORRECTION
 RHOB.G/C3   45 350 01 00:   BULK DENSITY
~PARAMETER INFORMATION
#MNEM.UNIT          VALUE    DESCRIPTION
#----------   ------------   ------------------------------
 EKB .F         5206.0000:   Kelly bushing
 EGL .F         5196.0000:   Ground level
 EDF .F            0.0000:   Drilling floor
 TD  .F         5498.0000:   Total depth
 CLNT.            A2DTECH:   Client Code
 SL  . 2080' FNL & 2150' FEL:   Surface Location
 PD  .                 GL:   Permanent Datum
 EPD .F              5196:   Elevation Permanent Datum
 LMF .                 KB:   Log Measured From
 DMF .                 KB:   Drilling Measured From
 DAPD.F                10:   Feet Above Permanent Datum
 DATE.         3-APR-1981:   Date Logged [DD-MMM-YYYY]
 DD  .F              5485:   Depth driller
 DL  .F              5498:   Depth logger
 BLI .F              5496:   Bottom log interval
 TLI .F               397:   Top log interval
 CS1 .IN                7:   Casing size
 CBD1.         7" @ 3891':   Casing driller 1
 CBL1.F              3889:   Casing logger 1
 BS1 .IN            6.125:   Bit size
 BSD1.F              5485:   Depth drilled with bit1
 DFT .           CHEM GEL:   Type fluid in hole
 DFD .                9.1:   Density
 DFV .                 42:   Viscosity
 DFPH.                9.0:   pH
 DFL .                5.0:   Fluid loss
 MSS .           MUD TANK:   Source of sample
 RMS .OHMM           0.81:   Rm
 MST .F                62:   Rm Meas. temp.
 RMF .OHMM           0.64:   Rmf
 MFST.F                62:   Rmf Meas. temp.
 MFSS.               MEAS:   Source Rmf.
 RMB .OHMM          0.031:   Rm. at BHT
 BHT .F               174:   BHT.
 TCS .HRS            0830:   Time Circ. stopped
 TLAB.HRS            2130:   Time logger at bottom
 MRT .F               174:   Maximum recorded temp.
 LUN .               8035:   Logging unit number
 LUL .               CSPR:   Logging unit location
 ENGI.             BEATIE:   Recorded By
 WITN.              FIVAS:   Witnessed by
 ORIG.           5" PRINT:   Origin of data
 UWI .     49025108690000:   Unique Well ID
 DICO. A2D TECHNOLOGIES, INC:   Digitizing Company
~OTHER INFORMATION
~A   DEPT      SPR       TENR        LLD        LLS       TEND         GRD        NPHI     CALD       CORR       RHOB   
# ...
 3881.0000  -999.2500  -999.2500  -999.2500  -999.2500  -999.2500    69.1110     0.2990  -999.2500  -999.2500  -999.2500
 3881.5000  -999.2500  -999.2500  -999.2500  -999.2500  -999.2500    66.3876     0.2848  -999.2500  -999.2500  -999.2500
 3882.0000  -999.2500  -999.2500  -999.2500  -999.2500  -999.2500    65.4741     0.2758  -999.2500  -999.2500  -999.2500
 3882.5000  -999.2500  -999.2500  -999.2500  -999.2500  -999.2500    66.3995     0.2701  -999.2500  -999.2500  -999.2500
 3883.0000  -999.2500  -999.2500  -999.2500  -999.2500  -999.2500    69.6908     0.2689  -999.2500  -999.2500  -999.2500
 3883.5000  -999.2500  -999.2500  -999.2500  -999.2500  -999.2500    72.4041     0.2801  -999.2500  -999.2500  -999.2500
 3884.0000  -999.2500  -999.2500  -999.2500  -999.2500  -999.2500    74.5132     0.2974  -999.2500  -999.2500  -999.2500
 3884.5000  -999.2500  -999.2500  -999.2500  -999.2500  -999.2500    75.1118     0.3088  -999.2500  -999.2500  -999.2500
 3885.0000  -999.2500  -999.2500  -999.2500  -999.2500  -999.2500    72.6876     0.3151  -999.2500  -999.2500  -999.2500
 3885.5000  -999.2500  -999.2500  -999.2500  -999.2500  -999.2500    67.2438     0.3100  -999.2500  -999.2500  -999.2500
 3886.0000  -999.2500  -999.2500  -999.2500  -999.2500  -999.2500    63.6127     0.3022  -999.2500  -999.2500  -999.2500
 3886.5000  -999.2500  -999.2500  -999.2500  -999.2500  -999.2500    59.9816     0.2488  -999.2500  -999.2500  -999.2500
 3887.0000  -999.2500  -999.2500  -999.2500  -999.2500  -999.2500    57.8511     0.2370  -999.2500  -999.2500  -999.2500
 3887.5000  -999.2500  -999.2500  -999.2500  -999.2500  -999.2500    56.0412     0.2352  -999.2500  -999.2500  -999.2500
 3888.0000  -999.2500  -999.2500  -999.2500  -999.2500  -999.2500    57.5461     0.2382  -999.2500  -999.2500  -999.2500
 3888.5000  -999.2500  -999.2500  -999.2500  -999.2500  -999.2500    60.5615     0.2546  -999.2500  -999.2500  -999.2500
 3889.0000   -37.5405  1462.3894     0.2801     0.1984  1452.4180    65.9938     0.2734     7.2640     0.2257     2.5343
 3889.5000   -35.5146  1461.2358     2.3650     0.2733  1432.0709    71.5677     0.2757     8.1620     0.2493     2.5839
 3890.0000   -33.7384  1460.0823    10.1079     0.8150  1433.3335    75.9507     0.2597    10.4820     0.2492     2.5794
 3890.5000   -32.5214  1458.9287    12.3828     0.8555  1464.8990    78.0598     0.2552    11.5174     0.2432     2.3649
 3891.0000   -31.3044  1457.7750    12.1928     0.8198  1465.9091    79.8667     0.2619    11.3946     0.1905     2.1454
 3891.5000   -30.2381  1456.6215    10.3030     0.7387  1482.0706    81.6737     0.2885    11.0949     0.1537     2.0958
 3892.0000   -29.3260  1455.4679     8.2831     0.6560  1498.2321    85.8961     0.3084    10.7952     0.1558     2.0966
 3892.5000   -28.8689  1454.3143     6.9946     0.5991  1514.3942    90.7242     0.2960    11.0644     0.1625     2.0906
 3893.0000   -28.4118  1453.1608     6.4256     0.5358  1500.5051    93.7397     0.2939    11.6329     0.1520     2.0070
 3893.5000   -27.9686  1452.0072     5.9746     0.4962  1501.5151    94.9426     0.3151    11.6925     0.1301     1.9577
 3894.0000   -27.3254  1450.8535     5.8573     0.5030  1471.9697    92.4376     0.3398    10.9736     0.0477     1.8871
 3894.5000   -26.7361  1449.7000     6.1919     0.5135  1473.2323    84.6576     0.3664    10.4045     0.0110     1.9661
 3895.0000   -26.2790  1448.5464     7.1712     0.7581  1443.9392    78.3074     0.3456     9.7800    -0.0120     2.0778
 3895.5000   -25.9198  1447.3928     9.3123     1.1213  1445.2023    66.5192     0.2792     9.1763    -0.0158     2.2632
 3896.0000   -25.3647  1446.2393    15.6106     2.0645  1476.5154    62.8881     0.1905     8.9515    -0.0016     2.4321
 3896.5000   -25.0593  1445.0857    26.7865     2.5791  1538.1315    60.1183     0.1555     8.8763     0.0125     2.5755
 3897.0000   -24.9061  1443.9320    31.0227     2.7836  1584.5959    59.2498     0.1383     8.8461     0.0192     2.5935
 3897.5000   -24.7530  1442.7784    31.8876     2.7444  1570.4545    61.6610     0.1362     8.8158     0.0221     2.5845
 3898.0000   -24.5998  1441.6249    29.3537     2.7868  1480.8079    77.9695     0.1540     8.8006     0.0206     2.5597
 3898.5000   -24.4463  1440.4713    22.7346     3.0873  1451.2623   196.1553     0.1655     8.7853     0.0100     2.5431
 3899.0000   -24.2931  1439.3177    21.7839     5.4246  1452.5254   252.8811     0.1576     8.7850     0.0047     2.5379
 3899.5000   -24.2919  1438.1642    23.0285     7.6278  1483.8385   397.8904     0.1462     8.7847     0.0113     2.5378
 3900.0000   -24.1388  1437.0105    25.7505    11.3402  1484.8485   398.1883     0.1290     8.7844     0.0788     2.5123
 3900.5000   -24.1375  1435.8788    28.3928    13.7772  1486.1111   398.1811     0.1649     8.8290     0.1385     2.4147
 3901.0000   -24.1361  1435.2007    19.8333    11.7349  1487.1211   398.1752     0.1948     8.9185     0.1786     2.2886
 3901.5000   -24.1350  1434.5227    11.8734     8.5170  1457.5754   398.1682     0.2936     9.0832     0.1899     2.1647
 3902.0000   -24.1337  1433.8446     7.0584     6.4902  1458.8385   398.1625     0.3002     9.2922     0.1981     2.1020
 3902.5000   -24.1325  1433.1666     6.0744     4.8978  1459.8485   398.1567     0.3235     9.4116     0.2063     2.0768
 3903.0000   -24.1310  1432.4885     5.6307     4.6763  1445.7070   398.1510     0.3694    10.0850     0.1823     1.9800
 3903.5000   -24.1298  1431.8105     5.5488     4.9428  1431.5656   398.1439     0.4041    10.7733     0.0284     1.8179
 3904.0000   -24.1287  1431.1324     5.7436     5.9633  1432.8281   398.4417     0.4166     9.9438    -0.0107     1.7225
 3904.5000   -23.9754  1430.4545     6.8896     7.2449  1433.8381   398.1324     0.3969     8.8116    -0.0152     1.8588
 3905.0000   -23.8222  1429.7764     9.5755     9.0498  1434.8486   292.6886     0.3477     7.8832     0.0043     2.1742
 3905.5000   -23.8207  1429.0983    10.1226     9.1112  1436.1112   232.6280     0.2783     7.6434     0.1262     2.4476
 3906.0000   -23.8197  1428.4203     9.8364     9.0450  1437.1212   200.0107     0.1940     7.9144     0.2482     2.5235
 3906.5000   -23.8184  1427.7422     8.1331     7.4411  1438.1312   129.5949     0.2599     8.6907     0.2490     2.4799
 3907.0000   -23.8171  1427.0642     6.8564     6.6940  1454.2927   124.5957     0.2877     8.7204     0.2474     2.4243
 3907.5000   -23.8156  1426.3861     6.5798     6.3811  1470.4542   120.4797     0.2979     8.5105     0.1776     2.3620
 3908.0000   -24.1184  1425.7081     6.6688     6.6975  1502.0204   116.2271     0.2983     8.0611     0.0586     2.3350
 3908.5000   -24.1928  1425.0300     6.8546     7.2287  1503.0304   110.7660     0.2844     7.8174     0.0101     2.3890
 3909.0000   -24.4200  1424.3519     7.2462     7.9113  1534.3434   104.7007     0.2678     7.6113     0.0018     2.4874
 3909.5000   -24.5707  1423.6740     8.1586     9.2880  1535.3534    98.6296     0.2449     7.4464     0.0041     2.5407
 3910.0000   -24.7215  1422.9958     9.1005    10.3876  1521.2119    93.4707     0.2093     7.3712     0.0048     2.5669
 3910.5000   -24.7200  1422.3179    10.4185    11.6729  1476.7675    88.3117     0.1841     7.3560     0.0018     2.5917
 3911.0000   -24.7188  1421.6398    11.8979    12.2534  1447.4750    82.2464     0.1628     7.3556    -0.0058     2.5984
 3911.5000   -24.7176  1420.9618    13.2223    13.0414  1448.7374    71.3473     0.1568     7.3554    -0.0110     2.6022
 3912.0000   -24.5641  1420.2837    14.1614    13.9779  1480.0505    56.8170     0.1501     7.3551    -0.0111     2.6074
 3912.5000   -24.4109  1419.6056    15.8353    16.0608  1496.2122    51.3559     0.1420     7.3698    -0.0088     2.6199
 3913.0000   -24.4097  1418.9276    18.4688    18.2002  1512.6261    49.5260     0.1320     7.3695    -0.0017     2.6247
 3913.5000   -24.2566  1418.2495    19.3874    16.7371  1513.6361    54.0289     0.1293     7.3691     0.0122     2.6209
 3914.0000   -24.1033  1417.5715    15.9158    13.7692  1514.6467    60.3503     0.1375     7.3688     0.0264     2.6201
