~VERSION INFORMATION
 VERS.                2.0:   CWLS LOG ASCII STANDARD - VERSION 2.0
 WRAP.                 NO:   ONE LINE PER DEPTH STEP
~WELL INFORMATION
#MNEM.UNIT      DATA TYPE    INFORMATION
#----------   ------------   ------------------------------
 STRT.F          637.0000:   START DEPTH
 STOP.F         3158.0000:   STOP DEPTH
 STEP.F            0.5000:   STEP LENGTH
 NULL.          -999.2500:   NO VALUE
 COMP.    FENIX & SCISSON:   COMPANY
 WELL.  FENIX "AX" #34-33:   WELL
 FLD .             NPR #3:   FIELD
 LOC .      S33 T39N R78W:   LOCATION
 CNTY.            NATRONA:   COUNTY
 STAT.            WYOMING:   STATE
 CTRY. UNITED STATES OF AMERICA:   COUNTRY
 SRVC.       SCHLUMBERGER:   SERVICE COMPANY
 DATE.        15-APR-1977:   LOGDATE
 API .     49025103450000:   API NUMBER
~CURVE INFORMATION
#MNEM.UNIT       API CODE    CURVE DESCRIPTION
#----------   ------------   ------------------------------
 DEPT.F                  :   
 CALD.IN     45 280 60 00:   CALIPER FROM DENSITY LOG
 GRD .GAPI   45 310 01 00:   GAMMA RAY FROM DENSITY LOG
 RHOB.G/C3   45 350 01 00:   BULK DENSITY
 CORR.G/C3   45 356 01 00:   DENSITY CORRECTION
 SPR .MV     07 010 01 00:   SPONTANEOUS POTENTIAL
 SFLU.OHMM   07 220 01 00:   SPHERICALLY FOCUSED LOG UNAVERAGED RESISTIVITY
 ILD .OHMM   07 120 46 00:   INDUCTION LOG DEEP RESISTIVITY
 ILM .OHMM   07 120 44 00:   INDUCTION LOG MEDIUM RESISTIVITY
~PARAMETER INFORMATION
#MNEM.UNIT          VALUE    DESCRIPTION
#----------   ------------   ------------------------------
 EKB .F         5196.0000:   Kelly bushing
 EGL .F         5185.0000:   Ground level
 EDF .F            0.0000:   Drilling floor
 TD  .F         3159.0000:   Total depth
 DATE.        15-APR-1977:   Date logged
 CLNT.            A2DTECH:   Client Code
 SL  . 2132' FNL & 1750' FWL:   Surface Location
 PD  .                 GL:   Permanent Datum
 EPD .F              5185:   Elevation Permanent Datum
 LMF .                 KB:   Log Measured From
 DMF .                 KB:   Drilling Measured From
 DAPD.F                11:   Feet Above Permanent Datum
 DD  .F              3156:   Depth driller
 DL  .F              3159:   Depth logger
 BLI .F              3153:   Bottom log interval
 TLI .F               637:   Top log interval
 CS1 .IN            8.625:   Casing size
 CBD1.      8.625" @ 637':   Casing driller 1
 CBL1.F               637:   Casing logger 1
 BS1 .IN            7.875:   Bit size
 BSD1.F              3156:   Depth drilled with bit1
 DFT .                FGM:   Type fluid in hole
 DFD .                7.5:   Density
 DFV .                 35:   Viscosity
 DFPH.                8.5:   pH
 DFL .                  9:   Fluid loss
 MSS .                PIT:   Source of sample
 RMS .OHMM            .48:   Rm
 MST .F                60:   Rm Meas. temp.
 RMF .OHMM            .28:   Rmf
 MFST.F                60:   Rmf Meas. temp.
 MFSS.               MEAS:   Source Rmf.
 RMB .OHMM            .24:   Rm. at BHT
 BHT .F               120:   BHT.
 TCS .HRS            0200:   Time Circ. stopped
 MRT .F               120:   Maximum recorded temp.
 LUN .               7680:   Logging unit number
 LUL .               CSPR:   Logging unit location
 ENGI.             TAYLOR:   Recorded By
 WITN.         PETTINGILL:   Witnessed by
 ORIG.           5" PRINT:   Origin of data
 UWI .     49025103450000:   Unique Well ID
 DICO. A2D TECHNOLOGIES, INC.:   Digitizing Company
 TLAB.               0530:   Time logger at bottom
~OTHER INFORMATION
~A   DEPT       CALD      GRD       RHOB       CORR        SPR         SFLU        ILD        ILM 
# ...
 1973.5000     7.8086   111.7756     2.5659     0.0467   -49.8793    12.2755     9.2761     9.0235
 1974.0000     7.8082   115.3494     2.5280     0.0327   -49.8778    11.7206     9.0235     8.8590
 1974.5000     7.8079   118.1276     2.5350     0.0487   -50.2745    11.3997     8.8640     8.6489
 1975.0000     7.8075   119.1180     2.5420     0.0497   -50.4721    10.9856     8.7072     8.4438
 1975.5000     7.8072   121.8958     2.5180     0.0227   -50.6698    10.8844     8.5533     8.2435
 1976.0000     7.8068   128.0492     2.5430     0.0287   -50.8674    10.2967     8.4020     8.0480
 1976.5000     7.8066   129.4385     2.5270     0.0457   -51.4633    10.3924     8.2535     7.9329
 1977.0000     7.8061   129.4361     2.5210     0.0497   -50.8645    10.4890     8.0802     7.8602
 1977.5000     7.8057   131.0226     2.5320     0.0517   -51.0621    10.7842     8.0802     7.7882
 1978.0000     7.8053   132.4106     2.5080     0.0228   -51.0607    10.8844     8.0062     7.7882
 1978.5000     7.8050   136.9767     2.5240     0.0248   -50.8601    10.7842     8.0062     7.7575
 1979.0000     7.8046   137.5708     2.5290     0.0398   -50.8586    10.3924     7.9189     7.7169
 1979.5000     7.7844   136.7736     2.5420     0.0478   -50.8569    10.2967     7.8326     7.7169
 1980.0000     7.7840   135.7781     2.5460     0.0518   -50.8554    10.6849     7.7882     7.7169
 1980.5000     7.7837   133.7894     2.5460     0.0548   -50.6548    10.2967     7.7169     7.5616
 1981.0000     7.7833   133.3898     2.5610     0.0588   -50.6533    10.2967     7.6462     7.4093
 1981.5000     7.7829   131.2023     2.5650     0.0658   -50.6518    10.2967     7.6462     7.2602
 1982.0000     7.7826   132.7892     2.5570     0.0608   -50.4512    10.0148     7.5068     7.1140
 1982.5000     7.7822   133.5815     2.5440     0.0568   -50.2506     9.4740     7.4381     6.9708
 1983.0000     7.7821   134.9698     2.5330     0.0558   -50.2492     9.0458     7.3024     6.9102
 1983.5000     7.8014   136.5573     2.5140     0.0298   -50.4468     9.4740     7.3024     6.9102
 1984.0000     7.8010   136.7537     2.4950     0.0248   -50.4454    10.0148     7.3024     6.9102
 1984.5000     7.7808   131.5854     2.5300     0.0499   -50.6430    10.0148     7.3024     6.9741
 1985.0000     7.8003   129.0002     2.5620     0.0678   -50.4424    10.0148     7.3699     6.9741
 1985.5000     7.8198   123.4342     2.5750     0.1128   -50.6401    10.1079     7.4381     7.0386
 1986.0000     7.8194   120.8464     2.5760     0.1088   -50.8378    10.2019     7.4381     7.0386
 1986.5000     7.7992   119.4540     2.5800     0.0575   -51.0354    10.1079     7.5762     7.0386
 1987.0000     7.7988   119.2540     2.5440     0.0511   -51.0340    10.2019     7.5762     7.0386
 1987.5000     7.7985   119.6488     2.5330     0.0259   -51.0325    10.1079     7.6462     7.0386
 1988.0000     7.7981   121.6332     2.5160     0.0279   -50.8319    10.0148     7.6462     7.1036
 1988.5000     7.7977   123.2208     2.5350     0.0359   -50.8304     9.8312     7.6462     7.0676
 1989.0000     7.7974   126.3976     2.5680     0.0699   -51.0278     9.8312     7.6462     7.1036
 1989.5000     7.7772   126.9913     2.5750     0.0709   -51.0264     9.9226     7.6462     7.1036
 1990.0000     7.7967   127.3863     2.5830     0.0389   -51.2241    10.0148     7.6462     7.1036
 1990.5000     7.7963   127.9800     2.5440     0.0379   -50.6251    10.0148     7.5762     7.1109
 1991.0000     7.7959   128.1763     2.5380     0.0489   -50.6236     9.9226     7.5068     7.1182
 1991.5000     7.8154   127.9751     2.5480     0.0539   -50.4230     9.8312     7.4381     7.1255
 1992.0000     7.8151   129.3639     2.5560     0.0499   -50.6207     9.9226     7.4381     7.1328
 1992.5000     7.8147   133.1379     2.5420     0.0489   -50.6192     9.9226     7.4381     7.1402
 1993.0000     7.7945   134.5268     2.5320     0.0379   -50.6177    10.1079     7.5762     7.1475
 1993.5000     7.7941   134.5245     2.5510     0.0379   -50.4171    10.1079     7.5762     7.1548
 1994.0000     7.7938   133.7263     2.5560     0.0399   -50.2164     9.8312     7.5762     7.1622
 1994.5000     7.7736   130.7431     2.5540     0.0479   -50.2149     9.9226     7.5762     7.1693
 1995.0000     7.7930   129.1506     2.5490     0.0529   -50.0143    10.2019     7.5762     7.1693
 1995.5000     7.7927   128.1544     2.5280     0.0310   -49.8136    10.8844     7.5068     7.1693
 1996.0000     7.7923   126.9594     2.5070     0.0399   -49.2146    11.0877     7.3699     7.0386
 1996.5000     7.7919   125.5655     2.5510     0.0790   -49.2131    10.2967     7.2356     7.0386
 1997.0000     7.7916   125.5631     2.5180     0.1200   -49.2116     9.0458     7.1036     6.8469
 1997.5000     7.7912   124.5667     2.4870     0.0970   -49.2101     8.8799     7.0386     6.5995
 1998.0000     7.7909   124.1666     2.5280     0.1610   -49.2086     9.0458     6.9741     6.2450
 1998.5000     7.7905   123.1702     2.4680     0.0810   -49.6055     8.0952     6.9102     6.2450
 1999.0000     7.7901   123.5652     2.4540     0.0500   -49.6041     7.8011     6.9102     6.4792
 1999.5000     7.7898   125.5506     2.4870     0.0520   -49.6026     8.2464     6.9102     6.6605
 2000.0000     7.7894   126.5421     2.5060     0.0070   -49.6011     9.0302     6.9741     6.7842
 2000.5000     7.7890   128.8860     2.5260     0.0170   -49.9356    10.2641     7.0369     6.8459
 2001.0000     7.7888   129.5182     2.5400     0.0540   -50.0012     9.7128     7.0386     6.9102
 2001.5000     7.8084   129.5153     2.5600     0.0530   -50.2014     9.5357     7.1036     6.9102
 2002.0000     7.8081   128.5183     2.5339     0.0469   -50.0032     9.6238     7.1036     6.9102
 2002.5000     7.8078   124.7383     2.5429     0.0519   -49.8049     9.8932     7.1693     6.9102
 2003.0000     7.8274   125.1329     2.5439     0.0489   -50.0051    10.0769     7.2356     6.8469
 2003.5000     7.8271   124.7324     2.5459     0.0359   -49.8069     9.5357     7.2356     6.8469
 2004.0000     7.8067   124.1324     2.5279     0.0269   -50.0071     9.0235     7.2356     6.8469
 2004.5000     7.7866   122.7379     2.5239     0.0389   -49.8089     8.9409     7.2356     6.9102
 2005.0000     7.7865   123.1326     2.5239     0.0509   -49.8099     9.3618     7.2356     6.9102
 2005.5000     7.7863   123.3284     2.5249     0.0478   -49.6117    10.1079     7.1693     6.9102
 2006.0000     7.7860   123.3255     2.5089     0.0308   -49.6127    10.1079     7.3024     6.9102
 2006.5000     7.7856   123.7201     2.5028     0.0318   -49.8129    10.2019     7.3024     6.9102
 2007.0000     7.8052   124.7111     2.5038     0.0438   -50.0130    10.1079     7.3699     6.8469
 2007.5000     7.8044   125.7022     2.5208     0.0388   -50.0140    10.0148     7.3024     6.7842
 2008.0000     7.8035   126.0956     2.5138     0.0258   -50.0150     9.9226     7.3024     6.7842
 2008.5000     7.8027   122.5138     2.5328     0.0478   -49.8168     9.8312     7.2600     6.7221
 2009.0000     7.8019   124.5006     2.5468     0.0487   -49.8178     9.2147     7.2178     6.7221
 2009.5000     7.8011   125.4916     2.5498     0.0527   -49.8188     9.2147     7.1758     6.6605
 2010.0000     7.8002   127.2778     2.5377     0.0457   -50.4176     9.2147     7.1341     6.6605
 2010.5000     7.7994   127.8712     2.5267     0.0367   -50.4184     9.5621     7.0926     6.6605
 2011.0000     7.7986   125.8803     2.5227     0.0437   -50.2201     9.8312     7.0514     6.7221
 2011.5000     7.7977   124.8834     2.5187     0.0447   -50.2211     9.5621     7.0104     6.7221
 2012.0000     7.7969   125.6756     2.5297     0.0487   -50.4213     9.2147     6.9741     6.7221
 2012.5000     7.7961   127.2631     2.5347     0.0487   -50.6217     9.1298     7.0386     6.7221
 2013.0000     7.7952   125.6697     2.5327     0.0406   -50.6227     9.2147     7.0386     6.8469
 2013.5000     7.7944   125.2686     2.5337     0.0466   -50.6237     9.5621     7.1075     6.8469
