~VERSION INFORMATION
 VERS.                2.0:   CWLS LOG ASCII STANDARD - VERSION 2.0
 WRAP.                 NO:   ONE LINE PER DEPTH STEP
~WELL INFORMATION
#MNEM.UNIT      DATA TYPE    INFORMATION
#----------   ------------   ------------------------------
 STRT.F          620.0000:   START DEPTH
 STOP.F         3209.0000:   STOP DEPTH
 STEP.F            0.5000:   STEP LENGTH
 NULL.          -999.2500:   NO VALUE
 COMP. FENIX & SCISSON - US NAVY:   COMPANY
 WELL.   FENIX "A" #23-33:   WELL
 FLD .             NPR #3:   FIELD
 LOC .      S33 T39N R78W:   LOCATION
 CNTY.            NATRONA:   COUNTY
 STAT.            WYOMING:   STATE
 CTRY. UNITED STATES OF AMERICA:   COUNTRY
 SRVC.              WELEX:   SERVICE COMPANY
 DATE.        26-MAR-1977:   LOGDATE
 API .     49025103250000:   API NUMBER
~CURVE INFORMATION
#MNEM.UNIT       API CODE    CURVE DESCRIPTION
#----------   ------------   ------------------------------
 DEPT.F                  :   
 GRD .GAPI   45 310 01 00:   GAMMA RAY FROM DENSITY LOG
 CALD.IN     45 280 60 00:   CALIPER FROM DENSITY LOG
 CORR.G/C3   45 356 01 00:   DENSITY CORRECTION
 RHOB.G/C3   45 350 01 00:   BULK DENSITY
 SPR .MV     07 010 01 00:   SPONTANEOUS POTENTIAL
 ILD .OHMM   07 120 46 00:   DEEP INDUCTION RESISTIVITY
 ILM .OHMM   07 120 44 00:   INDUCTION LOG MEDIUM RESISTIVITY
 SGRD.OHMM   07 220 05 00:   SHALLOW SHORT GUARD RESISTIVITY
~PARAMETER INFORMATION
#MNEM.UNIT          VALUE    DESCRIPTION
#----------   ------------   ------------------------------
 EKB .F         5183.0000:   Kelly bushing
 EGL .F         5172.0000:   Ground level
 TD  .F         3213.0000:   Total depth
 CLNT.            A2DTECH:   Client Code
 SL  . 900' FWL & 1650' FNL:   Surface Location
 PD  .                 GL:   Permanent Datum
 EPD .F              5172:   Elevation Permanent Datum
 LMF .                 KB:   Log Measured From
 DMF .                 KB:   Drilling Measured From
 DAPD.F                11:   Feet Above Permanent Datum
 DATE.        26-MAR-1977:   Date Logged [DD-MMM-YYYY]
 DD  .F              3210:   Depth driller
 DL  .F              3213:   Depth logger
 BLI .F              3211:   Bottom log interval
 TLI .F               625:   Top log interval
 CS1 .IN            8.625:   Casing size
 CBD1.      8.625" @ 633':   Casing driller 1
 CBL1.F               635:   Casing logger 1
 BS1 .IN            7.875:   Bit size
 BSD1.F              3210:   Depth drilled with bit1
 DFT .            KCL MUD:   Type fluid in hole
 DFD .                9.5:   Density
 DFV .                 34:   Viscosity
 DFPH.                8.5:   pH
 DFL .                 14:   Fluid loss
 MSS .           FLOWLINE:   Source of sample
 RMS .OHMM           0.34:   Rm
 MST .F                86:   Rm Meas. temp.
 RMF .OHMM           0.25:   Rmf
 MFST.F                86:   Rmf Meas. temp.
 MFSS.            FANN KL:   Source Rmf.
 RMC .OHMM           0.55:   Rmc
 MCST.F                86:   Rmc Meas. temp.
 MCSS.            FANN KL:   Source Rmc.
 RMB .OHMM           0.31:   Rm. at BHT
 BHT .F                92:   BHT.
 TCS .HRS             2.5:   Time Circ. stopped
 MRT .F                92:   Maximum recorded temp.
 LUN .               8611:   Logging unit number
 LUL .             CASPER:   Logging unit location
 ENGI.            C. DOAK:   Recorded By
 WITN.            K. JAPP:   Witnessed by
 ORIG.           5" PRINT:   Origin of data
 UWI .     49025103250000:   Unique Well ID
 DICO. A2D TECHNOLOGIES, INC.:   Digitizing Company
~OTHER INFORMATION
~A   DEPT       GRD        CALD      CORR        RHOB      SPR        ILD        ILM       SGRD   
# ...
 2847.5000    70.2644     8.3045     0.0185     2.5207   -45.7197     9.2551     9.8569    13.2856
 2848.0000    69.6910     8.2788     0.0155     2.5222   -45.7066     8.8224     9.6611    13.5714
 2848.5000    71.7025     8.2806     0.0231     2.5237   -45.6935     8.5856     9.4592    15.0561
 2849.0000    73.8848     8.2821     0.0263     2.5245   -45.6804     8.3525     9.2168    15.5929
 2849.5000    75.9795     8.2982     0.0278     2.5194   -45.8179     8.0094     9.0329    15.8191
 2850.0000    77.1839     8.2997     0.0231     2.5004   -45.8016     7.6801     8.7919    13.2371
 2850.5000    76.7564     8.2864     0.0144     2.4986   -45.7885     7.2879     8.4987    13.1492
 2851.0000    76.3244     8.2878     0.0099     2.4994   -45.7754     6.9952     8.2152    11.9037
 2851.5000    76.6430     8.2894     0.0070     2.4987   -45.6150     6.7143     7.8468    10.9410
 2852.0000    78.1442     8.2908     0.0055     2.4987   -45.6020     6.5335     7.5223    11.9721
 2852.5000    80.5357     8.2924     0.0071     2.4988   -45.5889     6.2286     7.1978    12.1438
 2853.0000    83.2238     8.2938     0.0087     2.5011   -45.5758     5.9784     6.8733    10.8869
 2853.5000    85.9120     8.2953     0.0163     2.5048   -45.5626     5.7383     6.5488     9.4287
 2854.0000    89.4903     8.2967     0.0239     2.5131   -45.5493     5.4700     6.2242     9.3044
 2854.5000    93.3654     8.2985     0.0330     2.5169   -45.3888     5.1075     5.9281     9.9065
 2855.0000    94.4314     8.3000     0.0406     2.5110   -45.5202     4.7690     5.6145     9.1905
 2855.5000    91.8993     8.3014     0.0437     2.5080   -45.5071     4.4944     5.3167     7.3795
 2856.0000    89.2637     8.3029     0.0452     2.5081   -45.4940     4.2054     5.0348     6.4341
 2856.5000    91.8415     8.3043     0.0468     2.5052   -45.7755     3.9164     4.9008     7.4913
 2857.0000    97.3150     8.3058     0.0484     2.4985   -45.7624     3.6275     4.6409     7.1931
 2857.5000   101.1901     8.3071     0.0500     2.4843   -45.8966     3.3385     4.2755     6.3595
 2858.0000   106.4005     8.3087     0.0500     2.4645   -45.8836     3.0496     3.9661     5.3937
 2858.5000   110.4240     8.2953     0.0501     2.4373   -46.0210     2.7170     3.6039     5.1422
 2859.0000   113.8539     8.2820     0.0502     2.3994   -46.1552     2.4174     3.3346     5.1989
 2859.5000   117.4323     8.2834     0.0487     2.3443   -46.2894     2.1959     2.9053     5.6732
 2860.0000   124.5715     8.2849     0.0473     2.3182   -45.9785     1.9673     2.6492     5.0157
 2860.5000   122.3635     8.2715     0.0474     2.3071   -45.5236     1.8243     2.4072     4.0294
 2861.0000   118.9686     8.2581     0.0504     2.3086   -45.0687     1.7034     2.0561     2.8901
 2861.5000   112.1612     8.2448     0.0595     2.3116   -44.4665     1.6463     1.9205     2.1416
 2862.0000   100.1609     8.2314     0.0957     2.2826   -43.5698     1.5693     1.9616     3.2157
 2862.5000    95.7274     8.2332     0.0627     2.2731   -42.9676     1.5699     1.9898     4.1219
 2863.0000    92.7775     8.2347     0.0628     2.2208   -42.3495     1.5711     1.8973     4.4176
 2863.5000    89.0278     8.2510     0.0327     2.1656   -40.6848     1.6880     1.7721     3.4992
 2864.0000    80.7529     8.3118     0.0117     2.1492   -39.3460     1.9155     2.0486     2.3174
 2864.5000    75.9402     8.8622     0.0238     2.4792   -38.0519     2.1443     2.3521     2.7351
 2865.0000    73.7126     8.5669     0.0299     2.5170   -38.7752     2.3953     2.8532     4.5532
 2865.5000    74.4719     8.3013     0.0360     2.5325   -40.2349     2.6572     3.3492     6.6512
 2866.0000    77.7536     8.2138     0.0356     2.5390   -41.0662     2.8479     3.7189     9.3230
 2866.5000    80.2933     8.2152     0.0286     2.5279   -41.8001     3.3350     4.2302     7.3836
 2867.0000    81.3494     8.2018     0.0270     2.5145   -42.5341     3.8965     4.6284     8.2747
 2867.5000    80.9218     8.2181     0.0227     2.5018   -43.3705     4.4579     4.9607     8.9634
 2868.0000    79.1590     8.2196     0.0198     2.4855   -43.9451     4.9852     5.1725     7.9806
 2868.5000    76.8026     8.2211     0.0183     2.4915   -44.2252     5.1977     5.3933     8.2652
 2869.0000    74.8913     8.2226     0.0169     2.4990   -44.5089     5.5708     5.5468     8.3276
 2869.5000    75.3540     8.2240     0.0170     2.5028   -44.7853     5.8888     5.7440     9.2386
 2870.0000    75.5199     8.2258     0.0185     2.5043   -44.7708     6.1017     6.0306     9.9712
 2870.5000    74.9439     8.2273     0.0186     2.5074   -44.7570     6.4505     6.2021    10.0465
 2871.0000    74.3680     8.2285     0.0202     2.5156   -44.7417     6.7754     6.4670    10.1223
 2871.5000    73.4785     8.2300     0.0217     2.5261   -44.7272     7.2035     6.7431    10.2692
 2872.0000    71.5307     8.2317     0.0218     2.5338   -44.4182     7.6148     6.9388    10.3467
 2872.5000    66.9488     8.2331     0.0249     2.5429   -44.4035     7.9393     7.2427    11.0906
 2873.0000    69.1012     8.2344     0.0250     2.5487   -44.2278     8.2777     7.5929    14.6035
 2873.5000    71.1959     8.2360     0.0265     2.5502   -43.9323     8.6305     7.9717    18.3498
 2874.0000    72.1036     8.2375     0.0281     2.5495   -43.7674     8.9365     8.3121    19.2674
 2874.5000    70.9342     8.2390     0.0297     2.5466   -43.7529     9.1266     8.6670    16.5722
 2875.0000    69.1713     8.2404     0.0328     2.5429   -43.7384     9.2568     9.1622    15.2691
 2875.5000    67.7052     8.2419     0.0374     2.5415   -43.7239     9.2602     9.6194    14.4585
 2876.0000    69.2064     8.2433     0.0404     2.5460   -43.7094     9.1999    10.0301    14.2702
 2876.5000    69.8130     8.2448     0.0405     2.5371   -43.6949     9.1402    10.3866    14.2816
 2877.0000    67.4610     8.2314     0.0345     2.5342   -43.6803     9.1437    10.6089    13.9990
 2877.5000    65.6981     8.2329     0.0316     2.5260   -43.6658     9.1471    10.6231    15.3183
 2878.0000    64.8254     8.2347     0.0226     2.5029   -43.6513     9.1620    10.4035    14.4080
 2878.5000    65.8815     8.2510     0.0197     2.5060   -43.6368     9.2818    10.2669    13.4482
 2879.0000    67.3949     8.2522     0.0213     2.5045   -43.3277     9.3495    10.2020    16.1070
 2879.5000    68.9385     8.2539     0.0228     2.5016   -43.1660     9.4828    10.2075    17.1447
 2880.0000    70.6848     8.2402     0.0229     2.4986   -43.0042     9.5520    10.1430    17.5297
 2880.5000    69.3671     8.2420     0.0230     2.4995   -42.6951     9.5555    10.1499    16.8186
 2881.0000    67.3074     8.2435     0.0260     2.5047   -42.6804     9.6252    10.1554    15.8192
 2881.5000    65.2478     8.2598     0.0261     2.5137   -42.6657     9.5627    10.2310    15.0853
 2882.0000    63.1882     8.2612     0.0263     2.5295   -42.6516     9.5662    10.2365    14.5823
 2882.5000    67.9535     8.2627     0.0293     2.5377   -42.9316     9.5040    10.1718    15.7411
 2883.0000    70.0481     8.2642     0.0323     2.5393   -43.0644     9.3773    10.1062    20.5978
 2883.5000    72.4396     8.2656     0.0339     2.5408   -43.1972     9.1889     9.9748    22.0786
 2884.0000    76.6114     8.2522     0.0325     2.5320   -43.3299     8.8198     9.5767    16.7787
 2884.5000    79.9156     8.2499     0.0250     2.5103   -43.4591     8.4010     8.2931    15.0398
 2885.0000    82.3449     8.2404     0.0236     2.5051   -43.4445     7.9944     7.9585    14.3420
 2885.5000    85.0216     8.2418     0.0297     2.5052   -43.4300     7.3307     7.6274    13.3054
 2886.0000    88.2586     8.2584     0.0327     2.5075   -43.7101     6.7512     7.0434    11.2879
 2886.5000    90.2049     8.2599     0.0358     2.5128   -43.9901     6.3474     6.4444    11.1243
 2887.0000    90.6675     8.2614     0.0389     2.5203   -44.2702     5.9678     5.9370    11.7787
 2887.5000    90.0916     8.2777     0.0420     2.5300   -44.5508     5.5723     5.6222     7.5805
