~VERSION INFORMATION
 VERS.                2.0:   CWLS LOG ASCII STANDARD - VERSION 2.0
 WRAP.                 NO:   ONE LINE PER DEPTH STEP
~WELL INFORMATION
#MNEM.UNIT      DATA TYPE    INFORMATION
#----------   ------------   ------------------------------
 STRT.F           60.0000:   START DEPTH
 STOP.F         5768.0000:   STOP DEPTH
 STEP.F            0.5000:   STEP LENGTH
 NULL.          -999.2500:   NO VALUE
 COMP.              RMOTC:   COMPANY
 WELL. RMOTC NPR-3 61 "X" #2-15:   WELL
 FLD .            N P R-3:   FIELD
 LOC .      S15 T38N R78W:   LOCATION
 CNTY.            NATRONA:   COUNTY
 STAT.            WYOMING:   STATE
 CTRY. UNITED STATES OF AMERICA:   COUNTRY
 SRVC.       SCHLUMBERGER:   SERVICE COMPANY
 DATE.        07-JAN-2002:   LOGDATE
 API .     49025230310000:   API NUMBER
~CURVE INFORMATION
#MNEM.UNIT       API CODE    CURVE DESCRIPTION
#----------   ------------   ------------------------------
 DEPT.F                  :   
 CALD.IN     45 280 60 00:   CALIPER FROM DENSITY LOG
 TEND.LBS    45 635 01 00:   TENSION FROM DENSITY LOG
 PEFZ.B/E    45 358 01 00:   HILT PHOTOELECTRIC FACTOR
 RHOZ.G/C3   45 350 01 00:   HILT BULK DENSITY
 NPOR.DEC    42 890 03 00:   ALPHA PROCESSED NEUTRON POROSITY
 HDRA.G/C3   45 356 01 00:   DELTA RHO HIP TOOL
 GRS .GAPI   60 310 01 00:   GAMMA RAY FROM SONIC LOG
 DTSM.US/F   61 523 00 00:   SHEAR-WAVE INTERVAL TRANSIT TIME DELTA-T
 GRR .GAPI   07 310 01 00:   GAMMA RAY FROM RESISTIVITY
 TENR.LBS    01 635 01 00:   TENSION FROM RES.
 SPR .MV     07 010 01 00:   SPONTANEOUS POTENTIAL
 HLLD.OHMM   11 220 10 00:   LATEROLOG DEEP RES.
 HLLS.OHMM   11 220 09 00:   LATEROLOG SHALLOW RES.
 HRLD.OHMM   11 220 10 00:   HIGH RESOLUTION DEEP RESISTIVITY
~PARAMETER INFORMATION
#MNEM.UNIT          VALUE    DESCRIPTION
#----------   ------------   ------------------------------
 EKB .F         5244.0000:   Kelly bushing
 EGL .F         5227.0000:   Ground level
 EDF .F         5243.0000:   Drilling floor
 EPD .F            0.0000:   Permanent datum
 TD  .F         5756.0000:   Total depth
 DATE.        07-JAN-2002:   Date logged
 CLNT.            A2DTECH:   Client Code
 SL  . 189' FNL & 1895' FEL:   Surface Location
 PD  .                 GL:   Permanent Datum
 DD  .F              5750:   Depth driller
 DL  .F              5756:   Depth logger
 BLI .F              5748:   Bottom log interval
 CS1 .IN             3054:   Casing size
 CBD1.     9.625" @ 3052':   Casing driller 1
 CBL1.F              3054:   Casing logger 1
 BS1 .IN            8.750:   Bit size
 DFT .             3% KCL:   Type fluid in hole
 DFD .                9.3:   Density
 DFV .                 42:   Viscosity
 DFPH.                  8:   pH
 DFL .                 28:   Fluid loss
 MSS .           FLOWLINE:   Source of sample
 RMS .OHMM          0.413:   Rm
 MST .F                74:   Rm Meas. temp.
 RMF .OHMM          0.305:   Rmf
 MFST.F                74:   Rmf Meas. temp.
 RMC .OHMM          0.637:   Rmc
 MCST.F                74:   Rmc Meas. temp.
 MFSS.               CALC:   Source Rmf.
 RMB .OHMM          0.187:   Rm. at BHT
 BHT .F               172:   BHT.
 TCS .HRS            0800:   Time Circ. stopped
 MRT .F               172:   Maximum recorded temp.
 LUN .               2211:   Logging unit number
 LUL .             CASPER:   Logging unit location
 ENGI.        J.L. FLORES:   Recorded By
 WITN.      MARK MILLIKEN:   Witnessed by
 ORIG.           5" PRINT:   Origin of data
 UWI .     49025230310000:   Unique Well ID
 DICO. A2D TECHNOLOGIES, INC.:   Digitizing Company
 DAPD.                 17:   Feet Above Permanent Datum
 BSD1.               5750:   Depth drilled with bit1
 MCSS.               CALC:   Source Rmc.
 LMF .                 KB:   Log Measured From
 DMF .                 KB:   Drilling Measured From
 TLI .               3054:   Top log interval
~OTHER INFORMATION
~A   DEPT     CALD       TEND       PEFZ       RHOZ       NPOR       HDRA        GRS       DTSM         GRR      TENR        SPR       HLLD       HLLS       HRLD   
# ...
 4641.5000    10.7600  2521.1230     2.9900     2.6560     0.0940     0.0010    65.4790   116.0130    70.5310  2555.1750   -27.8950    41.9540    42.9020    41.0030
 4642.0000    10.7600  2514.9109     3.0570     2.6500     0.1040     0.0000    76.2320   118.4260    78.7120  2562.8601   -27.9270    33.1790    35.1410    33.6940
 4642.5000    10.7600  2522.3660     3.1480     2.6540     0.1810    -0.0010    87.7120   119.5840    89.9130  2571.9961   -27.9690    25.8470    27.3800    26.0430
 4643.0000    10.7600  2547.2170     3.2340     2.6630     0.2310    -0.0020    99.1570   121.2700   102.6030  2591.8569   -28.0050    18.5150    19.6190    18.3930
 4643.5000    10.7590  2574.5530     3.2600     2.6630     0.2470    -0.0030    99.6340   123.5450   111.6490  2573.0200   -28.0470    14.0000    14.3890    12.4300
 4644.0000    10.7560  2555.5759     3.2990     2.6610     0.1890    -0.0040    96.7730   125.0250   114.9320  2549.9661   -28.0910    14.9890    15.1380    14.7480
 4644.5000    10.7430  2528.4661     3.3710     2.6530     0.2060    -0.0040   102.4490   125.5330   115.4460  2532.2739   -27.8510    16.2060    16.2060    16.2060
 4645.0000    10.7400  2522.3660     3.4470     2.6470     0.2390    -0.0040   108.7390   122.8210   117.7590  2548.6919   -27.5780    13.6410    15.2560    13.8100
 4645.5000    10.7300  2547.2170     3.4650     2.6490     0.2620    -0.0040   111.3820   118.4870   119.0680  2562.0129   -26.7300    11.7660    14.1280    11.1380
 4646.0000    10.7160  2557.1570     3.3770     2.6540     0.2400    -0.0020    98.3370   114.1540   114.5170  2591.8569   -25.4870    11.7660    14.1280    11.2400
 4646.5000    10.7030  2565.4409     3.2910     2.6670     0.1440    -0.0010    81.3880   109.8200   101.5960  2574.3459   -25.2870    20.8120    24.1720    24.1190
 4647.0000    10.6890  2574.5530     3.2190     2.6680     0.1070    -0.0010    73.5720   107.2590    88.0440  2557.6960   -25.7360    29.4130    33.7220    35.5860
 4647.5000    10.6800  2556.6599     3.1810     2.6610     0.1020    -0.0010    69.7340   106.8700    77.3600  2552.1350   -26.5320    37.2510    37.2510    32.7740
 4648.0000    10.6860  2534.7910     3.1410     2.6520     0.1020    -0.0020    67.0070   106.2440    75.2450  2552.1350   -27.4610    37.2620    37.5930    33.9390
 4648.5000    10.6910  2542.2471     3.1060     2.6440     0.1030    -0.0030    64.2180   106.5160    72.9420  2552.1350   -28.3890    36.9120    37.3820    35.6740
 4649.0000    10.6960  2550.5300     3.0560     2.6360     0.1070    -0.0040    63.5980   106.8130    73.8900  2552.1350   -29.3140    36.6400    37.0710    36.5760
 4649.5000    10.7000  2554.6721     3.0070     2.6240     0.1130    -0.0040    65.0110   107.1110    75.3490  2552.1350   -30.2450    36.2430    36.9120    34.4190
 4650.0000    10.7230  2543.5791     2.9690     2.6140     0.1130    -0.0040    63.0780   107.2590    74.0000  2552.1350   -30.5290    32.3540    34.8670    28.8350
 4650.5000    10.7440  2521.3940     2.9630     2.6080     0.1010    -0.0040    60.8090   107.2590    69.9550  2552.1350   -29.3540    30.1840    33.7850    29.7650
 4651.0000    10.7650  2517.8789     2.9560     2.6140     0.0940    -0.0040    59.5390   107.2590    65.7290  2559.9031   -28.2870    30.6240    33.3660    30.7980
 4651.5000    10.7870  2544.5459     2.9590     2.6240     0.0910    -0.0040    58.4040   107.2590    62.1130  2570.9590   -28.2010    30.7410    33.0750    31.0240
 4652.0000    10.8080  2571.2129     2.9760     2.6260     0.0890    -0.0040    57.2670   107.2590    60.8780  2582.0149   -28.0740    30.0530    32.7740    28.0540
 4652.5000    10.8290  2594.4331     3.0160     2.6170     0.0880    -0.0040    56.1380   107.2590    59.8410  2591.8569   -28.0080    28.5720    32.4760    27.7990
 4653.0000    10.8620  2581.5229     3.0640     2.6060     0.0870    -0.0040    55.8090   107.3190    58.8960  2580.5581   -27.8770    29.5550    33.7290    28.7910
 4653.5000    10.8600  2563.8760     3.1110     2.6100     0.0860    -0.0020    55.5940   106.6590    58.8970  2558.4460   -28.3260    31.3090    35.2620    30.4610
 4654.0000    10.8680  2546.2290     3.1510     2.6150     0.0860     0.0000    54.8870   106.0000    58.9200  2559.2451   -30.1310    32.1830    36.0110    29.3670
 4654.5000    10.8840  2534.7910     3.1470     2.6210     0.0850     0.0030    52.3330   105.3410    58.8620  2569.1960   -32.2110    32.7740    37.6830    29.6370
 4655.0000    10.8990  2548.7080     3.1360     2.6360     0.0790     0.0030    49.1360   104.7210    56.0910  2579.1460   -33.8590    36.1770    40.1110    31.6710
 4655.5000    10.9150  2574.5530     3.1250     2.6430     0.0720     0.0000    47.5130   104.2130    53.5270  2589.0959   -33.5510    39.2220    42.7290    32.4760
 4656.0000    10.9310  2584.2151     3.1130     2.6390     0.0700    -0.0010    48.5060   104.2130    52.6740  2591.8569   -30.8550    42.2670    45.9730    39.1230
 4656.5000    10.9460  2594.4331     3.0840     2.6300     0.0740     0.0000    51.2650   104.2130    53.7150  2571.9961   -27.5560    43.9180    45.7130    43.1220
 4657.0000    10.9620  2568.4561     3.0090     2.6340     0.0800     0.0010    53.9630   104.2130    56.5550  2571.9961   -24.0100    39.2180    44.3210    36.2430
 4657.5000    10.9780  2534.7910     2.9730     2.6350     0.0820     0.0030    55.9040   104.6010    57.7320  2571.9961   -18.9530    37.9320    43.9180    35.2620
 4658.0000    10.9930  2534.7910     2.9840     2.6330     0.0830     0.0040    54.3960   105.0600    58.1450  2571.9961   -18.6060    39.2200    43.9180    37.9880
 4658.5000    11.0260  2563.2490     2.9770     2.6310     0.0840     0.0020    52.8490   107.0420    61.1700  2592.4709   -26.2220    40.0790    43.1120    40.0790
 4659.0000    11.0480  2591.8210     2.9390     2.6370     0.0850     0.0010    52.4950   109.8990    64.1540  2611.7180   -35.6670    37.5840    41.8930    39.3530
 4659.5000    11.0710  2614.3140     2.9020     2.6470     0.0860     0.0000    53.9280   112.7570    73.6020  2598.3611   -38.1020    34.1870    38.5220    33.7150
 4660.0000    11.0940  2583.4990     2.8770     2.6460     0.0880     0.0010    65.2880   115.6150    81.8330  2571.9961   -39.4630    30.7910    32.8400    27.6940
 4660.5000    11.1180  2554.6721     2.9390     2.6630     0.1170     0.0020    81.5940   118.4260    92.0580  2578.1709   -38.9370    24.5050    27.1590    22.5250
 4661.0000    11.1410  2553.1951     3.0550     2.6680     0.1670     0.0040    97.7640   119.2510   102.5780  2596.2629   -37.8620    17.2080    21.4780    16.9310
 4661.5000    11.1650  2594.4331     3.1690     2.6890     0.2180     0.0000   110.5020   118.9390   112.9230  2611.7180   -35.9130    12.5440    17.1200    11.7660
 4662.0000    11.1810  2594.4331     3.2270     2.6990     0.2400    -0.0040   111.2170   116.5310   111.8290  2594.5759   -31.7750    16.8200    20.4430    14.6610
 4662.5000    11.1890  2594.4331     3.1390     2.6970     0.1900    -0.0090    95.1340   114.1240    99.1590  2571.6140   -27.7400    21.3390    26.5200    19.9540
 4663.0000    11.1950  2534.7910     3.0540     2.6950     0.1370    -0.0060    80.3710   111.7160    88.6990  2552.1350   -25.3950    26.0750    30.7410    26.5560
 4663.5000    11.1990  2537.6851     3.0510     2.6950     0.1250     0.0010    69.2360   109.2890    82.0960  2563.0491   -24.2820    26.8020    31.3360    26.8010
 4664.0000    11.2200  2548.7959     3.0500     2.6930     0.1130     0.0020    64.9500   108.7820    81.7250  2572.5259   -28.8150    27.2950    32.1260    27.4920
 4664.5000    11.2200  2555.7429     3.0890     2.6780     0.1020     0.0000    65.2900   108.7820    81.3230  2582.0020   -34.1370    28.5270    32.7700    27.7990
 4665.0000    11.2280  2558.0161     3.1260     2.6530     0.0960    -0.0010    67.7180   108.7820    77.7990  2591.8569   -38.4560    30.5650    33.5930    29.8160
 4665.5000    11.2380  2560.2881     3.1240     2.6580     0.0910    -0.0020    68.2370   108.7820    75.4780  2591.8569   -39.1280    32.6030    34.4170    31.9200
