~VERSION INFORMATION
 VERS.                2.0:   CWLS LOG ASCII STANDARD - VERSION 2.0
 WRAP.                 NO:   ONE LINE PER DEPTH STEP
~WELL INFORMATION
#MNEM.UNIT      DATA TYPE    INFORMATION
#----------   ------------   ------------------------------
 STRT.F          590.0000:   START DEPTH
 STOP.F         3123.0000:   STOP DEPTH
 STEP.F            0.5000:   STEP LENGTH
 NULL.          -999.2500:   NO VALUE
 COMP.         U. S. NAVY:   COMPANY
 WELL. U.S. NPR 3 "A" #402-33:   WELL
 FLD .             TEAPOT:   FIELD
 LOC .      S33 T39N R78W:   LOCATION
 CNTY.            NATRONA:   COUNTY
 STAT.            WYOMING:   STATE
 CTRY. UNITED STATES OF AMERICA:   COUNTRY
 SRVC.         MCCULLOUGH:   SERVICE COMPANY
 DATE.        23-OCT-1967:   LOGDATE
 API .     49025104460000:   API NUMBER
~CURVE INFORMATION
#MNEM.UNIT       API CODE    CURVE DESCRIPTION
#----------   ------------   ------------------------------
 DEPT.F                  :   
 GRN .GAPI   35 310 01 00:   GAMMA RAY FROM NEUTRON
 NEUT.NAPI   35 330 01 00:   NEUTRON
~PARAMETER INFORMATION
#MNEM.UNIT          VALUE    DESCRIPTION
#----------   ------------   ------------------------------
 EKB .F            0.0000:   Kelly bushing
 EGL .F         5160.5000:   Ground level
 EDF .F         5162.0000:   Drilling floor
 TD  .F         3123.5000:   Total depth
 CLNT.            A2DTECH:   Client Code
 PD  .                 GL:   Permanent Datum
 EPD .F            5160.5:   Elevation Permanent Datum
 LMF .                 DF:   Log Measured From
 DMF .                 DF:   Drilling Measured From
 DAPD.F               1.5:   Feet Above Permanent Datum
 DATE.        23-OCT-1967:   Date Logged [DD-MMM-YYYY]
 DL  .F            3123.5:   Depth logger
 BLI .F              3122:   Bottom log interval
 TLI .F               600:   Top log interval
 CS1 .IN           5.1875:   Casing size
 DFT .              WATER:   Type fluid in hole
 TCS .HRS             4.5:   Time Circ. stopped
 ENGI.         COWLTHORPE:   Recorded By
 WITN.           THOMASON:   Witnessed by
 ORIG.         2.5" PRINT:   Origin of data
 UWI .     49025104460000:   Unique Well ID
 DICO. A2D TECHNOLOGIES, INC.:   Digitizing Company
 LUN .               1498:   Logging unit number
~OTHER INFORMATION
~A   DEPT       GRN      NEUT   
# ...
 1197.5000    29.5955   407.9698
 1198.0000    28.3428   417.8310
 1198.5000    31.6758   395.5690
 1199.0000    34.1750   358.4895
 1199.5000    32.7138   341.1726
 1200.0000    31.4617   360.9106
 1200.5000    33.5435   328.7717
 1201.0000    33.8107   343.6224
 1201.5000    32.0803   338.3353
 1202.0000    29.5769   331.2708
 1202.5000    28.9495   370.7960
 1203.0000    32.4910   362.3488
 1203.5000    29.7792   347.7555
 1204.0000    30.4025   338.6818
 1204.5000    32.6932   335.1745
 1205.0000    33.1081   328.2234
 1205.5000    35.3988   320.7560
 1206.0000    37.0643   330.8766
 1206.5000    34.1441   333.7411
 1207.0000    33.2942   326.3301
 1207.5000    32.2465   327.1947
 1208.0000    32.5538   346.0598
 1208.5000    34.3823   363.3850
 1209.0000    34.5507   314.7694
 1209.5000    34.1317   323.3011
 1210.0000    35.2759   327.9770
 1210.5000    36.1233   315.1404
 1211.0000    36.8353   322.5923
 1211.5000    36.2079   306.0222
 1212.0000    37.4565   309.9280
 1212.5000    35.8734   332.0930
 1213.0000    34.8848   343.6224
 1213.5000    36.2813   344.5366
 1214.0000    38.0177   336.2114
 1214.5000    38.9414   328.8004
 1215.0000    40.2924   299.1565
 1215.5000    41.6104   309.0378
 1216.0000    40.9969   279.3939
 1216.5000    40.2565   284.3346
 1217.0000    38.5643   289.2752
 1217.5000    38.6057   299.1565
 1218.0000    37.5909   296.6862
 1218.5000    35.7616   309.0378
 1219.0000    34.0916   318.9191
 1219.5000    33.2405   309.0378
 1220.0000    35.1297   321.3895
 1220.5000    35.6655   309.0378
 1221.0000    33.8749   299.1565
 1221.5000    33.8729   281.8472
 1222.0000    34.7046   274.4533
 1222.5000    34.4941   287.4213
 1223.0000    34.4159   316.8123
 1223.5000    36.1575   329.2767
 1224.0000    35.9470   342.0414
 1224.5000    31.7761   336.9120
 1225.0000    31.5656   315.6262
 1225.5000    30.5213   313.9785
 1226.0000    30.7277   319.4461
 1226.5000    33.2270   327.4994
 1227.0000    34.2741   331.2708
 1227.5000    34.9422   331.9710
 1228.0000    38.5013   334.4982
 1228.5000    39.9078   340.3124
 1229.0000    39.8382   351.1811
 1229.5000    38.4566   358.4444
 1230.0000    37.7982   319.9029
 1230.5000    38.4612   297.0656
 1231.0000    38.8363   293.6913
 1231.5000    37.9202   301.6269
 1232.0000    36.9562   306.5016
 1232.5000    40.2892   333.7411
 1233.0000    37.6641   329.9367
 1233.5000    36.1820   327.4091
 1234.0000    35.6970   322.8387
 1234.5000    35.6949   338.6818
 1235.0000    35.7796   360.9147
 1235.5000    37.5372   383.1476
 1236.0000    40.8163   389.6701
 1236.5000    39.4455   316.4488
 1237.0000    36.8937   326.3301
 1237.5000    38.8956   333.7411
 1238.0000    36.9104   331.2708
 1238.5000    34.5978   331.7734
 1239.0000    35.4673   321.3895
 1239.5000    36.2990   338.6818
 1240.0000    35.2547   312.3316
 1240.5000    34.6274   324.1318
 1241.0000    37.9604   309.0378
 1241.5000    41.2933   316.4488
 1242.0000    40.8744   336.2114
 1242.5000    34.8276   333.7411
 1243.0000    34.3706   338.7294
 1243.5000    36.4910   356.2717
 1244.0000    37.4341   375.7366
 1244.5000    35.4447   363.0067
 1245.0000    34.1746   353.2572
 1245.5000    35.4405   347.6481
 1246.0000    35.6610   335.1239
 1246.5000    34.6027   340.3604
 1247.0000    33.5444   359.8790
 1247.5000    31.6717   352.5610
 1248.0000    31.4698   316.4488
 1248.5000    32.3778   330.7520
 1249.0000    33.5502   345.7461
 1249.5000    33.9928   361.5054
 1250.0000    37.2980   368.3257
 1250.5000    37.0873   350.6867
 1251.0000    37.5023   328.8004
 1251.5000    37.0830   363.4277
 1252.0000    38.3316   370.4666
 1252.5000    38.1211   339.6679
 1253.0000    36.2431   323.7280
 1253.5000    34.9869   325.1187
 1254.0000    34.1546   320.2038
 1254.5000    36.5182   322.5179
 1255.0000    38.5450   322.7899
 1255.5000    38.2042   355.7250
 1256.0000    36.1193   388.0883
 1256.5000    34.4950   402.9102
 1257.0000    34.3506   373.2663
 1257.5000    37.0235   338.6818
 1258.0000    38.0984   368.3257
 1258.5000    37.2085   346.0927
 1259.0000    37.0521   318.9191
 1259.5000    37.9478   296.6862
 1260.0000    38.2987   321.3895
 1260.5000    38.5050   338.6818
 1261.0000    38.2142   363.3850
 1261.5000    37.7050   373.2663
 1262.0000    36.4696   378.2070
 1262.5000    34.5879   385.6180
 1263.0000    31.4283   373.2663
 1263.5000    28.5895   348.5630
 1264.0000    28.4849   393.0289
 1264.5000    28.7156   375.5902
 1265.0000    30.6346   350.7845
 1265.5000    30.1458   343.6224
 1266.0000    27.2256   373.2663
 1266.5000    26.8679   343.1100
 1267.0000    30.3481   333.7411
 1267.5000    31.1798   350.7882
 1268.0000    31.3864   374.5515
 1268.5000    32.0094   388.0883
 1269.0000    34.5086   382.0613
 1269.5000    36.1741   370.8607
 1270.0000    34.5045   343.9558
 1270.5000    33.0434   336.2114
 1271.0000    32.8329   344.3971
 1271.5000    32.2055   351.0566
 1272.0000    32.2034   378.9975
 1272.5000    32.4098   395.4993
 1273.0000    31.1571   383.6090
 1273.5000    29.2791   372.5511
 1274.0000    30.8466   361.1453
 1274.5000    35.5282   349.8556
 1275.0000    35.4390   347.3279
 1275.5000    31.2649   367.3802
 1276.0000    30.7279   374.1556
 1276.5000    30.6597   364.4469
 1277.0000    29.4903   358.4444
 1277.5000    26.1616   360.9147
 1278.0000    27.1207   368.3257
 1278.5000    32.7009   338.6818
 1279.0000    33.5708   365.8553
 1279.5000    36.3414   393.0289
 1280.0000    31.6838   368.3257
 1280.5000    29.5174   400.4399
 1281.0000    27.7891   427.6135
 1281.5000    31.1217   435.5112
 1282.0000    30.4943   414.2408
 1282.5000    30.6833   422.6729
 1283.0000    32.7620   417.7322
 1283.5000    34.7663   412.7915
 1284.0000    34.8493   407.8509
 1284.5000    33.8867   400.4399
 1285.0000    32.4968   393.0289
 1285.5000    32.0656   407.8509
 1286.0000    33.8123   417.7322
 1286.5000    33.1849   404.5677
 1287.0000    33.0512   375.7366
 1287.5000    33.8064   395.4993
 1288.0000    31.9281   382.3567
 1288.5000    30.4670   370.4750
 1289.0000    31.9240   368.3257
 1289.5000    30.6713   378.3523
 1290.0000    29.6270   403.4043
 1290.5000    32.5431   407.8509
 1291.0000    32.9824   404.1967
 1291.5000    31.2884   366.3238
 1292.0000    27.9513   356.9951
 1292.5000    27.1154   366.2679
 1293.0000    30.0315   405.4782
 1293.5000    32.7550   415.2619
 1294.0000    35.8844   384.6630
 1294.5000    36.2786   381.1226
 1295.0000    36.0681   364.0441
 1295.5000    36.7138   378.9051
 1296.0000    37.1062   399.1553
 1296.5000    37.0380   376.9163
 1297.0000    36.1152   364.8196
 1297.5000    34.5116   387.4728
 1298.0000    34.3880   399.3859
 1298.5000    34.3859   402.9102
 1299.0000    33.8798   402.9102
 1299.5000    32.0889   383.1476
 1300.0000    32.0173   365.8553
 1300.5000    31.3847   378.2070
 1301.0000    30.5124   388.0883
 1301.5000    27.6997   395.4993
 1302.0000    25.5292   400.4399
 1302.5000    28.1104   383.1476
 1303.0000    29.9832   358.4444
 1303.5000    31.4392   338.6818
 1304.0000    31.2277   331.2708
 1304.5000    29.3486   336.2114
 1305.0000    29.3455   355.9740
 1305.5000    27.8833   378.2070
 1306.0000    31.0068   368.3257
 1306.5000    29.9698   353.5037
 1307.0000    33.5019   353.0099
 1307.5000    35.5832   385.6180
 1308.0000    34.3294   382.9834
 1308.5000    35.7854   383.2705
 1309.0000    38.0751   340.8214
 1309.5000    39.9480   368.3257
 1310.0000    38.6942   378.2070
 1310.5000    37.6489   378.2070
 1311.0000    36.6036   378.0439
 1311.5000    30.7642   338.6818
 1312.0000    32.4286   351.0334
 1312.5000    31.5917   291.7455
 1313.0000    32.2140   324.1175
 1313.5000    28.4476   370.3435
 1314.0000    30.6242   347.9038
 1314.5000    33.4553   358.9321
 1315.0000    33.9381   386.0301
 1315.5000    31.5731   367.6272
 1316.0000    33.0291   353.5037
 1316.5000    33.9708   370.7960
 1317.0000    35.7326   360.9147
 1317.5000    32.1580   375.7366
 1318.0000    31.7660   323.5291
 1318.5000    32.3880   296.6862
