~VERSION INFORMATION
 VERS.                2.0:   CWLS LOG ASCII STANDARD - VERSION 2.0
 WRAP.                 NO:   ONE LINE PER DEPTH STEP
~WELL INFORMATION
#MNEM.UNIT      DATA TYPE    INFORMATION
#----------   ------------   ------------------------------
 STRT.F          540.0000:   START DEPTH
 STOP.F         4100.0000:   STOP DEPTH
 STEP.F            0.5000:   STEP LENGTH
 NULL.          -999.2500:   NO VALUE
 COMP. LAWRENCE ALISON & ASSOC.,WEST:   COMPANY
 WELL. LAWRENCE "X" #15-11:   WELL
 FLD .              N P R:   FIELD
 LOC .      S11 T38N R78W:   LOCATION
 CNTY.            NATRONA:   COUNTY
 STAT.            WYOMING:   STATE
 CTRY. UNITED STATES OF AMERICA:   COUNTRY
 SRVC.      DRESSER ATLAS:   SERVICE COMPANY
 DATE.        18-MAY-1985:   LOGDATE
 API .     49025110220000:   API NUMBER
~CURVE INFORMATION
#MNEM.UNIT       API CODE    CURVE DESCRIPTION
#----------   ------------   ------------------------------
 DEPT.F                  :   
 NPHI.DEC    42 890 03 00:   NEUTRON POROSITY SANDSTONE
 RHOB.G/C3   45 350 01 00:   BULK DENSITY
 CORR.G/C3   45 356 01 00:   DENSITY CORRECTION
 TEND.LBS    45 635 01 00:   TENSION FROM DENSITY LOG
 GRD .GAPI   45 310 01 00:   GAMMA RAY FROM DENSITY LOG
 CALD.IN     45 280 60 00:   CALIPER FROM DENSITY LOG
 SPR .MV     07 010 01 00:   SPONTANEOUS POTENTIAL
 RILD.OHMM   07 120 46 00:   DEEP INDUCTION RESISTIVITY
 RILM.OHMM   07 120 44 00:   INDUCTION LOG MEDIUM RESISTIVITY
 RFOC.OHMM   07 220 04 00:   RESISTIVITY FOCUSED LOG RES.
 TENR.LBS    07 635 01 00:   TENSION FROM RESISTIVITY
~PARAMETER INFORMATION
#MNEM.UNIT          VALUE    DESCRIPTION
#----------   ------------   ------------------------------
 EKB .F         5201.0000:   Kelly bushing
 EGL .F         5189.0000:   Ground level
 EDF .F         5200.0000:   Drilling floor
 TD  .F         4095.0000:   Total depth
 DATE.        18-MAY-1985:   Date logged
 CLNT.            A2DTECH:   Client Code
 SL  . 2203' FSL & 377' FWL:   Surface Location
 PD  .                 GL:   Permanent Datum
 EPD .F              5189:   Elevation Permanent Datum
 LMF .                 KB:   Log Measured From
 DMF .                 KB:   Drilling Measured From
 DAPD.F                12:   Feet Above Permanent Datum
 DD  .F              4095:   Depth driller
 DL  .F              4093:   Depth logger
 BLI .F              4091:   Bottom log interval
 TLI .F                 0:   Top log interval
 CS1 .IN            8.625:   Casing size
 CBD1.      8.625" @ 565':   Casing driller 1
 CBL1.F               565:   Casing logger 1
 BS1 .IN            7.875:   Bit size
 BSD1.F              4095:   Depth drilled with bit1
 DFT .            GEL KCL:   Type fluid in hole
 DFD .                9.2:   Density
 DFV .                 40:   Viscosity
 DFPH.                8.0:   pH
 DFL .                9.0:   Fluid loss
 MSS .            MUDTANK:   Source of sample
 RMS .OHMM            .57:   Rm
 MST .F                69:   Rm Meas. temp.
 RMF .OHMM            .49:   Rmf
 MFST.F                69:   Rmf Meas. temp.
 RMC .OHMM            .71:   Rmc
 MCST.F                69:   Rmc Meas. temp.
 MFSS.               MEAS:   Source Rmf.
 MCSS.               CALC:   Source Rmc.
 RMB .OHMM            .30:   Rm. at BHT
 BHT .F               139:   BHT.
 TCS .HRS               4:   Time Circ. stopped
 MRT .F               139:   Maximum recorded temp.
 LUN .            HL 6302:   Logging unit number
 LUL .               CODY:   Logging unit location
 ENGI.              GETTY:   Recorded By
 WITN.              FIVAS:   Witnessed by
 ORIG.           5" PRINT:   Origin of data
 UWI .     49025110220000:   Unique Well ID
 DICO. A2D TECHNOLOGIES, INC.:   Digitizing Company
~OTHER INFORMATION
~A   DEPT     NPHI       RHOB       CORR        TEND        GRD      CALD        SPR       RILD       RILM       RFOC       TENR   
# ...
 1028.0000     0.2650     2.5480     0.0110   -66.5420    87.4600    11.6920    -1.1530     9.2770     8.0590     8.0340   -46.8290
 1028.5000     0.2650     2.5430     0.0200   -65.1070    87.9940    11.6950    -1.1730     9.2820     8.0950     8.0300   -46.8290
 1029.0000     0.2660     2.5350     0.0290   -63.6720    88.1940    11.6980    -1.1940     9.2900     8.1310     7.9950   -46.8290
 1029.5000     0.2670     2.5270     0.0330   -62.2370    89.3250    11.7010    -1.2140     9.2610     8.1760     7.9540   -46.8290
 1030.0000     0.2670     2.5240     0.0330   -60.8020    89.9220    11.7040    -1.2350     9.1850     8.0820     7.9120   -55.5860
 1030.5000     0.2660     2.5230     0.0330   -59.3670    89.3740    11.7060    -1.2550     9.1090     8.0490     7.8700   -54.1090
 1031.0000     0.2760     2.5240     0.0240   -57.9310    87.4220    11.7090    -1.2760     9.0330     8.0160     7.8290   -52.6330
 1031.5000     0.2780     2.5260     0.0140   -56.4960    85.9780    11.7120    -1.2960     8.9560     7.9820     7.8000   -51.1570
 1032.0000     0.2760     2.5220     0.0010   -55.0610    86.5680    11.7150    -1.3170     8.8800     7.9550     7.7720   -49.6800
 1032.5000     0.2790     2.5170    -0.0110   -53.6260    86.9020    11.7180    -1.3370     8.8040     7.7830     7.7440   -48.2040
 1033.0000     0.2870     2.5130    -0.0240   -52.1910    86.3040    11.7200    -1.3580     8.7280     7.5590     7.7160   -46.7280
 1033.5000     0.3120     2.5090    -0.0360   -50.7560    86.5440    11.7230    -1.3780     8.6520     7.4620     7.6880   -45.2520
 1034.0000     0.3010     2.5090    -0.0340   -49.3210    88.9680    11.7260    -1.3990     8.5760     7.4600     7.6700   -43.7750
 1034.5000     0.2830     2.5100    -0.0170   -47.8860    90.2370    11.7130    -1.4190     8.5370     7.4470     7.6900   -42.2990
 1035.0000     0.2870     2.5120     0.0000   -46.4500    90.5310    11.6900    -1.4400     8.5010     7.4330     7.7120   -40.8230
 1035.5000     0.2940     2.5140     0.0150   -46.6060    90.8190    11.6660    -1.4600     8.4650     7.4200     7.7330   -39.3470
 1036.0000     0.3070     2.5170     0.0070   -47.4440    91.0960    11.6420    -1.4810     8.4290     7.4060     7.7540   -37.8700
 1036.5000     0.3220     2.5200     0.0110   -48.2820    91.2820    11.6180    -1.4810     8.3930     7.3950     7.7760   -39.1110
 1037.0000     0.3430     2.5250     0.0200   -49.1200    90.5730    11.5940    -1.4610     8.3570     7.5430     7.7970   -45.2920
 1037.5000     0.3610     2.5320     0.0310   -49.9580    89.3080    11.5710    -1.4410     8.3260     7.6710     7.8110   -51.4740
 1038.0000     0.3220     2.5380     0.0500   -50.7960    88.0560    11.5470    -1.4210     8.3500     7.7990     7.6850   -57.6560
 1038.5000     0.2850     2.5370     0.0700   -51.6340    88.4870    11.5230    -1.4020     8.3700     7.8830     7.5750   -63.8380
 1039.0000     0.2740     2.5320     0.0710   -52.4720    89.0110    11.4990    -1.3820     8.3900     7.8110     7.4650   -64.0830
 1039.5000     0.2780     2.5260     0.0470   -53.3100    89.5370    11.4830    -1.3620     8.4110     7.8110     7.3270   -59.3730
 1040.0000     0.2830     2.5250     0.0200   -54.1480    88.5600    11.4730    -1.3420     8.4310     7.8110     7.3700   -54.6630
 1040.5000     0.2930     2.5290     0.0000   -54.9860    86.3540    11.4630    -1.3220     8.4510     7.8110     7.4490   -49.9530
 1041.0000     0.2990     2.5350    -0.0050   -55.8240    85.8130    11.4530    -1.3020     8.4720     7.8110     7.5290   -47.0250
 1041.5000     0.2990     2.5390    -0.0100   -56.6620    87.4980    11.4500    -1.2820     8.4920     7.8110     7.6080   -48.4650
 1042.0000     0.3000     2.5380    -0.0130   -57.5000    88.5060    11.4520    -1.2620     8.5120     7.8110     7.6870   -49.9060
 1042.5000     0.3030     2.5360    -0.0060   -58.3380    88.0990    11.4550    -1.2430     8.5330     7.8110     7.7400   -51.3460
 1043.0000     0.2830     2.5340     0.0250   -59.1760    86.8640    11.4570    -1.2230     8.5530     7.8110     7.6530   -52.7870
 1043.5000     0.2730     2.5320     0.0510   -60.0140    87.2540    11.4600    -1.2030     8.5730     7.8110     7.6360   -54.2270
 1044.0000     0.2720     2.5270     0.0410   -60.8520    87.7660    11.4620    -1.1830     8.5940     7.8050     7.6190   -55.6670
 1044.5000     0.2860     2.5220     0.0150   -61.6890    88.2630    11.4650    -1.1630     8.6140     7.7520     7.6000   -57.1080
 1045.0000     0.2830     2.5170    -0.0140   -62.5270    87.4520    11.4670    -1.1430     8.6360     7.6990     7.6610   -58.5480
 1045.5000     0.2770     2.5120    -0.0210   -63.3650    86.8980    11.4700    -1.1240     8.4800     7.6460     7.7790   -59.9890
 1046.0000     0.2700     2.5110    -0.0190   -64.2030    87.2940    11.4730    -1.1040     8.4660     7.6000     7.8830   -61.4290
 1046.5000     0.2680     2.5160    -0.0130   -65.0410    87.6680    11.4750    -1.1410     8.4510     7.5740     7.7770   -62.8700
 1047.0000     0.2770     2.5240     0.0100   -65.8790    88.1340    11.4780    -1.2360     8.4360     7.5450     7.7300   -64.3100
 1047.5000     0.2850     2.5350     0.0330   -66.7170    89.2800    11.4800    -1.3300     8.4210     7.5170     7.6830   -65.7500
 1048.0000     0.2770     2.5310     0.0500   -67.5550    90.1010    11.4830    -1.4240     8.4060     7.4880     7.6000   -67.1910
 1048.5000     0.2660     2.5240     0.0500   -68.3930    90.0760    11.4850    -1.4930     8.3910     7.4620     7.5830   -68.6310
 1049.0000     0.2580     2.5170     0.0200   -69.2310    89.2150    11.4880    -1.4910     8.3760     7.4620     7.5640   -70.0720
 1049.5000     0.2660     2.5150    -0.0030   -70.0690    87.9050    11.4830    -1.4910     8.3610     7.4790     7.5460   -71.5120
 1050.0000     0.2790     2.5170     0.0070   -70.9070    89.6610    11.4770    -1.4910     8.3460     7.4960     7.5270   -72.9530
 1050.5000     0.2920     2.5250     0.0190   -71.7450    91.3150    11.4720    -1.4910     8.3310     7.5140     7.5090   -74.3930
 1051.0000     0.3020     2.5320     0.0280   -72.5830    89.4120    11.4660    -1.4910     8.3160     7.5320     7.4900   -75.8340
 1051.5000     0.3170     2.5370     0.0240   -73.4210    86.6500    11.4600    -1.4910     8.3010     7.5500     7.4710   -74.7060
 1052.0000     0.3210     2.5380     0.0180   -74.2590    85.8800    11.4550    -1.4910     8.2860     7.5680     7.4530   -70.9600
 1052.5000     0.2990     2.5340     0.0120   -75.0970    86.6510    11.4490    -1.4910     8.2710     7.5860     7.4340   -67.2130
 1053.0000     0.2840     2.5330     0.0100   -75.8710    87.6780    11.4440    -1.4910     8.2560     7.6030     7.4150   -63.4670
 1053.5000     0.2700     2.5370     0.0220   -71.4260    87.6020    11.4380    -1.4910     8.2410     7.6210     7.3970   -59.7200
 1054.0000     0.2950     2.5410     0.0340   -67.2970    87.5000    11.4320    -1.4910     8.2260     7.6390     7.3780   -55.9740
 1054.5000     0.3280     2.5450     0.0460   -63.1670    87.4250    11.4290    -1.4910     8.2110     7.6570     7.3600   -52.2270
 1055.0000     0.3200     2.5490     0.0580   -59.0380    89.0400    11.4480    -1.4910     8.1960     7.6700     7.3410   -48.4800
 1055.5000     0.3040     2.5480     0.0570   -54.9090    90.3630    11.4670    -1.4910     8.1810     7.5390     7.3270   -44.7340
 1056.0000     0.2900     2.5420     0.0510   -50.7790    90.1030    11.4850    -1.4910     8.0790     7.4370     7.2560   -40.9870
 1056.5000     0.2820     2.5460     0.0440   -46.6500    90.0680    11.5040    -1.4920     7.9960     7.3350     7.1910   -37.2410
 1057.0000     0.2820     2.5540     0.0490   -48.7290    90.9240    11.5220    -1.5430     7.9140     7.2610     7.1300   -33.4940
 1057.5000     0.2810     2.5590     0.0500   -51.9260    91.7970    11.5410    -1.6000     7.8320     7.2320     7.2370   -29.7470
 1058.0000     0.2800     2.5510     0.0510   -55.1230    92.2650    11.5590    -1.6570     7.7500     7.1900     7.3610   -28.3350
