~VERSION INFORMATION
 VERS.                2.0:   CWLS LOG ASCII STANDARD - VERSION 2.0
 WRAP.                 NO:   ONE LINE PER DEPTH STEP
~WELL INFORMATION
#MNEM.UNIT      DATA TYPE    INFORMATION
#----------   ------------   ------------------------------
 STRT.F          602.0000:   START DEPTH
 STOP.F         5553.0000:   STOP DEPTH
 STEP.F            0.5000:   STEP LENGTH
 NULL.          -999.2500:   NO VALUE
 COMP.         U. S. NAVY:   COMPANY
 WELL. U. S. 1-TP-33 NPR #3-33:   WELL
 FLD . TEAPOT NAVAL RESERVE:   FIELD
 LOC .      S33 T39N R78W:   LOCATION
 CNTY.            NATRONA:   COUNTY
 STAT.            WYOMING:   STATE
 CTRY. UNITED STATES OF AMERICA:   COUNTRY
 SRVC.       SCHLUMBERGER:   SERVICE COMPANY
 DATE.        24-JUN-1952:   LOGDATE
 API .     49025065260000:   API NUMBER
~CURVE INFORMATION
#MNEM.UNIT       API CODE    CURVE DESCRIPTION
#----------   ------------   ------------------------------
 DEPT.F                  :   
 SPR .MV     01 010 01 00:   SPONTANEOUS POTENTIAL FROM RES.
 ASN .OHMM   01 041 16 00:   AMPLIFIED SHORT NORMAL 16"
 LAT .OHMM   01 070 08 00:   LATERAL 8'
 LN  .OHMM   01 060 64 00:   LONG NORMAL 64"
~PARAMETER INFORMATION
#MNEM.UNIT          VALUE    DESCRIPTION
#----------   ------------   ------------------------------
 EKB .F         5160.0000:   Kelly bushing
 EGL .F         5147.0000:   Ground level
 TD  .F         5553.0000:   Total depth
 CLNT.            A2DTECH:   Client Code
 DATE.        24-JUN-1952:   Date Logged [DD-MMM-YYYY]
 DD  .F              5549:   Depth driller
 DL  .F              5553:   Depth logger
 BLI .F              5553:   Bottom log interval
 TLI .F               602:   Top log interval
 CBL1.F               602:   Casing logger 1
 BSD1.F              5549:   Depth drilled with bit1
 DFT .           GYP BASE:   Type fluid in hole
 DFD .                9.8:   Density
 DFV .                 44:   Viscosity
 MSS .           FLOWLINE:   Source of sample
 RMS .OHMM            1.4:   Rm
 MST .F                60:   Rm Meas. temp.
 RMB .OHMM           0.48:   Rm. at BHT
 BHT .F               175:   BHT.
 TCS .HRS             1.5:   Time Circ. stopped
 MRT .F               175:   Maximum recorded temp.
 LUN .                563:   Logging unit number
 ENGI.             SANDER:   Recorded By
 WITN.            GRIBBIN:   Witnessed by
 ORIG.      1" 2.5" PRINT:   Origin of data
 UWI .     49025065260000:   Unique Well ID
 DICO. A2D TECHNOLOGIES, INC.:   Digitizing Company
~OTHER INFORMATION
~A  DEPTH      SPR        ASN        LAT         LN
# ...
 4179.0000   -45.7743    15.4427    14.8952    19.6581
 4179.5000   -45.7729    15.4434    14.7809    19.6581
 4180.0000   -45.7714    15.2723    14.6856    19.6581
 4180.5000   -45.7698    15.0996    14.6865    19.7061
 4181.0000   -45.7686    14.9843    14.5809    19.8006
 4181.5000   -45.7671    14.8732    14.5450    19.8006
 4182.0000   -45.7657    14.8741    14.4952    19.8006
 4182.5000   -45.7643    14.8746    14.4034    19.7222
 4183.0000   -45.7627    14.8095    14.4043    19.6581
 4183.5000   -45.7614    14.7328    14.4050    19.6581
 4184.0000   -45.7600    14.7335    14.4057    19.6581
 4184.5000   -45.7586    14.7343    14.4064    19.5493
 4185.0000   -45.7571    14.6347    14.4071    19.4350
 4185.5000   -45.7556    14.5924    14.4079    19.3732
 4186.0000   -45.7543    14.5931    14.5220    19.3732
 4186.5000   -45.7529    14.5938    14.5521    19.3732
 4187.0000   -45.7514    14.5946    14.4952    19.4843
 4187.5000   -45.7500    14.7027    14.4107    19.6818
 4188.0000   -45.7485    14.8195    14.4114    19.9108
 4188.5000   -45.5244    14.8832    14.4121    20.1126
 4189.0000   -45.4600    14.8840    14.7691    20.2279
 4189.5000   -45.3461    14.8847    15.7195    20.2279
 4190.0000   -45.1714    15.0000    16.8334    20.2279
 4190.5000   -45.1700    15.1168    17.2776    20.1704
 4191.0000   -45.1686    15.2937    17.4159    20.1149
 4191.5000   -44.9899    15.4936    17.6015    20.2294
 4192.0000   -44.7581    15.6216    17.7675    20.3438
 4192.5000   -44.5929    16.0352    17.9569    20.5460
 4193.0000   -44.5914    16.2249    18.2847    20.8946
 4193.5000   -44.5897    16.3904    18.4194    21.3206
 4194.0000   -44.5886    16.5072    18.7084    21.6600
 4194.5000   -44.5871    16.6110    18.9176    21.8888
 4195.0000   -44.6620    16.6118    19.0737    22.1178
 4195.5000   -44.8909    16.7142    19.3044    22.2845
 4196.0000   -45.1541    16.7564    19.5658    22.3989
 4196.5000   -45.3491    16.8044    19.6662    22.5071
 4197.0000   -45.5782    16.9212    19.7819    22.2222
 4197.5000   -45.7214    17.0452    19.9416    22.1296
 4198.0000   -45.7200    17.1548    20.1400    22.0152
 4198.5000   -45.7184    17.1082    20.1408    21.9373
 4199.0000   -45.5114    16.8841    20.1414    21.9545
 4199.5000   -45.4300    16.5366    20.1421    22.2222
 4200.0000   -45.4286    16.1891    20.0952    22.4122
 4200.5000   -45.4271    16.1331    19.9612    22.5741
 4201.0000   -45.4256    16.2458    19.7158    22.6886
 4201.5000   -45.4243    16.3719    19.6095    22.8139
 4202.0000   -45.4229    16.6228    19.4162    23.0813
 4202.5000   -45.4214    16.8218    19.2893    23.1808
 4203.0000   -45.4200    17.1198    19.3367    23.3673
 4203.5000   -45.4185    17.4102    19.5765    23.6838
 4204.0000   -45.6420    17.6350    19.6875    24.1283
 4204.5000   -45.7014    17.8721    19.7207    24.5112
 4205.0000   -45.7000    17.9788    19.7761    24.7162
 4205.5000   -45.6396    18.1714    19.8918    25.0210
 4206.0000   -45.4114    18.3428    20.0086    25.3197
 4206.5000   -45.4100    18.4555    20.1614    25.5125
 4207.0000   -45.0504    18.5673    20.3640    25.5136
 4207.5000   -44.7119    18.5679    20.9285    25.5146
 4208.0000   -44.4800    18.4816    21.4516    25.3598
 4208.5000   -44.2481    18.4305    22.2522    25.0313
 4209.0000   -43.9740    18.3969    23.1744    24.5517
 4209.5000   -43.7842    18.2694    24.2298    23.9520
 4210.0000   -43.5523    17.8782    25.5141    23.0788
 4210.5000   -43.3986    17.5036    27.0301    22.4886
 4211.0000   -43.3744    17.1229    28.5926    21.9239
 4211.5000   -43.1098    16.9924    31.2363    21.1850
 4212.0000   -42.9104    17.2174    33.8118    20.2536
 4212.5000   -42.8214    17.4654    35.6350    19.1267
 4213.0000   -42.7324    17.5665    37.4658    18.2362
 4213.5000   -42.5329    17.6050    38.2248    17.0912
 4214.0000   -42.5313    17.5096    39.0319    15.7782
 4214.5000   -42.5300    17.1989    39.8920    14.9698
 4215.0000   -42.3761    16.4986    40.5892    13.7094
 4215.5000   -42.2414    15.5307    40.4729    12.5376
 4216.0000   -42.2400    14.0336    36.6528    11.5743
 4216.5000   -42.2385    12.3517    33.5857    10.7396
 4217.0000   -42.2371    10.6988    31.2227     9.8391
 4217.5000   -42.2357     9.1261    29.2090     9.1544
 4218.0000   -42.2343     9.2066    27.0207     8.5106
 4218.5000   -42.2329     9.2511    24.6052     7.7732
 4219.0000   -42.2314     7.4976    21.8327     7.0858
 4219.5000   -42.0032     6.6145    19.1391     6.4166
 4220.0000   -41.7714     5.9446    16.8755     5.8834
 4220.5000   -41.5395     5.3852    15.2881     5.5017
 4221.0000   -41.3076     4.9832    13.9174     5.2476
 4221.5000   -41.0814     4.6788    13.4534     5.1741
 4222.0000   -41.0800     4.4011    12.7486     5.1629
 4222.5000   -41.0786     4.2281    11.9444     5.0340
 4223.0000   -41.0771     4.0984    11.1596     5.0349
 4223.5000   -41.0052     3.9980    10.4959     5.0360
 4224.0000   -40.7886     3.9088    10.0110     5.0370
 4224.5000   -40.7869     3.8215     9.3675     5.0381
 4225.0000   -40.7857     3.7996     8.7619     5.0393
 4225.5000   -40.7843     3.7956     8.3032     5.1430
 4226.0000   -40.7829     3.8212     7.7887     5.1838
 4226.5000   -40.7814     3.8813     6.9798     5.2321
 4227.0000   -40.7798     3.9675     6.2075     5.3477
 4227.5000   -40.9786     4.0195     5.7013     5.4719
 4228.0000   -41.0629     4.0199     5.4905     5.6857
 4228.5000   -41.0614     4.0344     5.3673     5.9946
 4229.0000   -41.1288     4.0661     5.2631     6.3395
 4229.5000   -41.6299     4.1252     5.1495     6.7306
 4230.0000   -41.6286     4.2715     5.0358     7.3291
 4230.5000   -41.9356     4.6633     4.9440     7.6598
 4231.0000   -42.2961     5.4887     5.0886     8.0048
 4231.5000   -42.5251     6.3983     5.0900     8.3500
 4232.0000   -42.7656     7.1991     5.1733     8.7219
 4232.5000   -42.9834     8.0693     5.2898     9.1863
 4233.0000   -43.2123     8.8385     5.4064     9.7545
 4233.5000   -43.3329     9.5078     5.5243    10.5003
 4234.0000   -43.3846    10.0276     5.6395    11.1884
 4234.5000   -43.6157    10.8117     5.8421    11.7628
 4235.0000   -43.8429    11.6961     5.9571    12.3349
 4235.5000   -43.8986    12.3663     5.9586    12.7947
 4236.0000   -43.8971    12.5478     5.9600    13.4330
 4236.5000   -43.9585    12.7085     5.9614    13.9991
 4237.0000   -44.1800    12.7834     5.9629    14.4252
 4237.5000   -44.1786    12.7724     5.9643    14.7584
 4238.0000   -44.1771    12.6461     5.9310    14.8962
 4238.5000   -44.1757    12.5491     5.8242    14.8971
 4239.0000   -44.1743    12.4375     5.8260    14.8981
 4239.5000   -44.1729    12.3259     5.7327    14.8620
 4240.0000   -44.1712    12.2143     5.6857    14.7390
 4240.5000   -43.9776    12.0948     5.6871    14.4742
 4241.0000   -43.8829    11.9909     5.6886    14.2822
 4241.5000   -43.7996    11.8793     5.6902    14.0540
 4242.0000   -43.5675    11.7677     5.8886    13.8666
 4242.5000   -43.3070    11.6306     6.2618    13.7400
 4243.0000   -43.3057    11.4050     6.7236    13.4823
 4243.5000   -43.1577    11.2942     7.2008    13.3833
 4244.0000   -42.9257    11.1826     7.8402    13.2698
 4244.5000   -42.7300    11.0711     8.1496    13.2005
 4245.0000   -42.7285    10.9594     8.5713    13.1682
 4245.5000   -42.5157    10.8477     9.0333    12.9178
 4246.0000   -42.2839    10.7159     9.4563    12.8153
 4246.5000   -42.1529    10.7163     9.7044    12.7017
 4247.0000   -42.1514    10.6513     9.9195    12.6360
 4247.5000   -42.1499    10.5397    10.1511    12.5968
 4248.0000   -42.1486    10.4281    10.4342    12.3533
 4248.5000   -42.1471    10.3031    10.8049    12.2473
 4249.0000   -42.2561    10.3036    11.2829    12.1337
 4249.5000   -42.4300    10.2317    11.7285    12.0716
 4250.0000   -42.4286    10.1111    12.2739    12.0252
 4250.5000   -42.1968     9.9910    12.7398    11.7889
 4251.0000   -42.1400     9.8583    13.0865    11.6793
 4251.5000   -42.1386     9.6777    13.4332    11.5657
