~VERSION INFORMATION
 VERS.                2.0:   CWLS LOG ASCII STANDARD - VERSION 2.0
 WRAP.                 NO:   ONE LINE PER DEPTH STEP
~WELL INFORMATION
#MNEM.UNIT      DATA TYPE    INFORMATION
#----------   ------------   ------------------------------
 STRT.F         2299.0000:   START DEPTH
 STOP.F         3387.5000:   STOP DEPTH
 STEP.F            0.5000:   STEP LENGTH
 NULL.          -999.2500:   NO VALUE
 COMP. LAWRENCE ALLISON AND ASSOCIATES:   COMPANY
 WELL. 		  62-AX-3:   WELL
 FLD .                NPR:   FIELD
 LOC .       S3 T38N R78W:   LOCATION
 CNTY.            NATRONA:   COUNTY
 STAT.            WYOMING:   STATE
 CTRY. UNITED STATES OF AMERICA:   COUNTRY
 SRVC.      DRESSER ATLAS:   SERVICE COMPANY
 DATE.        14-JUN-1985:   LOGDATE
 API .     49025110330000:   API NUMBER
~CURVE INFORMATION
#MNEM.UNIT       API CODE    CURVE DESCRIPTION
#----------   ------------   ------------------------------
 DEPT.F                  :   
 NPHI.DEC    42 890 01 00:   NEUTRON POROSITY
 TEND.LBS    45 635 01 00:   TENSION
 RHOB.G/C3   45 350 01 00:   BULK DENSITY
 CORR.DEC    45 356 01 00:   CORRECTION
~PARAMETER INFORMATION
#MNEM.UNIT          VALUE    DESCRIPTION
#----------   ------------   ------------------------------
 EKB .F         5160.0000:   Kelly bushing
 EGL .F         5148.0000:   Ground level
 EDF .F            0.0000:   Drilling floor
 EPD .F         5148.0000:   Permanent datum
 TD  .F         3380.0000:   Total depth
 DATE.        14-JUN-1985:   Date logged
 CLNT.            A2DTECH:   Client Code
 PD  .                 GL:   Permanent Datum
 LMF .                 KB:   Log Measured From
 DMF .                 KB:   Drilling Measured From
 DL  .F              3380:   Depth logger
 BLI .F              3378:   Bottom log interval
 CS1 .IN            8.625:   Casing size
 CBD1.      8.625" @ 603':   Casing driller 1
 DFT .        KCL POLYMER:   Type fluid in hole
 ENGI.               MACK:   Recorded By
 WITN.             STRONG:   Witnessed by
 ORIG.       2.5"5" PRINT:   Origin of data
 UWI .     49025110330000:   Unique Well ID
 DICO. A2D TECHNOLOGIES, INC.:   Digitizing Company
 DAPD.F                12:   Feet Above Permanent Datum
 BS1 .IN            7.875:   Bit size
 DFD .                8.9:   Density
 DFV .                 46:   Viscosity
 DFPH.                8.5:   pH
 DFL .                9.6:   Fluid loss
 MSS .           FLOWLINE:   Source of sample
 RMS .OHMM           0.38:   Rm
 MST .F                74:   Rm Meas. temp.
 RMF .OHMM           0.29:   Rmf
 MFST.F                74:   Rmf Meas. temp.
 MFSS.               MEAS:   Source Rmf.
 RMC .OHMM           0.23:   Rmc
 MCST.F               120:   Rmc Meas. temp.
 MCSS.               MEAS:   Source Rmc.
 RMB .OHMM           0.23:   Rm. at BHT
 BHT .F               120:   BHT.
 TCS .                  8:   Time Circ. stopped
 MRT .                122:   Maximum recorded temp.
 LUN .            HL-6274:   Logging unit number
 LUL .               GLTE:   Logging unit location
~OTHER INFORMATION
~A     DEPTH         CORR         NPHI         RHOB         TEND
# ...
   2919.0000       0.0190       0.3080       2.4970       0.2219
   2919.5000       0.0090       0.3070       2.5030       0.2222
   2920.0000       0.0010       0.2993       2.5150       0.2225
   2920.5000       0.0070       0.2853       2.5290       0.2228
   2921.0000       0.0160       0.2700       2.5430       0.2230
   2921.5000       0.0190       0.2612       2.5700       0.2233
   2922.0000       0.0230       0.2558       2.5800       0.2242
   2922.5000       0.0260       0.2554       2.5820       0.2256
   2923.0000       0.0200       0.2595       2.5730       0.2270
   2923.5000       0.0120       0.2867       2.5540       0.2284
   2924.0000      -0.0060       0.3103       2.5340       0.2299
   2924.5000      -0.0100       0.2794       2.5250       0.2313
   2925.0000      -0.0050       0.2622       2.5300       0.2327
   2925.5000       0.0010       0.2571       2.5350       0.2341
   2926.0000       0.0000       0.2540       2.5370       0.2355
   2926.5000      -0.0030       0.2536       2.5270       0.2369
   2927.0000      -0.0050       0.2557       2.5180       0.2383
   2927.5000       0.0020       0.2601       2.5180       0.2397
   2928.0000       0.0100       0.2624       2.5210       0.2411
   2928.5000       0.0170       0.2591       2.5270       0.2425
   2929.0000       0.0150       0.2575       2.5320       0.2433
   2929.5000       0.0080       0.2619       2.5290       0.2433
   2930.0000       0.0010       0.2687       2.5230       0.2433
   2930.5000      -0.0010       0.2720       2.5150       0.2433
   2931.0000       0.0020       0.2833       2.5170       0.2433
   2931.5000       0.0050       0.2981       2.5230       0.2433
   2932.0000       0.0080       0.3068       2.5310       0.2433
   2932.5000       0.0060       0.2846       2.5320       0.2433
   2933.0000       0.0030       0.2780       2.5150       0.2433
   2933.5000      -0.0010       0.2859       2.5040       0.2433
   2934.0000       0.0060       0.3047       2.4960       0.2433
   2934.5000       0.0120       0.3149       2.4680       0.2433
   2935.0000       0.0150       0.3094       2.4390       0.2433
   2935.5000       0.0160       0.3033       2.4120       0.2433
   2936.0000       0.0140       0.2948       2.4240       0.2433
   2936.5000      -0.0020       0.2832       2.4590       0.2433
   2937.0000      -0.0070       0.2675       2.4970       0.2433
   2937.5000       0.0020       0.2572       2.5290       0.2433
   2938.0000       0.0150       0.2410       2.5370       0.2433
   2938.5000       0.0170       0.2397       2.5420       0.2433
   2939.0000       0.0150       0.2474       2.5410       0.2433
   2939.5000       0.0090       0.2599       2.5400       0.2433
   2940.0000       0.0060       0.2575       2.5370       0.2433
   2940.5000       0.0020       0.2586       2.5280       0.2433
   2941.0000       0.0010       0.2654       2.5190       0.2433
   2941.5000       0.0010       0.2708       2.5100       0.2433
   2942.0000      -0.0010       0.2689       2.5030       0.2433
   2942.5000      -0.0050       0.2619       2.5070       0.2433
   2943.0000      -0.0110       0.2577       2.5060       0.2433
   2943.5000      -0.0170       0.2552       2.5020       0.2433
   2944.0000      -0.0200       0.2539       2.4990       0.2433
   2944.5000      -0.0090       0.2551       2.4990       0.2433
   2945.0000      -0.0050       0.2600       2.5020       0.2433
   2945.5000      -0.0030       0.2674       2.5110       0.2433
   2946.0000      -0.0010       0.2800       2.5190       0.2433
   2946.5000       0.0000       0.2781       2.5230       0.2433
   2947.0000       0.0000       0.2763       2.5160       0.2433
   2947.5000      -0.0020       0.2798       2.5060       0.2433
   2948.0000       0.0000       0.3011       2.4930       0.2433
   2948.5000       0.0020       0.3150       2.4810       0.2433
   2949.0000       0.0030       0.3177       2.4580       0.2433
   2949.5000       0.0010       0.3068       2.4330       0.2433
   2950.0000      -0.0010       0.2807       2.4190       0.2433
   2950.5000      -0.0040       0.2716       2.4390       0.2433
   2951.0000      -0.0070       0.2608       2.4670       0.2433
   2951.5000      -0.0120       0.2535       2.4950       0.2433
   2952.0000      -0.0180       0.2498       2.4980       0.2433
   2952.5000      -0.0280       0.2492       2.4980       0.2433
   2953.0000      -0.0340       0.2488       2.4990       0.2433
   2953.5000      -0.0160       0.2475       2.5010       0.2433
   2954.0000       0.0020       0.2457       2.5260       0.2433
   2954.5000       0.0150       0.2447       2.5320       0.2433
   2955.0000       0.0050       0.2446       2.5220       0.2433
   2955.5000      -0.0040       0.2440       2.5170       0.2433
   2956.0000       0.0000       0.2433       2.5150       0.2433
   2956.5000      -0.0090       0.2420       2.5140       0.2433
   2957.0000      -0.0030       0.2387       2.5160       0.2433
   2957.5000       0.0030       0.2321       2.5180       0.2433
   2958.0000       0.0040       0.2304       2.5170       0.2433
   2958.5000      -0.0080       0.2369       2.5170       0.2433
   2959.0000      -0.0110       0.2411       2.5160       0.2433
   2959.5000       0.0040       0.2467       2.5160       0.2433
   2960.0000       0.0110       0.2529       2.5130       0.2433
   2960.5000      -0.0010       0.2469       2.5020       0.2433
   2961.0000      -0.0150       0.2408       2.4960       0.2433
   2961.5000      -0.0220       0.2332       2.4890       0.2433
   2962.0000      -0.0100       0.2311       2.4830       0.2433
   2962.5000       0.0030       0.2310       2.4900       0.2433
   2963.0000      -0.0020       0.2306       2.4980       0.2433
   2963.5000      -0.0100       0.2297       2.4990       0.2433
   2964.0000      -0.0190       0.2269       2.4990       0.2433
   2964.5000      -0.0190       0.2259       2.4970       0.2433
   2965.0000      -0.0180       0.2429       2.4960       0.2433
   2965.5000      -0.0170       0.2492       2.4910       0.2433
   2966.0000      -0.0210       0.2419       2.4840       0.2433
   2966.5000      -0.0190       0.2442       2.4780       0.2433
   2967.0000      -0.0170       0.2549       2.4730       0.2433
   2967.5000      -0.0250       0.2887       2.4690       0.2433
   2968.0000      -0.0190       0.3083       2.4710       0.2433
   2968.5000      -0.0130       0.3305       2.4670       0.2433
   2969.0000      -0.0180       0.3439       2.4450       0.2433
   2969.5000      -0.0250       0.3466       2.3690       0.2433
   2970.0000       0.0060       0.3121       2.3090       0.2433
   2970.5000       0.0520       0.2657       2.2600       0.2433
   2971.0000       0.0390       0.2454       2.2970       0.2433
   2971.5000       0.0220       0.2286       2.3850       0.2433
   2972.0000       0.0100       0.2129       2.4730       0.2433
   2972.5000       0.0150       0.2069       2.5330       0.2433
   2973.0000       0.0170       0.2020       2.5390       0.2433
   2973.5000       0.0010       0.1995       2.5340       0.2433
   2974.0000      -0.0090       0.2013       2.5250       0.2433
   2974.5000       0.0000       0.2096       2.5170       0.2433
   2975.0000      -0.0060       0.2239       2.5130       0.2433
   2975.5000      -0.0040       0.2346       2.5120       0.2433
   2976.0000       0.0050       0.2390       2.5140       0.2433
   2976.5000       0.0100       0.2399       2.5190       0.2433
   2977.0000       0.0130       0.2392       2.5240       0.2433
   2977.5000       0.0190       0.2369       2.5350       0.2433
   2978.0000       0.0250       0.2358       2.5460       0.2433
   2978.5000       0.0210       0.2384       2.5420       0.2433
   2979.0000       0.0100       0.2431       2.5330       0.2433
   2979.5000      -0.0030       0.2496       2.5190       0.2433
   2980.0000      -0.0110       0.2613       2.5050       0.2433
   2980.5000      -0.0040       0.2714       2.4910       0.2433
