~VERSION INFORMATION
 VERS.                2.0:   CWLS LOG ASCII STANDARD - VERSION 2.0
 WRAP.                 NO:   ONE LINE PER DEPTH STEP
~WELL INFORMATION
#MNEM.UNIT      DATA TYPE    INFORMATION
#----------   ------------   ------------------------------
 STRT.F          407.0000:   START DEPTH
 STOP.F         3228.0000:   STOP DEPTH
 STEP.F            0.5000:   STEP LENGTH
 NULL.          -999.2500:   NO VALUE
 COMP.    FENIX & SCISSON:   COMPANY
 WELL.   FENIX "A" #21-34:   WELL
 FLD .             N.P.R.:   FIELD
 LOC .      S34 T39N R78W:   LOCATION
 CNTY.            NATRONA:   COUNTY
 STAT.            WYOMING:   STATE
 CTRY. UNITED STATES OF AMERICA:   COUNTRY
 SRVC.       SCHLUMBERGER:   SERVICE COMPANY
 DATE.        05-MAY-1977:   LOGDATE
 API .     49025103710000:   API NUMBER
~CURVE INFORMATION
#MNEM.UNIT       API CODE    CURVE DESCRIPTION
#----------   ------------   ------------------------------
 DEPT.F                  :   
 SPR .MV     11 010 01 00:   SPONTANEOUS POTENTIAL FROM RES.
 LLS .OHMM   11 220 09 00:   LATEROLOG LOG SHALLOW
 LLD .OHMM   11 220 10 00:   LATEROLOG DEEP
 MSFL.OHMM   11 270 04 00:   MICRO SPHERICALLY FOCUSED
 CALD.IN     45 280 60 00:   CALIPER FROM DENSITY LOG
 NPHI.DEC    42 890 03 00:   NEUTRON POROSITY SANDSTONE
 GRD .GAPI   45 310 01 00:   GAMMA RAY FROM DENSITY LOG
 CORR.G/C3   45 356 01 00:   DENSITY CORRECTION
 RHOB.G/C3   45 350 01 00:   BULK DENSITY
~PARAMETER INFORMATION
#MNEM.UNIT          VALUE    DESCRIPTION
#----------   ------------   ------------------------------
 EKB .F         5086.0000:   Kelly bushing
 EGL .F         5074.0000:   Ground level
 TD  .F         3226.0000:   Total depth
 CLNT.            A2DTECH:   Client Code
 SL  . 990' FWL & 330' FNL:   Surface Location
 PD  .                 GL:   Permanent Datum
 EPD .F              5074:   Elevation Permanent Datum
 LMF .                 KB:   Log Measured From
 DMF .                 KB:   Drilling Measured From
 DAPD.F                12:   Feet Above Permanent Datum
 DATE.        05-MAY-1977:   Date Logged [DD-MMM-YYYY]
 DD  .F              3226:   Depth driller
 DL  .F              3229:   Depth logger
 BLI .F              3227:   Bottom log interval
 TLI .F               430:   Top log interval
 CS1 .IN            8.625:   Casing size
 CBD1.      8.625" @ 424':   Casing driller 1
 CBL1.F               430:   Casing logger 1
 BS1 .IN            7.875:   Bit size
 BSD1.F              3226:   Depth drilled with bit1
 DFT .                KCL:   Type fluid in hole
 DFD .                9.4:   Density
 DFV .                 31:   Viscosity
 DFPH.                  8:   pH
 DFL .                9.6:   Fluid loss
 MSS .           MUD TANK:   Source of sample
 RMS .OHMM          0.202:   Rm
 MST .F                78:   Rm Meas. temp.
 RMF .OHMM          0.191:   Rmf
 MFST.F                76:   Rmf Meas. temp.
 MFSS.               MEAS:   Source Rmf.
 RMC .OHMM           0.30:   Rmc
 MCST.F                78:   Rmc Meas. temp.
 MCSS.               CALC:   Source Rmc.
 RMB .OHMM          0.123:   Rm. at BHT
 BHT .F               128:   BHT.
 TCS .HRS            1400:   Time Circ. stopped
 TLAB.HRS            0300:   Time logger at bottom
 MRT .F               128:   Maximum recorded temp.
 LUN .               5642:   Logging unit number
 LUL .               CSPR:   Logging unit location
 ENGI.                FIX:   Recorded By
 WITN.         HARRINGTON:   Witnessed by
 ORIG.           5" PRINT:   Origin of data
 UWI .     49025103710000:   Unique Well ID
 DICO. A2D TECHNOLOGIES, INC.:   Digitizing Company
~OTHER INFORMATION
~A   DEPT      SPR        LLS        LLD       MSFL       CALD       NPHI         GRD      CORR       RHOB   
# ...
  954.5000   -65.5864    11.3710     9.7129     9.1625     8.3284     0.3485    99.0455     0.0077     2.4647
  955.0000   -65.5909    11.6223    10.0650     9.9954     8.3293     0.3412    94.1094     0.0162     2.4663
  955.5000   -64.3145    11.6349    10.3577    11.1368     8.3301     0.3391    91.2035     0.0171     2.4755
  956.0000   -63.6217    11.6475    10.8078    11.5393     8.3310     0.3396    88.9742     0.0149     2.4779
  956.5000   -63.1387    11.6601    11.1221     9.8490     8.3314     0.3269    91.4818     0.0143     2.4727
  957.0000   -63.1939    11.6728    11.3666     9.1326     8.3293     0.3193    93.3127     0.0168     2.4848
  957.5000   -63.5942    11.6855    11.6164     9.9349     8.3258     0.3221    94.9181     0.0147     2.4751
  958.0000   -63.9818    11.7797    11.8717    11.0322     8.3223     0.3276    89.7565     0.0034     2.4669
  958.5000   -63.9935    12.1267    11.9694    12.1660     8.3188     0.3302    87.9784     0.0020     2.4678
  959.0000   -63.8391    12.3091    12.1447    11.6812     8.3153     0.3338    87.3346     0.0083     2.4769
  959.5000   -63.2000    12.3225    12.1565    10.3105     8.3118     0.3373    85.7821     0.0122     2.4860
  960.0000   -63.6385    12.2474    12.1702    11.5409     8.3083     0.3385    84.2295     0.0154     2.4967
  960.5000   -63.5994    12.0953    12.0948    12.4654     8.3048     0.3288    83.5726     0.0170     2.5013
  961.0000   -63.5755    12.0216    12.0227    12.1890     8.3013     0.3164    85.4101     0.0179     2.5052
  961.5000   -63.3010    11.8723    11.8713    10.7960     8.2978     0.3100    87.2410     0.0098     2.5015
  962.0000   -62.2552    11.8031    11.7162     9.5424     8.2943     0.3274    88.8463     0.0053     2.4880
  962.5000   -61.6756    11.5727    11.5659     9.3524     8.2921     0.3297    89.5494     0.0199     2.5002
  963.0000   -63.1472    11.3468    11.4198    11.2877     8.2946     0.3288    89.8014     0.0245     2.4935
  963.5000   -63.5711    11.1962    11.2736    12.0215     8.2970     0.3248    87.1521     0.0133     2.4801
  964.0000   -62.8545    11.0613    11.0523    11.2296     8.2994     0.3296    83.5384     0.0158     2.4862
  964.5000   -62.2152    10.9968    10.9045    10.3433     8.3018     0.3291    85.3758     0.0135     2.4873
  965.0000   -62.1719    10.9328    10.7586    10.0696     8.3041     0.3208    89.2368     0.0077     2.4706
  965.5000   -62.4457    10.8691    10.7064     9.5353     8.3065     0.3137    92.8722     0.0011     2.4631
  966.0000   -63.3039    10.8839    10.7191     9.5437     8.3089     0.3245    91.7708    -0.0018     2.4708
  966.5000   -63.6044    10.7429    10.7293    10.4520     8.3113     0.3304    88.4137     0.0074     2.4739
  967.0000   -62.7216    10.6803    10.7395    11.3763     8.3136     0.3376    88.4401     0.0106     2.4725
  967.5000   -62.6056    10.6181    10.7497    11.9543     8.3160     0.3388    89.8199     0.0054     2.4756
  968.0000   -62.5184    10.6325    10.7599    12.2070     8.3184     0.3275    90.5230     0.0449     2.5329
  968.5000   -62.1350    10.6440    10.7702    12.3027     8.3208     0.3227    89.1616     0.0533     2.5481
  969.0000   -60.7399    10.7299    10.7804    12.2259     8.3231     0.3220    87.6500     0.0217     2.5406
  969.5000   -60.7422    10.7418    10.7907    12.0684     8.3255     0.3141    82.7140     0.0181     2.5301
  970.0000   -62.2207    10.7558    10.8009    11.8333     8.3279     0.3095    80.4781     0.0235     2.5054
  970.5000   -62.1882    10.6932    10.8114    11.6002     8.3303     0.3107    84.5713     0.0085     2.4972
  971.0000   -61.8931    10.7047    10.8219    11.2153     8.3313     0.3106    86.1766     0.0216     2.5184
  971.5000   -60.7315    10.7164    10.8343    10.8432     8.3313     0.3090    87.1052     0.0277     2.5306
  972.0000   -60.6922    10.7280    10.6928    10.5559     8.3315     0.3005    91.4173     0.0287     2.5134
  972.5000   -61.0041    10.5890    10.4852    10.1356     8.3405     0.2947   100.2407     0.0280     2.5014
  973.0000   -60.8740    10.4547    10.1378     9.7984     8.3501     0.2943   105.9854     0.0312     2.5105
  973.5000   -60.4893    10.1126     9.8700     9.5340     8.3588     0.2973   104.8114     0.0162     2.4926
  974.0000   -59.3437     9.8470     9.6093     9.4825     8.3666     0.3031   104.1544     0.0300     2.4836
  974.5000   -58.4419     9.5835     9.3554     9.6923     8.4095     0.3152   105.0897     0.0256     2.4920
  975.0000   -58.4156     9.3802     9.2354    10.0426     8.4104     0.3277    99.7025     0.0121     2.4816
  975.5000   -58.9270     9.1569     9.1168    10.3338     8.4081     0.3305    92.5109     0.0100     2.4704
  976.0000   -60.3257     9.0383     9.1256    10.4872     8.4038     0.3320    92.9884     0.0207     2.4863
  976.5000   -60.8108     8.8033     9.0712    10.3520     8.3994     0.3310    96.1727     0.0216     2.4751
  977.0000   -60.2931     8.6893     9.0171    10.0781     8.3951     0.3291    95.9735     0.0195     2.4835
  977.5000   -58.9049     8.5790     9.0279     9.6765     8.3907     0.3296    93.9625     0.0219     2.4955
  978.0000   -58.0119     8.5291     9.0993     9.0998     8.3864     0.3344    92.6428     0.0236     2.4678
  978.5000   -58.0359     8.4817     9.1713     8.4398     8.3821     0.3413    96.2848     0.0176     2.4664
  979.0000   -58.0316     8.5499     9.2438     8.2165     8.3777     0.3490   103.9804     0.0223     2.4794
  979.5000   -58.0266     8.6186     9.3818     8.2841     8.3734     0.3466   108.7436     0.0279     2.4855
  980.0000   -58.1833     8.6321     9.5217     9.1033     8.3710     0.3372   104.7098     0.0310     2.4901
  980.5000   -58.8723     8.7677     9.7310    10.5002     8.3692     0.3311   101.1272     0.0192     2.4668
  981.0000   -59.2929     9.0160     9.8762    10.7300     8.3607     0.3268    98.6724     0.0025     2.4692
  981.5000   -59.3801     9.1516     9.9544    10.6654     8.3525     0.3323    95.5409     0.0117     2.4753
  982.0000   -58.4753     9.2893    10.0331    10.0298     8.3443     0.3333    94.4391     0.0187     2.4920
  982.5000   -58.1382     9.4291    10.0429     9.3670     8.3361     0.3260    94.7029     0.0234     2.5012
  983.0000   -59.9894     9.4393    10.0526     8.8700     8.3280     0.3199    95.6211     0.0152     2.4869
  983.5000   -60.3938     9.5152    10.0642     8.9395     8.3198     0.3189    93.8485     0.0055     2.4749
  984.0000   -59.7915     9.4598    10.0357     9.5890     8.3116     0.3210    87.4939     0.0048     2.4791
  984.5000   -59.5144     9.4701    10.0007    10.4291     8.3034     0.3227    85.7766     0.0080     2.4887
  985.0000   -59.3210     9.3498     9.9658    11.2645     8.2952     0.3176    88.5163     0.0044     2.4933
  985.5000   -59.1271     9.2612     9.9309    11.5923     8.2870     0.3160    91.0239     0.0007     2.4859
  986.0000   -58.9284     9.2031     9.8356    11.4129     8.2789     0.3195    93.9826     0.0047     2.4799
  986.5000   -58.7303     9.1450     9.7770    10.2026     8.2716     0.3243    94.9047     0.0141     2.4936
  987.0000   -58.5327     9.0869     9.7183     9.1858     8.2721     0.3218    90.8775     0.0224     2.4839
  987.5000   -58.4339     9.0206     9.5939     9.0654     8.2744     0.3169    94.5129     0.0233     2.4765
  988.0000   -58.4960     9.0303     9.4710     9.4605     8.2767     0.3289    95.0555     0.0204     2.4736
  988.5000   -58.6283     8.9753     9.4093    10.4328     8.2790     0.3337    95.0068     0.0168     2.4850
  989.0000   -58.8025     8.9875     9.2938    11.1908     8.2813     0.3236    99.6227     0.0116     2.4847
  989.5000   -58.8482     8.9327     9.1767    11.0466     8.2836     0.3146   103.5270     0.0087     2.4648
  990.0000   -61.7288     8.8215     9.1198    10.1045     8.2859     0.3184   105.0208     0.0141     2.4777
  990.5000   -61.6182     8.7704     9.0676     9.3716     8.2882     0.3238    98.7380     0.0173     2.4876
