~VERSION INFORMATION
 VERS.                2.0:   CWLS LOG ASCII STANDARD - VERSION 2.0
 WRAP.                 NO:   ONE LINE PER DEPTH STEP
~WELL INFORMATION
#MNEM.UNIT      DATA TYPE    INFORMATION
#----------   ------------   ------------------------------
 STRT.F            0.5000:   START DEPTH
 STOP.F         1380.0000:   STOP DEPTH
 STEP.F            0.5000:   STEP LENGTH
 NULL.          -999.2500:   NO VALUE
 COMP.       FLUOR DANIEL:   COMPANY
 WELL. FLUOR 84 "X" #1-14:   WELL
 FLD .          N.P.R. #3:   FIELD
 LOC .      S14 T38N R78W:   LOCATION
 CNTY.            NATRONA:   COUNTY
 STAT.            WYOMING:   STATE
 CTRY. UNITED STATES OF AMERICA:   COUNTRY
 SRVC.     ATLAS WIRELINE:   SERVICE COMPANY
 DATE.        24-AUG-1994:   LOGDATE
 API .     49025226370000:   API NUMBER
~CURVE INFORMATION
#MNEM.UNIT       API CODE    CURVE DESCRIPTION
#----------   ------------   ------------------------------
 DEPT.F                  :   
 GRR .GAPI   07 310 01 00:   GAMMA RAY FROM RESISTIVITY
 RILD.OHMM   07 120 46 00:   INDUCTION LOG DEEP RESISTIVITY
 RILM.OHMM   07 120 44 00:   INDUCTION LOG MEDIUM RESISTIVITY
 TENR.LBS    07 635 01 00:   TENSION FROM RESISTIVITY
~PARAMETER INFORMATION
#MNEM.UNIT          VALUE    DESCRIPTION
#----------   ------------   ------------------------------
 EKB .F         5326.0000:   Kelly bushing
 EGL .F         5316.0000:   Ground level
 EDF .F         5325.0000:   Drilling floor
 TD  .F         1368.0000:   Total depth
 CLNT.            A2DTECH:   Client Code
 PD  .                 GL:   Permanent Datum
 EPD .F              5316:   Elevation Permanent Datum
 LMF .                 KB:   Log Measured From
 DMF .                 KB:   Drilling Measured From
 DAPD.F                10:   Feet Above Permanent Datum
 DATE.        24-AUG-1994:   Date Logged [DD-MMM-YYYY]
 DD  .F              1368:   Depth driller
 DL  .F              1364:   Depth logger
 BLI .F              1356:   Bottom log interval
 TLI .F                 0:   Top log interval
 CS1 .IN            9.625:   Casing size
 CBD1.       9.625" @ 56':   Casing driller 1
 CBL1.F                56:   Casing logger 1
 BS1 .IN             8.75:   Bit size
 BSD1.F              1368:   Depth drilled with bit1
 DFT .                AIR:   Type fluid in hole
 LUN .            HL 6530:   Logging unit number
 LUL .             CASPER:   Logging unit location
 WITN.        GARY STRONG:   Witnessed by
 ORIG.         2.5" PRINT:   Origin of data
 UWI .     49025226370000:   Unique Well ID
 DICO. A2D TECHNOLOGIES, INC.:   Digitizing Company
 SL  . 2551' FNL & 575' FEL:   Surface Location
~OTHER INFORMATION
~A    DEPT      GRR      RILD       RILM       TENR   
# ...
 1095.5000   146.1347     6.0378     6.0069    -1.1127
 1096.0000   151.5692     5.9539     6.0057    -0.7418
 1096.5000   153.3145     5.8712     6.0045     5.3657
 1097.0000   152.0518     5.7896     6.0033     8.5088
 1097.5000   151.5122     5.7884     6.0020     0.3709
 1098.0000   155.2094     5.7872     6.0008    -6.7726
 1098.5000   155.6979     5.9112     6.0828   -13.7240
 1099.0000   151.5795     5.9465     6.0816   -28.1899
 1099.5000   148.5637     5.9124     5.9972   -12.9143
 1100.0000   144.1436     5.8334     5.8331    -4.2065
 1100.5000   150.9902     5.5989     5.9136    17.2454
 1101.0000   154.1964     5.5236     5.5114   -12.2086
 1101.5000   154.3634     5.4496     5.3696   -11.9436
 1102.0000   154.9670     5.4514     5.4436   -11.7211
 1102.5000   156.3062     5.4528     5.5187   -11.4985
 1103.0000   160.2859     5.3798     5.5183   -11.2760
 1103.5000   162.7099     5.3077     5.4425   -11.0534
 1104.0000   161.6414     5.2365     5.3511   -10.8309
 1104.5000   159.2243     4.9573     5.1854   -10.6083
 1105.0000   157.1172     4.6288     4.8848   -10.3418
 1105.5000   154.3895     4.2047     4.4920   -10.1222
 1106.0000   151.9720     3.9261     4.2267    -9.9026
 1106.5000   148.9880     3.9816     4.1670    -9.6830
 1107.0000   148.9910     4.0939     4.1879    -9.4633
 1107.5000   149.2593     4.1518     4.3298    -9.2437
 1108.0000   148.6528     4.2105     4.6053    -9.0241
 1108.5000   147.0921     4.2700     4.8370    -8.8045
 1109.0000   147.8024     4.3904     5.0090     6.2520
 1109.5000   147.8054     4.6403     5.2569     6.4716
 1110.0000   147.8084     5.1820     5.4481    -8.1603
 1110.5000   147.8113     5.3281     5.5890    -7.9260
 1111.0000   147.2132     5.4783     5.5886    -7.7063
 1111.5000   147.0229     5.4049     5.2888    -7.4868
 1112.0000   147.2197     4.9778     4.8691    -7.2671
 1112.5000   147.8233     4.5217     4.4828    -7.0475
 1113.0000   147.8262     4.2221     4.3011    -6.8249
 1113.5000   147.8292     4.1654     4.1840    -6.6024
 1114.0000   152.6370     4.1096     4.1837    -6.3798
 1114.5000   159.8472     4.1678     4.2415    -6.1573
 1115.0000   158.6490     4.1689     4.3000    -5.9347
 1115.5000   151.4447     4.1700     4.4197    -5.7122
 1116.0000   145.4415     4.2290     4.6696    -5.4896
 1116.5000   145.4447     4.3483     4.8662    -5.2671
 1117.0000   146.6489     4.6594     5.0710    -5.0445
 1117.5000   149.0543     5.1322     5.3577    -4.8220
 1118.0000   152.6608     5.5757     5.5864    -4.5994
 1118.5000   147.8590     5.9746     5.8262    -4.3769
 1119.0000   149.0632     6.3146     6.1538    -4.1543
 1119.5000   149.6668     6.4927     6.3370    -3.9318
 1120.0000   148.4686     6.6758     6.5186    -3.7092
 1120.5000   144.2673     6.6776     6.6902    -3.4866
 1121.0000   141.8679     6.6794     6.8612    -3.2641
 1121.5000   143.0721     6.6813     6.8607    -3.0416
 1122.0000   146.6787     6.6831     6.8602    -2.8190
 1122.5000   149.0941     6.6849     6.8597    -2.5964
 1123.0000   150.2883     6.6868     6.8592    -2.3739
 1123.5000   146.6416     6.6886     6.8588    -2.1514
 1124.0000   143.6558     6.6905     6.8583    -1.8863
 1124.5000   141.8478     6.6923     6.8578    -1.6667
 1125.0000   140.5908     6.6941     6.8574    -1.4471
 1125.5000   139.3748     6.6960     6.8569    -1.2275
 1126.0000   139.6320     6.6990     6.8564    -1.0078
 1126.5000   142.1322     6.8867     6.8559    -0.7882
 1127.0000   144.4783     6.9866     6.8555    -0.5686
 1127.5000   146.2062     7.2806     6.8550    -0.3490
 1128.0000   146.0101     7.4859     7.1215    -0.1293
 1128.5000   142.8878     7.4880     7.4443     0.0903
 1129.0000   137.4562     7.4900     7.4437     0.3099
 1129.5000   129.5134     7.3836     7.3414     0.5295
 1130.0000   126.3060     7.0798     6.9476     0.7491
 1130.5000   127.8089     6.5904     6.3088     0.9688
 1131.0000   130.7062     5.5857     5.6505     1.1884
 1131.5000   136.0614     4.8665     5.0609     1.4095
 1132.0000   144.1933     4.3799     4.6593     1.6321
 1132.5000   151.8272     4.2675     4.2896     1.8546
 1133.0000   163.1001     4.2750     4.2893     2.0771
 1133.5000   169.5701     4.3428     4.4699     2.2997
 1134.0000   161.8698     4.4586     4.8545     2.5223
 1134.5000   149.3458     4.5928     5.2000     2.7448
 1135.0000   138.6785     4.7887     5.5702    -5.9376
 1135.5000   133.0679     5.1033     6.1418   -11.6469
 1136.0000   134.5422     6.2056     7.2510   -11.4244
 1136.5000   136.8126     8.2995     8.0918   -11.2018
 1137.0000   137.1591     8.3990     8.4277   -10.9792
 1137.5000   137.1622     8.4013     8.5325   -10.7567
 1138.0000   136.2804     8.4037     8.5319   -10.5341
 1138.5000   135.9670     8.4060     8.5313   -10.3116
 1139.0000   136.5744     8.4083     8.5307   -10.0890
 1139.5000   138.7085     8.4106     8.5301    -9.8665
 1140.0000   142.0629     8.4129     8.5295    -9.6439
 1140.5000   144.3874     8.4152     8.5289    -9.4213
 1141.0000   138.7572     8.4175     8.5284    -9.1988
 1141.5000   134.0892     8.4199     8.5693    -8.9763
 1142.0000   133.5856     8.4486     8.6909    -8.7537
 1142.5000   134.7904     8.6597     8.9365    -8.4873
 1143.0000   133.5921     8.8114     9.3730    -8.2676
 1143.5000   128.7903     9.2180     9.9756    -8.0480
 1144.0000   117.9825     9.7793    10.6246    -7.8284
 1144.5000   111.9795    10.4436    11.1529    -7.6087
 1145.0000   104.7752    11.2352    11.6270    -7.3891
 1145.5000    98.2663    12.1624    12.0516    -7.1695
 1146.0000    90.3668    12.8067    12.5307    -6.9498
 1146.5000    90.3698    13.1690    12.8796     8.1065
 1147.0000    89.1715    13.4868    13.0574     8.3261
 1147.5000    87.9733    13.4352    13.0564    23.3826
 1148.0000    81.3697    13.0727    12.8770    23.6022
 1148.5000    80.7718    12.7200    12.7001    38.6586
 1149.0000    79.5736    12.3768    12.5256    24.0415
 1149.5000    80.1774    12.0964    12.1846    24.2611
 1150.0000    80.7810    11.7621    12.0172    24.4807
 1150.5000    80.7840    11.6003    11.8520    -2.5292
 1151.0000    79.5858    11.4407    11.5294   -11.9048
 1151.5000    75.9852    11.4399    11.5286     2.9762
 1152.0000    78.9911    11.4391    11.5278     2.9762
 1152.5000    81.9971    11.4383    11.5270     2.9762
 1153.0000    84.4025    11.4375    11.5262     2.9762
 1153.5000    84.4055    11.4368    11.5254     2.9762
 1154.0000    84.4085    11.4360    11.5247     2.9762
 1154.5000    83.8108    11.4352    11.5239     2.9762
 1155.0000    84.4144    11.4344    11.5417     2.9762
 1155.5000    88.0210    11.4337    11.5223     2.9762
 1156.0000    91.6436    11.4329    11.5215     2.9762
 1156.5000    92.8318    11.4321    11.5207   -11.9048
 1157.0000    90.4324    11.4313    11.5199     2.9762
 1157.5000    89.2341    11.4305    11.5191     2.9762
 1158.0000    89.2372    11.4297    11.5183     2.9762
 1158.5000    89.2402    11.4289    11.5175    17.8571
 1159.0000    90.4444    11.4052    11.5167    17.8571
 1159.5000    91.0480    11.2441    11.5159    17.8571
 1160.0000    90.4502    11.1158    11.5151     2.9762
 1160.5000    89.1630    10.9628    11.5143     2.9762
 1161.0000    88.0538    10.8120    11.4417     2.9762
 1161.5000    86.8556    10.8112    11.2001   -11.9048
 1162.0000    88.2919    10.6624    10.8952   -11.9048
 1162.5000    91.9172    10.6617    10.7454   -11.9048
 1163.0000    95.8098    10.5150    10.7447     2.9762
 1163.5000    98.4223    10.5143    10.7438     2.9762
 1164.0000    98.8825    10.5135    10.8920     2.9762
 1164.5000    96.1615    10.5128    10.8913     2.9762
 1165.0000    93.3132    10.6580    11.0416     2.9762
 1165.5000    92.8854    10.7303    11.1938    -4.0205
 1166.0000    94.8789    10.8045    11.1930   -11.9048
 1166.5000    96.0919    10.8038    11.1923   -11.9048
 1167.0000    96.4985    10.8030    11.0385     2.9762
 1167.5000    96.5015    10.8021    11.0378     2.9762
 1168.0000    96.2803    10.6535    10.8861    17.8571
