~VERSION INFORMATION
 VERS.                2.0:   CWLS LOG ASCII STANDARD - VERSION 2.0
 WRAP.                 NO:   ONE LINE PER DEPTH STEP
~WELL INFORMATION
#MNEM.UNIT      DATA TYPE    INFORMATION
#----------   ------------   ------------------------------
 STRT.F           11.0000:   START DEPTH
 STOP.F         4154.0000:   STOP DEPTH
 STEP.F            0.5000:   STEP LENGTH
 NULL.          -999.2500:   NO VALUE
 COMP.   LAWRENCE ALLISON:   COMPANY
 WELL. ALLISON NPR 3 "LX" #14-22:   WELL
 FLD .                NPR:   FIELD
 LOC .      S22 T38N R78W:   LOCATION
 CNTY.            NATRONA:   COUNTY
 STAT.            WYOMING:   STATE
 CTRY. UNITED STATES OF AMERICA:   COUNTRY
 SRVC.       DRESER ATLAS:   SERVICE COMPANY
 DATE.        14-APR-1985:   LOGDATE
 API .     49025110230000:   API NUMBER
~CURVE INFORMATION
#MNEM.UNIT       API CODE    CURVE DESCRIPTION
#----------   ------------   ------------------------------
 DEPT.F                  :   
 TEND.LBS    45 635 01 00:   TENSION FROM DENSITY LOG
 RHOB.G/C3   45 350 01 00:   BULK DENSITY
 DRHO.G/C3   45 356 01 00:   DENSITY CORRECTION
 CALD.IN     45 280 60 00:   CALIPER FROM DENSITY LOG
 NPHI.DEC    42 890 03 00:   NEUTRON POROSITY SANDSTONE
 TENR.LBS    07 635 01 00:   TENSION FROM RESISTIVITY
 SPR .MV     07 010 01 00:   SPONTANEOUS POTENTIAL
 GRR .GAPI   07 310 01 00:   GAMMA RAY FROM RESISTIVITY
 RFOC.OHMM   07 220 01 00:   RESISTIVITY FOCUSED LOG RES.
 RILD.OHMM   07 120 46 00:   DEEP INDUCTION RESISTIVITY
 RILM.OHMM   07 120 44 00:   INDUCTION LOG MEDIUM RESISTIVITY
~PARAMETER INFORMATION
#MNEM.UNIT          VALUE    DESCRIPTION
#----------   ------------   ------------------------------
 EKB .F         5230.4000:   Kelly bushing
 EGL .F         5220.4000:   Ground level
 EDF .F            0.0000:   Drilling floor
 TD  .F         4150.0000:   Total depth
 DATE.        14-APR-1985:   Date logged
 CLNT.            A2DTECH:   Client Code
 SL  . 905' FNL & 824' FWL:   Surface Location
 PD  .                 GL:   Permanent Datum
 EPD .F            5220.4:   Elevation Permanent Datum
 LMF .                 KB:   Log Measured From
 DMF .                 KB:   Drilling Measured From
 DAPD.F                10:   Feet Above Permanent Datum
 DD  .F              4150:   Depth driller
 DL  .F              4140:   Depth logger
 BLI .F              4138:   Bottom log interval
 CS1 .IN            8.625:   Casing size
 CBD1.      8.625" @ 738':   Casing driller 1
 CBL1.F               738:   Casing logger 1
 BS1 .IN            7.875:   Bit size
 BSD1.F              4150:   Depth drilled with bit1
 DFT .            KCL/GEL:   Type fluid in hole
 DFD .                9.1:   Density
 DFV .                 48:   Viscosity
 DFPH.                8.5:   pH
 DFL .                 10:   Fluid loss
 MSS .           FLOWLINE:   Source of sample
 RMS .OHMM            .35:   Rm
 MST .F                62:   Rm Meas. temp.
 RMF .OHMM            .26:   Rmf
 MFST.F                62:   Rmf Meas. temp.
 RMC .OHMM            .43:   Rmc
 MCST.F                62:   Rmc Meas. temp.
 MFSS.               CALC:   Source Rmf.
 MCSS.               CALC:   Source Rmc.
 RMB .OHMM            .16:   Rm. at BHT
 BHT .F               140:   BHT.
 TCS .HRS               6:   Time Circ. stopped
 MRT .F               140:   Maximum recorded temp.
 LUN .               6274:   Logging unit number
 LUL .               GLTE:   Logging unit location
 ENGI.               MACK:   Recorded By
 WITN.             STRONG:   Witnessed by
 ORIG.           5" PRINT:   Origin of data
 UWI .     49025110230000:   Unique Well ID
 DICO. A2D TECHNOLOGIES, INC.:   Digitizing Company
~OTHER INFORMATION
~A   DEPT     TEND       RHOB       DRHO       CALD       NPHI       TENR        SPR        GRR       RFOC       RILD       RILM   
# ...
 3213.5000   -46.7970     2.4140    -0.0410     9.7690     0.2370   -91.9420   -64.2900   109.4470     4.6050     3.9320     4.1190
 3214.0000   -34.2600     2.4110    -0.0440     9.7660     0.2400   -86.5580   -64.2420   110.8500     4.5160     3.8990     4.0810
 3214.5000   -21.7230     2.4090    -0.0380     9.7630     0.2310   -81.1740   -64.1950   112.3920     4.3710     3.8670     4.0580
 3215.0000   -19.0660     2.4100    -0.0260     9.7610     0.2310   -75.7900   -64.1470   112.0410     4.2270     3.8340     4.0370
 3215.5000   -23.1590     2.4150    -0.0140     9.7580     0.2370   -77.6640   -64.0990   110.6110     4.1720     3.8010     4.0150
 3216.0000   -27.2530     2.4210    -0.0050     9.7550     0.2450   -82.2320   -64.0510   109.7740     4.3300     3.7700     3.9940
 3216.5000   -31.3470     2.4220    -0.0050     9.7530     0.2530   -85.2020   -64.0670   109.9810     4.4600     3.7770     3.9720
 3217.0000   -35.4410     2.4180    -0.0120     9.7520     0.2570   -86.7880   -64.0950   110.9870     4.5330     3.7850     3.9480
 3217.5000   -39.5340     2.4120    -0.0230     9.7520     0.2560   -88.3750   -64.1230   111.9740     4.3780     3.7930     3.9550
 3218.0000   -43.6280     2.4050    -0.0260     9.7520     0.2460   -89.9620   -64.1520   112.2140     4.2530     3.8020     3.9720
 3218.5000   -47.7220     2.4090    -0.0200     9.7520     0.2350   -91.5490   -64.1800   111.5600     4.1270     3.8100     3.9880
 3219.0000   -51.8160     2.4130    -0.0140     9.7520     0.2270   -93.1360   -64.2080   108.9440     4.0580     3.8190     4.0050
 3219.5000   -55.9100     2.4140    -0.0190     9.7520     0.2290   -94.7230   -64.2360   106.8970     4.1670     3.8270     4.0210
 3220.0000   -56.3560     2.4150    -0.0250     9.7520     0.2390   -96.3090   -64.2640   106.9470     4.2950     3.8350     3.9840
 3220.5000   -56.3560     2.4150    -0.0310     9.7520     0.2340   -97.8960   -64.2930   107.4570     4.4230     3.8400     4.0380
 3221.0000   -56.3560     2.4170    -0.0350     9.7520     0.2260   -99.4830   -64.3210   107.0840     4.4910     3.8400     4.0580
 3221.5000   -56.3560     2.4240    -0.0300     9.7520     0.2200  -101.0700   -64.3490   105.8040     4.4910     3.8400     4.0080
 3222.0000   -56.3560     2.4300    -0.0160     9.7520     0.2260  -102.6570   -64.3770   106.4630     4.4910     3.7350     3.9000
 3222.5000   -56.3560     2.4300    -0.0140     9.7520     0.2380  -104.2440   -64.4050   109.3150     4.3810     3.6140     3.7930
 3223.0000   -56.3560     2.4250    -0.0180     9.7520     0.2510  -105.8310   -64.4350   112.0950     4.1350     3.5160     3.6850
 3223.5000   -56.3560     2.4220    -0.0190     9.7520     0.2600  -107.4170   -64.4160   114.9840     3.8890     3.3930     3.5780
 3224.0000   -56.3560     2.4240    -0.0180     9.7520     0.2520  -109.0040   -64.3780   114.8710     3.5670     3.2700     3.4710
 3224.5000   -57.7390     2.4320    -0.0110     9.7520     0.2440  -110.5910   -64.3390   113.6810     3.5980     3.1480     3.4290
 3225.0000   -61.3210     2.4400    -0.0040     9.7520     0.2480  -112.1780   -64.3010   112.4590     3.6430     3.1140     3.4110
 3225.5000   -64.9030     2.4480     0.0040     9.7520     0.2540  -113.7650   -64.2620   111.2210     3.7010     3.0840     3.3930
 3226.0000   -60.6890     2.4560     0.0090     9.7520     0.2580  -112.7030   -64.2750   110.7910     3.6530     3.0540     3.3750
 3226.5000   -51.5710     2.4580     0.0070     9.7520     0.2570   -92.6030   -64.3370   111.2730     3.6240     3.0210     3.3570
 3227.0000   -31.1320     2.4570     0.0010     9.7520     0.2540   -72.5030   -64.4000   110.0300     3.6050     3.0210     3.3400
 3227.5000     3.9720     2.4560     0.0020     9.7520     0.2510   -54.8050   -64.4620   108.2340     3.5860     3.0400     3.3220
 3228.0000    12.2120     2.4570     0.0050     9.7520     0.2480   -60.2100   -64.5250   107.2940     3.5670     3.0570     3.3130
 3228.5000   -11.6680     2.4620    -0.0010     9.7520     0.2470   -76.9600   -64.5880   108.5610     3.5480     3.0730     3.3860
 3229.0000   -35.5490     2.4610    -0.0080     9.7520     0.2530   -93.7100   -64.6390   109.7600     3.5290     3.1250     3.4860
 3229.5000   -59.4290     2.4600    -0.0030     9.7520     0.2570  -110.4600   -64.4820   110.7080     3.5100     3.1930     3.5860
 3230.0000   -76.2160     2.4590     0.0040     9.7520     0.2620  -127.2110   -64.3100   111.1760     3.5020     3.3520     3.6860
 3230.5000   -71.4800     2.4560     0.0100     9.7520     0.2630  -123.2730   -64.1390   111.6790     3.7580     3.5220     3.7860
 3231.0000   -56.0500     2.4630     0.0030     9.7520     0.2370  -112.1070   -63.9670   110.5250     3.9490     3.7010     3.8860
 3231.5000   -40.6200     2.4720    -0.0040     9.7520     0.2160  -100.9400   -63.7960   109.9460     4.1400     3.7870     3.9860
 3232.0000   -36.4950     2.4760    -0.0100     9.7520     0.2100   -89.7730   -63.6230   109.6310     4.3310     3.8830     4.0860
 3232.5000   -39.1540     2.4800    -0.0110     9.7520     0.2190   -87.8380   -63.4540   109.3340     4.5230     3.9780     4.1860
 3233.0000   -57.0650     2.4840    -0.0130     9.7520     0.2300  -106.6820   -63.5270   109.0940     4.7140     4.0730     4.2860
 3233.5000   -74.9750     2.4790    -0.0190     9.7520     0.2310  -125.5260   -63.6140   106.9070     4.8800     4.1340     4.3690
 3234.0000   -78.6000     2.4630    -0.0230     9.7520     0.2320  -144.8950   -63.7000   105.7930     4.6630     4.0260     4.2110
 3234.5000   -58.5400     2.4540    -0.0190     9.7520     0.2440  -124.5280   -63.7860   105.7790     4.4360     3.9050     4.0890
 3235.0000   -42.8140     2.4470    -0.0150     9.7520     0.2590  -111.1280   -63.8710   105.7780     4.2500     3.7830     3.9670
 3235.5000   -33.6960     2.4400    -0.0100     9.7520     0.2680   -97.7280   -63.9580   106.4030     4.1040     3.6610     3.8450
 3236.0000   -24.5780     2.4370    -0.0090     9.7520     0.2650   -84.3280   -64.0460   108.5690     3.9550     3.5390     3.7440
 3236.5000   -15.4600     2.4330    -0.0130     9.7520     0.2600   -70.9280   -63.9000   112.7570     3.8060     3.4180     3.6050
 3237.0000    -6.7030     2.4300    -0.0160     9.7520     0.2550   -57.5280   -63.7190   116.1440     3.6560     3.3440     3.4660
 3237.5000     0.4690     2.4310    -0.0320     9.7520     0.2520   -54.8050   -63.5370   115.7790     3.5340     3.3570     3.4380
 3238.0000   -10.6750     2.4350    -0.0240     9.7520     0.2460   -63.4420   -63.3570   113.9480     3.5820     3.4220     3.5230
 3238.5000   -21.8190     2.4420    -0.0080     9.7520     0.2380   -77.7990   -63.2470   112.0720     3.7020     3.4880     3.5950
 3239.0000   -32.9640     2.4480     0.0050     9.7520     0.2310   -92.1560   -63.2660   111.7720     3.8220     3.5530     3.6660
 3239.5000   -36.4950     2.4520     0.0020     9.7520     0.2240   -90.4400   -63.2870   112.0000     3.9410     3.6190     3.7380
 3240.0000   -34.1430     2.4570    -0.0010     9.7520     0.2240   -83.2620   -63.3090   110.7750     4.0610     3.6840     3.8090
 3240.5000   -31.5030     2.4640     0.0000     9.7520     0.2310   -76.0830   -63.3320   105.9370     4.1810     3.7480     3.8800
 3241.0000   -28.8640     2.4680     0.0030     9.7520     0.2360   -68.9050   -63.3540   103.4500     4.3010     3.8070     3.9520
 3241.5000   -26.5640     2.4710     0.0070     9.7520     0.2400   -65.7080   -63.3760   102.1860     4.3690     3.8660     4.0210
 3242.0000   -17.5880     2.4750     0.0030     9.7520     0.2470   -69.5730   -63.3990   104.2140     4.2230     3.9110     4.0580
 3242.5000    -7.9440     2.4760     0.0020     9.7520     0.2530   -73.4390   -63.4200   107.9490     4.0810     3.8470     4.0200
 3243.0000     1.7000     2.4750     0.0020     9.7510     0.2610   -68.1580   -63.4380   109.2710     4.0210     3.7950     3.9890
 3243.5000    11.3440     2.4780     0.0020     9.7500     0.2630   -53.0830   -63.5880   109.6360     4.0300     3.7430     3.9580
