~VERSION INFORMATION
 VERS.                2.0:   CWLS LOG ASCII STANDARD - VERSION 2.0
 WRAP.                 NO:   ONE LINE PER DEPTH STEP
~WELL INFORMATION
#MNEM.UNIT      DATA TYPE    INFORMATION
#----------   ------------   ------------------------------
 STRT.F            0.0000:   START DEPTH
 STOP.F          640.0000:   STOP DEPTH
 STEP.F            0.5000:   STEP LENGTH
 NULL.          -999.2500:   NO VALUE
 COMP.       FLUOR DANIEL:   COMPANY
 WELL.  FLUOR " X" #45-27:   WELL
 FLD .                NPR:   FIELD
 LOC .      S27 T39N R78W:   LOCATION
 CNTY.            NATRONA:   COUNTY
 STAT.            WYOMING:   STATE
 CTRY. UNITED STATES OF AMERICA:   COUNTRY
 SRVC.      WESTERN ATLAS:   SERVICE COMPANY
 DATE.        11-MAY-1996:   LOGDATE
 API .     49025227900000:   API NUMBER
~CURVE INFORMATION
#MNEM.UNIT       API CODE    CURVE DESCRIPTION
#----------   ------------   ------------------------------
 DEPT.F                  :   
 GRR .GAPI   07 310 01 00:   GAMMA RAY FROM RESISTIVITY
 RILD.OHMM   07 120 46 00:   INDUCTION LOG DEEP RESISTIVITY
 RILM.OHMM   07 120 44 00:   INDUCTION LOG MEDIUM RESISTIVITY
 TENR.LBS    07 635 01 00:   TENSION
~PARAMETER INFORMATION
#MNEM.UNIT          VALUE    DESCRIPTION
#----------   ------------   ------------------------------
 EKB .F         5058.0000:   Kelly bushing
 EGL .F         5048.0000:   Ground level
 EDF .F         5057.0000:   Drilling floor
 EPD .F         5048.0000:   Permanent datum
 TD  .F          632.0000:   Total depth
 DATE.        11-MAY-1996:   Date logged
 CLNT.            A2DTECH:   Client Code
 SL  . 2250' FSL & 2122' FWL:   Surface Location
 PD  .                 GL:   Permanent Datum
 LMF .                 KB:   Log Measured From
 DMF .                 KB:   Drilling Measured From
 DAPD.F                10:   Feet Above Permanent Datum
 DD  .F               632:   Depth driller
 DL  .F               631:   Depth logger
 BLI .F               620:   Bottom log interval
 CS1 .IN            9.625:   Casing size
 CBD1.       9.625" @ 53':   Casing driller 1
 CBL1.F                53:   Casing logger 1
 BS1 .IN             8.75:   Bit size
 BSD1.F               632:   Depth drilled with bit1
 DFT .                AIR:   Type fluid in hole
 LUN .            HL 6532:   Logging unit number
 LUL .             CASPER:   Logging unit location
 ORIG.         2.5" PRINT:   Origin of data
 UWI .     49025227900000:   Unique Well ID
 DICO. A2D TECHNOLOGIES, INC.:   Digitizing Company
 TLI .                620:   Top log interval
~OTHER INFORMATION
~A    DEPT      GRR      RILD       RILM       TENR   
# ...
  511.0000    65.2640    18.5820    19.0550   -21.9850
  511.5000    66.4840    18.5820    17.9650   -21.7560
  512.0000    65.7160    18.5820    17.5850   -21.5270
  512.5000    65.0900    18.5820    18.2000   -21.2970
  513.0000    66.7300    18.5780    19.0900   -21.0680
  513.5000    69.3560    18.5360    19.9790   -20.8380
  514.0000    70.4280    18.4960    20.7490   -20.6090
  514.5000    69.2430    18.4540    20.9290   -20.3800
  515.0000    67.2030    18.4130    21.1340   -20.1500
  515.5000    66.8230    18.3730    21.0330   -19.9210
  516.0000    67.4910    18.3320    20.7570   -19.6920
  516.5000    68.0630    18.2920    20.4810   -19.4620
  517.0000    67.2370    18.2440    20.3710   -19.2330
  517.5000    66.7080    18.1190    19.7810   -19.0030
  518.0000    67.2340    17.8170    19.2920   -18.7740
  518.5000    67.7660    17.5160    18.8030   -18.5450
  519.0000    68.3120    17.2150    18.2440   -18.3150
  519.5000    68.8370    16.9130    17.9110   -18.0860
  520.0000    69.4420    16.6120    18.1210   -17.8570
  520.5000    69.7280    16.3380    18.4320   -17.6270
  521.0000    69.5040    16.3620    18.7440   -17.3980
  521.5000    69.3280    16.4400    19.0560   -17.1690
  522.0000    69.1500    16.5180    19.3670   -16.9390
  522.5000    69.0080    16.5960    19.6360   -16.7100
  523.0000    69.7100    16.6740    20.0000   -16.4800
  523.5000    70.4690    16.7520    19.5420   -16.2510
  524.0000    71.2860    16.8300    19.0620   -16.0220
  524.5000    72.0280    16.9080    18.5820   -15.7920
  525.0000    72.9010    16.9860    18.1010   -15.5630
  525.5000    72.9950    17.0650    17.5850   -15.3340
  526.0000    72.9700    17.1440    17.7020   -15.1040
  526.5000    72.9960    17.2600    17.9830   -14.8750
  527.0000    72.9760    17.2170    18.2630   -14.6450
  527.5000    72.9200    17.1030    18.5820   -14.4160
  528.0000    73.4680    16.9900    18.3430   -14.1870
  528.5000    76.4210    16.8770    18.0650   -13.9570
  529.0000    78.2820    16.7640    17.7870   -13.7280
  529.5000    76.6600    16.6410    17.5090   -13.4990
  530.0000    74.3220    16.5790    17.2650   -13.2690
  530.5000    72.2030    16.5090    16.9500   -13.0400
  531.0000    72.8330    16.4400    16.9500   -12.8100
  531.5000    73.8860    16.3710    16.9500   -12.5810
  532.0000    74.9270    16.3020    16.9500   -12.3520
  532.5000    75.9260    16.2330    16.9500   -12.1220
  533.0000    76.9130    16.1640    16.9500   -11.8930
  533.5000    78.0570    16.0950    16.9500   -11.6640
  534.0000    78.3320    16.0410    16.9500   -11.4340
  534.5000    77.2010    16.9440    17.5820   -11.2050
  535.0000    76.3370    17.6880    19.0760   -10.9750
  535.5000    76.5560    18.4330    20.5700   -10.7460
  536.0000    76.8260    19.1770    22.0640   -10.5170
  536.5000    73.9840    19.9220    23.5580   -10.2870
  537.0000    71.1560    20.6660    24.4820   -10.0580
  537.5000    67.7420    21.9260    24.4820    -9.8290
  538.0000    66.0960    21.6370    24.0620    -9.5990
  538.5000    64.9450    20.7020    22.7000    -9.3700
  539.0000    65.1900    19.7670    21.3370    -9.1410
  539.5000    67.4230    18.8320    19.9750    -8.9110
  540.0000    71.6870    17.8970    18.9530    -8.6820
  540.5000    76.0840    16.9620    18.0430    -8.4520
  541.0000    75.5290    16.0270    17.1340    -8.2230
  541.5000    75.3190    14.9030    16.0410    -7.9940
  542.0000    74.5170    14.9030    16.0260    -7.7640
  542.5000    76.7090    14.7880    15.9890    -7.5350
  543.0000    80.1210    14.6740    15.9520    -7.3060
  543.5000    79.9430    14.6320    15.9150    -7.0760
  544.0000    79.7760    14.6320    15.8780    -6.8470
  544.5000    79.5620    14.6320    15.8410    -6.6170
  545.0000    78.9470    14.6320    15.8040    -6.3880
  545.5000    77.9010    14.6320    15.7670    -6.1590
  546.0000    76.7980    14.6320    15.7480    -5.9290
  546.5000    76.2370    14.6320    15.7480    -5.7000
  547.0000    76.5290    14.6320    15.7480    -5.4710
  547.5000    76.7640    14.6330    15.7510    -5.2410
  548.0000    76.9710    14.6340    15.6490    -5.0120
  548.5000    78.6050    14.5870    15.4600    -4.7820
  549.0000    79.5110    14.4540    15.2710    -4.5530
  549.5000    79.4020    14.3230    15.0810    -4.3240
  550.0000    79.4420    14.1920    14.8920    -4.0940
  550.5000    79.4190    14.0620    14.7040    -3.8650
  551.0000    79.4190    13.9310    14.6320    -3.6360
  551.5000    80.0010    13.7990    14.6320    -3.4060
  552.0000    81.6260    13.6680    14.6320    -3.1770
  552.5000    79.6160    13.5790    14.6320    -2.9470
  553.0000    76.7110    13.5440    14.6320    -2.7180
  553.5000    75.3850    13.5080    14.5700    -2.4890
  554.0000    75.8720    13.4730    14.4320    -2.2590
  554.5000    75.9640    13.4380    14.2950    -2.0300
  555.0000    77.1570    13.4020    14.1580    -1.8010
  555.5000    80.0500    13.3670    14.0200    -1.5710
  556.0000    82.9810    13.3320    13.8820    -1.3420
  556.5000    84.7800    13.2960    13.7450    -1.1120
  557.0000    85.0650    13.2610    13.5920    -0.8830
  557.5000    85.0200    13.2260    13.6210    -0.6540
  558.0000    83.6910    13.1900    13.6720    -0.0510
  558.5000    81.8530    13.1540    13.7240     1.3270
  559.0000    79.9320    13.1200    13.7750     2.7060
  559.5000    79.2610    13.1040    13.8260     4.0840
  560.0000    80.4390    13.2120    13.8780     5.4620
  560.5000    80.4030    13.3050    13.9290     6.8400
  561.0000    80.6700    13.3990    13.9800     8.2180
  561.5000    80.7510    13.4920    14.0310     9.5960
  562.0000    80.9950    13.5860    14.0820    10.9740
  562.5000    80.8590    13.6800    14.1030    12.3520
  563.0000    79.9730    13.7730    13.9890    13.7300
  563.5000    76.3250    13.8470    13.8940    15.1080
  564.0000    76.1350    13.6570    13.7990    16.4860
  564.5000    79.5540    13.5010    13.7040    17.8640
  565.0000    81.2820    13.3450    13.6090    19.2420
  565.5000    83.4840    13.1890    13.5140    20.6200
  566.0000    84.8590    13.0330    13.4190    21.9980
  566.5000    83.2010    12.8770    13.3230    23.3770
  567.0000    81.8090    12.7210    13.2280    24.7550
  567.5000    80.2460    12.5650    13.1330    26.1330
  568.0000    80.5980    12.4090    13.0380    27.5110
  568.5000    81.7070    12.2530    12.9430    28.8890
  569.0000    83.7290    12.1750    12.8480    30.2670
  569.5000    84.6610    12.2100    12.7520    31.6450
  570.0000    81.1530    12.2410    12.6310    33.0230
  570.5000    80.0550    12.2730    12.6920    34.4010
  571.0000    80.8820    12.3050    12.8780    35.7790
  571.5000    81.5560    12.3360    13.0650    37.1570
  572.0000    81.9740    12.3680    13.2520    38.5350
  572.5000    82.5020    12.4010    13.4390    39.9130
  573.0000    82.6740    13.3800    13.5950    41.2910
  573.5000    82.5670    14.3990    14.9610    42.6690
  574.0000    81.5930    15.4190    16.1320    44.0480
  574.5000    77.6100    16.4380    17.3030    45.4260
  575.0000    73.1910    17.4580    18.4740    46.8040
  575.5000    69.3840    18.4770    19.6360    48.1820
  576.0000    65.2580    19.2780    20.1440    49.5600
  576.5000    61.2820    20.3160    20.6480    50.9380
  577.0000    60.2160    21.1720    21.1520    52.3160
  577.5000    60.9960    22.0270    21.6560    53.6940
  578.0000    61.9410    22.3720    22.1600    55.0720
  578.5000    62.3040    22.4330    22.6640    56.4500
  579.0000    61.6290    22.4950    23.1680    57.8280
  579.5000    61.0460    22.5560    23.6720    59.2060
  580.0000    61.9710    22.6180    24.0360    60.5840
  580.5000    63.1980    22.6790    24.0360    61.9620
  581.0000    62.7510    22.7470    23.7690    63.3400
  581.5000    62.1910    21.9720    22.8560    64.7190
  582.0000    61.8910    21.1090    21.9440    66.0970
  582.5000    64.1300    20.2460    21.0310    67.4750
  583.0000    66.0660    19.3820    20.1190    68.8530
  583.5000    68.0520    18.5190    19.2070    70.2310
