~VERSION INFORMATION
 VERS.                2.0:   CWLS LOG ASCII STANDARD - VERSION 2.0
 WRAP.                 NO:   ONE LINE PER DEPTH STEP
~WELL INFORMATION
#MNEM.UNIT      DATA TYPE    INFORMATION
#----------   ------------   ------------------------------
 STRT.F          200.0000:   START DEPTH
 STOP.F         3248.0000:   STOP DEPTH
 STEP.F            0.5000:   STEP LENGTH
 NULL.          -999.2500:   NO VALUE
 COMP.    FENIX & SCISSON:   COMPANY
 WELL.   FENIX "AX" #28-3:   WELL
 FLD .              NPR-3:   FIELD
 LOC .       S3 T38N R78W:   LOCATION
 CNTY.            NATRONA:   COUNTY
 STAT.            WYOMING:   STATE
 CTRY. UNITED STATES OF AMERICA:   COUNTRY
 SRVC.              WELEX:   SERVICE COMPANY
 DATE.        30-JUN-1977:   LOGDATE
 API .     49025104200000:   API NUMBER
~CURVE INFORMATION
#MNEM.UNIT       API CODE    CURVE DESCRIPTION
#----------   ------------   ------------------------------
 DEPT.F                  :   
 CALD.IN     45 280 60 00:   CALIPER FROM DENSITY LOG
 GRD .GAPI   45 310 01 00:   GAMMA RAY FROM DENSITY LOG
 RHOB.G/C3   45 350 01 00:   BULK DENSITY
 CORR.G/C3   45 356 01 00:   DENSITY CORRECTION
 SPR .MV     07 010 01 00:   SPONTANEOUS POTENTIAL
 ILD .OHMM   07 120 46 00:   DEEP INDUCTION RESISTIVITY
 ILM .OHMM   07 120 44 00:   INDUCTION LOG MEDIUM RESISTIVITY
 SGRD.OHMM   07 220 05 00:   SHALLOW SHORT GUARD RESISTIVITY
~PARAMETER INFORMATION
#MNEM.UNIT          VALUE    DESCRIPTION
#----------   ------------   ------------------------------
 EKB .F         4969.0000:   Kelly bushing
 EGL .F         4959.0000:   Ground level
 TD  .F         3250.0000:   Total depth
 CLNT.            A2DTECH:   Client Code
 SL  . 500' FSL & 800' FWL:   Surface Location
 PD  .                 GL:   Permanent Datum
 EPD .F              4959:   Elevation Permanent Datum
 LMF .                 KB:   Log Measured From
 DMF .                 KB:   Drilling Measured From
 DAPD.F                10:   Feet Above Permanent Datum
 DATE.        30-JUN-1977:   Date Logged [DD-MMM-YYYY]
 DD  .F              3250:   Depth driller
 DL  .F              3250:   Depth logger
 BLI .F              3248:   Bottom log interval
 TLI .F               200:   Top log interval
 CS1 .IN            8.625:   Casing size
 CBD1.      8.625" @ 217':   Casing driller 1
 CBL1.F               225:   Casing logger 1
 BS1 .IN            7.875:   Bit size
 BSD1.F              3250:   Depth drilled with bit1
 DFT .                KCL:   Type fluid in hole
 DFD .                8.9:   Density
 RMS .OHMM           1.76:   Rm
 MST .F                63:   Rm Meas. temp.
 TCS .HRS             2.5:   Time Circ. stopped
 MRT .F                68:   Maximum recorded temp.
 LUN .               8611:   Logging unit number
 ENGI.         G. BENTSEN:   Recorded By
 WITN.         PETTINGILL:   Witnessed by
 ORIG.         2.5" PRINT:   Origin of data
 UWI .     49025104200000:   Unique Well ID
 DICO. A2D TECHNOLOGIES, INC.:   Digitizing Company
 DFV .                 30:   Viscosity
 DFPH.                  7:   pH
 DFL .                 10:   Fluid loss
 MSS .                PIT:   Source of sample
 RMF .OHMM           1.09:   Rmf
 MFST.F                68:   Rmf Meas. temp.
 MFSS.               MEAS:   Source Rmf.
 RMC .OHMM           2.01:   Rmc
 MCST.F                68:   Rmc Meas. temp.
 MCSS.               MEAS:   Source Rmc.
 RMB .OHMM           1.01:   Rm. at BHT
 BHT .F               118:   BHT.
 LUL .             CASPER:   Logging unit location
~OTHER INFORMATION
~A   DEPT       CALD       GRD        RHOB      CORR       SPR        ILD        ILM       SGRD   
# ...
 2387.0000     8.1355   129.1495     2.3949     0.0127   -57.9510     5.5238     6.6921    10.5230
 2387.5000     8.1343   128.5382     2.3809     0.0120   -57.9459     5.2339     6.5081    13.6493
 2388.0000     8.1332   127.9270     2.3711     0.0120   -57.9409     5.0051     6.2420    11.9257
 2388.5000     8.1320   126.1110     2.3761     0.0120   -57.9358     4.7970     5.9750     9.2784
 2389.0000     8.1309   124.2949     2.3788     0.0120   -57.9308     4.5350     5.5569     5.6759
 2389.5000     8.1590   121.2740     2.3777     0.0119   -58.2207     4.2669     4.9211     5.1025
 2390.0000     8.1579   118.8355     2.3704     0.0150   -58.2153     4.0530     4.1898     5.0469
 2390.5000     8.1567   118.2443     2.3627     0.0150   -58.5056     3.9321     3.9570     5.2966
 2391.0000     8.1556   120.1205     2.3565     0.0149   -58.5000     3.8256     3.8161     5.8923
 2391.5000     8.1544   121.3453     2.3432     0.0149   -58.5684     3.7456     3.8650     7.4731
 2392.0000     8.1515   121.8323     2.3351     0.0149   -58.7854     3.7220     4.2634     9.6834
 2392.5000     8.1471   121.4910     2.3572     0.0149   -58.7795     3.7734     4.6985     9.9519
 2393.0000     8.1428   120.6084     2.3755     0.0165   -58.6616     3.8256     5.0246     4.3131
 2393.5000     8.1385   120.5994     2.4276     0.0198   -58.4742     3.8256     5.0486     7.0637
 2394.0000     8.1341   120.5904     2.4459     0.0242   -58.4690     3.8785     4.8898     5.2246
 2394.5000     8.1298   122.0304     2.4566     0.0255   -58.6155     3.9321     4.6932     4.7463
 2395.0000     8.1255   124.8084     2.4734     0.0239   -58.7537     4.0415     4.7587     4.6814
 2395.5000     8.1211   126.0633     2.4642     0.0239   -58.7475     4.1540     4.8918     5.3687
 2396.0000     8.1168   127.7814     2.4428     0.0229   -58.7425     4.2114     4.8925     7.4593
 2396.5000     8.1132   128.3765     2.4504     0.0187   -58.7374     4.3290     4.9607     7.2435
 2397.0000     8.1415   128.9699     2.4611     0.0171   -58.7324     4.5172     5.3244     5.8979
 2397.5000     8.1402   128.3254     2.4422     0.0158   -58.7273     4.7200     6.2003     6.6522
 2398.0000     8.1391   127.5760     2.4313     0.0142   -58.7223     4.9962     6.6208     8.3568
 2398.5000     8.1379   126.8267     2.4224     0.0127   -58.7172     5.2885     6.7298     8.6702
 2399.0000     8.1368   128.1572     2.4212     0.0111   -58.7122     5.5977     6.9230     7.9586
 2399.5000     8.1356   132.1928     2.4356     0.0084   -58.9224     5.9250     7.0246     8.1332
 2400.0000     8.1345   136.8441     2.4538     0.0038   -58.7467     6.2145     7.2181     8.9744
 2400.5000     8.1232   140.3492     2.4663     0.0100   -58.5710     6.3953     7.3939     9.9297
 2401.0000     8.1120   135.6124     2.4738     0.0129   -58.4027     6.5762     7.3944    10.4392
 2401.5000     8.1013   132.5348     2.4776     0.0113   -58.6956     6.7174     7.3949    10.9523
 2402.0000     8.1000   129.4578     2.4769     0.0113   -58.6423     6.7178     7.3954    11.3430
 2402.5000     8.0987   127.9118     2.4738     0.0112   -58.3319     6.8112     7.4981    10.9484
 2403.0000     8.0974   126.0643     2.4724     0.0112   -58.0988     6.9058     7.6022    10.2383
 2403.5000     8.0961   124.5906     2.4806     0.0111   -57.8016     7.0018     7.8144     9.5621
 2404.0000     8.0947   125.1783     2.4883     0.0111   -57.6971     7.0990     7.9302     8.8094
 2404.5000     8.0934   126.9707     2.4922     0.0111   -57.2072     7.0995     8.2565     9.5621
 2405.0000     8.0921   128.1608     2.4637     0.0125   -56.9100     7.1981     8.2762     9.9623
 2405.5000     8.1047   128.7500     2.4534     0.0110   -56.9078     7.3989     8.3968    10.0994
 2406.0000     8.1187   128.7337     2.4728     0.0109   -56.6106     7.7105     8.6371    11.7375
 2406.5000     8.1174   128.7190     2.4805     0.0109   -56.6084     8.0443     9.0467    12.3970
 2407.0000     8.1158   127.4994     2.4789     0.0108   -56.6058     8.4985     9.3928    12.5675
 2407.5000     8.1438   126.2798     2.4651     0.0092   -56.8986     8.8467     9.7389    13.0934
 2408.0000     8.1425   125.6627     2.4543     0.0061   -56.8964     8.9927    10.0107    14.2277
 2408.5000     8.1412   124.9947     2.4481     0.0046   -57.1895     9.2505    10.1497    14.8070
 2409.0000     8.1399   123.1730     2.4420     0.0045   -57.4823     9.3480    10.2907    14.6060
 2409.5000     8.1386   121.2505     2.4420     0.0045   -57.7749     9.5231    10.2916    15.0107
 2410.0000     8.1373   123.9958     2.4422     0.0044   -57.7727     9.6626    10.4345    14.5271
 2410.5000     8.1361   126.9177     2.4450     0.0044   -57.7705     9.8040    10.5794    13.6414
 2411.0000     8.1348   126.4756     2.4518     0.0043   -57.7684     9.8783    10.8746    14.1306
 2411.5000     8.1335   124.6032     2.4633     0.0043   -57.4712     9.8790    10.8753    15.3561
 2412.0000     8.1322   122.9315     2.4786     0.0042   -57.4573     9.8798    10.8761    16.0722
 2412.5000     8.1308   121.4610     2.4847     0.0057   -57.1718     9.8804    11.0271    15.1681
 2413.0000     8.1295   120.0904     2.4831     0.0073   -56.8746     9.8811    11.0279    14.4078
 2413.5000     8.1282   120.6777     2.4831     0.0095   -56.8724     9.8817    11.0286    14.8098
 2414.0000     8.1269   121.5663     2.4829     0.0110   -56.5752     9.8824    11.1818    15.2172
 2414.5000     8.1256   124.0356     2.4815     0.0126   -56.5730     9.8831    11.2007    14.2600
 2415.0000     8.1243   125.8032     2.4809     0.0147   -56.5708     9.8837    11.4946    13.8808
 2415.5000     8.1230   127.8436     2.4692     0.0162   -56.5686     9.8844    11.6891    15.4266
 2416.0000     8.1216   129.6361     2.4560     0.0153   -56.5664     9.8851    11.8596    16.7447
 2416.5000     8.1203   129.6213     2.4493     0.0130   -56.4373     9.7509    11.9803    16.7447
 2417.0000     8.1190   129.0042     2.4410     0.0130   -56.2670     9.7516    11.9211    16.9751
 2417.5000     8.1177   127.7846     2.4430     0.0145   -56.2647     9.7523    11.5913    16.7447
 2418.0000     8.1164   127.1674     2.4507     0.0137   -56.2625     9.7530    11.4262    15.6389
 2418.5000     8.1148   127.1527     2.4461     0.0106   -56.2599     9.7536    11.1887    14.0193
 2419.0000     8.1137   127.1379     2.4538     0.0089   -55.9627     9.7543    11.1895    13.2736
 2419.5000     8.1122   125.3160     2.4647     0.0066   -55.6656     9.7550    11.1904    14.0328
 2420.0000     8.1402   122.8916     2.4711     0.0081   -55.6634     9.7557    11.3458    15.2172
 2420.5000     8.1389   122.2741     2.4658     0.0096   -55.3663     9.7563    11.5034    15.1946
 2421.0000     8.1376   121.6062     2.4474     0.0095   -55.3641     9.8918    11.5042    15.0107
 2421.5000     8.1363   119.8343     2.4321     0.0095   -55.3619     9.8926    11.6639    15.7681
 2422.0000     8.1058   119.0163     2.4183     0.0094   -55.3598    10.0300    11.5056    17.0313
 2422.5000     8.1045   117.2691     2.4106     0.0079   -55.3576    10.1693    11.1948    17.2087
 2423.0000     8.1177   115.8741     2.4197     0.0048   -55.3554    10.1700    11.1956    16.8258
 2423.5000     8.1312   114.1766     2.4319     0.0045   -55.3532    10.1707    11.1990    15.5421
 2424.0000     8.1298   113.7349     2.4472     0.0077   -55.3510    10.1714    11.5088    14.6890
 2424.5000     8.1285   115.1505     2.4625     0.0092   -55.6439    10.1721    11.5096    15.7213
 2425.0000     8.1272   116.1145     2.4717     0.0138   -55.6416    10.1727    11.5104    17.2156
 2425.5000     8.1259   117.3042     2.4825     0.0152   -55.7014    10.1734    11.6703    18.1755
 2426.0000     8.1246   118.1928     2.4900     0.0153   -55.9324    10.1741    11.6285    17.2686
 2426.5000     8.1232   119.6837     2.4609     0.0162   -56.2252    10.1973    11.5126    17.4455
 2427.0000     8.1219   121.3251     2.4323     0.0151   -56.5181    10.3162    11.6727    17.2087
