~VERSION INFORMATION
 VERS.                2.0:   CWLS LOG ASCII STANDARD - VERSION 2.0
 WRAP.                 NO:   ONE LINE PER DEPTH STEP
~WELL INFORMATION
#MNEM.UNIT      DATA TYPE    INFORMATION
#----------   ------------   ------------------------------
 STRT.F         3500.0000:   START DEPTH
 STOP.F         6855.0000:   STOP DEPTH
 STEP.F            0.5000:   STEP LENGTH
 NULL.          -999.2500:   NO VALUE
 COMP.          U.S. NAVY:   COMPANY
 WELL.  US NAVY "G" #1-10:   WELL
 FLD . TEAPOT NAVAL RESERVE:   FIELD
 LOC .      S10 T38N R78W:   LOCATION
 CNTY.            NATRONA:   COUNTY
 STAT.            WYOMING:   STATE
 CTRY. UNITED STATES OF AMERICA:   COUNTRY
 SRVC.         LANE WELLS:   SERVICE COMPANY
 DATE.        23-MAR-1952:   LOGDATE
 API .     49025063380000:   API NUMBER
~CURVE INFORMATION
#MNEM.UNIT       API CODE    CURVE DESCRIPTION
#----------   ------------   ------------------------------
 DEPT.F                  :   
 GRN .GAPI   35 310 01 00:   GAMMA RAY
 NEUT.NAPI   35 330 01 00:   NEUTRON
~PARAMETER INFORMATION
#MNEM.UNIT          VALUE    DESCRIPTION
#----------   ------------   ------------------------------
 EKB .F         5195.0000:   Kelly bushing
 EGL .F         5184.0000:   Ground level
 EDF .F         5195.0000:   Drilling floor
 EPD .F            0.0000:   Permanent datum
 TD  .F         6861.0000:   Total depth
 CLNT.            A2DTECH:   Client Code
 PD  .                 GL:   Permanent Datum
 DATE.        23-MAR-1952:   Date Logged [DD-MMM-YYYY]
 DD  .F              6861:   Depth driller
 DL  .F              6861:   Depth logger
 BLI .F              6855:   Bottom log interval
 TLI .F              3500:   Top log interval
 BSD1.F              6861:   Depth drilled with bit1
 DFT .                MUD:   Type fluid in hole
 ENGI.            GAMBERG:   Recorded By
 WITN.           GRIBBENS:   Witnessed by
 ORIG.         2.5" PRINT:   Origin of data
 UWI .     49025063380000:   Unique Well ID
 DICO. A2D TECHNOLOGIES, INC.:   Digitizing Company
~OTHER INFORMATION
~A  DEPT       GRN        NEUT  
# ...
 3986.0000   108.8411   144.5823
 3986.5000   106.5256   162.3180
 3987.0000   104.0473   178.5366
 3987.5000   101.5286   202.5846
 3988.0000   100.2518   218.8837
 3988.5000    98.3652   225.1847
 3989.0000    95.4382   210.4783
 3989.5000    93.9783   198.2219
 3990.0000    92.5183   190.8916
 3990.5000    90.9567   190.9505
 3991.0000    88.7432   191.0501
 3991.5000    87.2223   201.4565
 3992.0000    86.3539   212.7998
 3992.5000    85.8517   236.6516
 3993.0000    86.2056   254.7194
 3993.5000    87.3741   261.4532
 3994.0000    89.1552   258.9510
 3994.5000    90.3847   240.7120
 3995.0000    91.3698   223.5295
 3995.5000    90.6433   221.1207
 3996.0000    90.6504   223.6473
 3996.5000    91.4116   203.7005
 3997.0000    92.4173   186.5358
 3997.5000    93.1165   181.9520
 3998.0000    91.6575   185.9606
 3998.5000    90.1374   194.8242
 3999.0000    88.6161   207.8804
 3999.5000    86.5467   222.3530
 4000.0000    85.5757   232.1047
 4000.5000    85.3383   239.5474
 4001.0000    83.8783   242.0519
 4001.5000    82.1739   237.1490
 4002.0000    81.6919   252.7961
 4002.5000    82.1880   291.1797
 4003.0000    81.3810   324.7242
 4003.5000    80.7351   354.9665
 4004.0000    80.7433   381.9282
 4004.5000    80.9951   409.2470
 4005.0000    81.8578   432.4759
 4005.5000    83.7007   412.7582
 4006.0000    85.6638   395.5096
 4006.5000    86.4043   407.8906
 4007.0000    86.9003   417.8025
 4007.5000    87.6409   422.7762
 4008.0000    87.8924   409.5451
 4008.5000    87.1459   402.4045
 4009.0000    87.2552   392.0020
 4009.5000    87.6699   360.4495
 4010.0000    87.6773   322.8847
 4010.5000    87.6846   272.3887
 4011.0000    87.9362   242.7944
 4011.5000    90.0619   220.6076
 4012.0000    96.0207   200.8898
 4012.5000    96.7613   188.5795
 4013.0000    96.7683   197.3779
 4013.5000    97.5089   219.2418
 4014.0000    99.4719   247.0518
 4014.5000    99.5670   268.3953
 4015.0000    98.7167   281.3984
 4015.5000    97.1824   267.8217
 4016.0000    95.5907   250.5731
 4016.5000    93.6417   243.2010
 4017.0000    90.7147   248.1747
 4017.5000    89.2547   263.0248
 4018.0000    87.7946   283.4586
 4018.5000    86.8236   295.1975
 4019.0000    86.2460   286.4588
 4019.5000    85.4702   272.7663
 4020.0000    85.1331   256.1310
 4020.5000    86.2426   236.8623
 4021.0000    86.3730   218.8456
 4021.5000    86.6245   206.5353
 4022.0000    87.8540   194.2249
 4022.5000    89.0835   196.7294
 4023.0000    89.5795   206.8238
 4023.5000    89.8313   216.8812
 4024.0000    90.1876   225.1210
 4024.5000    91.4669   226.5005
 4025.0000    91.9112   211.7210
 4025.5000    91.8166   220.4946
 4026.0000    91.8253   229.0934
 4026.5000    94.5218   229.1287
 4027.0000    95.9957   236.5715
 4027.5000    97.7142   246.4834
 4028.0000    98.9437   263.8027
 4028.5000    97.9417   276.1837
 4029.0000    97.4906   262.1295
 4029.5000    98.3944   238.3427
 4030.0000    99.4295   209.1297
 4030.5000    99.5832   173.3878
 4031.0000    98.0111   132.6051
 4031.5000    96.3065   131.4808
 4032.0000    95.0910   143.1156
 4032.5000    95.3425   138.2127
 4033.0000    95.8597   125.9023
 4033.5000    96.0900   113.4361
 4034.0000    94.8788   111.1583
 4034.5000    92.6606   127.1052
 4035.0000    89.9142   143.0910
 4035.5000    89.3584   169.6564
 4036.0000    87.0819   185.4156
 4036.5000    86.7838   186.4019
 4037.0000    88.5629   178.0547
 4037.5000    87.3473   163.2753
 4038.0000    85.3541   148.4958
 4038.5000    84.1046   133.7164
 4039.0000    83.7008   123.6872
 4039.5000    84.2874   121.4414
 4040.0000    84.6944   141.4012
 4040.5000    84.1794   163.7010
 4041.0000    83.2432   178.1309
 4041.5000    83.1935   184.6843
 4042.0000    84.4797   180.8951
 4042.5000    85.2201   168.5848
 4043.0000    85.2462   158.7436
 4043.5000    86.4309   146.4333
 4044.0000    88.1751   133.9263
 4044.5000    85.5518   124.2818
 4045.0000    85.2567   124.8562
 4045.5000    86.2435   127.5954
 4046.0000    87.2285   137.2861
 4046.5000    86.9910   154.0819
 4047.0000    86.0199   173.8590
 4047.5000    85.0489   188.7091
 4048.0000    84.5669   206.0285
 4048.5000    85.0636   218.4095
 4049.0000    84.8254   213.5066
 4049.5000    84.8337   195.7285
 4050.0000    85.2078   179.4239
 4050.5000    86.0723   152.3114
 4051.0000    86.8128   114.5405
 4051.5000    88.7757    88.2401
 4052.0000    90.0052    67.5949
 4052.5000    91.2407    73.0310
 4053.0000    92.2197    85.4121
 4053.5000    91.1460   100.2622
 4054.0000    89.8043   112.6433
 4054.5000    88.4732    95.1297
 4055.0000    88.5902    75.1034
 4055.5000    90.3021    65.3164
 4056.0000    91.2870    60.9328
 4056.5000    92.2720    73.8285
 4057.0000    92.2790    90.6066
 4057.5000    92.0355   110.4393
 4058.0000    91.7735   125.2895
 4058.5000    91.5664   132.7323
 4059.0000    91.6552   130.2985
 4059.5000    92.6321   125.3956
 4060.0000    95.9425   125.5964
 4060.5000    97.5303   131.2060
 4061.0000    98.2063   132.9090
 4061.5000    94.5458   118.0044
 4062.0000    91.8633   110.7654
 4062.5000    94.1018   132.3077
 4063.0000    95.3002   172.5743
 4063.5000    93.7216   197.3010
 4064.0000    92.4564   217.0895
 4064.5000    91.1914   236.8779
 4065.0000    90.3057   244.3639
 4065.5000    90.9376   243.5316
 4066.0000    91.6781   228.5603
 4066.5000    91.9296   215.0403
 4067.0000    91.6919   200.5347
 4067.5000    91.9867   186.5421
 4068.0000    93.4572   170.4765
 4068.5000    93.2336   158.1661
 4069.0000    92.0325   148.3249
 4069.5000    91.4841   155.7677
 4070.0000    92.1512   180.4944
 4070.5000    94.4339   200.8905
 4071.0000    97.3749   218.7638
 4071.5000    98.8489   231.2311
 4072.0000    98.8558   240.7571
 4072.5000    98.8448   244.8766
 4073.0000    98.6253   239.7959
 4073.5000    98.6333   220.2658
 4074.0000    98.3948   195.6098
 4074.5000    97.3251   173.4229
 4075.0000    93.0332   153.7052
 4075.5000    90.8397   136.4566
 4076.0000    91.5802   155.0919
 4076.5000    91.6415   180.9955
 4077.0000    89.6382   203.6940
 4077.5000    86.5762   222.4895
 4078.0000    84.3768   231.6709
 4078.5000    81.9641   230.5136
 4079.0000    79.2548   235.4872
 4079.5000    77.6954   242.9299
 4080.0000    76.4806   245.4345
 4080.5000    75.5096   220.7785
 4081.0000    75.0269   192.9593
 4081.5000    76.9906   166.7558
 4082.0000    78.4645   138.8343
 4082.5000    77.9038   119.6282
 4083.0000    76.6649   107.3827
 4083.5000    75.9653   121.2348
 4084.0000    76.5961   142.0313
 4084.5000    78.2640   156.8815
 4085.0000    80.2214   171.7316
 4085.5000    82.9179   184.1127
 4086.0000    79.7464   191.5732
 4086.5000    76.5748   194.0617
 4087.0000    75.5984   190.6601
 4087.5000    75.1218   177.8804
 4088.0000    75.5405   176.1315
 4088.5000    77.3336   184.2424
 4089.0000    78.9875   190.7329
 4089.5000    81.5397   199.2280
 4090.0000    82.2507   189.3868
 4090.5000    82.2576   159.7926
 4091.0000    82.2646   132.6674
 4091.5000    83.2496    82.3101
 4092.0000    86.0440    50.5372
 4092.5000    90.2832    52.4173
 4093.0000    92.9853    91.7383
 4093.5000    93.7910   141.3752
 4094.0000    90.6471   195.5549
 4094.5000    90.6284   261.3277
 4095.0000    89.1699   273.7087
 4095.5000    86.9764   251.5218
 4096.0000    87.9614   226.8658
 4096.5000    87.2349   199.7306
 4097.0000    86.0055   192.3687
 4097.5000    85.5373   189.4646
 4098.0000    86.0980   181.8595
 4098.5000    86.5306   170.8462
 4099.0000    85.6156   166.5345
 4099.5000    82.5700   171.7450
 4100.0000    80.6846   195.0676
 4100.5000    80.6895   214.8561
 4101.0000    80.9389   227.2371
 4101.5000    80.8862   237.1490
 4102.0000    79.1915   249.8793
 4102.5000    76.0740   265.4301
 4103.0000    75.6943   278.5226
 4103.5000    76.0734   294.8960
 4104.0000    75.1011   328.6509
 4104.5000    72.6608   369.9463
 4105.0000    71.1985   417.6611
 4105.5000    69.4918   444.8570
 4106.0000    67.2960   459.7071
 4106.5000    66.0693   449.5452
 4107.0000    65.0813   437.2114
