~VERSION INFORMATION
 VERS.                2.0:   CWLS LOG ASCII STANDARD - VERSION 2.0
 WRAP.                 NO:   ONE LINE PER DEPTH STEP
~WELL INFORMATION
#MNEM.UNIT      DATA TYPE    INFORMATION
#----------   ------------   ------------------------------
 STRT.F            0.0000:   START DEPTH
 STOP.F         5673.0000:   STOP DEPTH
 STEP.F            0.5000:   STEP LENGTH
 NULL.          -999.2500:   NO VALUE
 COMP.       FLUOR DANIEL:   COMPANY
 WELL.   FLUOR "X" #63-10:   WELL
 FLD .             NPR #3:   FIELD
 LOC .      S10 T38N R78W:   LOCATION
 CNTY.            NATRONA:   COUNTY
 STAT.            WYOMING:   STATE
 CTRY. UNITED STATES OF AMERICA:   COUNTRY
 SRVC.      WESTERN ATLAS:   SERVICE COMPANY
 DATE.        02-MAR-1996:   LOGDATE
 API .     49025227690000:   API NUMBER
~CURVE INFORMATION
#MNEM.UNIT       API CODE    CURVE DESCRIPTION
#----------   ------------   ------------------------------
 DEPT.F                  :   
 GRD .GAPI   45 310 01 00:   GAMMA RAY FROM DENSITY LOG
 TEND.LBS    45 635 01 00:   TENSION FROM DENSITY LOG
 CALD.IN     45 280 60 00:   CALIPER FROM DENSITY LOG
 ZCOR.G/C3   45 356 01 00:   DENSITY CORRECTION
 ZDEN.G/C3   45 350 01 00:   BULK DENSITY
 CNC .DEC    42 890 03 00:   COMPENSATED NEUTRON POROSITY SANDSTONE
 SPR .MV     11 010 01 00:   SPONTANEOUS POTENTIAL FROM RESISTIVITY
 RD  .OHMM   11 220 10 00:   RESISTIVITY DEEP
 RS  .OHMM   11 220 09 00:   RESISTIVITY SHALLOW
~PARAMETER INFORMATION
#MNEM.UNIT          VALUE    DESCRIPTION
#----------   ------------   ------------------------------
 EKB .F         5196.0000:   Kelly bushing
 EGL .F         5186.0000:   Ground level
 EDF .F         5195.0000:   Drilling floor
 TD  .F         5674.0000:   Total depth
 CLNT.            A2DTECH:   Client Code
 SL  . 1688' FNL & 1730' FEL:   Surface Location
 PD  .                 GL:   Permanent Datum
 EPD .F              5186:   Elevation Permanent Datum
 LMF .                 KB:   Log Measured From
 DMF .                 KB:   Drilling Measured From
 DAPD.F                10:   Feet Above Permanent Datum
 DATE.        02-MAR-1996:   Date Logged [DD-MMM-YYYY]
 DD  .F              5674:   Depth driller
 DL  .F              5674:   Depth logger
 BLI .F              5663:   Bottom log interval
 CS1 .IN            9.625:   Casing size
 CBD1.      9.625" @ 448':   Casing driller 1
 CBL1.F               448:   Casing logger 1
 BS1 .IN             8.75:   Bit size
 BSD1.F              5674:   Depth drilled with bit1
 DFT .               CHEM:   Type fluid in hole
 DFD .                9.7:   Density
 DFV .                 53:   Viscosity
 DFPH.                9.0:   pH
 DFL .                9.2:   Fluid loss
 MSS .           FLOWLINE:   Source of sample
 RMS .OHMM          0.628:   Rm
 MST .F                71:   Rm Meas. temp.
 RMF .OHMM          0.477:   Rmf
 MFST.F                71:   Rmf Meas. temp.
 MFSS.               MEAS:   Source Rmf.
 RMC .OHMM          0.779:   Rmc
 MCST.F                71:   Rmc Meas. temp.
 MCSS.               MEAS:   Source Rmc.
 RMB .OHMM          0.251:   Rm. at BHT
 BHT .F               178:   BHT.
 TCS .F               4.5:   Time Circ. stopped
 MRT .HRS             178:   Maximum recorded temp.
 LUN .            HL-6530:   Logging unit number
 LUL .             CASPER:   Logging unit location
 ENGI.      PAT RASMUSSEN:   Recorded By
 ORIG.           5" PRINT:   Origin of data
 UWI .     49025227690000:   Unique Well ID
 WITN.         LAFRENIERE:   Witnessed by
 DICO.   A2D TECHNOLOGIES:   Digitizing Company
~OTHER INFORMATION
~A  DEPTH      GRD       TEND       CALD       ZCOR       ZDEN        CNC        SPR         RD         RS
# ...
 2518.5000    75.8254   -29.8325     8.8808     0.0593     2.4597     0.2027   -78.2633    24.8119    18.8911
 2519.0000    79.1457   -29.7452     8.8808     0.0653     2.4566     0.2060   -78.0273    24.1206    18.2463
 2519.5000    80.6574   -29.6754     8.8808     0.0712     2.4581     0.2081   -78.3434    23.7754    17.7459
 2520.0000    82.1691   -37.1193     8.8808     0.0757     2.4620     0.2075   -78.6726    24.4251    18.6237
 2520.5000    82.7803   -44.5282     8.8808     0.0802     2.4679     0.2015   -78.9999    25.6226    19.6812
 2521.0000    82.4815   -44.4409     8.8808     0.0861     2.4686     0.1991   -79.3272    28.2128    20.5129
 2521.5000    80.3801   -51.8848     8.8808     0.0921     2.4521     0.2006   -79.6175    29.3877    21.2324
 2522.0000    78.8797   -51.7975     8.8808     0.0996     2.4310     0.2054   -79.6207    27.2180    19.6730
 2522.5000    79.4880   -51.7102     8.8808     0.0918     2.4280     0.2099   -79.4991    25.7374    18.4828
 2523.0000    80.6996   -51.6403     8.8959     0.0740     2.4310     0.2135   -79.2981    23.9993    17.3641
 2523.5000    81.0065   -51.5705     8.8808     0.0665     2.4333     0.2150   -79.0966    23.1698    17.6038
 2524.0000    81.0121   -51.4992     8.8808     0.0620     2.4362     0.2135   -78.8935    23.3206    17.9708
 2524.5000    78.3083   -51.4134     8.8808     0.0619     2.4385     0.2066   -78.8127    23.9544    18.3448
 2525.0000    76.2055   -58.8572     8.8808     0.0664     2.4399     0.1985   -78.6140    24.2743    18.4704
 2525.5000    75.6073   -66.2669     8.8808     0.0724     2.4429     0.1967   -78.1901    24.2603    18.3401
 2526.0000    75.6145   -73.6926     8.8808     0.0630     2.4399     0.1979   -77.7650    24.2428    18.3372
 2526.5000    75.6214   -81.1015     8.8959     0.0588     2.4211     0.1994   -77.3460    24.2288    18.2084
 2527.0000    75.3244   -81.0317     8.8959     0.0588     2.4113     0.2000   -76.6036    23.5538    18.0805
 2527.5000    75.3315   -79.9537     8.8959     0.0602     2.4106     0.2054   -75.7426    23.2167    17.9534
 2528.0000    75.6397   -65.8820     8.8959     0.0677     2.4188     0.2069   -74.8701    23.8511    18.0759
 2528.5000    75.9466   -58.3160     8.8959     0.0737     2.4361     0.2042   -73.9982    24.3374    18.3248
 2529.0000    76.5546   -58.2459     8.8959     0.0842     2.4608     0.2012   -73.1278    24.8336    18.5778
 2529.5000    77.7651   -58.1588     8.8959     0.0810     2.4638     0.1937   -72.3185    24.1383    18.9645
 2530.0000    80.1818   -65.5852     8.8808     0.0526     2.4556     0.1916   -71.8409    23.7928    19.0944
 2530.5000    79.2838   -65.5154     8.8808     0.0541     2.4308     0.1934   -72.1641    24.4559    19.0913
 2531.0000    77.7834   -57.9318     8.8808     0.0630     2.4255     0.1943   -72.4665    24.9449    19.6240
 2531.5000    75.6806   -57.8620     8.8808     0.0645     2.4240     0.1928   -72.4665    24.9269    19.8949
 2532.0000    75.6876   -57.7921     8.8808     0.0630     2.4225     0.1903   -72.1985    25.0832    20.0305
 2532.5000    76.5969   -57.7211     8.8808     0.0674     2.4247     0.1856   -71.9647    25.4217    20.0273
 2533.0000    74.7953   -57.6350     8.8808     0.0674     2.4329     0.1805   -71.7122    26.1164    20.1644
 2533.5000    67.2722   -65.0789     8.8808     0.0599     2.4517     0.1742   -71.4575    27.2039    20.3012
 2534.0000    63.3622   -64.9916     8.8808     0.0568     2.5080     0.1664   -71.1962    29.1363    22.0554
 2534.5000    64.5726   -72.4180     8.8959     0.0613     2.5620     0.1532   -71.0950    34.8595    26.7674
 2535.0000    67.0181   -79.8444     8.8879     0.0673     2.5943     0.1411   -71.0002    50.2674    32.2621
 2535.5000    69.7058   -79.7571     8.8808     0.0583     2.5958     0.1307   -70.9039    52.7395    41.3821
 2536.0000    67.6030   -87.1835     8.8959     0.0447     2.5312     0.1270   -70.8025    39.4096    36.7847
 2536.5000    68.2110   -87.0962     8.8808     0.0507     2.4801     0.1411   -70.8663    28.6477    24.4513
 2537.0000    70.1508   -79.5301     8.8808     0.0612     2.4568     0.1577   -70.9778    21.1128    19.1888
 2537.5000    72.7418   -71.9640     8.8808     0.0686     2.4456     0.1829   -71.0900    19.1523    17.4148
 2538.0000    74.2534   -71.8767     8.8808     0.0731     2.4388     0.1970   -71.1874    19.4080    17.5335
 2538.5000    75.1627   -71.8069     8.8808     0.0776     2.4358     0.2006   -71.1843    19.6672    17.5307
 2539.0000    76.0733   -79.2354     8.8808     0.0776     2.4343     0.2021   -71.1857    19.9298    17.6507
 2539.5000    76.3802   -79.1460     8.8808     0.0775     2.4380     0.1985   -71.2792    20.0537    17.7705
 2540.0000    76.6870   -79.0761     8.8808     0.0775     2.4432     0.1958   -71.5977    19.9011    17.6451
 2540.5000    77.2952   -79.0063     8.8808     0.0760     2.4507     0.1958   -71.7186    20.0277    17.4003
 2541.0000    77.9045   -63.9430     8.8808     0.0744     2.4485     0.1964   -71.5452    20.0162    17.0407
 2541.5000    78.5126   -63.8567     8.8808     0.0729     2.4432     0.1976   -71.3749    19.8638    16.8037
 2542.0000    78.8194   -63.7868     8.8959     0.0729     2.4409     0.1988   -71.2032    19.4445    16.3429
 2542.5000    79.1277   -63.7170     8.8959     0.0758     2.4477     0.2000   -71.0327    19.2993    16.0051
 2543.0000    79.1333   -78.6222     8.8959     0.0728     2.4604     0.1979   -70.8609    19.0203    15.5657
 2543.5000    79.1389   -78.5523     8.8959     0.0683     2.4702     0.1991   -70.9033    18.4904    14.9307
 2544.0000    79.7514   -85.9962     8.8959     0.0652     2.4807     0.2024   -71.1191    17.9753    14.4211
 2544.5000    83.3685   -78.4108     8.8959     0.0652     2.4784     0.2048   -71.3376    17.7041    14.5416
 2545.0000    84.5789   -78.3254     8.8808     0.0637     2.4709     0.2057   -71.5562    17.9520    15.2376
 2545.5000    83.6809   -70.7767     8.8808     0.0622     2.4633     0.2048   -71.7746    18.7022    15.7720
 2546.0000    82.1443   -78.1859     8.8808     0.0621     2.4665     0.1980   -71.9931    19.5054    16.5804
 2546.5000    80.6816   -78.0984     8.8808     0.0606     2.4761     0.1874   -72.2042    20.0192    17.2522
 2547.0000    79.7822   -78.0285     8.8808     0.0516     2.4776     0.1856   -72.3563    20.2865    17.0123
 2547.5000    79.7892   -77.9587     8.8808     0.0440     2.4588     0.1886   -72.5065    19.4337    15.9664
 2548.0000    81.3023   -70.3751     8.8808     0.0395     2.4332     0.1919   -72.5924    17.5562    14.5050
 2548.5000    82.2115   -62.8090     8.8959     0.0395     2.4302     0.1949   -72.4751    16.4926    13.7221
 2549.0000    81.9160   -62.7392     8.8959     0.0426     2.4280     0.1988   -72.3146    16.2618    13.5317
 2549.5000    81.3023   -62.6687     8.8959     0.0544     2.4272     0.2015   -72.1862    16.4839    14.3990
 2550.0000    81.0236   -62.2371     8.8959     0.0694     2.4354     0.2003   -72.1898    17.4169    15.1121
 2550.5000    81.1255   -57.5693     8.8961     0.0754     2.4527     0.1955   -72.1861    19.1809    15.5393
 2551.0000    81.3362   -55.2459     8.8962     0.0679     2.4567     0.1859   -71.9704    19.7137    16.1029
 2551.5000    79.8224   -55.3351     8.8964     0.0634     2.4602     0.1796   -71.3547    19.7085    16.6601
 2552.0000    76.8324   -55.4063     8.8965     0.0635     2.4602     0.1766   -70.7889    19.2988    16.0967
 2552.5000    77.1393   -55.4776     8.8967     0.0635     2.4640     0.1817   -70.7430    18.1042    14.7148
 2553.0000    81.9643   -55.5489     8.8969     0.0650     2.4738     0.1892   -71.1234    16.4514    14.0218
 2553.5000    84.9820   -55.6222     8.8970     0.0665     2.4798     0.1961   -71.7579    15.9985    13.8277
 2554.0000    85.8927   -55.7093     8.8971     0.0695     2.4790     0.2042   -71.7548    16.1052    13.7391
 2554.5000    85.5958   -33.2918     8.8973     0.0695     2.4768     0.2081   -72.1743    16.1010    13.8373
