~VERSION INFORMATION
 VERS.                2.0:   CWLS LOG ASCII STANDARD - VERSION 2.0
 WRAP.                 NO:   ONE LINE PER DEPTH STEP
~WELL INFORMATION
#MNEM.UNIT      DATA TYPE    INFORMATION
#----------   ------------   ------------------------------
 STRT.F          190.0000:   START DEPTH
 STOP.F         2998.5000:   STOP DEPTH
 STEP.F            0.5000:   STEP LENGTH
 NULL.          -999.2500:   NO VALUE
 COMP.    FENIX & SCISSON:   COMPANY
 WELL.   FENIX "A" #52-28:   WELL
 FLD .        TEAPOT DOME:   FIELD
 LOC .      S28 T39N R78W:   LOCATION
 CNTY.            NATRONA:   COUNTY
 STAT.            WYOMING:   STATE
 CTRY. UNITED STATES OF AMERICA:   COUNTRY
 SRVC.           BIRDWELL:   SERVICE COMPANY
 DATE.        14-AUG-1977:   LOGDATE
 API .     49025104130000:   API NUMBER
~CURVE INFORMATION
#MNEM.UNIT       API CODE    CURVE DESCRIPTION
#----------   ------------   ------------------------------
 DEPT.F                  :   
 SPR .MV     05 010 01 00:   SPONTANEOUS POTENTIAL FROM RES.
 SN  .OHMM   05 040 16 00:   SHORT NORMAL 16"
 ILD .OHMM   05 120 46 00:   INDUCTION LOG DEEP
 GRD .GAPI   45 310 01 00:   GAMMA RAY FROM DENSITY LOG
 CALD.IN     45 280 60 00:   CALIPER FROM DENSITY LOG
 RHOB.G/C3   45 350 01 00:   BULK DENSITY
 CORR.G/C3   45 356 01 00:   DENSITY CORRECTION
~PARAMETER INFORMATION
#MNEM.UNIT          VALUE    DESCRIPTION
#----------   ------------   ------------------------------
 EKB .F         5026.0000:   Kelly bushing
 EGL .F         5016.0000:   Ground level
 EDF .F            0.0000:   Drilling floor
 TD  .F         3000.0000:   Total depth
 DATE.        14-AUG-1977:   Date logged
 CLNT.            A2DTECH:   Client Code
 SL  . 990' FNL & 2310' FEL:   Surface Location
 PD  .                 GL:   Permanent Datum
 EPD .F              5016:   Elevation Permanent Datum
 LMF .                 KB:   Log Measured From
 DMF .                 KB:   Drilling Measured From
 DAPD.F                10:   Feet Above Permanent Datum
 DD  .F              3000:   Depth driller
 DL  .F              3000:   Depth logger
 BLI .F              2994:   Bottom log interval
 TLI .F               214:   Top log interval
 CS1 .IN            8.625:   Casing size
 CBD1.      8.625" @ 214':   Casing driller 1
 CBL1.F               212:   Casing logger 1
 BS1 .IN            7.875:   Bit size
 BSD1.F              3000:   Depth drilled with bit1
 DFT .                KCL:   Type fluid in hole
 DFD .                8.8:   Density
 DFV .                 30:   Viscosity
 DFPH.               10.5:   pH
 DFL .               10.4:   Fluid loss
 MSS .           FLOWLINE:   Source of sample
 RMS .OHMM           0.13:   Rm
 MST .F                82:   Rm Meas. temp.
 RMF .OHMM           0.12:   Rmf
 MFST.F                72:   Rmf Meas. temp.
 RMC .OHMM           0.16:   Rmc
 MCST.F                72:   Rmc Meas. temp.
 MFSS.               MEAS:   Source Rmf.
 MCSS.               MEAS:   Source Rmc.
 TCS .HRS               4:   Time Circ. stopped
 LUN .               2958:   Logging unit number
 LUL .             CASPER:   Logging unit location
 ENGI.                LAW:   Recorded By
 WITN.         PETTINGILL:   Witnessed by
 ORIG.           5" PRINT:   Origin of data
 UWI .     49025104130000:   Unique Well ID
 DICO. A2D TECHNOLOGIES, INC.:   Digitizing Company
~OTHER INFORMATION
~A   DEPT      SPR         SN        ILD         GRD      CALD       RHOB       CORR   
# ...
 2055.5000   -22.2500     6.6610     8.7910   110.2000     8.9410     2.5500     0.0480
 2056.0000   -22.7190     6.6470     8.7910   107.6450     8.9390     2.5400     0.0410
 2056.5000   -23.3940     6.6320     8.7910   112.7760     8.9370     2.5240     0.0330
 2057.0000   -24.0690     6.6180     8.7580   115.7330     8.9350     2.5190     0.0260
 2057.5000   -24.5750     6.6040     8.7250   117.5770     8.9330     2.5090     0.0260
 2058.0000   -24.7440     6.5900     8.6920   117.5530     8.9300     2.5080     0.0280
 2058.5000   -24.9190     6.5760     8.6590   116.5390     8.9280     2.5130     0.0340
 2059.0000   -25.0970     6.5140     8.5930   113.9550     8.9260     2.5130     0.0290
 2059.5000   -25.2910     6.4400     8.4040   112.1060     8.9240     2.5110     0.0260
 2060.0000   -25.4900     6.3660     8.2140   113.2360     8.9220     2.5110     0.0270
 2060.5000   -25.6800     6.2910     8.0250   116.0390     8.9200     2.5170     0.0280
 2061.0000   -25.6030     6.2170     7.8360   117.1120     8.9170     2.5240     0.0290
 2061.5000   -25.5250     6.1430     7.6460   117.0500     8.9150     2.5270     0.0300
 2062.0000   -24.9600     6.0690     7.4650   116.3510     8.9130     2.5280     0.0300
 2062.5000   -24.2930     6.0570     7.3940   115.1150     8.9110     2.5290     0.0290
 2063.0000   -23.6200     6.0570     7.3300   113.3990     8.9090     2.5300     0.0260
 2063.5000   -22.9490     6.0570     7.3300   111.6670     8.9070     2.5250     0.0240
 2064.0000   -22.5430     6.0580     7.3300   110.0480     8.9050     2.5240     0.0280
 2064.5000   -22.6360     6.0580     7.3300   109.4620     8.9000     2.5250     0.0320
 2065.0000   -23.1530     6.0580     7.3300   111.2170     8.8920     2.5260     0.0300
 2065.5000   -24.3120     6.0430     7.3310   112.4540     8.8840     2.5240     0.0290
 2066.0000   -25.4800     6.0210     7.3310   110.8200     8.8770     2.5230     0.0280
 2066.5000   -27.1840     6.0000     7.2840   113.9570     8.8690     2.5250     0.0270
 2067.0000   -27.3040     5.9780     7.2420   116.4920     8.8610     2.5260     0.0270
 2067.5000   -26.9430     5.9570     7.1990   114.3780     8.8540     2.5250     0.0260
 2068.0000   -26.4500     5.9350     7.1570   112.4550     8.8460     2.5210     0.0250
 2068.5000   -25.6690     5.9130     7.1140   112.9080     8.8440     2.5180     0.0240
 2069.0000   -25.6870     5.8950     7.0690   115.5690     8.8440     2.5130     0.0210
 2069.5000   -25.6870     5.8590     6.9650   118.2840     8.8440     2.5010     0.0180
 2070.0000   -25.4390     5.8090     6.8540   119.5400     8.8440     2.4910     0.0200
 2070.5000   -24.8990     5.7600     6.7420   120.3290     8.8440     2.4910     0.0230
 2071.0000   -24.5080     5.7100     6.6300   118.7040     8.8440     2.4920     0.0260
 2071.5000   -25.0270     5.6610     6.5140   116.2660     8.8440     2.4950     0.0260
 2072.0000   -28.1760     5.6110     6.4220   112.6150     8.8440     2.4930     0.0260
 2072.5000   -28.6570     5.5620     6.3250   108.4590     8.8440     2.4920     0.0260
 2073.0000   -29.7990     5.5120     6.2280   105.2620     8.8440     2.4930     0.0260
 2073.5000   -30.3750     5.4710     6.1690   104.5020     8.8440     2.4870     0.0280
 2074.0000   -29.5500     5.4430     6.1690   104.5300     8.8440     2.4850     0.0280
 2074.5000   -31.6060     5.4160     6.1690   105.8730     8.8440     2.4810     0.0230
 2075.0000   -30.6030     5.3880     6.1690   108.2910     8.8440     2.4760     0.0250
 2075.5000   -28.2680     5.3460     6.1690   111.4740     8.8440     2.4820     0.0310
 2076.0000   -25.5920     5.2850     6.1690   113.2630     8.8440     2.4850     0.0260
 2076.5000   -27.5870     5.2240     6.1690   109.4960     8.8440     2.4840     0.0230
 2077.0000   -27.3550     5.1620     5.9370   105.4050     8.8460     2.4820     0.0230
 2077.5000   -27.3070     5.1010     5.6550   101.3690     8.8800     2.4820     0.0230
 2078.0000   -28.7350     5.0400     5.3830    99.2950     8.9240     2.4820     0.0270
 2078.5000   -28.6600     4.9920     5.2420    98.7300     8.9340     2.4880     0.0270
 2079.0000   -27.1200     4.9620     5.1070   100.9160     8.9030     2.4900     0.0230
 2079.5000   -26.0080     4.9150     5.0060   100.5500     8.8710     2.4820     0.0220
 2080.0000   -25.8420     4.9310     5.1280   100.7350     8.8440     2.4790     0.0280
 2080.5000   -25.7250     4.9650     5.2380   102.5200     8.8410     2.4870     0.0380
 2081.0000   -26.1380     4.9990     5.3790   102.2120     8.8380     2.5020     0.0360
 2081.5000   -27.7660     5.0340     5.5120   104.2490     8.8340     2.5040     0.0320
 2082.0000   -28.0630     5.0510     5.6330   104.0440     8.8310     2.5070     0.0390
 2082.5000   -27.9100     5.0510     5.6330   102.0390     8.8270     2.5160     0.0390
 2083.0000   -27.2140     5.0510     5.5730   101.7470     8.8240     2.5200     0.0360
 2083.5000   -26.6280     5.0510     5.5060    99.9000     8.8210     2.5160     0.0300
 2084.0000   -26.4820     4.9980     5.4320    95.3520     8.8170     2.5000     0.0190
 2084.5000   -26.3350     4.8930     5.2460    95.0100     8.8140     2.4880     0.0160
 2085.0000   -26.0600     4.7880     5.0410    94.6800     8.8100     2.4840     0.0200
 2085.5000   -25.4190     4.6830     4.8370    95.5870     8.8070     2.4860     0.0260
 2086.0000   -24.6790     4.6130     4.7240    97.0180     8.8040     2.4930     0.0320
 2086.5000   -23.1020     4.6130     4.7010   100.7190     8.8020     2.4980     0.0370
 2087.0000   -23.6760     4.6130     4.7750   107.8140     8.8000     2.4980     0.0380
 2087.5000   -24.1030     4.6890     4.8440   108.8670     8.7980     2.4980     0.0350
 2088.0000   -24.4830     4.7360     4.9150   107.4880     8.7960     2.4980     0.0320
 2088.5000   -23.9780     4.7820     4.9500   107.1090     8.7940     2.4980     0.0300
 2089.0000   -23.4570     4.8290     4.9860   107.6320     8.7920     2.4980     0.0300
 2089.5000   -21.3640     4.8750     5.0220   109.1580     8.7900     2.4980     0.0310
 2090.0000   -20.3080     4.9220     5.0570   107.2150     8.7880     2.4980     0.0320
 2090.5000   -20.2030     4.9680     5.0930   107.8570     8.7860     2.4980     0.0300
 2091.0000   -20.8170     5.0230     5.1290   111.8220     8.7840     2.5000     0.0320
 2091.5000   -22.5620     5.1150     5.3040   110.8680     8.7820     2.5010     0.0340
 2092.0000   -23.2340     5.2070     5.5740   109.3100     8.7800     2.5060     0.0400
 2092.5000   -22.8000     5.2990     5.8440   111.3050     8.7780     2.5110     0.0460
 2093.0000   -22.8550     5.3740     6.0410   113.9420     8.7760     2.5130     0.0450
 2093.5000   -22.9880     5.4700     6.1350   114.0160     8.7740     2.5110     0.0390
 2094.0000   -23.1570     5.5660     6.2280   114.9210     8.7720     2.5070     0.0360
 2094.5000   -24.0480     5.5850     6.3010   117.0840     8.7690     2.5030     0.0270
 2095.0000   -24.2370     5.5930     6.3470   112.4120     8.7670     2.4990     0.0230
 2095.5000   -24.1500     5.6000     6.3930   106.9470     8.7660     2.4990     0.0230
 2096.0000   -23.8660     5.6080     6.4550   103.4760     8.7650     2.5010     0.0240
 2096.5000   -23.5340     5.6150     6.2250   106.7530     8.7640     2.5200     0.0290
 2097.0000   -23.6640     5.6230     6.2430   109.6100     8.7630     2.5330     0.0300
 2097.5000   -23.8030     5.6310     6.2700   107.6450     8.7620     2.5340     0.0310
 2098.0000   -23.8600     5.6380     6.2980   106.0250     8.7610     2.5320     0.0360
 2098.5000   -22.7710     5.6460     6.3250   111.5920     8.7600     2.5510     0.0420
 2099.0000   -23.0900     5.6530     6.3970   109.3970     8.7590     2.5550     0.0420
 2099.5000   -24.1350     5.6610     6.5150   105.0170     8.7580     2.5530     0.0400
 2100.0000   -23.7820     5.6680     6.6940   109.7500     8.7570     2.5450     0.0390
 2100.5000   -23.3580     5.6760     6.5990   108.0200     8.7560     2.5370     0.0360
