~VERSION INFORMATION
 VERS.                2.0:   CWLS LOG ASCII STANDARD - VERSION 2.0
 WRAP.                 NO:   ONE LINE PER DEPTH STEP
~WELL INFORMATION
#MNEM.UNIT      DATA TYPE    INFORMATION
#----------   ------------   ------------------------------
 STRT.F           13.0000:   START DEPTH
 STOP.F         2858.0000:   STOP DEPTH
 STEP.F            0.5000:   STEP LENGTH
 NULL.          -999.2500:   NO VALUE
 COMP.    FENIX & SCISSON:   COMPANY
 WELL. FENIX & SCISSON "AX" #16-21:   WELL
 FLD .  TEAPOT DOME NRP-3:   FIELD
 LOC .      S21 T39N R78W:   LOCATION
 CNTY.            NATRONA:   COUNTY
 STAT.            WYOMING:   STATE
 CTRY. UNITED STATES OF AMERICA:   COUNTRY
 SRVC.           BIRDWELL:   SERVICE COMPANY
 DATE.        17-JUL-1978:   LOGDATE
 API .     49025106590000:   API NUMBER
~CURVE INFORMATION
#MNEM.UNIT       API CODE    CURVE DESCRIPTION
#----------   ------------   ------------------------------
 DEPT.F                  :   
 GRD .GAPI   45 310 01 00:   GAMMA RAY FROM DENSITY LOG
 CALD.IN     45 280 60 00:   CALIPER FROM DENSITY LOG
 CORR.G/C3   45 356 01 00:   DENSITY CORRECTION
 RHOB.G/C3   45 350 01 00:   BULK DENSITY
 SPR .MV     05 010 01 00:   SPONTANEOUS POTENTIAL FROM RES.
 ILD .OHMM   05 120 46 00:   INDUCTION LOG DEEP
 SN  .OHMM   05 041 16 00:   SHORT NORMAL 16"
~PARAMETER INFORMATION
#MNEM.UNIT          VALUE    DESCRIPTION
#----------   ------------   ------------------------------
 EKB .F         5003.0000:   Kelly bushing
 EGL .F         4993.0000:   Ground level
 EDF .F            0.0000:   Drilling floor
 EPD .F         4993.0000:   Permanent datum
 TD  .F         2858.0000:   Total depth
 CLNT.            A2DTECH:   Client Code
 SL  . 1420' FSL & 200' FWL:   Surface Location
 DATE.        17-JUL-1978:   Date Logged [DD-MMM-YYYY]
 DD  .F              2855:   Depth driller
 DL  .F              2858:   Depth logger
 BLI .F              2858:   Bottom log interval
 TLI .F                20:   Top log interval
 CS1 .              8.625:   Casing size
 CBD1.      8.625" @ 200':   Casing driller 1
 CBL1.IN              228:   Casing logger 1
 BS1 .IN            7.875:   Bit size
 BSD1.F              2855:   Depth drilled with bit1
 DFT .            MUD GEL:   Type fluid in hole
 DFD .                9.9:   Density
 DFV .                 32:   Viscosity
 DFPH.               10.5:   pH
 DFL .                7.2:   Fluid loss
 MSS .           FLOWLINE:   Source of sample
 RMS .OHMM            1.3:   Rm
 MST .F                80:   Rm Meas. temp.
 RMF .OHMM           0.77:   Rmf
 MFST.F                74:   Rmf Meas. temp.
 MFSS.               MEAS:   Source Rmf.
 RMC .OHMM            1.5:   Rmc
 MCST.F                73:   Rmc Meas. temp.
 MCSS.               MEAS:   Source Rmc.
 TCS .HRS               1:   Time Circ. stopped
 MRT .F               118:   Maximum recorded temp.
 LUN .               2958:   Logging unit number
 LUL .               CASP:   Logging unit location
 ENGI.              HONEA:   Recorded By
 WITN.           MCGINLEY:   Witnessed by
 ORIG.        2" 5" PRINT:   Origin of data
 UWI .     49025106590000:   Unique Well ID
 DICO. A2D TECHNOLOGIES, INC.:   Digitizing Company
 PD  .                 GL:   Permanent Datum
 DAPD.                 10:   Feet Above Permanent Datum
~OTHER INFORMATION
~A   DEPT       GRD      CALD       CORR       RHOB        SPR        ILD         SN   
# ...
 2151.5000    94.1884     9.7301     0.0254     2.5595   -28.2826     4.5906     5.2319
 2152.0000    93.0141     9.7317     0.0314     2.5417   -28.2843     4.6565     5.2309
 2152.5000    91.9887     9.7482     0.0315     2.5373   -28.2883     4.7233     5.2298
 2153.0000    89.7728     9.8093     0.0271     2.5440   -28.2922     4.7586     5.2648
 2153.5000    83.8367     9.8852     0.0242     2.5648   -28.2962     4.8363     5.3734
 2154.0000    84.7458     9.9314     0.0257     2.5581   -28.3001     4.8754     5.6760
 2154.5000    86.5477     9.9330     0.0288     2.5475   -28.3041     4.9204     5.8398
 2155.0000    85.6711     9.9346     0.0377     2.5397   -28.3080     4.9556     5.9945
 2155.5000    79.5821     9.9362     0.0526     2.5457   -28.3120     5.0599     6.1181
 2156.0000    83.3227     9.9379     0.0497     2.5628   -28.4592     5.2019     6.1591
 2156.5000    86.0134     9.8786     0.0498     2.5741   -28.4411     5.3479     6.1575
 2157.0000    83.2064     9.8371     0.0500     2.5734   -28.5756     5.4604     6.1563
 2157.5000    79.6471     9.8685     0.0558     2.5504   -28.8573     5.5373     6.1978
 2158.0000    90.6793     9.9448     0.0722     2.5468   -29.1396     5.5768     6.3256
 2158.5000    90.3980     9.9761     0.0797     2.5625   -29.2735     5.6167     6.4558
 2159.0000    87.2892    10.0074     0.0694     2.5897   -29.4074     5.6182     6.4990
 2159.5000    82.6924    10.0388     0.0546     2.6162   -29.3894     5.6201     6.4977
 2160.0000    82.7086    10.0552     0.0310     2.6150   -29.3749     5.6216     6.5412
 2160.5000    82.7248    10.0123     0.0073     2.5800   -29.3605     5.6231     6.6304
 2161.0000    81.5506     9.9986     0.0089     2.5478   -29.3460     5.6246     6.6748
 2161.5000    76.8050    10.0155     0.0208     2.5389   -29.3316     5.5873     6.6274
 2162.0000    77.1348    10.0617     0.0298     2.5367   -29.3171     5.5507     6.5356
 2162.5000    81.0537    10.1228     0.0328     2.5442   -29.1543     5.5143     6.4895
 2163.0000    83.9821    10.1091     0.0328     2.5599   -29.1394     5.4781     6.3996
 2163.5000    84.3104    10.0815     0.0329     2.5740   -29.1218     5.4424     6.2677
 2164.0000    77.7791    10.0831     0.0330     2.5785   -28.9590     5.3698     6.1386
 2164.5000    78.5434    10.0847     0.0284     2.5652   -28.9445     5.3346     6.0953
 2165.0000    78.4109    10.0863     0.0198     2.5541   -28.9301     5.2996     6.0109
 2165.5000    78.1254    10.0879     0.0139     2.5504   -28.9156     5.2596     6.0096
 2166.0000    80.3779    10.1040     0.0170     2.5675   -28.9012     5.1945     6.0499
 2166.5000    81.5846    10.0615     0.0318     2.5386   -28.8867     5.1605     6.0037
 2167.0000    83.8330    10.0330     0.0467     2.5283   -29.0207     5.1266     5.9649
 2167.5000    88.7599    10.0498     0.0512     2.5603   -29.0060     5.0929     5.8417
 2168.0000    90.4131    10.0663     0.0483     2.5863   -28.9911     5.0947     5.8005
 2168.5000    89.5365    10.0977     0.0410     2.5923   -28.9737     5.1311     5.7993
 2169.0000    85.9813    10.0993     0.0277     2.5908   -28.9592     5.2033     5.7981
 2169.5000    82.5749    10.1009     0.0085     2.5768   -28.9448     5.2765     5.9585
 2170.0000    79.6109    10.1174     0.0055     2.5471   -28.9303     5.3875     6.2510
 2170.5000    88.5598    10.1190     0.0190     2.5301   -28.9159     5.5009     6.5128
 2171.0000    92.1475    10.1058     0.0326     2.5227   -28.9014     5.6178     6.7857
 2171.5000   102.1340    10.1237     0.0521     2.5326   -28.8869     5.8184     6.9734
 2172.0000   108.1026    10.1685     0.0592     2.5612   -28.8724     6.1018     7.1664
 2172.5000   103.0593    10.2147     0.0519     2.5850   -28.8575     6.2731     7.2682
 2173.0000    94.1470    10.2167     0.0327     2.6082   -28.8400     6.3613     7.3631
 2173.5000    88.5085    10.1143     0.0120     2.6158   -28.8255     6.4068     7.3109
 2174.0000    86.2926     9.9970     0.0106     2.5720   -28.8111     6.4085     7.3094
 2174.5000    80.3565    10.0284     0.0092     2.5609   -28.6483     6.4103     7.4094
 2175.0000    80.3727    10.0746     0.0093     2.5587   -28.6338     6.4120     7.5623
 2175.5000    82.0259    10.0910     0.0108     2.5617   -28.6194     6.4578     7.6129
 2176.0000    89.0361    10.1075     0.0124     2.5625   -28.7537     6.5040     7.6639
 2176.5000    86.6714    10.1240     0.0169     2.5633   -28.7388     6.5504     7.6094
 2177.0000    86.9853    10.1553     0.0243     2.5611   -28.7244     6.5973     7.6079
 2177.5000    87.2992    10.1867     0.0303     2.5470   -28.8583     6.6474     7.6064
 2178.0000    85.6622    10.1883     0.0408     2.5590   -28.8402     6.6920     7.6048
 2178.5000    84.6468    10.1602     0.0453     2.5768   -28.8258     6.7402     7.6033
 2179.0000    83.2654    10.0281     0.0407     2.5962   -28.8113     6.7420     7.6542
 2179.5000    79.7749    10.0594     0.0291     2.6052   -28.7969     6.7438     7.6523
 2180.0000    81.5970    10.1354     0.0114     2.6111   -28.9344     6.7456     7.6507
 2180.5000    82.0395    10.1073     0.0041     2.6045   -28.9163     6.7474     7.6492
 2181.0000    81.1348    10.0792     0.0056     2.5644   -29.0505     6.7957     7.7535
 2181.5000    80.8815    10.0511     0.0131     2.5400   -29.0356     6.8442     7.7519
 2182.0000    82.8364    10.0675     0.0295     2.5341   -29.0207     6.8461     7.8042
 2182.5000    85.9735    10.0840     0.0355     2.5363   -29.1553     6.8950     7.8022
 2183.0000    84.3529    10.1005     0.0340     2.5639   -29.1372     6.9443     7.8007
 2183.5000    84.6708    10.1021     0.0326     2.5788   -29.1228     6.8987     7.7991
 2184.0000    85.1335    10.1037     0.0297     2.5848   -29.1083     6.9006     7.7975
 2184.5000    86.4890    10.1054     0.0239     2.5863   -29.0938     6.9029     7.7959
 2185.0000    87.2493    10.1070     0.0091     2.5871   -28.7827     6.8571     7.8033
 2185.5000    87.4144    10.1086     0.0003     2.5776   -28.6198     6.8594     7.9547
 2186.0000    87.1330    10.0954     0.0021     2.5589   -28.4570     6.8613     7.9531
 2186.5000    83.4290    10.1118     0.0159     2.5478   -28.4422     6.8631     8.0064
 2187.0000    81.3579    10.1284     0.0405     2.5382   -28.2761     6.8176     8.0047
 2187.5000    86.1401    10.1449     0.0435     2.5420   -28.4137     6.8199     7.8939
 2188.0000    84.2218    10.1468     0.0258     2.5747   -28.3956     6.7751     7.5734
 2188.5000    80.2202    10.1782     0.0229     2.5866   -28.3811     6.6391     7.3665
 2189.0000    75.3257    10.1798     0.0230     2.5919   -28.5187     6.5504     7.0675
 2189.5000    74.1515    10.1814     0.0260     2.5875   -28.5006     6.4630     6.7806
 2190.0000    74.3166    10.1830     0.0305     2.5742   -28.6350     6.1986     6.7792
 2190.5000    75.8209    10.2144     0.0321     2.5668   -28.7684     5.9970     6.7778
 2191.0000    80.7479    10.2309     0.0306     2.5653   -28.7540     5.9169     6.7764
 2191.5000    83.7403    10.2325     0.0307     2.5646   -28.8879     5.8379     6.7748
 2192.0000    89.4113    10.2490     0.0308     2.5624   -29.0218     5.8399     6.7734
 2192.5000    90.3204    10.2654     0.0309     2.5565   -29.1557     5.8016     6.8191
 2193.0000    89.8902    10.2819     0.0325     2.5536   -29.1377     5.8031     6.8174
 2193.5000    86.1862    10.2835     0.0402     2.5537   -29.1232     5.7647     6.7693
 2194.0000    91.7084    10.2852     0.0551     2.5485   -29.1088     5.7666     6.7679
 2194.5000    92.7664    10.3016     0.0637     2.5426   -29.0943     5.7284     6.5831
 2195.0000    90.6993    10.3330     0.0593     2.5627   -29.2282     5.5753     6.4032
 2195.5000    90.5576    10.3346     0.0520     2.5895   -29.2137     5.4261     6.2283
 2196.0000    89.3103    10.3214     0.0432     2.5910   -29.1988     5.2808     6.0582
 2196.5000    84.4471    10.3230     0.0314     2.5842   -29.1813     5.2461     5.8927
