~VERSION INFORMATION
 VERS.                2.0:   CWLS LOG ASCII STANDARD - VERSION 2.0
 WRAP.                 NO:   ONE LINE PER DEPTH STEP
~WELL INFORMATION
#MNEM.UNIT      DATA TYPE    INFORMATION
#----------   ------------   ------------------------------
 STRT.F            4.5000:   START DEPTH
 STOP.F         3216.0000:   STOP DEPTH
 STEP.F            0.5000:   STEP LENGTH
 NULL.          -999.2500:   NO VALUE
 COMP. LAWRENCE ALLISON & ASSCOCIATES:   COMPANY
 WELL. LAWRENCE ALLISON #38-34:   WELL
 FLD . NAVAL PET. RES. NO. 3:   FIELD
 LOC .      S34 T39N R78W:   LOCATION
 CNTY.            NATRONA:   COUNTY
 STAT.            WYOMING:   STATE
 CTRY. UNITED STATES OF AMERICA:   COUNTRY
 SRVC.      DRESSER ATLAS:   SERVICE COMPANY
 DATE.        12-OCT-1986:   LOGDATE
 API .     49025111120000:   API NUMBER
~CURVE INFORMATION
#MNEM.UNIT       API CODE    CURVE DESCRIPTION
#----------   ------------   ------------------------------
 DEPT.F                  :   
 CALD.IN     45 280 60 00:   CALIPER FROM DENSITY LOG
 RHOB.G/C3   45 350 01 00:   BULK DENSITY
 CORR.G/C3   45 356 01 00:   DENSITY CORRECTION
 CNC .DEC    42 890 01 00:   NEUTRON POROSITY
 SPR .MV     07 010 01 00:   SPONTANEOUS POTENTIAL
 TENR.LBS    06 635 01 00:   TENSION FROM RESISTIVITY
 GRR .GAPI   07 310 01 00:   GAMMA RAY FROM RESISTIVITY
 ILD .OHMM   07 120 46 00:   DEEP INDUCTION RESISTIVITY
 ILM .OHMM   07 120 44 00:   INDUCTION LOG MEDIUM RESISTIVITY
 SFL .OHMM   07 220 01 00:   SHALLOW FOCUSED LOG RESISITIVITY
~PARAMETER INFORMATION
#MNEM.UNIT          VALUE    DESCRIPTION
#----------   ------------   ------------------------------
 EKB .F         5229.5000:   Kelly bushing
 EGL .F         5217.7000:   Ground level
 TD  .F         3200.0000:   Total depth
 CLNT.            A2DTECH:   Client Code
 SL  . 1338' FWL & 132' FSL:   Surface Location
 PD  .                 GL:   Permanent Datum
 EPD .F            5217.7:   Elevation Permanent Datum
 LMF .                 KB:   Log Measured From
 DMF .                 KB:   Drilling Measured From
 DAPD.F              11.8:   Feet Above Permanent Datum
 DATE.        12-OCT-1986:   Date Logged [DD-MMM-YYYY]
 DD  .F              3200:   Depth driller
 DL  .F              3200:   Depth logger
 BLI .F              3194:   Bottom log interval
 TLI .F                 0:   Top log interval
 CS1 .IN            8.625:   Casing size
 CBD1.      8.625" @ 668':   Casing driller 1
 CBL1.F               668:   Casing logger 1
 BS1 .IN            7.875:   Bit size
 BSD1.F              3200:   Depth drilled with bit1
 DFT .        KCL POLYMER:   Type fluid in hole
 DFD .                  9:   Density
 DFV .                 36:   Viscosity
 DFPH.                9.5:   pH
 MSS .           FLOWLINE:   Source of sample
 RMS .OHMM           0.25:   Rm
 MST .F                70:   Rm Meas. temp.
 RMF .OHMM          0.191:   Rmf
 MFST.F                70:   Rmf Meas. temp.
 MFSS.               MEAS:   Source Rmf.
 RMB .OHMM          0.132:   Rm. at BHT
 BHT .F               132:   BHT.
 TCS .HRS               3:   Time Circ. stopped
 MRT .F               132:   Maximum recorded temp.
 LUN .               6274:   Logging unit number
 ENGI.             RAUTIO:   Recorded By
 ORIG.   1" 2.5" 5" PRINT:   Origin of data
 UWI .     49025111120000:   Unique Well ID
 DICO. A2D TECHNOLOGIES, INC.:   Digitizing Company
 LUL .               CLIT:   Logging unit location
 RMC .OHMM           0.31:   Rmc
 MCST.F                70:   Rmc Meas. temp.
 MCSS.               CALC:   Source Rmc.
~OTHER INFORMATION
~A    DEPT    CALD       RHOB       CORR        CNC        SPR       TENR        GRR        ILD        ILM        SFL   
# ...
 1981.0000  -999.2500  -999.2500  -999.2500  -999.2500   -69.3109   -85.4384   170.3369     9.6946    10.5386    11.7266
 1981.5000  -999.2500  -999.2500  -999.2500  -999.2500   -69.3601   -84.9978   161.8915     9.8919    10.5342    11.5506
 1982.0000  -999.2500  -999.2500  -999.2500  -999.2500   -69.4086   -84.5455   141.0440    10.0365    10.5307    12.2573
 1982.5000  -999.2500  -999.2500  -999.2500  -999.2500   -69.4598   -84.0909   115.1314    10.3815    10.5271    13.3067
 1983.0000  -999.2500  -999.2500  -999.2500  -999.2500   -69.5061   -68.4849   109.7232    10.6708    10.5236    12.1775
 1983.5000  -999.2500  -999.2500  -999.2500  -999.2500   -69.5493   -68.0303   113.7168    10.6672    10.5200    11.1082
 1984.0000  -999.2500  -999.2500  -999.2500  -999.2500   -69.4703   -67.5758   130.4101    10.5163    10.5165    10.7098
 1984.5000  -999.2500  -999.2500  -999.2500  -999.2500   -69.3915   -67.1212   128.7119    10.2243    10.5129    11.0901
 1985.0000  -999.2500  -999.2500  -999.2500  -999.2500   -69.3002   -66.6666   118.8556    10.0796    10.2138    12.2212
 1985.5000  -999.2500  -999.2500  -999.2500  -999.2500   -69.2212   -81.3637   119.6226     9.9344     9.9212    12.3895
 1986.0000  -999.2500  -999.2500  -999.2500  -999.2500   -69.1693   -80.9091   118.6020     9.6609     9.6369    11.7153
 1986.5000  -999.2500  -999.2500  -999.2500  -999.2500   -69.3604   -80.3715   115.3833     9.6369     9.3925    11.0781
 1987.0000  -999.2500  -999.2500  -999.2500  -999.2500   -69.5189   -79.9309   118.3837     9.4914     9.3490    10.6224
 1987.5000  -999.2500  -999.2500  -999.2500  -999.2500   -69.6921   -79.4904   121.9865     9.3860     9.2563    10.3281
 1988.0000  -999.2500  -999.2500  -999.2500  -999.2500   -69.8580   -79.0498   124.9869     9.3827     9.0698    10.1826
 1988.5000  -999.2500  -999.2500  -999.2500  -999.2500   -70.0291   -78.6092   127.9872     9.1951     8.8099    10.0391
 1989.0000  -999.2500  -999.2500  -999.2500  -999.2500   -70.1933   -78.1686   129.7828     9.0563     8.6772    10.1772
 1989.5000  -999.2500  -999.2500  -999.2500  -999.2500   -70.3526   -77.7272   127.9596     8.7281     8.5026    10.3170
 1990.0000  -999.2500  -999.2500  -999.2500  -999.2500   -70.3240   -77.2728   126.1446     8.3822     8.3823    10.3138
 1990.5000  -999.2500  -999.2500  -999.2500  -999.2500   -70.2912   -76.8182   126.8915     8.1495     8.3795    10.1122
 1991.0000  -999.2500  -999.2500  -999.2500  -999.2500   -70.2504   -76.3636   133.0571     8.0342     8.1468     9.8229
 1991.5000  -999.2500  -999.2500  -999.2500  -999.2500   -70.2142   -75.9091   145.1094     8.0315     7.9206     9.7473
 1992.0000  -999.2500  -999.2500  -999.2500  -999.2500   -70.1767   -75.4545   150.1946     7.9178     7.8085     9.7441
 1992.5000  -999.2500  -999.2500  -999.2500  -999.2500   -70.1391   -75.0000   143.4641     7.6980     7.5890     9.7415
 1993.0000  -999.2500  -999.2500  -999.2500  -999.2500   -70.1018   -74.5454   141.4660     7.5844     7.4748     9.7388
 1993.5000  -999.2500  -999.2500  -999.2500  -999.2500   -70.0639   -74.0909   140.8252     7.4815     7.3624     9.3382
 1994.0000  -999.2500  -999.2500  -999.2500  -999.2500   -70.0277   -73.6364   141.1084     7.4789     7.2737     9.0795
 1994.5000  -999.2500  -999.2500  -999.2500  -999.2500   -69.9886   -73.1018   139.8894     7.4763     7.3002     8.7060
 1995.0000  -999.2500  -999.2500  -999.2500  -999.2500   -69.9555   -72.6612   136.2633     7.5788     7.4066     8.5834
 1995.5000  -999.2500  -999.2500  -999.2500  -999.2500   -69.8948   -72.2206   130.8299     7.6166     7.4711     8.9551
 1996.0000  -999.2500  -999.2500  -999.2500  -999.2500   -69.8438   -71.7800   131.4207     7.7280     7.5732     9.2138
 1996.5000  -999.2500  -999.2500  -999.2500  -999.2500   -69.7896   -71.3394   134.4211     7.7842     7.6766     9.4537
 1997.0000  -999.2500  -999.2500  -999.2500  -999.2500   -69.7370   -70.8988   136.2166     7.8905     7.7814     9.5836
 1997.5000  -999.2500  -999.2500  -999.2500  -999.2500   -69.6838   -70.4545   136.8073     7.8873     7.7783     9.5806
 1998.0000  -999.2500  -999.2500  -999.2500  -999.2500   -69.6305   -70.0000   135.4457     7.9954     7.7757     9.5250
 1998.5000  -999.2500  -999.2500  -999.2500  -999.2500   -69.5790   -69.5454   131.1029     7.9924     7.8822     9.4430
 1999.0000  -999.2500  -999.2500  -999.2500  -999.2500   -69.5287   -69.0909   128.6909     7.8793     7.8793     9.3099
 1999.5000  -999.2500  -999.2500  -999.2500  -999.2500   -69.4789   -68.6364   127.1205     7.8767     7.8767     9.3068
 2000.0000  -999.2500  -999.2500  -999.2500  -999.2500   -69.4306   -68.1818   129.7607     7.8740     7.8740     9.4853
 2000.5000  -999.2500  -999.2500  -999.2500  -999.2500   -69.3824   -67.7273   134.3271     7.6834     7.6567    10.1140
 2001.0000  -999.2500  -999.2500  -999.2500  -999.2500   -69.3340   -67.2727   131.3064     7.4928     7.5499     9.6999
 2001.5000  -999.2500  -999.2500  -999.2500  -999.2500   -69.2853   -66.8182   128.2856     7.3873     7.4446     9.3027
 2002.0000  -999.2500  -999.2500  -999.2500  -999.2500   -69.2368   -66.3636   130.0840     7.2371     7.3408     9.2945
 2002.5000  -999.2500  -999.2500  -999.2500  -999.2500   -69.1898   -65.8319   130.6777     7.1356     7.2384     9.3025
 2003.0000  -999.2500  -999.2500  -999.2500  -999.2500   -69.1223   -50.2399   131.3112     7.1342     7.2374     9.4312
 2003.5000  -999.2500  -999.2500  -999.2500  -999.2500   -69.0077   -34.6478   132.1854     7.1328     7.2363     9.5627
 2004.0000  -999.2500  -999.2500  -999.2500  -999.2500   -68.8978   -49.3587   136.0732     7.1313     7.2353     9.5338
 2004.5000  -999.2500  -999.2500  -999.2500  -999.2500   -68.7820   -64.0696   133.7744     7.1299     7.2343     9.3925
 2005.0000  -999.2500  -999.2500  -999.2500  -999.2500   -68.7977   -93.9321   130.2307     7.1284     7.2333     9.1254
 2005.5000  -999.2500  -999.2500  -999.2500  -999.2500   -68.8745   -62.7240   128.2139     7.1269     7.2323     9.0425
 2006.0000  -999.2500  -999.2500  -999.2500  -999.2500   -68.9478   -32.4242   127.6024     7.1084     7.2313     9.2944
 2006.5000  -999.2500  -999.2500  -999.2500  -999.2500   -69.0192   -47.1558   128.2359     7.0019     7.1770     9.6329
 2007.0000  -999.2500  -999.2500  -999.2500  -999.2500   -69.0943   -61.8667   131.7995     6.9270     6.9336     9.9652
 2007.5000  -999.2500  -999.2500  -999.2500  -999.2500   -69.1555   -57.0739   134.8028     6.8299     6.8369     9.8269
 2008.0000  -999.2500  -999.2500  -999.2500  -999.2500   -69.2060   -25.3545   135.9988     6.7341     6.7415     9.2943
 2008.5000  -999.2500  -999.2500  -999.2500  -999.2500   -69.2496   -15.0000   136.5934     6.7327     6.7406     8.9138
 2009.0000  -999.2500  -999.2500  -999.2500  -999.2500   -69.2944   -21.7169   134.1741     6.7310     6.7397     8.4307
 2009.5000  -999.2500  -999.2500  -999.2500  -999.2500   -69.3387   -44.7632   124.5268     6.7297     6.8332     7.8636
 2010.0000  -999.2500  -999.2500  -999.2500  -999.2500   -69.3831   -44.6160   120.3012     6.8228     6.9280     7.5416
 2010.5000  -999.2500  -999.2500  -999.2500  -999.2500   -69.4272   -45.2500   119.0876     6.9168     6.9335     8.1194
 2011.0000  -999.2500  -999.2500  -999.2500  -999.2500   -69.4721   -45.2500   126.6284     6.9154     7.0232     8.4688
 2011.5000  -999.2500  -999.2500  -999.2500  -999.2500   -69.5160   -45.2500   130.7564     6.9140     7.0418     9.8216
 2012.0000  -999.2500  -999.2500  -999.2500  -999.2500   -69.5550   -45.2500   135.0852     7.0094     7.1196     9.3794
 2012.5000  -999.2500  -999.2500  -999.2500  -999.2500   -69.5561   -45.2500   137.7274     7.0080     7.1185     9.1602
 2013.0000  -999.2500  -999.2500  -999.2500  -999.2500   -69.5571   -45.2500   134.2234     7.0065     7.1175     9.1596
 2013.5000  -999.2500  -999.2500  -999.2500  -999.2500   -69.5564   -45.2500   133.4910     7.0270     7.2162     9.2246
 2014.0000  -999.2500  -999.2500  -999.2500  -999.2500   -69.5567   -45.2500   133.1607     7.1019     7.2152     9.4167
