~VERSION INFORMATION
 VERS.                2.0:   CWLS LOG ASCII STANDARD - VERSION 2.0
 WRAP.                 NO:   ONE LINE PER DEPTH STEP
~WELL INFORMATION
#MNEM.UNIT      DATA TYPE    INFORMATION
#----------   ------------   ------------------------------
 STRT.F            4.0000:   START DEPTH
 STOP.F         5696.0000:   STOP DEPTH
 STEP.F            0.5000:   STEP LENGTH
 NULL.          -999.2500:   NO VALUE
 COMP.       FLUOR DANIEL:   COMPANY
 WELL.   FLUOR "X" #72-10:   WELL
 FLD .             NPR #3:   FIELD
 LOC .      S10 T38N R78W:   LOCATION
 CNTY.            NATRONA:   COUNTY
 STAT.            WYOMING:   STATE
 CTRY. UNITED STATES OF AMERICA:   COUNTRY
 SRVC.      WESTERN ATLAS:   SERVICE COMPANY
 DATE.        26-SEP-1996:   LOGDATE
 API .     49025228080000:   API NUMBER
~CURVE INFORMATION
#MNEM.UNIT       API CODE    CURVE DESCRIPTION
#----------   ------------   ------------------------------
 DEPT.F                  :   
 GRR .GAPI   07 310 01 00:   GAMMA RAY FROM RESISTIVITY
 SPR .MV     07 010 01 00:   SPONTANEOUS POTENTIAL
 CALR.IN     07 280 01 00:   CALIPER FROM RESISTIVITY
 RD  .OHMM   07 220 10 00:   RESISTIVITY DEEP
 RS  .OHMM   07 220 09 00:   RESISTIVITY SHALLOW
 TENR.LBS    07 635 01 00:   TENSION FROM RESISTIVITY
~PARAMETER INFORMATION
#MNEM.UNIT          VALUE    DESCRIPTION
#----------   ------------   ------------------------------
 EKB .F         5178.0000:   Kelly bushing
 EGL .F         5168.0000:   Ground level
 EDF .F         5177.0000:   Drilling floor
 TD  .F         5698.0000:   Total depth
 CLNT.            A2DTECH:   Client Code
 SL  . 687' FNL & 1002' FEL:   Surface Location
 PD  .                 GL:   Permanent Datum
 EPD .F              5168:   Elevation Permanent Datum
 LMF .                 KB:   Log Measured From
 DMF .                 KB:   Drilling Measured From
 DAPD.F                10:   Feet Above Permanent Datum
 DATE.        26-SEP-1996:   Date Logged [DD-MMM-YYYY]
 DD  .F              5698:   Depth driller
 DL  .F              5697:   Depth logger
 BLI .F              5685:   Bottom log interval
 CS1 .IN            9.625:   Casing size
 CBD1.      9.625" @ 526':   Casing driller 1
 CBL1.F               526:   Casing logger 1
 BS1 .IN             8.75:   Bit size
 BSD1.F              5698:   Depth drilled with bit1
 DFT .               CHEM:   Type fluid in hole
 DFD .                9.1:   Density
 DFV .                 60:   Viscosity
 DFPH.                9.5:   pH
 DFL .                7.6:   Fluid loss
 MSS .               CIRC:   Source of sample
 RMS .OHMM           0.82:   Rm
 MST .F                64:   Rm Meas. temp.
 RMF .OHMM           0.64:   Rmf
 MFST.F                64:   Rmf Meas. temp.
 MFSS.               CALC:   Source Rmf.
 RMC .OHMM           1.08:   Rmc
 MCST.F                64:   Rmc Meas. temp.
 MCSS.               CALC:   Source Rmc.
 RMB .OHMM           0.29:   Rm. at BHT
 BHT .F               183:   BHT.
 TCS .HRS               5:   Time Circ. stopped
 MRT .F               183:   Maximum recorded temp.
 LUN .            HL-6530:   Logging unit number
 LUL .             CASPER:   Logging unit location
 ENGI.           BROWNLOW:   Recorded By
 ORIG.        2" 5" PRINT:   Origin of data
 UWI .     49025228080000:   Unique Well ID
 WITN.              HARDY:   Witnessed by
 DICO. A2D TECHNOLOGIES, INC.:   Digitizing Company
~OTHER INFORMATION
~A  DEPTH      GRR        SPR       CALR         RD         RS       TENR
# ...
 1564.0000    92.2422   -62.2143     9.3217     7.0609     5.9468   -18.7889
 1564.5000    89.2526   -62.2041     9.2777     7.2593     5.8259   -41.1193
 1565.0000    91.3891   -62.1903     9.2485     7.4134     5.9917   -70.8405
 1565.5000    93.5200   -62.2761     9.2499     7.6234     6.2048   -70.5766
 1566.0000    94.1449   -62.3169     9.3268     7.6200     6.3369   -40.3805
 1566.5000    93.5649   -62.4555     9.4037     7.4181     6.3827   -25.1769
 1567.0000    92.3882   -62.5941     9.4351     7.2165     6.1671   -39.9584
 1567.5000    92.1038   -62.5790     9.3607     7.1184     6.0000   -54.6870
 1568.0000    92.4981   -62.4134     9.3013     7.0218     5.9600   -54.4760
 1568.5000    95.1721   -62.4014     9.2706     7.0724     5.9654   -46.7686
 1569.0000    97.3030   -62.2388     9.2581     7.1230     6.0469   -38.2286
 1569.5000    98.5303   -62.1876     9.2746     7.1740     6.0485   -16.3087
 1570.0000    96.4499   -62.0612     9.2909     7.1261     6.0500    -8.6013
 1570.5000    94.3583   -61.8985     9.3075     7.1275     6.0083   -23.3883
 1571.0000    93.7784   -61.8870     9.3086     7.0304     5.8876   -38.1642
 1571.5000    95.0120   -61.8742     9.3097     6.9835     5.8820   -37.9003
 1572.0000    95.6418   -61.8595     9.3111     6.9366     5.7647   -52.7345
 1572.5000    94.4594   -61.8475     9.3123     7.0352     5.9297   -59.9700
 1573.0000    91.7635   -61.8355     9.3134     7.2345     6.0149   -22.2218
 1573.5000    89.6851   -61.8230     9.3297     7.4417     6.1443     7.9742
 1574.0000    92.7252   -61.9620     9.3311     7.6506     6.2326    15.6288
 1574.5000    95.7597   -61.7964     9.3322     7.8130     6.3221   -36.5811
 1575.0000    92.1733   -61.7844     9.3333     7.9236     6.4575   -66.3550
 1575.5000    89.7862   -61.7694     9.3193     7.9804     6.5965   -36.1062
 1576.0000    88.8994   -61.7574     9.3207     7.9823     6.5535   -28.3988
 1576.5000    89.2289   -61.7453     9.3218     7.9283     6.4204   -50.6765
 1577.0000    91.3652   -61.5827     9.3536     7.8754     6.3791   -65.4579
 1577.5000    94.0985   -61.4171     9.4304     7.7688     6.4266   -65.1941
 1578.0000    92.3138   -61.4051     9.5982     7.7166     6.4291   -49.9905
 1578.5000    88.7274   -61.3931     9.7070     7.5592     6.4316   -34.7826
 1579.0000    86.9370   -61.3810     9.7826     7.5084     6.3016   -34.5231
 1579.5000    88.1699   -61.5196     9.8443     7.4066     6.2173   -49.3573
 1580.0000    92.4693   -61.5046     9.8455     7.2555     6.1340   -49.0934
 1580.5000    94.2390   -61.6462     9.8469     7.1569     6.0492   -32.9236
 1581.0000    91.2550   -61.7902     9.7874     7.0601     5.9714   -11.1372
 1581.5000    90.9567   -62.0710     9.7128     7.0126     5.9324   -10.9261
 1582.0000    93.7152   -62.2096     9.6233     6.9655     5.8942   -10.7150
 1582.5000    94.3401   -62.3482     9.5789     7.0645     5.9382   -10.4512
 1583.0000    93.4589   -62.6496     9.5495     7.1646     5.9818   -10.2402
 1583.5000    96.2807   -62.7729     9.4888     7.3676     6.1525   -17.5781
 1584.0000   100.1360   -63.0621     9.4308     7.5243     6.2427   -32.3068
 1584.5000   101.0621   -63.1980     9.3413     7.6840     6.3752   -32.0429
 1585.0000   100.4819   -63.3363     9.1455     7.7929     6.5117   -39.3809
 1585.5000    99.6066   -63.4749     9.0860     7.9033     6.6053   -31.6207
 1586.0000    98.1230   -63.6135     9.3147     7.7959     6.7001    -1.4243
 1586.5000    96.3383   -63.5984     9.4370     7.7435     6.5193   -16.1533
 1587.0000    93.8373   -63.7370     9.5445     7.6387     6.4320   -45.9272
 1587.5000    89.4611   -63.7220     9.6062     7.5307     6.3465   -60.7086
 1588.0000    84.9655   -63.7100     9.5164     7.3813     6.3051   -52.9985
 1588.5000    84.0843   -63.6980     9.4872     7.3831     6.3082   -37.7449
 1589.0000    88.0281   -63.5324     9.5493     7.4359     6.3106   -22.5414
 1589.5000    94.9783   -63.3697     9.6261     7.4374     6.3132   -14.8340
 1590.0000    96.8080   -63.3577     9.5667     7.3874     6.2725   -22.1192
 1590.5000    95.9268   -63.1950     9.4620     7.3892     6.2749   -29.4044
 1591.0000    95.0513   -63.1175     9.4025     7.3906     6.1909   -36.6896
 1591.5000    94.1702   -62.8669     9.3734     7.3924     6.1939   -43.9280
 1592.0000    92.9878   -62.5537     9.3142     7.3939     6.1963   -44.8030
 1592.5000    93.0159   -62.2402     9.2999     7.4468     6.1987   -50.9960
 1593.0000    93.9420   -61.9242     9.2707     7.5001     6.2878   -50.7322
 1593.5000    94.2656   -61.6110     9.2403     7.6067     6.3346   -50.5212
 1594.0000    93.3901   -61.7496     9.2126     7.7145     6.3812   -42.7610
 1594.5000    92.5033   -61.8882     9.1686     7.7160     6.3837   -27.5575
 1595.0000    92.2246   -61.8731     9.1545     7.6641     6.4312   -12.3539
 1595.5000    92.5542   -62.0117     9.1408     7.6128     6.3886   -19.6402
 1596.0000    93.7868   -61.9997     9.0813     7.6145     6.4362   -26.9242
 1596.5000    95.0141   -62.2859     9.0370     7.6160     6.4387   -34.2094
 1597.0000    96.8438   -62.4275     9.0078     7.6175     6.3967   -33.9455
 1597.5000    98.6791   -62.5631     9.0395     7.6193     6.3998   -26.2369
 1598.0000    99.2984   -62.7017     9.1013     7.5158     6.4023   -18.4781
 1598.5000    96.3144   -62.9909     9.1964     7.4653     6.3605   -18.2670
 1599.0000    92.3170   -62.9758     9.3462     7.4152     6.3190   -18.0559
 1599.5000    88.5280   -62.9638     9.5898     7.3145     6.2350   -25.3411
 1600.0000    90.3633   -62.9518     9.8636     7.2654     6.2374   -55.0623
 1600.5000    90.3988   -62.9368     9.5923     7.1670     6.1545   -54.8512
 1601.0000    89.8058   -62.9248     9.3662     7.0208     6.1143   -24.4714
 1601.5000    89.5271   -62.8839     9.3083     7.0714     6.0744    -9.1941
 1602.0000    94.0733   -62.7500     9.3131     7.2215     6.1243   -38.8941
 1602.5000    97.1084   -62.5845     9.3179     7.3238     6.2508   -61.0980
 1603.0000    95.9310   -62.4219     9.3227     7.5841     6.3847   -53.2456
 1603.5000    94.1463   -62.3478     9.3278     7.6915     6.4764   -22.9758
 1604.0000    93.2651   -62.2470     9.3897     7.8004     6.5700   -37.6833
 1604.5000    91.4804   -62.2322     9.4519     7.8563     6.6183   -52.3988
 1605.0000    93.9181   -62.0696     9.4835     7.8582     6.6209   -67.0986
 1605.5000    95.7478   -62.0576     9.4697     7.8597     6.6235   -59.2462
 1606.0000    97.8843   -62.0452     9.3043     7.8069     6.5803   -51.4650
 1606.5000    98.8104   -62.1842     9.1541     7.6961     6.5373   -21.1952
 1607.0000    99.1341   -62.1692     9.0042     7.4402     6.4058   -13.4140
 1607.5000    98.4937   -62.1572     8.9446     7.3388     6.1905   -29.2358
 1608.0000    94.3597   -62.2957     8.9307     7.3406     6.1070   -50.3255
 1608.5000    94.6890   -62.4343     8.9778     7.6087     6.2819   -65.0331
 1609.0000    93.8079   -62.7235     9.0094     7.8168     6.4611   -27.1957
 1609.5000    90.2215   -63.0097     9.0868     7.8728     6.6461    -4.4221
 1610.0000    86.7659   -63.1483     9.2244     7.8743     6.6027   -19.1297
 1610.5000    85.7150   -63.2869     9.3924     7.6604     6.4692   -33.7661
 1611.0000    87.5488   -63.2719     9.5149     7.3499     6.2518   -48.4737
 1611.5000    89.6786   -63.4104     9.5617     7.0658     6.1254   -33.1963
 1612.0000    92.7119   -63.5460     9.4266     6.9307     6.0428   -17.9161
 1612.5000    97.2898   -63.5340     9.5040     6.9818     6.0458   -17.5628
 1613.0000   101.1936   -63.5226     9.7477     6.9841     6.1759   -17.2779
 1613.5000   101.8120   -63.5098     9.9914     6.9864     6.2213   -16.9930
 1614.0000    98.5253   -63.6486    10.1143     6.9404     6.1374   -31.7091
 1614.5000    95.8309   -63.7872    10.0852     6.9916     6.0558   -38.9120
 1615.0000    93.4528   -63.6215     9.8290     6.9939     6.0587   -46.1233
 1615.5000    93.4741   -63.2912     9.5727     7.0940     6.1455   -45.7672
