~VERSION INFORMATION
 VERS.                2.0:   CWLS LOG ASCII STANDARD - VERSION 2.0
 WRAP.                 NO:   ONE LINE PER DEPTH STEP
~WELL INFORMATION
#MNEM.UNIT      DATA TYPE    INFORMATION
#----------   ------------   ------------------------------
 STRT.F           12.0000:   START DEPTH
 STOP.F          900.0000:   STOP DEPTH
 STEP.F            0.5000:   STEP LENGTH
 NULL.          -999.2500:   NO VALUE
 COMP. FLUOR DANIEL - NPSOR:   COMPANY
 WELL. FLUOR NPR "X" #82-34:   WELL
 FLD .              NPR 3:   FIELD
 LOC .      S34 T39N R78W:   LOCATION
 CNTY.            NATRONA:   COUNTY
 STAT.            WYOMING:   STATE
 CTRY. UNITED STATES OF AMERICA:   COUNTRY
 SRVC.      WESTERN ATLAS:   SERVICE COMPANY
 DATE.        06-SEP-1994:   LOGDATE
 API .     49025226350000:   API NUMBER
~CURVE INFORMATION
#MNEM.UNIT       API CODE    CURVE DESCRIPTION
#----------   ------------   ------------------------------
 DEPT.F                  :   
 RILD.OHMM   07 120 46 00:   INDUCTION LOG DEEP RESISTIVITY
 TENR.LBS    07 635 01 00:   TENSION
 RILM.OHMM   07 120 44 00:   INDUCTION LOG MEDIUM RESISTIVITY
 GRR .GAPI   07 310 01 00:   GAMMA RAY FROM RESISTIVITY
~PARAMETER INFORMATION
#MNEM.UNIT          VALUE    DESCRIPTION
#----------   ------------   ------------------------------
 EKB .F         5084.0000:   Kelly bushing
 EGL .F         5074.0000:   Ground level
 EDF .F         5083.0000:   Drilling floor
 EPD .F            0.0000:   Permanent datum
 TD  .F          918.0000:   Total depth
 DATE.        06-SEP-1994:   Date logged
 CLNT.            A2DTECH:   Client Code
 SL  . 990' FNL & 330' FEL:   Surface Location
 PD  .                 GL:   Permanent Datum
 DAPD.F                10:   Feet Above Permanent Datum
 DD  .F               918:   Depth driller
 DL  .F               807:   Depth logger
 BLI .F               889:   Bottom log interval
 CS1 .IN            9.625:   Casing size
 CBD1.       9.625" @ 54':   Casing driller 1
 CBL1.F                54:   Casing logger 1
 BS1 .IN             8.75:   Bit size
 BSD1.F               918:   Depth drilled with bit1
 DFT .                AIR:   Type fluid in hole
 LUN .            HL-6321:   Logging unit number
 LUL .       ROCK SPRINGS:   Logging unit location
 ENGI.           VERCIMAK:   Recorded By
 WITN.          G. STRONG:   Witnessed by
 ORIG.           5" PRINT:   Origin of data
 UWI .     49025226350000:   Unique Well ID
 DICO. A2D TECHNOLOGIES, INC.:   Digitizing Company
~OTHER INFORMATION
~A   DEPT     RILD       TENR       RILM         GRR  
# ...
  450.0000     8.5780   -51.2550     8.5590   122.9840
  450.5000     8.5470   -51.1110     8.4990   125.9120
  451.0000     8.5150   -50.9670     8.4390   129.2340
  451.5000     8.4840   -50.8230     8.3790   131.1350
  452.0000     8.4520   -50.6800     8.3190   129.1970
  452.5000     8.4200   -50.5360     8.2580   126.1800
  453.0000     8.3890   -50.3920     8.1980   127.1880
  453.5000     8.3570   -50.2490     8.1380   128.9670
  454.0000     8.3260   -50.1050     8.0780   130.7060
  454.5000     8.2940   -49.9610     8.0180   132.3890
  455.0000     8.2620   -49.8170     7.9730   134.0770
  455.5000     8.2310   -49.6740     7.9670   135.8370
  456.0000     8.1990   -49.5300     7.9620   136.3540
  456.5000     8.1680   -49.3860     7.9560   136.2420
  457.0000     8.1360   -49.2430     7.9500   134.6570
  457.5000     8.1040   -49.0990     7.9440   133.2750
  458.0000     8.0730   -48.9550     7.9380   131.6890
  458.5000     8.0410   -48.8120     7.9310   130.8060
  459.0000     8.0100   -48.6680     7.9250   129.8750
  459.5000     7.9780   -48.5240     7.9190   128.9550
  460.0000     7.9460   -48.3800     7.9130   128.0860
  460.5000     7.9150   -48.2370     7.9070   127.2200
  461.0000     7.8830   -48.0930     7.9010   128.7310
  461.5000     7.8520   -47.9490     7.8940   131.2010
  462.0000     7.8190   -47.8060     7.8880   133.7780
  462.5000     7.7860   -47.6620     7.8820   136.6080
  463.0000     7.7520   -47.5180     7.8760   137.1850
  463.5000     7.7190   -47.3740     7.8700   135.1660
  464.0000     7.6860   -47.2310     7.8640   133.5360
  464.5000     7.6520   -47.0870     7.8590   137.6180
  465.0000     7.6190   -46.9430     7.8520   141.8870
  465.5000     7.5850   -46.8000     7.8410   142.7610
  466.0000     7.5520   -46.6560     7.8450   141.1550
  466.5000     7.5190   -46.5120     7.7640   139.8820
  467.0000     7.4860   -46.2580     7.5820   138.8490
  467.5000     7.4520   -46.0040     7.4000   140.5730
  468.0000     7.3840   -45.7500     7.2180   142.1680
  468.5000     7.1980   -45.4950     7.0360   144.0670
  469.0000     7.0120   -45.2410     6.8540   144.3300
  469.5000     6.8260   -44.9870     6.6720   144.7450
  470.0000     6.6410   -44.7330     6.4900   145.1340
  470.5000     6.4550   -44.4780     6.3250   148.2970
  471.0000     6.3250   -44.2240     6.2130   151.1790
  471.5000     6.2130   -43.9700     6.2130   151.2320
  472.0000     6.2130   -43.7150     6.2130   147.1890
  472.5000     6.2130   -43.4610     6.3270   142.9490
  473.0000     6.2600   -43.2070     6.4500   139.4350
  473.5000     6.3970   -42.9530     6.5730   137.7990
  474.0000     6.5340   -42.6980     6.6960   136.4860
  474.5000     6.6700   -42.4440     6.8190   133.1560
  475.0000     6.8070   -42.1900     6.9420   126.5670
  475.5000     6.9160   -41.9350     7.0430   124.5470
  476.0000     6.9230   -41.6810     7.0580   127.3360
  476.5000     6.9300   -41.4270     7.0730   127.8130
  477.0000     6.9360   -41.1730     7.0880   125.5890
  477.5000     6.9430   -40.9180     7.1030   124.6530
  478.0000     6.9500   -40.6640     7.1180   127.6490
  478.5000     6.9560   -40.4100     7.1330   130.2410
  479.0000     6.9630   -40.1550     7.1480   133.0410
  479.5000     6.9700   -39.9010     7.1630   132.0460
  480.0000     6.9770   -39.6470     7.1780   130.7570
  480.5000     6.9830   -39.3930     7.1930   130.0950
  481.0000     6.9900   -39.1380     7.2080   131.5640
  481.5000     6.9970   -38.8840     7.2230   132.7770
  482.0000     7.0040   -38.6300     7.2380   133.1310
  482.5000     7.0100   -38.3750     7.2540   130.4870
  483.0000     7.0170   -38.1210     7.2690   127.5610
  483.5000     7.0240   -37.8670     7.2840   125.4240
  484.0000     7.0300   -37.6120     7.2930   127.1950
  484.5000     7.0380   -37.3580     7.2820   129.6210
  485.0000     7.0310   -37.1040     7.2710   132.2320
  485.5000     7.0140   -36.8500     7.2610   133.1150
  486.0000     6.9980   -36.5950     7.2500   132.4920
  486.5000     6.9830   -36.3410     7.2390   133.3930
  487.0000     6.9670   -36.0870     7.2280   135.5790
  487.5000     6.9510   -35.8320     7.2170   134.4810
  488.0000     6.9350   -35.5780     7.2060   131.6030
  488.5000     6.9190   -35.3240     7.1960   127.6410
  489.0000     6.9040   -35.0700     7.1850   123.7260
  489.5000     6.8880   -34.8150     7.1740   122.0540
  490.0000     6.8720   -34.5610     7.1630   124.5720
  490.5000     6.8560   -34.3070     7.1520   125.6130
  491.0000     6.8410   -34.0520     7.1420   126.3130
  491.5000     6.8250   -33.7980     7.1310   128.1590
  492.0000     6.8090   -33.5440     7.1200   132.9300
  492.5000     6.7940   -33.2900     7.1090   137.5400
  493.0000     6.7780   -33.0350     7.0980   141.6060
  493.5000     6.7620   -32.7810     7.0870   141.6520
  494.0000     6.7460   -32.5270     7.0770   138.8540
  494.5000     6.7310   -32.2720     7.0660   135.4460
  495.0000     6.7150   -32.0180     7.0550   132.1010
  495.5000     6.6990   -31.7640     7.0440   128.7800
  496.0000     6.6830   -31.5100     7.0330   128.8180
  496.5000     6.6680   -31.2550     7.0230   132.2330
  497.0000     6.6520   -31.0010     7.0120   135.4520
  497.5000     6.6360   -30.7470     7.0010   136.0940
  498.0000     6.6210   -30.4920     6.9900   135.6270
  498.5000     6.6050   -30.2380     6.9790   135.6510
  499.0000     6.5900   -29.9840     6.9680   136.0640
  499.5000     6.5740   -29.7300     6.9570   136.3730
  500.0000     6.5550   -29.4750     6.9460   136.7950
  500.5000     6.5840   -29.2210     6.9360   137.2020
  501.0000     6.6190   -28.9670     6.9260   139.4410
  501.5000     6.6540   -28.7120     6.9160   141.7810
  502.0000     6.6890   -28.4580     6.9590   142.5110
  502.5000     6.7240   -28.2040     6.9990   139.2620
  503.0000     6.7600   -27.9490     7.0390   137.3050
  503.5000     6.7950   -27.6950     7.0800   139.5420
  504.0000     6.8300   -27.4410     7.1210   142.1820
  504.5000     6.8650   -27.1870     7.1620   137.8950
  505.0000     6.9010   -28.3240     7.2030   133.1460
  505.5000     6.9360   -29.8450     7.2440   128.0600
  506.0000     6.9720   -31.3660     7.2840   127.6540
  506.5000     7.0070   -32.8860     7.3250   128.7000
  507.0000     7.0390   -34.4070     7.3660   129.7130
  507.5000     7.0320   -35.9270     7.4270   130.6850
  508.0000     7.0080   -37.4480     7.3890   131.7070
  508.5000     6.9830   -38.9680     7.3150   132.3990
  509.0000     6.9590   -40.4890     7.2410   132.4270
  509.5000     6.9350   -42.0100     7.1670   132.4460
  510.0000     6.9150   -43.5300     7.0920   133.3010
  510.5000     6.8070   -45.0510     7.0180   134.3990
  511.0000     6.7170   -46.5710     6.9440   134.4090
  511.5000     6.6270   -48.0920     6.8700   133.7900
  512.0000     6.5370   -49.6120     6.7960   133.5210
  512.5000     6.4470   -51.1330     6.7220   137.6630
  513.0000     6.3570   -52.6540     6.6480   141.3270
  513.5000     6.2670   -54.1740     6.5740   143.7370
  514.0000     6.1770   -55.6950     6.4990   141.5530
  514.5000     6.1030   -57.2150     6.4380   138.0930
  515.0000     6.1320   -58.7360     6.5010   137.0440
  515.5000     6.2060   -60.2560     6.5540   137.1610
  516.0000     6.2800   -61.7770     6.6070   136.7150
  516.5000     6.3540   -63.2980     6.6600   135.3540
  517.0000     6.4280   -64.8180     6.7130   134.0870
  517.5000     6.5020   -65.7920     6.7660   132.7330
  518.0000     6.5760   -65.4550     6.8190   133.4490
  518.5000     6.6500   -65.1180     6.8720   133.7360
  519.0000     6.7240   -64.7810     6.9250   133.1500
  519.5000     6.7970   -64.4440     6.9780   132.5930
  520.0000     6.9150   -64.1070     7.0310   132.0910
  520.5000     6.9060   -63.7700     7.0840   131.5900
  521.0000     6.8850   -63.4330     7.1660   130.9140
  521.5000     6.8650   -63.0960     7.1590   132.0170
  522.0000     6.8440   -62.7590     7.1430   134.2220
  522.5000     6.8230   -62.4220     7.1270   134.0020
