~VERSION INFORMATION
 VERS.                2.0:   CWLS LOG ASCII STANDARD - VERSION 2.0
 WRAP.                 NO:   ONE LINE PER DEPTH STEP
~WELL INFORMATION
#MNEM.UNIT      DATA TYPE    INFORMATION
#----------   ------------   ------------------------------
 STRT.F           72.5000:   START DEPTH
 STOP.F         2820.0000:   STOP DEPTH
 STEP.F            0.5000:   STEP LENGTH
 NULL.          -999.2500:   NO VALUE
 COMP.          INTEX OIL:   COMPANY
 WELL. INTEX OIL AX N. P. R. #51-29:   WELL
 FLD .             TEAPOT:   FIELD
 LOC .      S29 T39N R78W:   LOCATION
 CNTY.            NATRONA:   COUNTY
 STAT.            WYOMING:   STATE
 CTRY. UNITED STATES OF AMERICA:   COUNTRY
 SRVC.       SCHLUMBERGER:   SERVICE COMPANY
 DATE.        01-MAY-1966:   LOGDATE
 API .     49025094920000:   API NUMBER
~CURVE INFORMATION
#MNEM.UNIT       API CODE    CURVE DESCRIPTION
#----------   ------------   ------------------------------
 DEPT.F                  :   
 GRD .GAPI   45 310 01 00:   GAMMA RAY FROM DENSITY LOG
 CALD.IN     45 280 60 00:   CALIPER FROM DENSITY LOG
 RHOB.G/C3   45 350 01 00:   BULK DENSITY
 CORR.G/C3   45 356 01 00:   DENSITY CORRECTION
 SPR .MV     07 010 01 00:   SPONTANEOUS POTENTIAL
 ASN .OHMM   05 041 16 00:   AMPLIFIED SHORT NORMAL 16"
 ILD .OHMM   05 120 46 00:   DEEP INDUCTION RESISTIVITY
 DT  .US/F   60 520 00 00:   DELTA TIME
~PARAMETER INFORMATION
#MNEM.UNIT          VALUE    DESCRIPTION
#----------   ------------   ------------------------------
 EKB .F         5007.3000:   Kelly bushing
 EGL .F         4997.0000:   Ground level
 EDF .F            0.0000:   Drilling floor
 TD  .F         2799.0000:   Total depth
 DATE.        01-MAY-1966:   Date logged
 CLNT.            A2DTECH:   Client Code
 PD  .                 GL:   Permanent Datum
 EPD .F              4997:   Elevation Permanent Datum
 LMF .                 KB:   Log Measured From
 DMF .                 KB:   Drilling Measured From
 DAPD.F              10.3:   Feet Above Permanent Datum
 DD  .F              2798:   Depth driller
 DL  .F              2799:   Depth logger
 BLI .F              2798:   Bottom log interval
 TLI .F                88:   Top log interval
 CS1 .IN            10.75:   Casing size
 CBD1.       10.75" @ 30':   Casing driller 1
 BS1 .IN            7.875:   Bit size
 BSD1.F              2798:   Depth drilled with bit1
 DFT .           CHEM/OIL:   Type fluid in hole
 DFD .                9.5:   Density
 DFV .                 46:   Viscosity
 DFPH.                7.2:   pH
 DFL .                7.0:   Fluid loss
 MSS .         CIRCULATED:   Source of sample
 RMS .OHMM           2.28:   Rm
 MST .F                68:   Rm Meas. temp.
 RMF .OHMM           1.32:   Rmf
 MFST.F                72:   Rmf Meas. temp.
 MFSS.                 FP:   Source Rmf.
 RMB .OHMM           1.52:   Rm. at BHT
 BHT .F               102:   BHT.
 TCS .HRS             1.5:   Time Circ. stopped
 MRT .F               102:   Maximum recorded temp.
 LUN .               4507:   Logging unit number
 LUL .               CSPR:   Logging unit location
 ENGI.               HAUG:   Recorded By
 WITN.      TUTTLE/HUDSON:   Witnessed by
 ORIG.           5" PRINT:   Origin of data
 UWI .     49025094920000:   Unique Well ID
 DICO. A2D TECHNOLOGIES, INC.:   Digitizing Company
~OTHER INFORMATION
~A   DEPT      GRD       CALD       RHOB       CORR        SPR        ASN        ILD         DT   
# ...
 2502.5000   111.9630     8.2870     2.4960    -0.0030   -30.1850     9.2050     6.1640    82.1760
 2503.0000   111.2190     8.2810     2.4870    -0.0080   -30.1070     9.4960     6.3840    81.2030
 2503.5000   111.2690     8.2760     2.4780    -0.0030   -30.4210     9.6710     6.5530    82.3670
 2504.0000   112.4810     8.2700     2.4750     0.0080   -30.9280     9.7240     6.7000    81.5010
 2504.5000   114.0470     8.2760     2.4940     0.0110   -31.1150     9.8680     6.9530    82.1990
 2505.0000   115.4640     8.2860     2.4940     0.0060   -30.8000    10.1790     7.4430    82.1870
 2505.5000   117.2530     8.2950     2.4800     0.0000   -30.3850    10.7570     8.1410    80.6900
 2506.0000   118.4060     8.3060     2.4960     0.0100   -30.3220    11.6080     8.8480    79.3140
 2506.5000   117.1290     8.2990     2.5240     0.0260   -30.5930    12.5060     9.4200    79.2150
 2507.0000   105.4270     8.2760     2.5080     0.0220   -30.9610    13.2720     9.9760    79.4140
 2507.5000   101.3920     8.2560     2.4830     0.0190   -31.4270    14.0980    10.7530    79.6120
 2508.0000    97.1430     8.2350     2.4550     0.0130   -32.1370    15.1390    11.7100    78.8710
 2508.5000    90.8170     8.2250     2.4340     0.0060   -32.9930    16.0510    12.4660    77.8000
 2509.0000    84.8050     8.2200     2.4220     0.0000   -33.7010    16.5010    12.7220    78.8480
 2509.5000    78.6270     8.2150     2.4080    -0.0070   -34.1550    16.7230    12.5880    79.6680
 2510.0000    72.2740     8.2090     2.4050     0.0000   -34.5460    17.0460    12.3530    79.5130
 2510.5000    69.1600     8.2050     2.4220     0.0110   -35.0780    17.3270    12.0950    77.5870
 2511.0000    70.8260     8.1980     2.4170     0.0050   -35.6520    17.2320    11.7010    76.1900
 2511.5000    78.7880     8.1940     2.4130    -0.0060   -35.8510    16.7050    11.1420    75.2390
 2512.0000    89.2720     8.1930     2.4240    -0.0020   -35.2590    15.7780    10.5310    76.6250
 2512.5000    98.1070     8.2450     2.4470    -0.0030   -33.9050    14.7220     9.9520    78.0220
 2513.0000   102.5200     8.2960     2.4460    -0.0050   -32.3840    13.9420     9.4350    77.9720
 2513.5000   105.8820     8.3500     2.4540    -0.0090   -31.3730    13.2750     9.0430    77.9220
 2514.0000   108.4130     8.3880     2.4530    -0.0130   -31.0250    12.6550     8.8260    78.2160
 2514.5000   110.2830     8.3890     2.4630    -0.0130   -30.9660    12.3000     8.7130    78.5070
 2515.0000   109.6860     8.3900     2.4670    -0.0080   -30.8340    12.1210     8.5650    78.5570
 2515.5000   109.1400     8.3860     2.4460    -0.0140   -30.6300    11.9520     8.3250    78.4570
 2516.0000   108.5370     8.3480     2.4420    -0.0070   -30.5310    11.8430     8.0460    78.3570
 2516.5000   109.1350     8.3150     2.4650     0.0040   -30.5720    11.6850     7.7890    78.2150
 2517.0000   110.3740     8.2790     2.4630     0.0060   -30.6530    11.3090     7.5730    78.2510
 2517.5000   111.9460     8.2430     2.4760     0.0070   -30.7270    10.9060     7.4060    78.5510
 2518.0000   113.3850     8.2280     2.4720     0.0050   -30.8200    10.6260     7.2940    79.1590
 2518.5000   114.7900     8.2290     2.4580     0.0030   -30.8930    10.2980     7.2190    80.1570
 2519.0000   114.1380     8.2290     2.4460     0.0010   -30.8220     9.9930     7.1460    81.1550
 2519.5000   113.4790     8.2290     2.4280    -0.0010   -30.5480    10.0300     7.0560    81.4100
 2520.0000   110.7140     8.2290     2.4320    -0.0030   -30.1820    10.3310     6.9570    80.5540
 2520.5000   109.6610     8.2290     2.4540    -0.0050   -29.8830    10.5140     6.8710    78.9210
 2521.0000   109.8490     8.2280     2.4700    -0.0070   -29.7180    10.5340     6.8170    77.8950
 2521.5000   109.9070     8.2390     2.4610    -0.0090   -29.6390    10.5410     6.8170    78.5360
 2522.0000   114.7320     8.2550     2.4700    -0.0030   -29.5840    10.3360     6.8690    80.0990
 2522.5000   117.0100     8.2720     2.4900    -0.0030   -29.5210     9.8550     6.9380    81.7950
 2523.0000   117.4040     8.2890     2.4830    -0.0070   -29.4440     9.5680     6.9910    83.6880
 2523.5000   113.7760     8.2990     2.4690    -0.0060   -29.3760     9.5490     7.0730    82.3640
 2524.0000   109.4700     8.3550     2.4780     0.0000   -29.3670     9.5090     7.2890    81.0040
 2524.5000   105.0190     8.3850     2.4940     0.0040   -29.4520     9.8230     7.6730    78.6620
 2525.0000   102.1240     8.3660     2.4840    -0.0020   -29.6070    10.7970     8.1440    76.6550
 2525.5000    99.2410     8.3500     2.4830    -0.0080   -29.7660    11.8960     8.6290    75.9070
 2526.0000    95.4460     8.3500     2.5080    -0.0140   -29.8950    12.7690     9.1590    74.8410
 2526.5000    90.6890     8.3490     2.5120    -0.0190   -30.0170    13.6920     9.7400    73.0280
 2527.0000    86.1720     8.3500     2.5230    -0.0250   -30.1720    14.7230    10.2050    70.6130
 2527.5000    80.1050     8.3490     2.5500    -0.0130   -30.3460    15.4340    10.3460    67.2860
 2528.0000    81.3880     8.3490     2.5660    -0.0030   -30.4690    15.6020    10.1690    65.1100
 2528.5000    86.1200     8.3490     2.5450    -0.0120   -30.4870    15.3800     9.8960    64.9010
 2529.0000    91.5880     8.3490     2.5120    -0.0140   -30.4210    14.7200     9.6990    68.9510
 2529.5000    96.8550     8.3500     2.4910    -0.0040   -30.3350    13.6510     9.5490    72.4360
 2530.0000   101.9550     8.3550     2.4950    -0.0060   -30.2710    12.8050     9.3570    74.9300
 2530.5000   103.9750     8.3620     2.5160    -0.0100   -30.2170    12.5330     9.1370    75.5720
 2531.0000   105.8830     8.3690     2.5130     0.0000   -30.1510    12.4560     8.9770    75.7890
 2531.5000   107.7220     8.3760     2.5110    -0.0020   -30.0770    12.3480     8.9100    75.6600
 2532.0000   108.9500     8.3830     2.5060    -0.0030   -30.0140    12.3280     8.8900    75.1610
 2532.5000   109.8190     8.3890     2.5080    -0.0070   -29.9580    12.4180     8.8660    74.6620
 2533.0000   108.5130     8.3780     2.5150    -0.0050   -29.8880    12.5560     8.8290    74.1630
 2533.5000   105.0650     8.3680     2.5220    -0.0010   -29.8040    12.7170     8.7940    74.0030
 2534.0000   100.4520     8.3570     2.5270     0.0020   -29.7390    12.8630     8.7590    74.1170
 2534.5000    98.7600     8.3470     2.5180    -0.0020   -29.7300    12.9310     8.7110    73.7870
 2535.0000    99.0300     8.3370     2.5150    -0.0080   -29.7760    12.9970     8.6550    73.7030
 2535.5000    99.4060     8.3260     2.5240    -0.0050   -29.8420    13.0950     8.6030    73.3100
 2536.0000    99.2430     8.3150     2.5190    -0.0030   -29.8920    13.3100     8.5540    70.9220
 2536.5000    98.3470     8.3110     2.5200    -0.0090   -29.9220    13.6650     8.4900    68.5340
 2537.0000    99.3390     8.3170     2.5250    -0.0030   -29.9590    14.0270     8.4190    66.8910
 2537.5000   100.9340     8.3220     2.5280     0.0040   -30.0200    14.1590     8.3940    67.5120
 2538.0000   104.6840     8.3280     2.5180     0.0000   -30.0820    13.9280     8.4540    70.6420
 2538.5000   109.1570     8.3340     2.5100    -0.0060   -30.0920    13.4460     8.5810    73.7480
 2539.0000   113.3760     8.3390     2.5030    -0.0130   -30.0260    12.9890     8.7230    75.9340
 2539.5000   113.7950     8.3450     2.5130    -0.0090   -29.9110    12.7670     8.8570    76.4950
 2540.0000   114.2830     8.3500     2.5280    -0.0020   -29.7760    12.7970     8.9900    76.9280
 2540.5000   112.3500     8.3560     2.5250     0.0060   -29.6250    12.9470     9.1200    76.6300
 2541.0000   109.3450     8.3610     2.5190     0.0010   -29.4740    13.0900     9.2400    75.9990
 2541.5000   107.9880     8.3670     2.5270    -0.0050   -29.3840    13.1950     9.3720    75.3830
 2542.0000   106.4670     8.3720     2.5400     0.0000   -29.4160    13.3050     9.5320    74.7660
 2542.5000   105.3410     8.3780     2.5410    -0.0060   -29.5590    13.4490     9.6680    74.6300
