~VERSION INFORMATION
 VERS.                2.0:   CWLS LOG ASCII STANDARD - VERSION 2.0
 WRAP.                 NO:   ONE LINE PER DEPTH STEP
~WELL INFORMATION
#MNEM.UNIT      DATA TYPE    INFORMATION
#----------   ------------   ------------------------------
 STRT.F          700.5000:   START DEPTH
 STOP.F         3060.0000:   STOP DEPTH
 STEP.F            0.5000:   STEP LENGTH
 NULL.          -999.2500:   NO VALUE
 COMP.    FENIX & SCISSON:   COMPANY
 WELL.   FENIX "A" #23-34:   WELL
 FLD .           N P R #3:   FIELD
 LOC .      S34 T39N R78W:   LOCATION
 CNTY.            NATRONA:   COUNTY
 STAT.            WYOMING:   STATE
 CTRY. UNITED STATES OF AMERICA:   COUNTRY
 SRVC.       SCHLUMBERGER:   SERVICE COMPANY
 DATE.        23-APR-1977:   LOGDATE
 API .     49025103590000:   API NUMBER
~CURVE INFORMATION
#MNEM.UNIT       API CODE    CURVE DESCRIPTION
#----------   ------------   ------------------------------
 DEPT.F                  :   
 ILD .OHMM   07 120 46 00:   DEEP INDUCTION RESISTIVITY
 ILM .OHMM   07 120 44 00:   INDUCTION LOG MEDIUM RESISTIVITY
 LL8 .OHMM   07 220 08 00:   LATEROLOG-8 RES.
 SPR .MV     07 010 01 00:   SPONTANEOUS POTENTIAL
 GRD .GAPI   45 310 01 00:   GAMMA RAY FROM DENSITY LOG
 CALD.IN     45 280 60 00:   CALIPER FROM DENSITY LOG
 RHOB.G/C3   45 350 01 00:   BULK DENSITY
 CORR.G/C3   45 356 01 00:   DENSITY CORRECTION
~PARAMETER INFORMATION
#MNEM.UNIT          VALUE    DESCRIPTION
#----------   ------------   ------------------------------
 EKB .F         5094.0000:   Kelly bushing
 EGL .F         5082.0000:   Ground level
 EDF .F            0.0000:   Drilling floor
 EPD .F            0.0000:   Permanent datum
 TD  .F         3051.0000:   Total depth
 DATE.        23-APR-1977:   Date logged
 CLNT.            A2DTECH:   Client Code
 SL  . 990' FWL & 1650' FNL:   Surface Location
 PD  .                 GL:   Permanent Datum
 DD  .F              3050:   Depth driller
 DL  .F              3051:   Depth logger
 BLI .F              3045:   Bottom log interval
 CS1 .IN            8.625:   Casing size
 CBD1.      8.625" @ 718':   Casing driller 1
 CBL1.F               717:   Casing logger 1
 BS1 .IN            7.875:   Bit size
 DFT .                FGM:   Type fluid in hole
 DFD .                8.8:   Density
 DFV .                 34:   Viscosity
 DFPH.                8.5:   pH
 DFL .                8.2:   Fluid loss
 MSS .           FLOWLINE:   Source of sample
 RMS .OHMM           .155:   Rm
 MST .F                66:   Rm Meas. temp.
 RMF .OHMM           .152:   Rmf
 MFST.F                66:   Rmf Meas. temp.
 MFSS.               MEAS:   Source Rmf.
 RMB .OHMM           .085:   Rm. at BHT
 BHT .F               120:   BHT.
 TCS .HRS            0230:   Time Circ. stopped
 MRT .F               120:   Maximum recorded temp.
 LUN .               5642:   Logging unit number
 LUL .               CSPR:   Logging unit location
 ENGI.             TAYLOR:   Recorded By
 WITN.         HARRINGTON:   Witnessed by
 ORIG.           5" PRINT:   Origin of data
 UWI .     49025103590000:   Unique Well ID
 DICO. A2D TECHNOLOGIES, INC.:   Digitizing Company
 DAPD.                 12:   Feet Above Permanent Datum
 BSD1.               3050:   Depth drilled with bit1
 TLI .                717:   Top log interval
 TLAB.               0530:   Time logger at bottom
~OTHER INFORMATION
~A   DEPT      ILD        ILM        LL8        SPR         GRD      CALD       RHOB       CORR   
# ...
 1470.0000     7.4200     6.1390     8.3580   -79.4870   113.4580     9.6180     2.5220     0.0240
 1470.5000     7.4460     6.1840     8.0880   -79.7240   110.8860     9.6050     2.5340     0.0220
 1471.0000     7.4720     6.2280     7.9810   -79.9620   111.8770     9.5920     2.5470     0.0300
 1471.5000     7.4980     6.2730     7.9810   -80.2070   112.7300     9.5790     2.5430     0.0310
 1472.0000     7.5240     6.3180     8.0360   -80.1430   113.5820     9.5820     2.5390     0.0250
 1472.5000     7.5490     6.3630     8.1180   -79.9960   114.4200     9.6030     2.5380     0.0210
 1473.0000     7.5750     6.4080     8.2010   -79.8460   115.5850     9.6110     2.5450     0.0290
 1473.5000     7.6010     6.4520     8.2810   -79.6960   116.9100     9.6190     2.5470     0.0250
 1474.0000     7.6210     6.4970     8.2980   -79.5460   117.5880     9.6260     2.5410     0.0200
 1474.5000     7.7660     6.5140     8.3250   -79.3960   118.5480     9.6340     2.5360     0.0160
 1475.0000     7.9070     6.8850     8.3520   -79.2460   120.2800     9.6410     2.5370     0.0170
 1475.5000     8.0490     7.2850     8.4350   -79.0960   121.5390     9.6480     2.5420     0.0280
 1476.0000     8.1910     7.7060     8.9420   -78.9460   121.9090     9.6560     2.5520     0.0410
 1476.5000     8.3330     8.0550     9.8680   -78.6800   119.8790     9.6580     2.5620     0.0350
 1477.0000     8.4740     7.8010     9.7020   -78.2900   119.8880     9.6580     2.6060     0.0660
 1477.5000     8.6160     7.5400     9.4100   -77.9020   120.5670     9.6440     2.6000     0.0550
 1478.0000     8.7580     7.2790     9.3360   -78.0510   118.8800     9.6160     2.6120     0.0660
 1478.5000     8.9000     7.2100     9.4350   -78.7360   118.1030     9.5880     2.6220     0.0730
 1479.0000     9.0410     7.2100     9.5220   -78.9160   120.2470     9.5600     2.6090     0.0380
 1479.5000     9.1660     7.2100     9.6090   -79.1120   120.5150     9.5380     2.6230     0.0370
 1480.0000     9.1660     7.2100     9.6870   -79.3100   120.1080     9.5390     2.6010     0.0530
 1480.5000     9.0570     7.2100     9.7770   -79.5040   121.0270     9.5420     2.5790     0.0490
 1481.0000     8.9350     7.2100     9.7770   -79.6650   123.4710     9.5560     2.5680     0.0420
 1481.5000     8.8140     6.8410     9.4250   -79.4560   126.7640     9.5700     2.5580     0.0350
 1482.0000     8.6930     6.4210     9.1500   -78.9270   127.0620     9.5830     2.5480     0.0320
 1482.5000     8.5720     5.9950     8.8750   -78.4030   128.5620     9.5970     2.5440     0.0340
 1483.0000     8.4510     5.9400     8.7520   -77.8780   129.6170     9.6120     2.5440     0.0570
 1483.5000     8.3580     6.2370     8.8970   -77.3540   124.2040     9.6330     2.5560     0.0750
 1484.0000     8.2810     6.6160     9.1240   -76.8320   119.7050     9.7240     2.5700     0.0940
 1484.5000     8.2810     6.9960     9.1760   -76.5020   117.0820     9.8200     2.5750     0.1220
 1485.0000     8.2810     7.3750     9.2010   -76.5720   118.0910     9.9190     2.5620     0.1060
 1485.5000     8.2810     7.7540     9.2250   -76.6330   120.5300    10.0180     2.5380     0.0640
 1486.0000     8.5630     8.0550     9.2510   -76.7220   121.7260    10.1180     2.5260     0.0220
 1486.5000     8.8480     8.0390     9.6300   -76.9930   118.7480    10.1750     2.5330     0.0150
 1487.0000     9.1330     8.0120    10.1170   -77.2680   116.4790    10.0920     2.5660     0.0490
 1487.5000     9.4170     7.9850    10.6050   -77.5410   115.4940    10.0090     2.5870     0.0700
 1488.0000     9.7770     7.9570    11.0230   -77.8360   116.5790     9.9530     2.5830     0.0620
 1488.5000     9.7010     7.9300    10.6400   -78.1520   117.6200     9.9300     2.5960     0.0500
 1489.0000     9.5580     7.9030    10.1200   -78.4680   118.1150     9.9060     2.5770     0.0380
 1489.5000     9.4160     7.8760     9.7860   -78.7840   117.7820     9.8830     2.5710     0.0410
 1490.0000     9.2740     7.8490     9.6260   -79.1020   117.9140     9.8600     2.5810     0.0590
 1490.5000     9.1310     7.7090     9.4670   -79.4240   119.0830     9.8370     2.5740     0.0490
 1491.0000     8.9890     7.4550     9.3070   -79.2610   119.9590     9.8170     2.5680     0.0400
 1491.5000     8.8460     7.2010     9.1480   -79.0280   121.0710     9.8170     2.5650     0.0390
 1492.0000     8.7040     7.0140     8.9980   -78.7920   123.1580     9.8180     2.5440     0.0280
 1492.5000     8.5610     7.0140     8.9980   -78.5540   125.3890     9.8170     2.5650     0.0360
 1493.0000     8.4190     7.0870     9.0860   -78.3080   127.6520     9.8170     2.5730     0.0460
 1493.5000     8.2810     7.2530     9.1690   -78.5160   129.9800     9.8170     2.5620     0.0420
 1494.0000     8.2810     7.4180     9.2510   -78.8190   128.2550     9.8170     2.5520     0.0360
 1494.5000     8.2810     7.4820     9.2190   -78.6060   125.9460     9.8170     2.5700     0.0410
 1495.0000     8.3580     7.4460     9.1810   -78.2810   124.0010     9.8170     2.5680     0.0510
 1495.5000     8.4530     7.3880     9.1660   -77.9350   123.1930     9.8150     2.5660     0.0410
 1496.0000     8.5480     7.3290     9.3000   -78.3060   121.2730     9.8050     2.5640     0.0290
 1496.5000     8.6440     7.2700     9.5100   -78.8520   118.0670     9.7960     2.5620     0.0310
 1497.0000     8.7390     7.2120     9.4800   -79.0800   114.8780     9.7870     2.5680     0.0170
 1497.5000     8.8340     7.1530     9.4230   -79.2970   113.1470     9.7780     2.5890     0.0250
 1498.0000     8.9150     7.0950     9.3260   -79.5130   115.4790     9.7690     2.5830     0.0390
 1498.5000     8.9150     7.0360     9.2550   -79.6230   118.8980     9.7600     2.5710     0.0370
 1499.0000     8.7590     6.9780     9.1840   -79.4690   119.5750     9.7510     2.5590     0.0350
 1499.5000     8.6420     6.8790     9.1120   -79.3230   119.5490     9.7420     2.5630     0.0420
 1500.0000     8.5250     6.7420     9.0410   -79.1780   120.5130     9.7380     2.5660     0.0530
 1500.5000     8.4080     6.6060     8.9690   -79.0320   120.9470     9.7380     2.5580     0.0570
 1501.0000     8.2910     6.4690     8.8980   -78.8860   119.8020     9.7380     2.5540     0.0520
 1501.5000     8.1740     6.3950     8.8330   -78.7400   118.9500     9.7560     2.5800     0.0760
 1502.0000     8.0570     6.6460     8.8670   -78.5940   121.2070     9.7980     2.5710     0.0640
 1502.5000     7.9400     6.8220     8.9980   -78.4480   123.2110     9.8350     2.5360     0.0370
 1503.0000     7.8230     6.8850     8.9730   -78.3030   122.2730     9.8710     2.5410     0.0370
 1503.5000     7.7630     6.9190     8.9220   -78.1560   121.0670     9.8930     2.5410     0.0350
 1504.0000     7.7630     6.9490     8.8710   -78.0090   122.2460     9.8740     2.5360     0.0250
 1504.5000     7.8350     6.9790     8.8200   -77.8900   124.1690     9.8550     2.5550     0.0310
 1505.0000     7.9190     7.0100     8.7520   -78.1420   126.4460     9.8370     2.5650     0.0400
 1505.5000     7.9960     7.2100     8.7790   -78.3920   127.6720     9.8190     2.5610     0.0490
 1506.0000     8.0730     7.1440     8.8190   -78.6400   127.1370     9.8010     2.5520     0.0400
 1506.5000     8.1290     7.1440     8.8580   -78.8870   126.4860     9.7830     2.5440     0.0290
 1507.0000     8.1290     7.1440     8.8980   -79.1340   126.7740     9.7640     2.5360     0.0190
 1507.5000     8.1290     7.1440     8.9370   -79.3930   126.3100     9.7460     2.5400     0.0220
 1508.0000     8.1290     7.1440     8.9980   -79.3440   123.2670     9.7280     2.5320     0.0190
 1508.5000     8.1290     7.1440     8.9190   -79.1730   122.3550     9.7100     2.5410     0.0170
 1509.0000     8.1290     7.1440     8.7500   -78.9980   122.2650     9.6910     2.5430     0.0260
 1509.5000     8.1820     7.1600     8.5920   -78.8230   123.3440     9.6730     2.5350     0.0170
 1510.0000     8.2620     7.1790     8.7380   -78.6480   124.4180     9.6550     2.5420     0.0290
