~VERSION INFORMATION
 VERS.                2.0:   CWLS LOG ASCII STANDARD - VERSION 2.0
 WRAP.                 NO:   ONE LINE PER DEPTH STEP
~WELL INFORMATION
#MNEM.UNIT      DATA TYPE    INFORMATION
#----------   ------------   ------------------------------
 STRT.F            0.5000:   START DEPTH
 STOP.F          582.5000:   STOP DEPTH
 STEP.F            0.5000:   STEP LENGTH
 NULL.          -999.2500:   NO VALUE
 COMP.   LAWRENCE ALLISON:   COMPANY
 WELL. LAWRANCE SHX #31-34:   WELL
 FLD .             NPR #3:   FIELD
 LOC .      S34 T39N R78W:   LOCATION
 CNTY.            NATRONA:   COUNTY
 STAT.            WYOMING:   STATE
 CTRY. UNITED STATES OF AMERICA:   COUNTRY
 SRVC.           GEARHART:   SERVICE COMPANY
 DATE.        22-SEP-1988:   LOGDATE
 API .     49025112470000:   API NUMBER
~CURVE INFORMATION
#MNEM.UNIT       API CODE    CURVE DESCRIPTION
#----------   ------------   ------------------------------
 DEPT.F                  :   
 GRR .GAPI   07 310 01 00:   GAMMA RAY FROM RESISTIVITY
 RILD.OHMM   07 120 46 00:   RESISTIVITY INDUCTION LOG DEEP
 RILM.OHMM   07 120 44 00:   RESISTIVITY INDUCTION LOG MEDIUM
 TENR.LBS    07 635 01 00:   TENSION FROM RESISTIVITY
~PARAMETER INFORMATION
#MNEM.UNIT          VALUE    DESCRIPTION
#----------   ------------   ------------------------------
 EKB .F         5075.0000:   Kelly bushing
 EGL .F         5065.0000:   Ground level
 EDF .F            0.0000:   Drilling floor
 TD  .F          577.5000:   Total depth
 CLNT.            A2DTECH:   Client Code
 PD  .                 GL:   Permanent Datum
 EPD .F              5065:   Elevation Permanent Datum
 LMF .                 KB:   Log Measured From
 DMF .                 KB:   Drilling Measured From
 DAPD.F                10:   Feet Above Permanent Datum
 DATE.        22-SEP-1988:   Date Logged [DD-MMM-YYYY]
 DD  .F               575:   Depth driller
 DL  .F             577.5:   Depth logger
 BLI .F               569:   Bottom log interval
 TLI .F                 0:   Top log interval
 CS1 .IN            9.625:   Casing size
 CBD1.       9.625" @ 50':   Casing driller 1
 CBL1.F                50:   Casing logger 1
 BS1 .IN             8.75:   Bit size
 BSD1.F               575:   Depth drilled with bit1
 DFT .                AIR:   Type fluid in hole
 TLAB.HRS            2350:   Time logger at bottom
 MRT .F                70:   Maximum recorded temp.
 LUN .               7597:   Logging unit number
 LUL .           GILLETTE:   Logging unit location
 ENGI.          HUCKFFLOT:   Recorded By
 WITN.             STRONG:   Witnessed by
 ORIG.           5" PRINT:   Origin of data
 UWI .     49025112470000:   Unique Well ID
 DICO. A2D TECHNOLOGIES, INC.:   Digitizing Company
 SL  . 324' FNL & 1963' FEL:   Surface Location
~OTHER INFORMATION
~A    DEPT      GRR      RILD       RILM       TENR   
# ...
  365.5000    79.2022    15.9086    15.0991     0.0000
  366.0000    80.4356    16.0208    14.7879     0.0000
  366.5000    82.6133    16.4700    14.4832     0.0000
  367.0000    82.8973    16.5846    14.3830     0.0000
  367.5000    82.9172    16.5846    14.4832     0.0000
  368.0000    82.6350    16.4700    14.7879     0.0000
  368.5000    81.3323    16.2431    15.3101     0.0000
  369.0000    78.1481    16.2431    15.5241     0.0000
  369.5000    77.8610    15.7987    15.4018     0.0000
  370.0000    78.1880    15.5810    15.2042     0.0000
  370.5000    79.1490    15.5810    15.0991     0.0000
  371.0000    79.4413    15.7987    15.0991     0.0000
  371.5000    79.4612    15.7987    14.9946     0.0000
  372.0000    80.0853    15.7987    14.8909     0.0000
  372.5000    82.6133    15.7987    14.6856     0.0000
  373.0000    87.9851    15.7987    14.4832     0.0000
  373.5000    89.8177    15.7987    14.5841     0.0000
  374.0000    91.0461    15.9086    14.5841     0.0000
  374.5000    91.0665    15.7987    14.5841     0.0000
  375.0000    90.4817    15.7987    14.6856     0.0000
  375.5000    88.0897    15.7987    14.7879     0.0000
  376.0000    83.8800    15.6895    14.7879     0.0000
  376.5000    82.3676    15.7987    14.7879     0.0000
  377.0000    82.7164    15.7987    14.6816     0.0000
  377.5000    83.3405    15.9086    14.5841     0.0000
  378.0000    83.3604    15.7987    14.5841     0.0000
  378.5000    83.6828    15.5810    14.6856     0.0000
  379.0000    84.6137    15.5810    14.7879     0.0000
  379.5000    87.0506    15.3664    14.8909     0.0000
  380.0000    89.4874    15.2532    14.9946     0.0000
  380.5000    90.1118    15.1547    14.8909     0.0000
  381.0000    89.5322    15.1547    14.5841     0.0000
  381.5000    89.2500    15.0500    14.3830     0.0000
  382.0000    88.6607    14.9460    14.3830     0.0000
  382.5000    88.3736    14.9460    14.2672     0.0000
  383.0000    87.1950    14.8427    14.2361     0.0000
  383.5000    86.6107    14.8427    14.2051     0.0000
  384.0000    87.8440    14.7401    14.1740     0.0000
  384.5000    88.4683    14.4366    14.1429     0.0000
  385.0000    88.7952    14.4366    14.1118     0.0000
  385.5000    87.9088    14.3368    14.0807     0.0000
  386.0000    87.3195    14.2377    14.0496     0.0000
  386.5000    85.8318    14.2377    14.0185     0.0000
  387.0000    83.7439    14.1393    13.9892     0.0000
  387.5000    83.1530    14.1393    13.6062     0.0000
  388.0000    83.8067    13.9445    13.4186     0.0000
  388.5000    85.6197    13.8481    13.1421     0.0000
  389.0000    87.1502    13.7524    13.0512     0.0000
  389.5000    88.6807    13.6574    12.9609     0.0000
  390.0000    89.6072    13.5630    12.9609     0.0000
  390.5000    89.0276    13.5630    13.0512     0.0000
  391.0000    86.3285    13.6574    13.0512     0.0000
  391.5000    82.4209    13.5630    12.9609     0.0000
  392.0000    84.0000    13.4692    12.9609     0.0000
  392.5000    90.3207    13.3762    12.9609     0.0000
  393.0000    94.5702    13.3762    12.8713     0.0000
  393.5000    97.3092    13.3762    12.6938     0.0000
  394.0000    97.3293    13.3762    12.5188     0.0000
  394.5000    95.8434    13.3762    12.4202     0.0000
  395.0000    94.9520    13.3762    12.3462     0.0000
  395.5000    94.0656    13.3762    12.3462     0.0000
  396.0000    92.5478    13.4692    12.3462     0.0000
  396.5000    89.8858    13.5630    12.5188     0.0000
  397.0000    90.2078    13.5630    12.7822     0.0000
  397.5000    91.4362    13.5630    12.9609     0.0000
  398.0000    92.3625    13.6612    13.0512     0.0000
  398.5000    91.4810    13.7524    13.2336     0.0000
  399.0000    88.4798    13.9445    13.2336     0.0000
  399.5000    88.1926    13.9445    13.2336     0.0000
  400.0000    89.1239    13.7524    13.2336     0.0000
  400.5000    95.7953    13.6574    13.2336     0.0000
  401.0000    96.7166    13.5630    13.1421     0.0000
  401.5000    95.2309    13.3762    12.9637     0.0000
  402.0000    91.0212    13.3762    12.8725     0.0000
  402.5000    90.4360    13.3762    12.8708     0.0000
  403.0000    90.1539    13.1919    12.6919     0.0000
  403.5000    90.1790    13.1919    12.4288     0.0000
  404.0000    90.1994    13.0102    12.2561     0.0000
  404.5000    90.2241    13.0102    12.1698     0.0000
  405.0000    90.5463    12.9203    12.0842     0.0000
  405.5000    91.4727    12.9203    11.9988     0.0000
  406.0000    94.5139    12.8310    11.9144     0.0000
  406.5000    98.8096    12.8203    11.9128     0.0000
  407.0000   100.2992    12.6542    11.8290     0.0000
  407.5000   100.0122    12.6542    11.8274     0.0000
  408.0000    98.5267    12.6996    11.7438     0.0000
  408.5000    96.1200    12.9289    11.6612     0.0000
  409.0000    92.5295    13.0844    11.6597     0.0000
  409.5000    90.7369    13.2661    11.7392     0.0000
  410.0000    90.4498    13.7333    11.8193     0.0000
  410.5000    95.6109    14.3230    12.1495     0.0000
  411.0000    96.8399    15.6654    13.2096     0.0000
  411.5000    96.2602    17.2616    14.5917     0.0000
  412.0000    94.4676    19.2861    16.1356     0.0000
  412.5000    88.4454    20.9585    18.5753     0.0000
  413.0000    80.0062    22.8429    22.6535     0.0000
  413.5000    73.9890    25.0963    28.0791     0.0000
  414.0000    71.2900    26.7110    30.5100     0.0000
  414.5000    69.7995    27.4606    31.6606     0.0000
  415.0000    69.2103    28.4408    32.8762     0.0000
  415.5000    71.4108    29.4283    34.0919     0.0000
  416.0000    76.5112    29.6317    35.3076     0.0000
  416.5000    77.4376    29.6292    36.2568     0.0000
  417.0000    76.5514    29.2192    36.7579     0.0000
  417.5000    72.9460    28.7849    35.9957     0.0000
  418.0000    71.1534    28.0241    33.3493     0.0000
  418.5000    71.4789    27.0672    29.4343     0.0000
  419.0000    74.5201    26.5081    29.6351     0.0000
  419.5000    79.1784    25.4108    29.8373     0.0000
  420.0000    81.5139    24.3876    27.2622     0.0000
  420.5000    81.5340    24.0501    25.2578     0.0000
  421.0000    80.3456    24.0485    24.7349     0.0000
  421.5000    77.9487    24.0469    25.0768     0.0000
  422.0000    75.5569    24.0450    25.4235     0.0000
  422.5000    73.1550    23.8772    25.7749     0.0000
  423.0000    74.0864    23.8756    25.9500     0.0000
  423.5000    74.4086    23.7091    26.1270     0.0000
  424.0000    72.8782    23.2107    25.2330     0.0000
  424.5000    71.1255    22.4261    24.0350     0.0000
  425.0000    72.0569    22.1157    22.7357     0.0000
  425.5000    75.0981    21.5092    21.6373     0.0000
  426.0000    78.7435    20.9193    20.9153     0.0000
  426.5000    82.1329    19.7886    20.6247     0.0000
  427.0000    82.7162    19.7984    20.4795     0.0000
  427.5000    81.8299    19.8163    20.4768     0.0000
  428.0000    78.8288    19.8341    20.3321     0.0000
  428.5000    77.9425    19.8520    20.3294     0.0000
  429.0000    78.5718    19.8698    20.3268     0.0000
  429.5000    81.9151    19.8877    20.3241     0.0000
  430.0000    82.5394    19.9055    20.3213     0.0000
  430.5000    81.3510    19.9234    20.4594     0.0000
  431.0000    78.8943    19.9412    20.4570     0.0000
  431.5000    76.5623    19.9591    20.4540     0.0000
  432.0000    76.2753    19.9769    20.4513     0.0000
  432.5000    79.9257    19.9948    20.3881     0.0000
  433.0000    83.2691    20.0126    20.3041     0.0000
  433.5000    86.3153    20.0305    20.3015     0.0000
  434.0000    86.6375    20.0444    20.2988     0.0000
  434.5000    84.5427    20.0430    20.2955     0.0000
  435.0000    81.2395    20.1812    20.2928     0.0000
  435.5000    79.7490    19.7641    20.2902     0.0000
  436.0000    82.1910    19.6262    20.2875     0.0000
  436.5000    82.5132    19.6249    20.1447     0.0000
  437.0000    82.2261    19.4876    20.1415     0.0000
  437.5000    81.0427    19.4864    19.9997     0.0000
  438.0000    79.8147    19.4851    19.9971     0.0000
