~VERSION INFORMATION
 VERS.                2.0:   CWLS LOG ASCII STANDARD - VERSION 2.0
 WRAP.                 NO:   ONE LINE PER DEPTH STEP
~WELL INFORMATION
#MNEM.UNIT      DATA TYPE    INFORMATION
#----------   ------------   ------------------------------
 STRT.F          186.0000:   START DEPTH
 STOP.F         3060.0000:   STOP DEPTH
 STEP.F            0.5000:   STEP LENGTH
 NULL.          -999.2500:   NO VALUE
 COMP.    FENIX & SCISSON:   COMPANY
 WELL. FENIX NPR 3 "AX" #63-29:   WELL
 FLD .              N P R:   FIELD
 LOC .      S29 T39N R78W:   LOCATION
 CNTY.            NATRONA:   COUNTY
 STAT.            WYOMING:   STATE
 CTRY. UNITED STATES OF AMERICA:   COUNTRY
 SRVC.           BIRDWELL:   SERVICE COMPANY
 DATE.        28-FEB-1978:   LOGDATE
 API .     49025105960000:   API NUMBER
~CURVE INFORMATION
#MNEM.UNIT       API CODE    CURVE DESCRIPTION
#----------   ------------   ------------------------------
 DEPT.F                  :   
 CALD.IN     45 280 60 00:   CALIPER FROM DENSITY LOG
 GRD .GAPI   45 310 01 00:   GAMMA RAY FROM DENSITY LOG
 DEN .LBS    07 635 01 00:   
 CORR.G/C3   45 356 01 00:   DENSITY CORRECTION
 SPR .MV     05 010 01 00:   SPONTANEOUS POTENTIAL
 SN  .OHMM   05 040 00 00:   SHORT NORMAL
 ILD .OHMM   05 120 46 00:   DEEP INDUCTION RESISTIVITY
~PARAMETER INFORMATION
#MNEM.UNIT          VALUE    DESCRIPTION
#----------   ------------   ------------------------------
 EKB .F         4993.0000:   Kelly bushing
 EGL .F         4983.0000:   Ground level
 EDF .F            0.0000:   Drilling floor
 TD  .F         3060.0000:   Total depth
 DATE.        28-FEB-1978:   Date logged
 CLNT.            A2DTECH:   Client Code
 SL  . 1300' FNL & 1050' FEL:   Surface Location
 PD  .                 GL:   Permanent Datum
 DD  .F              3060:   Depth driller
 DL  .F              3056:   Depth logger
 BLI .F              5050:   Bottom log interval
 CS1 .IN            8.625:   Casing size
 CBD1.      8.625" @ 214':   Casing driller 1
 CBL1.F               218:   Casing logger 1
 BS1 .IN            7.875:   Bit size
 DFT .     LIGNOSULFONATE:   Type fluid in hole
 DFD .                  9:   Density
 DFV .                 34:   Viscosity
 DFPH.               10.5:   pH
 DFL .                  9:   Fluid loss
 MSS .           FLOWLINE:   Source of sample
 RMS .OHMM            1.8:   Rm
 MST .F                58:   Rm Meas. temp.
 RMF .OHMM             .9:   Rmf
 MFST.F                65:   Rmf Meas. temp.
 RMC .OHMM            2.5:   Rmc
 MCST.F                70:   Rmc Meas. temp.
 MFSS.               MEAS:   Source Rmf.
 RMB .OHMM             88:   Rm. at BHT
 BHT .F               118:   BHT.
 TCS .HRS               8:   Time Circ. stopped
 MRT .F               118:   Maximum recorded temp.
 LUN .               2959:   Logging unit number
 LUL .               CASP:   Logging unit location
 ENGI.             MILLER:   Recorded By
 WITN.         HARRINGTON:   Witnessed by
 ORIG.           5" PRINT:   Origin of data
 UWI .     49025105960000:   Unique Well ID
 DICO. A2D TECHNOLOGIES, INC.:   Digitizing Company
 BSD1.F              3060:   Depth drilled with bit1
 EPD .F              4983:   Elevation Permanent Datum
 LMF .                 KB:   Log Measured From
 DMF .                 KB:   Drilling Measured From
 TLI .F               800:   Top log interval
~OTHER INFORMATION
~A   DEPT     CALD         GRD       DEN       CORR        SPR         SN        ILD   
# ...
  413.5000    11.0370    78.9510     2.4870     0.0260  -999.2500  -999.2500  -999.2500
  414.0000    11.0380    80.2290     2.4800     0.0300  -999.2500  -999.2500  -999.2500
  414.5000    11.0380    82.3650     2.4730     0.0280  -999.2500  -999.2500  -999.2500
  415.0000    11.0390    83.7370     2.4690     0.0250  -999.2500  -999.2500  -999.2500
  415.5000    11.0400    79.9530     2.4750     0.0230  -999.2500  -999.2500  -999.2500
  416.0000    11.0410    76.9320     2.4880     0.0240  -999.2500  -999.2500  -999.2500
  416.5000    11.0420    77.0510     2.4890     0.0270  -999.2500  -999.2500  -999.2500
  417.0000    11.0430    79.5740     2.4880     0.0300  -999.2500  -999.2500  -999.2500
  417.5000    11.0430    81.8440     2.4870     0.0330  -999.2500  -999.2500  -999.2500
  418.0000    11.0440    84.3070     2.4880     0.0340  -999.2500  -999.2500  -999.2500
  418.5000    11.0450    85.8720     2.4960     0.0320  -999.2500  -999.2500  -999.2500
  419.0000    11.0460    84.0050     2.5040     0.0300  -999.2500  -999.2500  -999.2500
  419.5000    11.0470    79.9090     2.5080     0.0270  -999.2500  -999.2500  -999.2500
  420.0000    11.0470    75.2650     2.5090     0.0250  -999.2500  -999.2500  -999.2500
  420.5000    11.0480    74.5550     2.5000     0.0220  -999.2500  -999.2500  -999.2500
  421.0000    11.0490    75.0470     2.4850     0.0200  -999.2500  -999.2500  -999.2500
  421.5000    11.0500    76.4310     2.4800     0.0180  -999.2500  -999.2500  -999.2500
  422.0000    11.0510    77.6150     2.4800     0.0190  -999.2500  -999.2500  -999.2500
  422.5000    11.0510    77.5010     2.4790     0.0220  -999.2500  -999.2500  -999.2500
  423.0000    11.0520    74.9590     2.4650     0.0250  -999.2500  -999.2500  -999.2500
  423.5000    11.0530    72.6670     2.4580     0.0280  -999.2500  -999.2500  -999.2500
  424.0000    11.0540    72.9530     2.4570     0.0310  -999.2500  -999.2500  -999.2500
  424.5000    11.0550    73.3980     2.4630     0.0340  -999.2500  -999.2500  -999.2500
  425.0000    11.0550    73.9800     2.4690     0.0370  -999.2500  -999.2500  -999.2500
  425.5000    11.0560    74.4700     2.4750     0.0400  -999.2500  -999.2500  -999.2500
  426.0000    11.0570    75.0360     2.4810     0.0430  -999.2500  -999.2500  -999.2500
  426.5000    11.0580    75.7360     2.4830     0.0460  -999.2500  -999.2500  -999.2500
  427.0000    11.0590    76.4240     2.4820     0.0460  -999.2500  -999.2500  -999.2500
  427.5000    11.0590    77.1190     2.4800     0.0410  -999.2500  -999.2500  -999.2500
  428.0000    11.0600    77.8130     2.4910     0.0360  -999.2500  -999.2500  -999.2500
  428.5000    11.0610    78.5030     2.5100     0.0320  -999.2500  -999.2500  -999.2500
  429.0000    11.0620    79.1890     2.5150     0.0270  -999.2500  -999.2500  -999.2500
  429.5000    11.0620    79.9010     2.5090     0.0220  -999.2500  -999.2500  -999.2500
  430.0000    11.0630    80.5650     2.5040     0.0220  -999.2500  -999.2500  -999.2500
  430.5000    11.0640    81.1780     2.4960     0.0240  -999.2500  -999.2500  -999.2500
  431.0000    11.0650    80.6250     2.4860     0.0250  -999.2500  -999.2500  -999.2500
  431.5000    11.0660    80.0780     2.4770     0.0270  -999.2500  -999.2500  -999.2500
  432.0000    11.0660    79.4840     2.4780     0.0280  -999.2500  -999.2500  -999.2500
  432.5000    11.0670    78.9120     2.4820     0.0300  -999.2500  -999.2500  -999.2500
  433.0000    11.0680    78.3250     2.4870     0.0350  -999.2500  -999.2500  -999.2500
  433.5000    11.0690    77.7720     2.4910     0.0390  -999.2500  -999.2500  -999.2500
  434.0000    11.0700    77.2600     2.4960     0.0450  -999.2500  -999.2500  -999.2500
  434.5000    11.0700    77.9860     2.5010     0.0430  -999.2500  -999.2500  -999.2500
  435.0000    11.0710    79.0920     2.5030     0.0370  -999.2500  -999.2500  -999.2500
  435.5000    11.0720    79.6900     2.5020     0.0300  -999.2500  -999.2500  -999.2500
  436.0000    11.0730    79.6220     2.4990     0.0300  -999.2500  -999.2500  -999.2500
  436.5000    11.0740    79.6380     2.4970     0.0310  -999.2500  -999.2500  -999.2500
  437.0000    11.0740    79.6090     2.4930     0.0330  -999.2500  -999.2500  -999.2500
  437.5000    11.0750    79.9850     2.4890     0.0270  -999.2500  -999.2500  -999.2500
  438.0000    11.0760    80.6860     2.4840     0.0210  -999.2500  -999.2500  -999.2500
  438.5000    11.0760    81.3350     2.4770     0.0180  -999.2500  -999.2500  -999.2500
  439.0000    11.0760    82.0060     2.4760     0.0250  -999.2500  -999.2500  -999.2500
  439.5000    11.0760    84.1020     2.4790     0.0300  -999.2500  -999.2500  -999.2500
  440.0000    11.0760    91.0210     2.4810     0.0360  -999.2500  -999.2500  -999.2500
  440.5000    11.0760    89.6540     2.4780     0.0420  -999.2500  -999.2500  -999.2500
  441.0000    11.0760    87.0920     2.4770     0.0460  -999.2500  -999.2500  -999.2500
  441.5000    11.0760    84.3610     2.4850     0.0470  -999.2500  -999.2500  -999.2500
  442.0000    11.0760    83.2710     2.4930     0.0410  -999.2500  -999.2500  -999.2500
  442.5000    11.0760    83.2370     2.5020     0.0340  -999.2500  -999.2500  -999.2500
  443.0000    11.0650    83.2280     2.5070     0.0300  -999.2500  -999.2500  -999.2500
  443.5000    11.0510    83.2210     2.5020     0.0320  -999.2500  -999.2500  -999.2500
  444.0000    11.0380    83.2170     2.4980     0.0340  -999.2500  -999.2500  -999.2500
  444.5000    11.0240    82.4810     2.4990     0.0300  -999.2500  -999.2500  -999.2500
  445.0000    11.0110    81.4370     2.5040     0.0240  -999.2500  -999.2500  -999.2500
  445.5000    10.9970    80.4050     2.5090     0.0180  -999.2500  -999.2500  -999.2500
  446.0000    10.9830    79.9980     2.5030     0.0140  -999.2500  -999.2500  -999.2500
  446.5000    10.9700    80.1590     2.4960     0.0170  -999.2500  -999.2500  -999.2500
  447.0000    10.9570    80.4210     2.4880     0.0210  -999.2500  -999.2500  -999.2500
  447.5000    10.9590    80.6850     2.4830     0.0250  -999.2500  -999.2500  -999.2500
  448.0000    10.9610    80.9430     2.4800     0.0290  -999.2500  -999.2500  -999.2500
  448.5000    10.9630    81.1770     2.5000     0.0330  -999.2500  -999.2500  -999.2500
  449.0000    10.9660    81.6450     2.5100     0.0370  -999.2500  -999.2500  -999.2500
  449.5000    10.9680    82.5850     2.5120     0.0400  -999.2500  -999.2500  -999.2500
  450.0000    10.9710    83.4470     2.5140     0.0410  -999.2500  -999.2500  -999.2500
  450.5000    10.9730    84.3840     2.5160     0.0370  -999.2500  -999.2500  -999.2500
  451.0000    10.9760    85.2130     2.5190     0.0350  -999.2500  -999.2500  -999.2500
  451.5000    10.9780    85.8550     2.5210     0.0320  -999.2500  -999.2500  -999.2500
  452.0000    10.9810    83.7760     2.5250     0.0290  -999.2500  -999.2500  -999.2500
  452.5000    10.9830    81.8760     2.5290     0.0260  -999.2500  -999.2500  -999.2500
  453.0000    10.9860    79.8850     2.5240     0.0280  -999.2500  -999.2500  -999.2500
  453.5000    10.9880    78.1220     2.5180     0.0330  -999.2500  -999.2500  -999.2500
  454.0000    10.9910    78.2030     2.5110     0.0270  -999.2500  -999.2500  -999.2500
  454.5000    10.9930    78.3000     2.5070     0.0220  -999.2500  -999.2500  -999.2500
  455.0000    10.9960    78.4810     2.5070     0.0180  -999.2500  -999.2500  -999.2500
  455.5000    10.9980    78.6220     2.5070     0.0180  -999.2500  -999.2500  -999.2500
  456.0000    11.0000    78.7730     2.5060     0.0180  -999.2500  -999.2500  -999.2500
  456.5000    11.0030    78.9320     2.5010     0.0190  -999.2500  -999.2500  -999.2500
  457.0000    11.0050    79.0550     2.4970     0.0210  -999.2500  -999.2500  -999.2500
  457.5000    11.0080    79.2080     2.4940     0.0220  -999.2500  -999.2500  -999.2500
  458.0000    11.0100    78.4090     2.5060     0.0230  -999.2500  -999.2500  -999.2500
  458.5000    11.0130    77.2480     2.5110     0.0240  -999.2500  -999.2500  -999.2500
