~VERSION INFORMATION
 VERS.                2.0:   CWLS LOG ASCII STANDARD - VERSION 2.0
 WRAP.                 NO:   ONE LINE PER DEPTH STEP
~WELL INFORMATION
#MNEM.UNIT      DATA TYPE    INFORMATION
#----------   ------------   ------------------------------
 STRT.F            0.5000:   START DEPTH
 STOP.F         4149.0000:   STOP DEPTH
 STEP.F            0.5000:   STEP LENGTH
 NULL.          -999.2500:   NO VALUE
 COMP. LAWRENCE ALLISON & ASSOSCIATES:   COMPANY
 WELL. LAWRENCE "X" #34-3:   WELL
 FLD .             NPR #3:   FIELD
 LOC .       S3 T38N R78W:   LOCATION
 CNTY.            NATRONA:   COUNTY
 STAT.            WYOMING:   STATE
 CTRY. UNITED STATES OF AMERICA:   COUNTRY
 SRVC.      DRESSER ATLAS:   SERVICE COMPANY
 DATE.        19-NOV-1983:   LOGDATE
 API .     49025109500000:   API NUMBER
~CURVE INFORMATION
#MNEM.UNIT       API CODE    CURVE DESCRIPTION
#----------   ------------   ------------------------------
 DEPT.F                  :   
 CALD.IN     45 280 60 00:   CALIPER FROM DENSITY LOG
 TEND.LBS    45 635 01 00:   TENSION FORM DENSITY LOG
 DEN .G/C3   45 350 01 00:   BULK DENSITY
 CNC .DEC    42 890 01 00:   NEUTRON POROSITY LIMESTONE
 CORR.G/C3   45 356 01 00:   DENSITY CORRECTION
 TENR.LBS    06 635 01 00:   TENSION FROM RESISTIVITY
 GRR .GAPI   07 310 01 00:   GAMMA RAY FROM RESISTIVITY
 RFOC.OHMM   07 220 04 00:   RESISTIVITY FOCUSED LOG RES.
 RILD.OHMM   07 120 46 00:   DEEP INDUCTION RESISTIVITY
 RILM.OHMM   07 120 44 00:   INDUCTION LOG MEDIUM RESISTIVITY
 SPR .MV     07 010 01 00:   SPONTANEOUS POTENTIAL
 TENS.LBS    60 635 01 00:   TENSION FROM SONIC
 DT  .US/F   60 520 00 00:   DELTA TIME
~PARAMETER INFORMATION
#MNEM.UNIT          VALUE    DESCRIPTION
#----------   ------------   ------------------------------
 EKB .F         5187.0000:   Kelly bushing
 EGL .F         5174.0000:   Ground level
 TD  .F         4140.0000:   Total depth
 CLNT.            A2DTECH:   Client Code
 SL  . 1621' FWL & 1958' FNL:   Surface Location
 PD  .                 GL:   Permanent Datum
 EPD .F              5174:   Elevation Permanent Datum
 LMF .                 KB:   Log Measured From
 DMF .                 KB:   Drilling Measured From
 DAPD.F                13:   Feet Above Permanent Datum
 DATE.        19-NOV-1983:   Date Logged [DD-MMM-YYYY]
 DD  .F              4136:   Depth driller
 DL  .F              4140:   Depth logger
 BLI .F              4138:   Bottom log interval
 TLI .F                 0:   Top log interval
 CS1 .IN            8.625:   Casing size
 CBD1.      8.625" @ 615':   Casing driller 1
 CBL1.F               615:   Casing logger 1
 BS1 .IN            7.875:   Bit size
 BSD1.F              4136:   Depth drilled with bit1
 DFT .            GEL-KCL:   Type fluid in hole
 DFD .                  9:   Density
 DFV .                 45:   Viscosity
 DFPH.                8.5:   pH
 DFL .                 12:   Fluid loss
 MSS .           FLOWLINE:   Source of sample
 RMS .OHMM          0.768:   Rm
 MST .F                74:   Rm Meas. temp.
 RMF .OHMM          0.576:   Rmf
 MFST.F                74:   Rmf Meas. temp.
 MFSS.               CALC:   Source Rmf.
 RMC .OHMM           0.96:   Rmc
 MCST.F                74:   Rmc Meas. temp.
 MCSS.               CALC:   Source Rmc.
 RMB .OHMM          0.418:   Rm. at BHT
 BHT .F               136:   BHT.
 TCS .HRS               4:   Time Circ. stopped
 MRT .F               136:   Maximum recorded temp.
 LUN .               6307:   Logging unit number
 LUL .               GLTE:   Logging unit location
 ENGI.           FAHLSING:   Recorded By
 WITN.           JENNINGS:   Witnessed by
 ORIG.      2.5" 5" PRINT:   Origin of data
 UWI .     49025109500000:   Unique Well ID
 DICO. A2D TECHNOLOGIES, INC.:   Digitizing Company
~OTHER INFORMATION
~A    DEPT    CALD       TEND        DEN        CNC       CORR       TENR         GRR      RFOC       RILD       RILM        SPR       TENS         DT   
# ...
 2704.5000     8.8429     0.0000     2.5325     0.1971     0.0143    16.5124   119.4833     8.1405     7.3616     7.4375   -85.8670   -43.2812    74.6567
 2705.0000     8.8432     0.0000     2.5295     0.2025     0.0142    16.9754   123.7055     7.2134     6.6191     6.5897   -85.8521   -43.7500    76.3590
 2705.5000     8.8337     0.0000     2.5220     0.2037     0.0152     9.7222   130.7095     6.3466     6.0797     5.8385   -86.1480   -36.4113    79.0668
 2706.0000     8.8331     0.0000     2.5084     0.2049     0.0261     2.4991   135.9904     5.4267     5.3893     5.3519   -86.4409   -36.8750    81.2332
 2706.5000     8.8325     0.0000     2.5009     0.2061     0.0253     2.9321   134.6320     5.1272     4.9501     5.0530   -86.5784   -37.3438    83.6316
 2707.0000     8.8320     0.0000     2.5009     0.2061     0.0148     3.3988   128.7003     5.3159     4.8470     4.9950   -86.8713   -37.8125    84.4058
 2707.5000     8.8312     0.0000     2.4993     0.2061    -0.0079     3.8580   121.8540     6.3563     4.9178     5.2160   -87.1642   -38.2812    84.6386
 2708.0000     8.8307     0.0000     2.4753     0.2037    -0.0661     4.3211   124.6114     6.6863     5.0649     5.5641   -87.6097   -38.7500    83.4019
 2708.5000     8.8301     0.0000     2.4483     0.2001    -0.1039     4.8608   131.9420     6.8316     5.2936     5.8932   -88.5161   -47.1125    82.3972
 2709.0000     8.8295     0.0000     2.4483     0.1905    -0.1121     5.2470   135.3853     6.9330     5.6740     6.1974   -88.8052   -47.5746    81.1605
 2709.5000     8.8289     0.0000     2.4500     0.1744    -0.1034     5.7605   137.6854     7.5019     6.0937     6.4709   -88.7784   -40.1089    80.0011
 2710.0000     8.8283     0.0000     2.4653     0.1564    -0.0883     6.2102   134.7263     8.4724     6.5443     6.8536   -88.4734   -40.6866    78.3003
 2710.5000     8.8277     0.0000     2.4769     0.1499    -0.0754     6.6358   115.0751     9.5005     6.9291     7.1561   -88.4615   -41.1489    77.0005
 2711.0000     8.8271     0.0000     2.4811     0.1511    -0.0694    -0.6061    96.3386     9.7793     7.2329     7.4719   -88.1446   -41.6110    75.2289
 2711.5000     8.8266     0.0000     2.4810     0.1534    -0.0623    -5.3415    95.4374     9.5078     7.6040     7.6989   -87.5229   -42.0312    73.2575
 2712.0000     8.8260     0.0000     2.4792     0.1558    -0.0557    -7.4225   102.0463     9.2437     7.8812     8.0307   -86.7488   -42.5355    72.9481
 2712.5000     8.8254     0.0000     2.4779     0.1576    -0.0613    -6.9445   106.9742     8.9872     8.1107     8.2668   -86.1271   -42.9688    74.5723
 2713.0000     8.8248     0.0000     2.4779     0.1631    -0.0721    -6.4102   107.3681     8.9976     8.4664     8.6316   -85.8102   -43.4375    75.0364
 2713.5000     8.8242     0.0000     2.4763     0.1714    -0.0782    -5.9604   105.5523     9.2553     8.7130     8.8848   -85.6458   -43.9220    75.3458
 2714.0000     8.8236     0.0000     2.4759     0.1732    -0.0799    -5.5105   105.3371     9.6638     8.7154     9.0150   -85.7863   -44.3842    75.5005
 2714.5000     8.8230     0.0000     2.4770     0.1664    -0.0756    -5.0926   104.6680    10.0903     8.7068     8.8278   -85.6219   -44.8465    75.5778
 2715.0000     8.8225     0.0000     2.4845     0.1606    -0.0726    -4.6296   101.9375    10.2392     8.5972     8.6437   -85.6098   -45.3125    75.3458
 2715.5000     8.8219     0.0000     2.4770     0.1587    -0.0863    -4.1611    93.2620    10.3903     8.4782     8.4025   -85.4227   -45.7812    74.8044
 2716.0000     8.8213     0.0000     2.4677     0.1533    -0.0860    -3.7036    88.2450    10.3943     8.1271     8.0537   -85.2782   -46.2500    73.4895
 2716.5000     8.8207     0.0000     2.4696     0.1537    -0.0661    -3.2408    97.1761    10.1057     7.6801     7.6092   -85.2662   -38.9983    71.9427
 2717.0000     8.8201     0.0000     2.4760     0.1603    -0.0488    -2.7740   106.1073     9.6860     7.0542     7.1832   -85.4097   -39.4606    70.5505
 2717.5000     8.8195     0.0000     2.4739     0.1663    -0.0475    -2.2493   112.0659     9.0057     6.7616     6.8830   -85.2423   -31.9946    69.6997
 2718.0000     8.8189     0.0000     2.4709     0.1814    -0.0476    -1.7620   117.1098     7.4437     6.6676     6.7949   -85.2303   -40.3848    70.2411
 2718.5000     8.8183     0.0000     2.4699     0.1869    -0.0237    -1.3889   119.8672     7.0846     6.6699     6.8956   -85.6757   -48.5938    73.7989
 2719.0000     8.8178     0.0000     2.4733     0.1852    -0.0088    -0.8996   119.8811     7.6121     6.8155     7.0979   -85.9686   -49.0625    78.0528
 2719.5000     8.8172     0.0000     2.4851     0.1793    -0.0029    -0.4629   113.0378     8.2957     6.9667     7.4112   -86.1121   -49.5841    79.5223
 2720.0000     8.8166     0.0000     2.4981     0.1749    -0.0300     0.0000   103.4476     8.9125     7.1809     7.6832   -86.2500   -50.0462    78.2075
 2720.5000     8.8160     0.0000     2.4915     0.1820    -0.1049     0.4629   103.6897     9.4396     7.4820     7.7964   -86.3902   -50.4688    76.8153
 2721.0000     8.8154     0.0000     2.4854     0.1840    -0.1079    -7.2399   106.2184     9.8562     7.5369     7.6339   -86.9918   -50.9707    75.9645
 2721.5000     8.8148     0.0000     2.4823     0.1845    -0.1080   -14.0826   109.8904     9.8713     7.3800     7.6365   -87.6182   -51.4328    77.2020
 2722.0000     8.8183     0.0000     2.4832     0.1822    -0.1051   -13.5203   113.5625     9.1812     7.5416     7.8605   -88.4854   -51.8750    77.8981
 2722.5000     8.8479     0.0000     2.4937     0.1773    -0.0902   -13.0703   114.0299     8.7867     7.8166     8.2104   -88.9307   -52.3573    78.2848
 2723.0000     8.9070     0.0000     2.5003     0.1811    -0.0633   -12.6206   111.3028     8.5595     8.1016     8.4482   -89.2237   -52.8194    78.7489
 2723.5000     8.9308     0.0000     2.5069     0.1873    -0.0245   -12.1706   108.5724     8.6858     8.2785     8.5734   -89.0593   -53.2817    78.9035
 2724.0000     8.9302     0.0000     2.5098     0.1918    -0.0186   -11.7209   106.2993     9.0692     8.3399     8.5764   -88.7424   -45.9313    77.8981
 2724.5000     8.9296     0.0000     2.5053     0.1869    -0.0366   -11.2655   104.9406     9.4694     8.4017     8.4577   -87.5110   -46.4062    77.0473
 2725.0000     8.9290     0.0000     2.4933     0.1765    -0.0636   -18.5185   104.4969     9.7463     8.4040     8.4304   -86.8893   -46.8750    76.1965
 2725.5000     8.9284     0.0000     2.4842     0.1735    -0.0547   -18.0557   104.5107     9.4758     8.2877     8.3429   -86.1151   -47.4335    75.8098
 2726.0000     8.9278     0.0000     2.4782     0.1729    -0.0458   -17.5252   105.0154     9.1481     8.2213     8.2275   -85.6458   -39.9677    75.0364
 2726.5000     8.9272     0.0000     2.4737     0.1725    -0.0489   -17.0752   106.0352     8.7058     8.0599     8.1144   -85.3290   -40.5454    74.2630
 2727.0000     8.9266     0.0000     2.4706     0.1770    -0.0579   -18.7602   109.1274     8.5857     7.9484     8.0020   -85.3149   -41.0075    74.5723
 2727.5000     8.9260     0.0000     2.4706     0.1810    -0.0939   -24.0042   111.4274     8.5898     7.8389     7.8914   -85.3049   -41.4699    75.4231
 2728.0000     8.9254     0.0000     2.4735     0.1837    -0.1060   -23.4419   112.1235     8.5931     7.7305     7.6698   -85.4456   -41.9320    76.1192
 2728.5000     8.9249     0.0000     2.4750     0.1855    -0.1091   -22.9939   108.2498     8.7199     7.4098     7.4449   -85.5860   -42.3438    76.4286
 2729.0000     8.9243     0.0000     2.4749     0.1873    -0.1091   -22.5309   109.6386     8.8486     7.3068     7.3553   -85.2662   -34.9284    76.8926
 2729.5000     8.9237     0.0000     2.4734     0.1889    -0.1002   -22.0678   111.4813     9.1082     7.4139     7.6806   -85.2543   -27.6936    77.5114
 2730.0000     8.9231     0.0000     2.4719     0.1884    -0.0823   -21.6049   111.9488     9.2427     7.6298     7.9059   -85.3977   -28.1944    77.9754
