~VERSION INFORMATION
 VERS.                2.0:   CWLS LOG ASCII STANDARD - VERSION 2.0
 WRAP.                 NO:   ONE LINE PER DEPTH STEP
~WELL INFORMATION
#MNEM.UNIT      DATA TYPE    INFORMATION
#----------   ------------   ------------------------------
 STRT.F          629.0000:   START DEPTH
 STOP.F         4090.0000:   STOP DEPTH
 STEP.F            0.5000:   STEP LENGTH
 NULL.          -999.2500:   NO VALUE
 COMP. LAWRENCE ALLISON & ASSOCIATES:   COMPANY
 WELL. LAWRENCE NPR 3 "SHX" #36-10:   WELL
 FLD .      NPR - WILDCAT:   FIELD
 LOC .      S10 T38N R78W:   LOCATION
 CNTY.            NATRONA:   COUNTY
 STAT.            WYOMING:   STATE
 CTRY. UNITED STATES OF AMERICA:   COUNTRY
 SRVC.      DRESSER ATLAS:   SERVICE COMPANY
 DATE.        24-DEC-1981:   LOGDATE
 API .     49025108310000:   API NUMBER
~CURVE INFORMATION
#MNEM.UNIT       API CODE    CURVE DESCRIPTION
#----------   ------------   ------------------------------
 DEPT.F                  :   
 DT  .US/F   60 520 00 00:   DELTA TIME
 TENS.LBS    60 635 01 00:   TENSION FROM SONIC
 GRR .GAPI   07 310 01 00:   GAMMA RAY FROM RESISTIVITY
 SPR .MV     07 010 01 00:   SPONTANEOUS POTENTIAL
 RFOC.OHMM   07 220 04 00:   RESISTIVITY FOCUSED LOG RES.
 RILM.OHMM   07 120 44 00:   INDUCTION LOG MEDIUM RESISTIVITY
 RILD.OHMM   07 120 46 00:   DEEP INDUCTION RESISTIVITY
 TENR.LBS    07 635 01 00:   TENSION FROM RESISTIVITY
 NPHI.DEC    42 890 03 00:   NEUTRON POROSITY SANDSTONE
 RHOB.G/C3   45 350 01 00:   BULK DENSITY
 CORR.G/C3   45 356 01 00:   DENSITY CORRECTION
 TEND.LBS    45 635 01 00:   TENSION FROM DENSITY LOG
 CALD.IN     45 280 60 00:   CALIPER FROM DENSITY LOG
~PARAMETER INFORMATION
#MNEM.UNIT          VALUE    DESCRIPTION
#----------   ------------   ------------------------------
 EKB .F         5234.0000:   Kelly bushing
 EGL .F         5224.0000:   Ground level
 EDF .F         5233.0000:   Drilling floor
 EPD .F            0.0000:   Permanent datum
 TD  .F         4100.0000:   Total depth
 DATE.        24-DEC-1981:   Date logged
 CLNT.            A2DTECH:   Client Code
 SL  . 1798' FSL & 1455' FWL:   Surface Location
 PD  .                 GL:   Permanent Datum
 DAPD.F                10:   Feet Above Permanent Datum
 DD  .F              4100:   Depth driller
 DL  .F              4082:   Depth logger
 BLI .F              4074:   Bottom log interval
 TLI .F              2300:   Top log interval
 CS1 .IN            9.625:   Casing size
 CBD1.      9.625" @ 650':   Casing driller 1
 BS1 .IN            7.875:   Bit size
 BSD1.F              4100:   Depth drilled with bit1
 DFT .            KCL/GEL:   Type fluid in hole
 DFD .                9.1:   Density
 DFV .                 60:   Viscosity
 DFPH.                  8:   pH
 DFL .                 12:   Fluid loss
 MSS .           FLOWLINE:   Source of sample
 RMS .OHMM           .536:   Rm
 RMF .OHMM           .402:   Rmf
 RMC .OHMM            067:   Rmc
 MFSS.               CALC:   Source Rmf.
 MCSS.               CALC:   Source Rmc.
 RMB .OHMM            .35:   Rm. at BHT
 BHT .F               135:   BHT.
 TCS .HRS               6:   Time Circ. stopped
 MRT .F               141:   Maximum recorded temp.
 LUL .               GLT1:   Logging unit location
 UWI .     49025108310000:   Unique Well ID
 DICO. A2D TECHNOLOGIES, INC.:   Digitizing Company
~OTHER INFORMATION
~A   DEPT       DT       TENS         GRR       SPR       RFOC       RILM       RILD       TENR       NPHI       RHOB       CORR       TEND       CALD   
# ...
 2423.0000    87.2920   -74.8250   125.7690   -31.7930     5.1340     4.9480     4.2200   -85.1960     0.2710     2.5090     0.0100   -96.3300     8.4600
 2423.5000    85.5960   -74.8250   121.3130   -31.8650     5.6370     5.1580     4.5330   -85.0870     0.2650     2.5090    -0.0020   -97.7500     8.4600
 2424.0000    86.4220   -74.8250   116.8820   -31.9360     6.1400     5.1510     4.5270   -84.9770     0.2630     2.5080     0.0010   -99.1700     8.4550
 2424.5000    87.8200   -74.8250   114.7950   -32.0070     6.4940     5.1300     4.5160   -84.8680     0.2720     2.5060     0.0190  -100.5900     8.4500
 2425.0000    89.4470   -74.8250   116.6170   -32.0830     6.2030     5.1080     4.5040   -84.8730     0.2810     2.5040     0.0370  -102.0100     8.4450
 2425.5000    91.0730   -74.8250   118.3960   -31.9640     5.7850     5.0870     4.4930   -84.9280     0.2930     2.5020     0.0420  -103.4300     8.4410
 2426.0000    93.0130   -74.8250   120.0160   -31.8050     5.3680     5.0630     4.4810   -84.9820     0.2930     2.4990     0.0410  -104.8500     8.4400
 2426.5000    92.5150   -74.8250   118.1150   -31.6450     4.7470     5.0630     4.4700   -85.0370     0.2770     2.4930     0.0280   -98.4230     8.4400
 2427.0000    91.1950   -74.8250   116.0900   -31.4850     5.0280     5.0630     4.4580   -85.0910     0.2630     2.5000     0.0120   -88.4830     8.4400
 2427.5000    89.5330   -74.8250   114.0900   -31.3250     5.5950     5.1150     4.4500   -85.1460     0.2560     2.5130    -0.0020   -78.5430     8.4400
 2428.0000    87.9980   -74.8250   112.1040   -31.1650     6.4940     5.1110     4.5180   -85.2010     0.2640     2.5260     0.0070   -75.3490     8.4400
 2428.5000    88.9740   -76.1860   111.0970   -31.0050     6.2520     5.1100     4.6470   -85.2550     0.2710     2.5340     0.0190   -77.0460     8.4540
 2429.0000    89.8800   -81.1710   111.3290   -30.8900     5.7920     5.1100     4.7760   -85.3100     0.2830     2.5300     0.0320   -83.2580     8.4700
 2429.5000    89.7600   -86.1560   110.5440   -31.1190     5.2050     5.1100     4.9060   -85.3640     0.2950     2.5260     0.0340   -89.4710     8.4850
 2430.0000    89.4990   -91.1410   109.7610   -31.3460     5.4950     5.1100     5.0030   -85.4190     0.3000     2.5360     0.0190   -95.3090     8.5010
 2430.5000    88.7440   -96.1260   108.9890   -31.5710     5.8880     5.1100     4.8550   -85.4740     0.3020     2.5460     0.0040   -95.3090     8.5170
 2431.0000    88.7700  -101.1110   108.7800   -31.7960     6.2020     5.1100     4.7130   -85.5280     0.3040     2.5530     0.0030   -95.3090     8.5320
 2431.5000    89.1860  -104.8430   109.1820   -32.0210     6.2020     5.1100     4.5700   -85.5830     0.3060     2.5580     0.0310   -94.6690     8.5480
 2432.0000    90.0750  -104.7940   112.1910   -32.2460     5.8690     5.1040     4.4500   -85.6370     0.2990     2.5540     0.0590   -93.6850     8.5600
 2432.5000    92.4250  -104.7450   116.2990   -32.4690     5.4260     5.0630     4.4500   -85.6920     0.3140     2.5500     0.0860   -92.7010     8.5560
 2433.0000    92.6350  -104.6960   120.4090   -32.4460     4.9840     5.0210     4.4500   -85.7470     0.2990     2.5450     0.0780   -91.7170     8.5530
 2433.5000    92.4360  -104.6470   123.0690   -32.3900     4.8800     4.9800     4.4500   -85.8010     0.2990     2.5480     0.0640   -90.7320     8.5500
 2434.0000    90.4810  -104.5980   121.5500   -32.3300     5.4090     4.9710     4.4910   -85.8560     0.2830     2.5620     0.0510   -89.7480     8.5470
 2434.5000    88.1700  -104.5490   117.4120   -32.1800     5.9550     5.2340     4.5980   -85.9100     0.2640     2.5770     0.0590   -88.7640     8.5430
 2435.0000    86.6770  -104.5000   114.6870   -31.7620     6.5010     5.5740     4.8840   -85.9650     0.2630     2.5910     0.0680   -87.7800     8.5400
 2435.5000    86.5530  -104.4510   115.4800   -31.3560     7.0560     5.9150     5.1690   -86.0200     0.2740     2.5860     0.0660   -86.7960     8.5370
 2436.0000    86.9690  -104.4030   116.1970   -30.9510     6.8920     6.2590     5.4510   -86.0740     0.2830     2.5760     0.0480   -85.8120     8.5340
 2436.5000    87.2240  -104.3540   116.8870   -30.5550     6.6820     6.3180     5.6320   -86.1290     0.2800     2.5650     0.0300   -84.8270     8.5300
 2437.0000    86.8720  -104.3050   115.8370   -30.4390     6.4940     6.3780     5.8150   -86.1830     0.2750     2.5620     0.0340   -83.8430     8.5270
 2437.5000    86.5200  -104.2560   114.6570   -31.0030     6.4350     6.4370     5.9990   -86.2380     0.2700     2.5640     0.0440   -82.8590     8.5240
 2438.0000    86.1680  -104.2070   112.4520   -31.5420     6.5750     6.4970     6.1450   -86.2930     0.2670     2.5650     0.0520   -81.8750     8.5210
 2438.5000    86.1430  -104.1580   110.3210   -32.0740     6.7490     6.5560     6.1450   -86.3470     0.2710     2.5640     0.0550   -80.8910     8.5170
 2439.0000    86.2010  -104.1090   107.3470   -32.0910     6.9680     6.6150     6.1450   -86.4020     0.2750     2.5530     0.0400   -79.9070     8.5140
 2439.5000    86.2600  -104.0600   102.5060   -32.0740     6.9270     6.6770     6.1450   -86.4560     0.2790     2.5400     0.0210   -78.9220     8.5110
 2440.0000    85.9580  -104.0110    97.6810   -32.0600     6.9920     6.6770     6.1450   -86.5110     0.2690     2.5250    -0.0470   -77.9380     8.5080
 2440.5000    85.0720  -103.9620    95.3000   -32.0460     7.0140     6.6770     6.1450   -86.5660     0.2630     2.5100    -0.0650   -76.9540     8.5040
 2441.0000    84.7360  -103.9130   101.5920   -32.0320     7.1160     6.6560     6.1450   -86.6200     0.2620     2.5040    -0.0630   -75.9700     8.5010
 2441.5000    84.8470  -103.8650   106.4600   -32.0180     7.2170     6.6230     6.1450   -86.6750     0.2570     2.5110    -0.0330   -73.8190     8.4980
 2442.0000    84.9580  -103.8160   107.3960   -32.0040     7.2540     6.5900     6.0050   -86.7290     0.2540     2.5190    -0.0030   -69.6770     8.4950
 2442.5000    85.0680  -103.7670   108.1680   -31.9900     7.0950     6.5580     5.9060   -86.7840     0.2560     2.5240     0.0270   -65.5360     8.4910
 2443.0000    84.9210  -103.7180   109.0270   -31.9770     6.8450     6.5250     5.8060   -86.8390     0.2620     2.5260     0.0460   -61.3940     8.4880
 2443.5000    84.5950  -103.6690   111.5850   -31.9630     6.5960     6.4920     5.7060   -86.8930     0.2680     2.5280     0.0620   -57.2520     8.4850
 2444.0000    82.0080  -103.6200   114.1180   -31.9490     6.2590     6.4590     5.6060   -86.9480     0.2710     2.5390     0.0630   -53.1100     8.4820
 2444.5000    78.5640  -103.5710   115.9290   -31.9350     6.4640     6.4260     5.5060   -87.0020     0.2690     2.5510     0.0420   -48.9690     8.4780
 2445.0000    76.8870  -103.5220   110.0070   -31.9210     6.7780     6.3930     5.4070   -87.0570     0.2470     2.5630     0.0250   -45.4090     8.4750
 2445.5000    77.5520  -103.4730   106.7990   -31.9080     7.0910     6.3490     5.3070   -87.1120     0.2350     2.5670     0.0140   -49.5300     8.4720
 2446.0000    80.9590  -103.4240   110.2960   -31.8940     7.3210     6.2470     5.2540   -87.1660     0.2530     2.5610     0.0110   -53.9160     8.4690
 2446.5000    84.3650  -103.3760   111.8630   -31.7030     7.0180     6.1450     5.2540   -87.2210     0.2730     2.5540     0.0080   -58.3010     8.4650
 2447.0000    86.4050  -103.3270   111.2300   -31.4830     6.7780     6.0430     5.2540   -87.2750     0.2920     2.5520     0.0040   -62.6860     8.4620
 2447.5000    87.9320  -103.2780   110.6520   -31.2630     6.5390     5.9410     5.2540   -87.3300     0.3090     2.5450     0.0020   -67.0720     8.4590
 2448.0000    89.4580  -103.2290   113.5970   -31.0420     6.2990     5.8680     5.2540   -87.3850     0.2990     2.5360     0.0020   -71.4570     8.4560
 2448.5000    89.9700  -103.1800   116.3070   -30.8220     6.0590     5.8140     5.2540   -87.4390     0.2910     2.5310     0.0110   -75.2480     8.4520
