~VERSION INFORMATION
 VERS.                2.0:   CWLS LOG ASCII STANDARD - VERSION 2.0
 WRAP.                 NO:   ONE LINE PER DEPTH STEP
~WELL INFORMATION
#MNEM.UNIT      DATA TYPE    INFORMATION
#----------   ------------   ------------------------------
 STRT.F          216.0000:   START DEPTH
 STOP.F         3184.0000:   STOP DEPTH
 STEP.F            0.5000:   STEP LENGTH
 NULL.          -999.2500:   NO VALUE
 COMP.    FENIX & SCISSON:   COMPANY
 WELL. FENIX & SCISSON INCNRP "A" #311-14:   WELL
 FLD .                NPR:   FIELD
 LOC .      S14 T38N R78W:   LOCATION
 CNTY.            NATRONA:   COUNTY
 STAT.            WYOMING:   STATE
 CTRY. UNITED STATES OF AMERICA:   COUNTRY
 SRVC.              WELEX:   SERVICE COMPANY
 DATE.        22-JUN-1977:   LOGDATE
 API .     49025103810000:   API NUMBER
~CURVE INFORMATION
#MNEM.UNIT       API CODE    CURVE DESCRIPTION
#----------   ------------   ------------------------------
 DEPT.F                  :   
 CALD.IN     45 280 60 00:   CALIPER FROM DENSITY LOG
 GRD .GAPI   45 310 01 00:   GAMMA RAY FROM DENSITY LOG
 DPHI.DEC    45 890 12 00:   DENSITY POROSITY SANDSTONE
 RHOB.G/C3   45 350 01 00:   BULK DENSITY
 CORR.G/C3   45 356 01 00:   DENSITY CORRECTION
 SPR .MV     07 010 01 00:   SPONTANEOUS POTENTIAL
 SFLU.OHMM   07 220 01 00:   SPHERICALLY FOCUSED LOG UNAVERAGED RESISTIVITY
 ILD .OHMM   07 120 46 00:   DEEP INDUCTION RESISTIVITY
 ILM .OHMM   07 120 44 00:   INDUCTION LOG MEDIUM RESISTIVITY
~PARAMETER INFORMATION
#MNEM.UNIT          VALUE    DESCRIPTION
#----------   ------------   ------------------------------
 EKB .F         5225.0000:   Kelly bushing
 EGL .F         5215.0000:   Ground level
 TD  .F         3183.0000:   Total depth
 DATE.        22-JUN-1977:   Date logged
 CLNT.            A2DTECH:   Client Code
 CTRY.                USA:   Country
 SL  . 330' FNL & 330' FWL:   Surface Location
 PD  .                 GL:   Permanent Datum
 EPD .F              5215:   Elevation Permanent Datum
 LMF .                 KB:   Log Measured From
 DMF .                 KB:   Drilling Measured From
 DAPD.F                10:   Feet Above Permanent Datum
 DD  .F              3178:   Depth driller
 DL  .F              3183:   Depth logger
 BLI .F              3181:   Bottom log interval
 TLI .F                20:   Top log interval
 CS1 .IN            8.625:   Casing size
 CBD1.      8.625" @ 217':   Casing driller 1
 BS1 .IN            7.875:   Bit size
 BSD1.F              3178:   Depth drilled with bit1
 DFT .            KCL MUD:   Type fluid in hole
 DFD .                9.5:   Density
 DFV .                 40:   Viscosity
 DFPH.                7.5:   pH
 DFL .               13.6:   Fluid loss
 MSS .           FLOWLINE:   Source of sample
 RMS .OHMM            .36:   Rm
 MST .F                80:   Rm Meas. temp.
 RMF .OHMM            .30:   Rmf
 MFST.F                80:   Rmf Meas. temp.
 RMC .OHMM            .86:   Rmc
 MCST.F                80:   Rmc Meas. temp.
 MFSS.               FANN:   Source Rmf.
 MCSS.                KIT:   Source Rmc.
 RMB .OHMM            .25:   Rm. at BHT
 BHT .F               114:   BHT.
 TCS .HRS             2.5:   Time Circ. stopped
 MRT .F               114:   Maximum recorded temp.
 LUN .               8766:   Logging unit number
 LUL .             CASPER:   Logging unit location
 ENGI.          T. TOYNER:   Recorded By
 WITN.      B. HARRINGTON:   Witnessed by
 PWI .                  -:   Primary Well Identifier
 ORIG.           5" PRINT:   Origin of data
 UWI .     49025103810000:   Unique Well ID
 DICO. A2D TECHNOLOGIES, INC.:   Digitizing Company
~OTHER INFORMATION
~A   DEPT       CALD       GRD        DPHI       RHOB       CORR      SPR         SFLU      ILD        ILM   
# ...
 2552.0000     8.7974   106.2532     0.0912     2.5020     0.0164   -53.9709     7.1739     5.6470     5.9563
 2552.5000     8.7775   105.8566     0.0900     2.5030     0.0184   -53.9771     6.8494     5.7504     6.1783
 2553.0000     8.7774   105.4600     0.0880     2.5040     0.0204   -54.1814     6.7849     5.8556     6.2916
 2553.5000     8.7575   104.6664     0.0868     2.5100     0.0224   -54.1876     6.9730     5.9628     6.4070
 2554.0000     8.7574   104.6664     0.0864     2.5110     0.0224   -54.3918     7.3669     6.0164     6.4053
 2554.5000     8.7771   104.2696     0.0868     2.5110     0.0204   -54.2000     7.7117     6.1265     6.5227
 2555.0000     8.7771   104.6668     0.0872     2.5100     0.0204   -54.2049     7.9988     6.1815     6.5217
 2555.5000     8.7770   104.6670     0.0880     2.5040     0.0184   -54.2124     7.9967     6.1799     6.5193
 2556.0000     8.7967   104.2702     0.0916     2.5021     0.0084   -54.2173     7.9946     6.2353     6.5779
 2556.5000     8.8165   104.2702     0.0948     2.4991     0.0084   -54.2248     7.8467     6.2347     6.5761
 2557.0000     8.7966   104.2704     0.0964     2.4941     0.0024   -54.2297     7.6310     6.2897     6.6353
 2557.5000     8.7965   103.4764     0.0980     2.4911     0.0044   -54.2372     7.6290     6.2880     6.6335
 2558.0000     8.7964   103.0796     0.0988     2.4871     0.0044   -54.2421     7.5571     6.2863     6.6318
 2558.5000     8.7963   102.6826     0.0984     2.4861     0.0024   -53.8535     7.4859     6.2847     6.6300
 2559.0000     8.7962   102.6826     0.0992     2.4891     0.0044   -53.8584     7.1470     6.2830     6.5674
 2559.5000     8.7763   103.8742     0.0980     2.4981     0.0044   -53.8659     7.3785     6.2813     6.5055
 2560.0000     8.7762   104.6686     0.0975     2.5011     0.0044   -53.8708     7.6176     6.2222     6.4441
 2560.5000     8.7959   104.6688     0.0987     2.4991     0.0024   -53.8783     7.8302     6.1635     6.3832
 2561.0000     8.7958   103.8746     0.1007     2.4951     0.0024   -54.2793     7.6853     6.1619     6.3233
 2561.5000     8.7759   102.2860     0.1011     2.4922     0.0024   -54.6828     7.2039     6.1606     6.2640
 2562.0000     8.7758   104.6692     0.1011     2.4862     0.0004   -55.0863     7.0059     6.0463     6.2617
 2562.5000     8.7757   105.4638     0.1011     2.4842     0.0004   -55.0913     6.9399     6.0447     6.1456
 2563.0000     8.7756   105.0668     0.1011     2.4852     0.0024   -54.7026     7.1323     5.8785     6.0318
 2563.5000     8.8153   103.8752     0.1007     2.4902     0.0024   -54.7076     7.2629     5.8231     6.0302
 2564.0000     8.7953   102.2864     0.0995     2.4942     0.0043   -54.3190     7.3281     5.7154     5.9184
 2564.5000     8.7952   101.8892     0.0943     2.5002     0.0063   -54.3239     7.0613     5.6097     5.9169
 2565.0000     8.7952   101.4918     0.0911     2.5012     0.0083   -54.3314     6.8043     5.6082     5.8610
 2565.5000     8.7752   101.4920     0.0915     2.5012     0.0083   -54.3363     6.3186     5.6070     5.9137
 2566.0000     8.7751   102.2866     0.0939     2.5032     0.0083   -54.3437     6.4765     5.5545     5.9122
 2566.5000     8.7949   102.6840     0.0987     2.5022     0.0083   -54.3487     6.6383     5.6040     5.9106
 2567.0000     8.7948   103.0814     0.0991     2.4913     0.0023   -54.3561     6.8041     5.6023     5.9090
 2567.5000     8.7947   104.6710     0.1027     2.4843     0.0023   -54.3611     6.9741     5.6008     5.9068
 2568.0000     8.7946   105.0688     0.1031     2.4823     0.0023   -54.3685     7.1483     5.5996     5.9282
 2568.5000     8.7747   102.2870     0.1031     2.4803     0.0023   -54.3735     7.3269     5.7018     5.9496
 2569.0000     8.7944   102.6846     0.1027     2.4843     0.0023   -54.3809     7.4445     5.7530     5.9711
 2569.5000     8.7944   103.8770     0.1015     2.4873     0.0023   -54.3859     7.3744     5.8583     5.9927
 2570.0000     8.7744   105.8644     0.1011     2.4873     0.0023   -54.3933     7.3049     5.9109     6.0143
 2570.5000     8.7942   106.2620     0.1011     2.4843     0.0023   -54.3983     7.1232     5.9640     6.0361
 2571.0000     8.7941   107.4548     0.1011     2.4843     0.0043   -54.4057     6.9080     5.9078     6.0615
 2571.5000     8.7940   107.4550     0.1011     2.4883     0.0023   -54.4107     6.9708     5.9608     6.0603
 2572.0000     8.7939   107.4552     0.1003     2.4914     0.0043   -54.4181     7.0984     5.9047     6.0343
 2572.5000     8.7938   107.4556     0.0999     2.4914     0.0043   -54.4231     7.0965     5.7954     6.0084
 2573.0000     8.7937   109.0462     0.0991     2.4914     0.0043   -54.4305     7.0297     5.7408     5.9827
 2573.5000     8.7936   109.0464     0.0987     2.4914     0.0063   -54.4354     6.9634     5.6867     5.9570
 2574.0000     8.7935   108.6492     0.0971     2.4954     0.0203   -54.4429     6.8346     5.6331     5.9315
 2574.5000     8.8133   109.0472     0.0938     2.4974     0.0143   -54.4478     6.8328     5.6846     5.9061
 2575.0000     8.8133   109.0474     0.0926     2.5014     0.0163   -54.4553     6.7684     5.5786     5.8807
 2575.5000     8.8132   109.0478     0.0906     2.5024     0.0202   -54.4602     6.8292     5.5771     5.8555
 2576.0000     8.7932   108.2528     0.0898     2.5054     0.0222   -54.4677     6.8274     5.4739     5.8266
 2576.5000     8.8089   108.2532     0.0894     2.5064     0.0262   -54.4726     6.8256     5.4223     5.7189
 2577.0000     8.8129   108.2534     0.0886     2.5084     0.0262   -54.8760     6.7613     5.3220     5.5104
 2577.5000     8.8128   108.2538     0.0870     2.5094     0.0262   -54.8810     6.6975     5.2235     5.4586
 2578.0000     8.8127   109.0496     0.0878     2.5094     0.0262   -54.4924     6.2776     5.2222     5.3572
 2578.5000     8.8126   110.2432     0.0890     2.5094     0.0262   -54.4974     6.1615     5.1729     5.2579
 2579.0000     8.8324   110.6412     0.0902     2.5095     0.0222   -54.5048     6.1034     5.1242     5.2565
 2579.5000     8.8522   111.0394     0.0954     2.5045     0.0182   -54.5098     5.9905     5.1228     5.2551
 2580.0000     8.9118   111.0398     0.0954     2.4975     0.0042   -54.5172     5.8258     5.1215     5.2545
 2580.5000     8.8719   111.4380     0.0942     2.4995     0.0042   -54.5222     5.8243     5.1201     5.2808
 2581.0000     8.8520   111.4384     0.0906     2.5035     0.0062   -54.5296     6.1533     5.1187     5.3073
 2581.5000     8.8320   112.2346     0.0877     2.5114     0.0062   -54.5346     6.3828     5.1647     5.3338
 2582.0000     8.8120   111.8372     0.0858     2.5145     0.0082   -54.5420     6.6816     5.1633     5.3606
 2582.5000     8.7920   111.8376     0.0862     2.5135     0.0062   -54.5469     6.6798     5.1620     5.3874
 2583.0000     8.7920   111.0424     0.0878     2.5095     0.0062   -54.5544     6.6781     5.2083     5.4144
 2583.5000     8.7720   111.0428     0.0886     2.5055     0.0062   -54.5593     6.6763     5.2069     5.4415
 2584.0000     8.7719   109.8496     0.0902     2.5036     0.0042   -54.5668     6.4928     5.2055     5.4687
 2584.5000     8.7718   109.0540     0.0894     2.5046     0.0062   -54.5717     6.4910     5.1565     5.4885
 2585.0000     8.7717   108.2586     0.0890     2.5055     0.0062   -54.5791     6.4893     5.1084     5.4372
 2585.5000     8.7716   108.2588     0.0882     2.5056     0.0042   -54.5841     6.3106     5.1065     5.3948
 2586.0000     8.7715   109.4532     0.0870     2.5076     0.0062   -54.5915     6.2511     5.0121     5.3527
 2586.5000     8.7715   109.4534     0.0858     2.5126     0.0082   -54.5965     6.2494     5.0107     5.3110
 2587.0000     8.7912   109.8518     0.0855     2.5126     0.0102   -54.6039     6.1905     4.9180     5.2695
 2587.5000     8.7912   110.2502     0.0850     2.5136     0.0142   -54.6089     6.1322     4.9167     5.2284
 2588.0000     8.7911   111.0468     0.0842     2.5146     0.0142   -54.6163     6.0744     4.9154     5.1831
