~VERSION INFORMATION
 VERS.                2.0:   CWLS LOG ASCII STANDARD - VERSION 2.0
 WRAP.                 NO:   ONE LINE PER DEPTH STEP
~WELL INFORMATION
#MNEM.UNIT      DATA TYPE    INFORMATION
#----------   ------------   ------------------------------
 STRT.F          517.0000:   START DEPTH
 STOP.F         3222.0000:   STOP DEPTH
 STEP.F            0.5000:   STEP LENGTH
 NULL.          -999.2500:   NO VALUE
 COMP.    FENIX & SCISSON:   COMPANY
 WELL.  FENIX "TX" #53-33:   WELL
 FLD .             NPR #3:   FIELD
 LOC .      S33 T39N R78W:   LOCATION
 CNTY.            NATRONA:   COUNTY
 STAT.            WYOMING:   STATE
 CTRY. UNITED STATES OF AMERICA:   COUNTRY
 SRVC.              WELEX:   SERVICE COMPANY
 DATE.        24-AUG-1980:   LOGDATE
 API .     49025108460000:   API NUMBER
~CURVE INFORMATION
#MNEM.UNIT       API CODE    CURVE DESCRIPTION
#----------   ------------   ------------------------------
 DEPT.F                  :   
 CALD.IN     45 280 60 00:   CALIPER FROM DENSITY LOG
 GRD .GAPI   45 310 01 00:   GAMMA RAY FROM DENSITY LOG
 CORR.G/C3   45 356 01 00:   DENSITY CORRECTION
 RHOB.G/C3   45 350 01 00:   BULK DENSITY
 SPR .MV     07 010 01 00:   SPONTANEOUS POTENTIAL
 ILD .OHMM   07 120 46 00:   DEEP INDUCTION RESISTIVITY
 ILM .OHMM   07 120 44 00:   INDUCTION LOG MEDIUM RESISTIVITY
 SGRD.OHMM   07 220 05 00:   SHALLOW SHORT GUARD RESISTIVITY
~PARAMETER INFORMATION
#MNEM.UNIT          VALUE    DESCRIPTION
#----------   ------------   ------------------------------
 EKB .F         5173.0000:   Kelly bushing
 EGL .F         5163.0000:   Ground level
 EDF .F            0.0000:   Drilling floor
 EPD .F            0.0000:   Permanent datum
 TD  .F         3224.0000:   Total depth
 CLNT.            A2DTECH:   Client Code
 SL  . 1650' FNL & 2500' FEL:   Surface Location
 PD  .                 GL:   Permanent Datum
 DAPD.F                10:   Feet Above Permanent Datum
 DATE.        24-AUG-1980:   Date Logged [DD-MMM-YYYY]
 DD  .F              3190:   Depth driller
 DL  .F              3224:   Depth logger
 BLI .F              3222:   Bottom log interval
 TLI .F               528:   Top log interval
 CS1 .IN            8.625:   Casing size
 CBD1.      8.625" @ 532':   Casing driller 1
 CBL1.F               528:   Casing logger 1
 BS1 .IN            7.875:   Bit size
 BSD1.F              3190:   Depth drilled with bit1
 DFT .     WATER BASE MUD:   Type fluid in hole
 DFD .                8.8:   Density
 DFV .                 45:   Viscosity
 DFL .                9.4:   Fluid loss
 MSS .            MUD PIT:   Source of sample
 RMS .OHMM           2.10:   Rm
 MST .F                65:   Rm Meas. temp.
 RMF .OHMM           1.68:   Rmf
 MFST.F                65:   Rmf Meas. temp.
 MFSS.               CALC:   Source Rmf.
 RMC .OHMM           2.52:   Rmc
 MCST.F                65:   Rmc Meas. temp.
 MCSS.               CALC:   Source Rmc.
 RMB .OHMM           1.14:   Rm. at BHT
 BHT .F               120:   BHT.
 TCS .HRS               3:   Time Circ. stopped
 MRT .F               120:   Maximum recorded temp.
 LUN .               1892:   Logging unit number
 LUL .             CASPER:   Logging unit location
 ENGI.           WACHTEIL:   Recorded By
 ORIG.         2.5" PRINT:   Origin of data
 UWI .     49025108460000:   Unique Well ID
 DICO. A2D TECHNOLOGIES, INC.:   Digitizing Company
~OTHER INFORMATION
~A   DEPT     CALD         GRD      CORR       RHOB        SPR        ILD        ILM       SGRD   
# ...
 2299.0000     9.5262   104.7190     0.0255     2.5371   -23.1141     4.3357     5.5404     6.8474
 2299.5000     9.5252   104.0377     0.0393     2.5642   -23.4189     4.3322     5.4064     6.7884
 2300.0000     9.5297   102.7189     0.0740     2.5792   -23.4234     4.3288     5.6065     6.7421
 2300.5000     9.5636   101.0983     0.0890     2.5896   -23.4279     4.3857     5.7406     6.7372
 2301.0000     9.5229    99.6951     0.0857     2.5689   -23.4324     4.3819     5.8627     6.7323
 2301.5000     9.4620   101.4531     0.0463     2.5555   -23.7380     4.3783     5.9403     6.7274
 2302.0000     9.4944   102.7953     0.0341     2.5446   -23.7423     4.3986     5.8540     6.7224
 2302.5000     9.5572   102.3249     0.0400     2.5416   -23.4459     4.4020     5.7697     6.7173
 2303.0000     9.6109   101.4013     0.0550     2.5499   -23.4506     4.3066     5.6866     6.7122
 2303.5000     9.6405   102.8046     0.0639     2.5615   -23.4550     4.3037     5.4515     6.7071
 2304.0000     9.5626   105.1903     0.0698     2.5648   -23.1589     4.2998     5.3659     6.7020
 2304.5000     9.4884   106.3345     0.0593     2.5436   -22.8629     4.2964     5.3694     6.8897
 2305.0000     9.4879   104.4783     0.0544     2.5390   -22.8679     4.2339     5.5600     7.1706
 2305.5000     9.4873   101.6034     0.0713     2.5449   -22.7422     4.1722     5.8882     6.8738
 2306.0000     9.5771    98.9788     0.0795     2.5569   -22.4166     4.1114     6.0253     6.5892
 2306.5000     9.5717    97.1934     0.0841     2.5598   -22.2808     4.0515     5.8432     6.3164
 2307.0000     9.4506    97.1761     0.0870     2.5522   -22.2859     4.0481     5.4246     6.0550
 2307.5000     9.3865   100.7843     0.1019     2.5622   -21.9898     4.0448     5.2004     5.9671
 2308.0000     9.4052   103.9392     0.1229     2.5816   -22.2944     4.0414     5.0549     5.8806
 2308.5000     9.4681   105.3376     0.1289     2.5857   -22.2988     4.0944     5.0516     5.8992
 2309.0000     9.5433   107.7506     0.1347     2.5767   -22.6036     4.1480     5.1279     6.2520
 2309.5000     9.6029   110.2566     0.1469     2.5635   -22.6081     4.2610     5.5690     7.0198
 2310.0000     9.6024   113.5498     0.1594     2.5440   -22.6126     4.3770     5.8280     7.3749
 2310.5000     9.6018   113.1534     0.1627     2.4987   -22.9174     4.4964     6.1720     7.4135
 2311.0000     9.6313   111.7295     0.1545     2.5046   -22.9219     4.6292     6.5363     7.4072
 2311.5000     9.6307   108.3416     0.1291     2.5392   -22.9272     4.7450     6.3190     7.5050
 2312.0000     9.6370   105.6053     0.0841     2.5663   -22.9315     4.8308     6.1552     7.4996
 2312.5000     9.6597   103.7754     0.0551     2.5707   -22.9358     4.9691     6.4455     7.3909
 2313.0000     9.6892   102.8518     0.0640     2.5631   -22.9401     5.0022     6.7145     7.3853
 2313.5000     9.6886   102.3807     0.0548     2.5484   -22.9444     5.0678     6.7199     7.3797
 2314.0000     9.6879   102.3625     0.0365     2.5408   -22.9090     5.1342     6.3443     7.3741
 2314.5000     9.7175   103.5064     0.0312     2.5332   -22.6527     5.2012     6.1667     7.3684
 2315.0000     9.7470   104.9392     0.0414     2.5483   -22.5577     5.1971     6.1469     7.4158
 2315.5000     9.7765   105.4804     0.0491     2.5513   -22.3619     5.1929     5.9899     7.5628
 2316.0000     9.7759   104.5523     0.0490     2.5544   -22.2062     5.1885     6.0170     7.6627
 2316.5000     9.7395   104.0819     0.0565     2.5603   -21.7711     5.1842     6.1047     7.7645
 2317.0000     9.7447   104.5178     0.0487     2.5602   -21.7753     5.1799     6.2311     7.7583
 2317.5000     9.7440   106.3133     0.0245     2.5418   -21.7796     5.1756     6.4009     7.8608
 2318.0000     9.7434   107.2024     0.0334     2.5297   -21.7839     5.1713     6.4859     7.8548
 2318.5000     9.7427   106.6883     0.0484     2.5391   -21.7883     5.2391     6.5724     7.8488
 2319.0000     9.7120   105.7173     0.0605     2.5357   -21.7928     5.2342     6.6593     7.8428
 2319.5000     9.7114   104.2941     0.0668     2.5353   -21.7973     5.2300     6.6549     7.8369
 2320.0000     9.7108   104.6835     0.0722     2.5462   -22.1021     5.2259     6.7432     7.8309
 2320.5000     9.7102   106.2054     0.0619     2.5492   -22.4069     5.2217     6.7597     7.8863
 2321.0000     9.7096   105.2775     0.0509     2.5506   -22.5716     5.2174     6.8283     7.9280
 2321.5000     9.7167   105.2603     0.0416     2.5337   -22.7170     5.2130     6.8626     8.0325
 2322.0000     9.7387   105.6962     0.0355     2.5323   -22.7213     5.2087     6.9132     8.1378
 2322.5000     9.7821   107.0385     0.0535     2.5471   -23.0259     5.2044     6.9075     8.1319
 2323.0000     9.7976   109.2912     0.0715     2.5678   -23.1116     5.2001     6.9029     8.1259
 2323.5000     9.8271   109.7230     0.0774     2.5777   -23.2997     5.1957     6.8984     8.1197
 2324.0000     9.8264   109.1541     0.0712     2.5776   -23.4877     5.1908     6.8938     8.1135
 2324.5000     9.8259   108.1836     0.0637     2.5745   -23.6758     5.1871     6.8892     7.6029
 2325.0000     9.8253   107.8550     0.0589     2.5684   -23.8639     5.1826     6.8845     7.2515
 2325.5000     9.8247   108.9779     0.0641     2.5653   -23.9595     5.1785     6.8629     6.9985
 2326.0000     9.8543   110.0846     0.0848     2.5774   -23.9700     5.1742     6.6871     6.9448
 2326.5000     9.8934   109.1577     0.1008     2.5818   -23.6789     5.1699     6.7516     7.1347
 2327.0000     9.9261   107.3278     0.1068     2.5894   -23.3886     5.1656     6.9548     7.3297
 2327.5000     9.9428   107.7637     0.1097     2.5914   -23.4009     5.1613     7.2075     7.6351
 2328.0000     9.9723   107.2447     0.1065     2.5977   -23.2553     5.1570     7.2465     7.6296
 2328.5000    10.0017   103.3587     0.0936     2.5847   -23.1216     5.1519     7.2409     7.6238
 2329.0000    10.0012    99.9019     0.0749     2.5633   -22.8334     5.1478     6.9416     7.5996
 2329.5000    10.0307    99.5376     0.0699     2.5785   -22.8434     5.1438     6.6547     7.3766
 2330.0000    10.0321   100.8158     0.0861     2.5860   -23.1538     5.1399     6.4655     7.1965
 2330.5000    10.0597   101.7644     0.0847     2.5858   -23.4642     5.1356     6.2764     7.0471
 2331.0000    10.0590   100.8367     0.0816     2.5864   -23.4745     5.0927     6.1114     6.8403
 2331.5000    10.0584   100.7031     0.0936     2.5928   -23.4850     5.0566     6.1072     6.7922
 2332.0000    10.0578   102.6149     0.1025     2.5949   -23.4955     5.0524     6.2238     6.6939
 2332.5000    10.0872   104.4104     0.0933     2.5774   -23.5060     5.0482     6.2700     6.6891
 2333.0000    10.0867   105.7526     0.0836     2.5461   -23.5165     5.0100     6.2649     6.7776
 2333.5000    10.0861   105.2810     0.0611     2.5187   -23.5270     4.9697     6.1746     6.7724
 2334.0000    10.0855   105.2628     0.0447     2.5217   -23.5375     4.9657     6.0857     6.7673
 2334.5000    10.0849   105.2447     0.0599     2.5399   -23.8501     4.8936     5.9155     6.6691
 2335.0000    10.0843   105.2266     0.0803     2.5582   -24.1605     4.8602     5.7501     6.6640
 2335.5000    10.0837   104.9584     0.0978     2.5720   -24.1706     4.8186     5.5831     6.6212
 2336.0000    10.0831   100.6556     0.1025     2.5762   -24.4810     4.8146     5.4197     6.5624
 2336.5000    10.0962    97.9193     0.0924     2.5680   -24.4910     4.7988     5.2419     6.4662
 2337.0000    10.1120    96.0894     0.0862     2.5536   -24.5015     4.6575     5.1072     6.3727
 2337.5000    10.1114    96.0534     0.0801     2.5463   -24.2109     4.5438     4.9891     6.3680
 2338.0000    10.1711    97.8676     0.0803     2.5455   -24.2222     4.4485     4.9856     6.1895
 2338.5000    10.2608    97.7759     0.0871     2.5470   -23.9307     4.3777     5.0511     6.0161
 2339.0000    10.2904    96.9268     0.0927     2.5454   -23.6426     4.2877     5.0478     5.9164
