~VERSION INFORMATION
 VERS.                2.0:   CWLS LOG ASCII STANDARD - VERSION 2.0
 WRAP.                 NO:   ONE LINE PER DEPTH STEP
~WELL INFORMATION
#MNEM.UNIT      DATA TYPE    INFORMATION
#----------   ------------   ------------------------------
 STRT.F            0.0000:   START DEPTH
 STOP.F         3110.5000:   STOP DEPTH
 STEP.F            0.5000:   STEP LENGTH
 NULL.          -999.2500:   NO VALUE
 COMP. LAWRENCE  ALLISON AND ASSOCIATES:   COMPANY
 WELL. LAWRENCE NPR 3 "X" #72-15:   WELL
 FLD .                NPR:   FIELD
 LOC .      S15 T38N R78W:   LOCATION
 CNTY.            NATRONA:   COUNTY
 STAT.            WYOMING:   STATE
 CTRY. UNITED STATES OF AMERICA:   COUNTRY
 SRVC.           WIRELINE:   SERVICE COMPANY
 DATE.        16-JAN-1988:   LOGDATE
 API .     49025111930000:   API NUMBER
~CURVE INFORMATION
#MNEM.UNIT       API CODE    CURVE DESCRIPTION
#----------   ------------   ------------------------------
 DEPT.F                  :   
 TENR.LBS    07 635 01 00:   TENSION FROM RESISTIVITY
 GRR .GAPI   07 310 01 00:   GAMMA RAY FROM RESISTIVITY
 SPR .MV     07 010 01 00:   SPONTANEOUS POTENTIAL
 RFOC.OHMM   07 220 04 00:   RESISTIVITY FOCUSED LOG RES.
 RILD.OHMM   07 120 46 00:   DEEP INDUCTION RESISTIVITY
 RILM.OHMM   07 120 44 00:   INDUCTION LOG MEDIUM RESISTIVITY
 TEND.LBS    45 635 01 00:   TENSION FROM DENSITY LOG
 RHOB.G/C3   45 350 01 00:   BULK DENSITY
 CORR.G/C3   45 356 01 00:   DENSITY CORRECTION
 CNC .DEC    42 890 03 00:   NEUTRON PORISITY SANDSTONE
 CALR.IN     07 280 01 00:   CALIPER FROM RESISTIVITY
~PARAMETER INFORMATION
#MNEM.UNIT          VALUE    DESCRIPTION
#----------   ------------   ------------------------------
 EKB .F         5240.0000:   Kelly bushing
 EGL .F         5229.0000:   Ground level
 EDF .F            0.0000:   Drilling floor
 TD  .F         3090.0000:   Total depth
 DATE.        16-JAN-1988:   Date logged
 CLNT.            A2DTECH:   Client Code
 SL  . 814' FNL & 1208' FEL:   Surface Location
 PD  .                 GL:   Permanent Datum
 DD  .F              3085:   Depth driller
 DL  .F              3090:   Depth logger
 BLI .F              3089:   Bottom log interval
 CS1 .IN            8.625:   Casing size
 CBD1.      8.625" @ 610':   Casing driller 1
 CBL1.F               613:   Casing logger 1
 BS1 .IN            7.875:   Bit size
 DFT .            KCL/GEL:   Type fluid in hole
 DFD .                8.8:   Density
 DFV .                 40:   Viscosity
 DFPH.                8.5:   pH
 DFL .                 10:   Fluid loss
 MSS .           FLOWLINE:   Source of sample
 RMS .OHMM           .543:   Rm
 MST .F                65:   Rm Meas. temp.
 RMF .OHMM           .349:   Rmf
 MFST.F                65:   Rmf Meas. temp.
 RMC .OHMM           .557:   Rmc
 MCST.F                65:   Rmc Meas. temp.
 MFSS.               CALC:   Source Rmf.
 RMB .OHMM           .258:   Rm. at BHT
 BHT .F               114:   BHT.
 TCS .HRS               5:   Time Circ. stopped
 MRT .F               114:   Maximum recorded temp.
 LUN .            HL-6321:   Logging unit number
 LUL .           GILLETTE:   Logging unit location
 ENGI.               CAIN:   Recorded By
 WITN.             STRONG:   Witnessed by
 ORIG.           5" PRINT:   Origin of data
 UWI .     49025111930000:   Unique Well ID
 DICO. A2D TECHNOLOGIES, INC.:   Digitizing Company
 DAPD.F                11:   Feet Above Permanent Datum
 BSD1.F              3085:   Depth drilled with bit1
 MCSS.               CALC:   Source Rmc.
 EPD .F              5229:   Elevation Permanent Datum
 LMF .                 KB:   Log Measured From
 DMF .                 KB:   Drilling Measured From
~OTHER INFORMATION
~A    DEPT    TENR         GRR       SPR       RFOC       RILD       RILM       TEND       RHOB       CORR        CNC       CALR   
# ...
 1250.5000   -64.8150    89.9700   -61.6160     9.6160     9.3630     8.6010  -999.2500  -999.2500  -999.2500  -999.2500     8.8390
 1251.0000   -64.8150    88.8350   -61.6190     9.5730     9.3060     8.5660  -999.2500  -999.2500  -999.2500  -999.2500     8.8390
 1251.5000   -64.8150    87.7230   -61.5740     9.5310     9.2500     8.5310  -999.2500  -999.2500  -999.2500  -999.2500     8.8390
 1252.0000   -64.8150    87.4430   -61.5280     9.4880     9.1930     8.4960  -999.2500  -999.2500  -999.2500  -999.2500     8.8400
 1252.5000   -64.8150    88.2090   -61.4810     9.4460     9.1370     8.4600  -999.2500  -999.2500  -999.2500  -999.2500     8.8400
 1253.0000   -64.8150    91.1220   -61.4350     9.4030     9.0800     8.4250  -999.2500  -999.2500  -999.2500  -999.2500     8.8400
 1253.5000   -64.8150    94.1130   -61.3880     9.3610     9.0240     8.3900  -999.2500  -999.2500  -999.2500  -999.2500     8.8400
 1254.0000   -64.8150    94.5080   -61.3420     9.3180     8.9670     8.3550  -999.2500  -999.2500  -999.2500  -999.2500     8.8400
 1254.5000   -64.8150    95.4820   -61.2950     9.2850     8.9110     8.3010  -999.2500  -999.2500  -999.2500  -999.2500     8.8400
 1255.0000   -64.8150    95.3160   -61.1980     9.2570     8.8540     8.1970  -999.2500  -999.2500  -999.2500  -999.2500     8.8410
 1255.5000   -64.8150    93.7030   -60.8000     9.2280     8.7980     8.0930  -999.2500  -999.2500  -999.2500  -999.2500     8.8410
 1256.0000   -64.8150    92.7360   -60.4760     9.0790     8.7410     7.9890  -999.2500  -999.2500  -999.2500  -999.2500     8.8410
 1256.5000   -64.8150    93.1560   -60.5990     8.8730     8.6790     7.9550  -999.2500  -999.2500  -999.2500  -999.2500     8.8410
 1257.0000   -64.8150    92.5010   -60.7230     8.7230     8.6140     7.9550  -999.2500  -999.2500  -999.2500  -999.2500     8.8410
 1257.5000   -64.8150    89.7580   -60.8900     8.7800     8.5480     7.9550  -999.2500  -999.2500  -999.2500  -999.2500     8.8410
 1258.0000   -64.8150    87.0360   -60.9820     8.9010     8.4830     7.9550  -999.2500  -999.2500  -999.2500  -999.2500     8.8410
 1258.5000   -64.8150    84.2650   -60.8760     9.0220     8.4170     7.9550  -999.2500  -999.2500  -999.2500  -999.2500     8.8410
 1259.0000   -64.8150    83.4190   -60.7610     9.1350     8.3520     7.9550  -999.2500  -999.2500  -999.2500  -999.2500     8.8410
 1259.5000   -64.8150    86.7520   -60.6450     9.0270     8.2870     7.9550  -999.2500  -999.2500  -999.2500  -999.2500     8.8410
 1260.0000   -64.5290    90.5120   -60.5320     8.9020     8.2210     7.9140  -999.2500  -999.2500  -999.2500  -999.2500     8.8410
 1260.5000   -63.4310    91.0030   -60.5830     8.7780     8.1560     7.7570  -999.2500  -999.2500  -999.2500  -999.2500     8.8410
 1261.0000   -62.3330    91.3280   -60.9200     8.6530     8.0900     7.6000  -999.2500  -999.2500  -999.2500  -999.2500     8.8410
 1261.5000   -61.2350    93.7140   -61.2500     8.5280     8.0280     7.3890  -999.2500  -999.2500  -999.2500  -999.2500     8.8410
 1262.0000   -60.1380    97.3320   -61.4300     8.4850     8.0640     7.4530  -999.2500  -999.2500  -999.2500  -999.2500     8.8410
 1262.5000   -59.0400   103.3060   -61.2830     8.3920     8.1060     7.5510  -999.2500  -999.2500  -999.2500  -999.2500     8.8410
 1263.0000   -57.9420   105.1760   -61.1400     8.3030     8.1470     7.6490  -999.2500  -999.2500  -999.2500  -999.2500     8.8410
 1263.5000   -56.8440   101.7050   -60.9980     8.2540     8.1890     7.7470  -999.2500  -999.2500  -999.2500  -999.2500     8.8410
 1264.0000   -55.7460    96.4470   -60.8550     8.6200     8.2300     7.8450  -999.2500  -999.2500  -999.2500  -999.2500     8.8410
 1264.5000   -54.6490    92.1190   -60.7090     8.8850     8.2920     7.9430  -999.2500  -999.2500  -999.2500  -999.2500     8.8410
 1265.0000   -53.5510    93.5790   -60.8130     8.8620     8.3790     8.0420  -999.2500  -999.2500  -999.2500  -999.2500     8.8410
 1265.5000   -52.4530    96.8540   -61.0560     8.8390     8.4660     8.1400  -999.2500  -999.2500  -999.2500  -999.2500     8.8410
 1266.0000   -51.3550    98.1100   -61.3000     8.8040     8.5530     8.2380  -999.2500  -999.2500  -999.2500  -999.2500     8.8410
 1266.5000   -50.2570    97.0340   -61.3500     8.8640     8.6400     8.3360  -999.2500  -999.2500  -999.2500  -999.2500     8.8410
 1267.0000   -49.1600    95.7320   -61.2100     9.0030     8.7270     8.4340  -999.2500  -999.2500  -999.2500  -999.2500     8.8410
 1267.5000   -48.0620    93.2130   -61.0610     9.1420     8.8140     8.5320  -999.2500  -999.2500  -999.2500  -999.2500     8.8410
 1268.0000   -46.9640    88.2280   -60.9080     9.2810     8.9000     8.6300  -999.2500  -999.2500  -999.2500  -999.2500     8.8410
 1268.5000   -45.8660    83.0540   -60.8520     9.5450     8.9820     8.7280  -999.2500  -999.2500  -999.2500  -999.2500     8.8410
 1269.0000   -44.7950    82.4940   -61.0060     9.7440     9.0470     8.8040  -999.2500  -999.2500  -999.2500  -999.2500     8.8410
 1269.5000   -46.0530    82.9490   -61.1640     9.6530     9.1120     8.8040  -999.2500  -999.2500  -999.2500  -999.2500     8.8410
 1270.0000   -47.2810    84.3150   -61.7050     9.5650     9.1760     8.8040  -999.2500  -999.2500  -999.2500  -999.2500     8.8410
 1270.5000   -48.5090    86.1210   -62.3060     9.4770     9.2410     8.8040  -999.2500  -999.2500  -999.2500  -999.2500     8.8410
 1271.0000   -49.7370    87.3940   -62.4310     9.3910     9.3050     8.8040  -999.2500  -999.2500  -999.2500  -999.2500     8.8410
 1271.5000   -50.9660    86.9760   -62.5590     9.7550     9.3550     8.8040  -999.2500  -999.2500  -999.2500  -999.2500     8.8410
 1272.0000   -52.1940    86.7260   -62.6840    10.1100     9.4040     8.8040  -999.2500  -999.2500  -999.2500  -999.2500     8.8410
 1272.5000   -53.4220    88.4490   -62.8090     9.9500     9.4530     8.8230  -999.2500  -999.2500  -999.2500  -999.2500     8.8410
 1273.0000   -54.6510    90.1490   -62.9340     9.7440     9.5020     8.8690  -999.2500  -999.2500  -999.2500  -999.2500     8.8410
 1273.5000   -55.8790    91.8300   -63.0580     9.7740     9.5520     8.9140  -999.2500  -999.2500  -999.2500  -999.2500     8.8410
 1274.0000   -57.1070    93.0720   -63.1830     9.8120     9.6010     8.9600  -999.2500  -999.2500  -999.2500  -999.2500     8.8410
 1274.5000   -58.3350    92.9390   -63.2460     9.8500     9.6500     9.0060  -999.2500  -999.2500  -999.2500  -999.2500     8.8410
 1275.0000   -59.5640    90.8580   -63.2470     9.8880     9.7000     9.0520  -999.2500  -999.2500  -999.2500  -999.2500     8.8410
 1275.5000   -60.7920    89.0170   -63.2470     9.9270     9.7490     9.0980  -999.2500  -999.2500  -999.2500  -999.2500     8.8410
 1276.0000   -62.0200    88.8420   -63.2470     9.9650     9.7980     9.1570  -999.2500  -999.2500  -999.2500  -999.2500     8.8410
 1276.5000   -63.2480    89.1840   -63.2470    10.0030     9.8470     9.2700  -999.2500  -999.2500  -999.2500  -999.2500     8.8410
 1277.0000   -64.4770    89.1660   -63.2470    10.0410     9.8970     9.3830  -999.2500  -999.2500  -999.2500  -999.2500     8.8410
 1277.5000   -65.7050    87.9220   -63.2470    10.0790     9.9460     9.4960  -999.2500  -999.2500  -999.2500  -999.2500     8.8410
 1278.0000   -66.9330    85.2670   -63.2480    10.1990     9.9950     9.5870  -999.2500  -999.2500  -999.2500  -999.2500     8.8410
 1278.5000   -68.1620    82.5360   -63.2440    10.5870    10.0450     9.6410  -999.2500  -999.2500  -999.2500  -999.2500     8.8410
 1279.0000   -69.3900    81.5660   -63.1350    10.5650    10.0940     9.6950  -999.2500  -999.2500  -999.2500  -999.2500     8.8410
 1279.5000   -70.6180    82.2660   -62.7340    10.5270    10.1430     9.7500  -999.2500  -999.2500  -999.2500  -999.2500     8.8410
 1280.0000   -71.8460    84.1480   -62.3310    10.4890    10.1920     9.8040  -999.2500  -999.2500  -999.2500  -999.2500     8.8410
 1280.5000   -73.0750    86.1370   -62.6460    10.6320    10.3630     9.8580  -999.2500  -999.2500  -999.2500  -999.2500     8.8410
