~VERSION INFORMATION
 VERS.                2.0:   CWLS LOG ASCII STANDARD - VERSION 2.0
 WRAP.                 NO:   ONE LINE PER DEPTH STEP
~WELL INFORMATION
#MNEM.UNIT      DATA TYPE    INFORMATION
#----------   ------------   ------------------------------
 STRT.F           60.0000:   START DEPTH
 STOP.F         3758.0000:   STOP DEPTH
 STEP.F            0.5000:   STEP LENGTH
 NULL.          -999.2500:   NO VALUE
 COMP. LAWRENCE ALLISON & ASSOCIATES:   COMPANY
 WELL. LAWRENCE "MX" #72-10:   WELL
 FLD .            N P R 3:   FIELD
 LOC .      S10 T38N R78W:   LOCATION
 CNTY.            NATRONA:   COUNTY
 STAT.            WYOMING:   STATE
 CTRY. UNITED STATES OF AMERICA:   COUNTRY
 SRVC.       SCHLUMBERGER:   SERVICE COMPANY
 DATE.        03-JUL-1982:   LOGDATE
 API .     49025108910000:   API NUMBER
~CURVE INFORMATION
#MNEM.UNIT       API CODE    CURVE DESCRIPTION
#----------   ------------   ------------------------------
 DEPT.F                  :   
 GRD .GAPI   45 310 01 00:   GAMMA RAY FROM DENSITY LOG
 NPHI.DEC    42 890 03 00:   NEUTRON POROSITY SANDSTONE
 CALD.IN     45 280 60 00:   CALIPER FROM DENSITY LOG
 RHOB.G/C3   45 350 01 00:   BULK DENSITY
 DRHO.G/C3   45 356 01 00:   DENSITY CORRECTION
 TEND.LBS    45 635 01 00:   TENSION FROM DENSITY LOG
 SPR .MV     07 010 01 00:   SPONTANEOUS POTENTIAL
 SFL .OHMM   07 220 01 00:   SHALLOW FOCUSED LOG RESISTIVITY
 ILD .OHMM   07 120 46 00:   DEEP INDUCTION RESISTIVITY
 ILM .OHMM   07 120 44 00:   INDUCTION LOG MEDIUM RESISTIVITY
 TENR.LBS    07 635 01 00:   TENSION FROM RESISTIVITY
~PARAMETER INFORMATION
#MNEM.UNIT          VALUE    DESCRIPTION
#----------   ------------   ------------------------------
 EKB .F         5182.0000:   Kelly bushing
 EGL .F         5172.0000:   Ground level
 EDF .F            0.0000:   Drilling floor
 EPD .F            0.0000:   Permanent datum
 TD  .F         3770.0000:   Total depth
 DATE.        03-JUL-1982:   Date logged
 CLNT.            A2DTECH:   Client Code
 SL  . 1119' FNL & 21' FEL:   Surface Location
 PD  .                 GL:   Permanent Datum
 DD  .F              3770:   Depth driller
 DL  .F              3750:   Depth logger
 BLI .F              3744:   Bottom log interval
 CS1 .IN            9.625:   Casing size
 CBD1.      9.625" @ 473':   Casing driller 1
 CBL1.F               482:   Casing logger 1
 BS1 .IN            7.875:   Bit size
 DFT .                GEL:   Type fluid in hole
 DFD .                9.1:   Density
 DFV .                 34:   Viscosity
 DFPH.               10.5:   pH
 DFL .                 12:   Fluid loss
 MSS .            MUD PIT:   Source of sample
 RMS .OHMM           1.50:   Rm
 MST .F                84:   Rm Meas. temp.
 RMF .OHMM           1.37:   Rmf
 MFST.F                83:   Rmf Meas. temp.
 RMC .OHMM           1.20:   Rmc
 MCST.F                83:   Rmc Meas. temp.
 MFSS.               MEAS:   Source Rmf.
 RMB .OHMM              1:   Rm. at BHT
 BHT .F               130:   BHT.
 TCS .HRS            1500:   Time Circ. stopped
 MRT .F               130:   Maximum recorded temp.
 LUN .               8039:   Logging unit number
 LUL .               CSPR:   Logging unit location
 ENGI. CONOSCENTI/PIRAKIS:   Recorded By
 WITN.             STRONG:   Witnessed by
 ORIG.       2.5"5" PRINT:   Origin of data
 UWI .     49025108910000:   Unique Well ID
 DICO. A2D TECHNOLOGIES, INC.:   Digitizing Company
 DAPD.                 10:   Feet Above Permanent Datum
 BSD1.               3770:   Depth drilled with bit1
 MCSS.               CALC:   Source Rmc.
 TLI .                482:   Top log interval
 TLAB.HR             1800:   Time logger at bottom
~OTHER INFORMATION
~A   DEPT      GRD       NPHI       CALD       RHOB       DRHO       TEND        SPR        SFL        ILD        ILM       TENR   
# ...
 3720.0000  -999.2500     0.3790     7.7740     2.5400     0.2430  1949.7350   -32.2770     3.6990     2.2550     2.3610  1822.2300
 3720.5000  -999.2500     0.3790     7.7850     2.5430  -999.2500  1949.2200   -32.0460     3.2700     2.3610     2.4430  1822.5140
 3721.0000  -999.2500     0.3800     7.7750     2.5430  -999.2500  1948.7061   -31.9370     3.0300     2.4670     2.5230  1822.7980
 3721.5000  -999.2500     0.3800     7.7750     2.5480  -999.2500  1948.1920   -31.9570     3.1400     2.5980     2.6190  1823.0820
 3722.0000  -999.2500  -999.2500     7.7700     2.5530  -999.2500  1947.6780   -31.9780     3.8630     2.7280     2.8150  1823.3669
 3722.5000  -999.2500  -999.2500     7.7680     2.5530  -999.2500  1947.1630   -31.9990     5.1070     2.8590     3.0110  1823.6510
 3723.0000  -999.2500  -999.2500     7.7640     2.5460  -999.2500  1946.6490   -32.0200     6.3510     2.9600     3.1750  1823.9351
 3723.5000  -999.2500  -999.2500     7.7610     2.5410  -999.2500  1946.1350   -32.0420     7.4160     3.0020     3.1940  1824.2190
 3724.0000  -999.2500  -999.2500     7.7580     2.5380  -999.2500  1945.6200   -32.0630     7.4850     3.0300     3.2020  1824.5031
 3724.5000  -999.2500  -999.2500     7.7550     2.5410  -999.2500  1945.1060   -32.0840     5.3200     3.0300     3.0480  1824.7870
 3725.0000  -999.2500  -999.2500     7.7520     2.5380  -999.2500  1944.5920   -32.1050     4.4870     2.8560     2.9140  1825.0710
 3725.5000  -999.2500  -999.2500     7.7480     2.5240  -999.2500  1944.0780   -32.1260     3.7150     2.7080     2.7810  1825.3550
 3726.0000  -999.2500  -999.2500     7.7450     2.5120  -999.2500  1943.5630   -32.1420     3.2580     2.5610     2.6480  1825.6390
 3726.5000  -999.2500  -999.2500     7.7420     2.4980     0.2150  1943.0490   -32.1590     3.1440     2.4280     2.5150  1825.9240
 3727.0000  -999.2500  -999.2500     7.7390  -999.2500     0.2150  1942.5350   -32.1760     3.3220     2.4050     2.4870  1826.2080
 3727.5000  -999.2500  -999.2500     7.7360  -999.2500     0.2150  1942.0200   -32.1930     3.4640     2.4630     2.4730  1826.4919
 3728.0000  -999.2500  -999.2500     7.7320  -999.2500     0.2210  1941.5060   -32.2100     3.4930     2.5830     2.5570  1826.7760
 3728.5000  -999.2500  -999.2500     7.7290  -999.2500     0.2250  1940.9919   -32.2270     3.5080     2.7030     2.7260  1827.0601
 3729.0000  -999.2500  -999.2500     7.7260  -999.2500     0.2240  1940.4780   -32.2440     3.9860     2.8230     2.8950  1827.3440
 3729.5000  -999.2500  -999.2500     7.7230  -999.2500     0.2240  1940.0000   -32.2600     5.0980     2.9470     3.0630  1827.6281
 3730.0000  -999.2500  -999.2500     7.7200  -999.2500     0.2230  1940.0000   -32.2770     6.2110     3.0580     3.2020  1827.9120
 3730.5000  -999.2500  -999.2500     7.7160  -999.2500     0.2230  1940.0000   -32.2950     6.8880     3.1730     3.3410  1828.1970
 3731.0000  -999.2500  -999.2500     7.7130  -999.2500  -999.2500  1940.0000   -32.3120     5.7590     3.2880     3.4460  1828.4810
 3731.5000  -999.2500  -999.2500     7.7100  -999.2500  -999.2500  1940.0000   -32.4030     4.5940     3.4030     3.4810  1828.7650
 3732.0000  -999.2500  -999.2500     7.7070  -999.2500  -999.2500  1940.0000   -32.5470     4.2630     3.5120     3.6070  1829.0490
 3732.5000  -999.2500  -999.2500     7.7060  -999.2500  -999.2500  1940.0000   -32.6910     4.4230     3.6370     3.7330  1829.3330
 3733.0000  -999.2500  -999.2500     7.7060  -999.2500  -999.2500  1940.0000   -32.8360     5.1120     3.7460     3.8590  1829.6169
 3733.5000  -999.2500  -999.2500     7.7060  -999.2500  -999.2500  1940.0000   -32.9810     5.7580     3.8550     3.9840  1829.9010
 3734.0000  -999.2500  -999.2500     7.7060  -999.2500  -999.2500  1940.0000   -33.1260     6.4030     3.9550     4.1100  1830.1851
 3734.5000  -999.2500  -999.2500     7.7060  -999.2500  -999.2500  1940.0000   -33.2710     6.7000     4.0870     4.2360  1830.4690
 3735.0000  -999.2500  -999.2500     7.7060  -999.2500  -999.2500  1940.0000   -33.4160     6.5640     4.2240     4.3420  1830.7540
 3735.5000  -999.2500  -999.2500     7.7060  -999.2500  -999.2500  1940.0000   -33.5600     6.1930     4.2630     4.5280  1831.0380
 3736.0000  -999.2500  -999.2500     7.7060  -999.2500  -999.2500  1940.0000   -33.7050     6.2620     4.2240     4.7210  1831.3220
 3736.5000  -999.2500  -999.2500     7.7060  -999.2500  -999.2500  1940.0000   -33.8580     6.5820     4.6560     4.9140  1831.6060
 3737.0000  -999.2500  -999.2500     7.7060  -999.2500  -999.2500  1940.0000   -33.7200     7.1760     4.8960     4.9870  1831.8900
 3737.5000  -999.2500  -999.2500     7.7060  -999.2500  -999.2500  1940.0000   -33.4950     7.6240     4.9120     4.9870  1832.1740
 3738.0000  -999.2500  -999.2500     7.7060  -999.2500  -999.2500  1940.0000   -33.3270     7.3180     4.9270     4.9870  1832.4580
 3738.5000  -999.2500  -999.2500     7.7060  -999.2500  -999.2500  1940.0000   -33.5470     6.6090     4.9410     5.0330  1832.7419
 3739.0000  -999.2500  -999.2500     7.7060  -999.2500  -999.2500  1940.0000   -33.7610     6.7780     4.9410     4.9870  1833.0270
 3739.5000  -999.2500  -999.2500     7.7060  -999.2500  -999.2500  1940.0000   -34.0850     7.1980     4.9410     5.1460  1833.3110
 3740.0000  -999.2500  -999.2500     7.7060  -999.2500  -999.2500  1940.0000   -34.5870     7.8380     4.9410     5.3700  1833.5950
 3740.5000  -999.2500  -999.2500     7.7060  -999.2500  -999.2500  1940.0000   -35.0850     8.0580     4.9410     5.5950  1795.6910
 3741.0000  -999.2500  -999.2500     7.7060  -999.2500  -999.2500  1940.0000   -35.5780     8.0330     4.9410     5.7800  1781.0820
 3741.5000  -999.2500  -999.2500     7.7060  -999.2500  -999.2500  1921.1429   -36.0750     7.9880     5.0680     5.7200  1801.4830
 3742.0000  -999.2500  -999.2500     7.7060  -999.2500  -999.2500  1849.1429   -36.9790     7.9430     5.1740     5.6690  1703.5400
 3742.5000  -999.2500  -999.2500     7.7060  -999.2500  -999.2500  1777.1429   -37.9090     7.8980     5.1740     5.6180  1492.9860
 3743.0000  -999.2500  -999.2500     7.7060  -999.2500  -999.2500  1780.0000   -40.3300     7.8530     5.1370     5.5670  1837.6140
 3743.5000  -999.2500  -999.2500     7.7060  -999.2500  -999.2500  2328.0000   -42.3640     7.8080     5.1270     5.5160  2379.0200
 3744.0000  -999.2500  -999.2500     7.7060  -999.2500  -999.2500  2832.0000   -43.7590     7.7660     5.1270     5.4690  2875.7520
 3744.5000  -999.2500  -999.2500     7.7060  -999.2500  -999.2500  2980.0000   -45.1670  -999.2500  -999.2500  -999.2500  2762.2629
 3745.0000  -999.2500  -999.2500     7.7060  -999.2500  -999.2500  2874.2000  -999.2500  -999.2500  -999.2500  -999.2500  2657.4260
 3745.5000  -999.2500  -999.2500     7.7060  -999.2500  -999.2500  2758.2800  -999.2500  -999.2500  -999.2500  -999.2500  2552.5891
 3746.0000  -999.2500  -999.2500     7.7060  -999.2500  -999.2500  2642.3601  -999.2500  -999.2500  -999.2500  -999.2500  2447.7510
 3746.5000  -999.2500  -999.2500     7.7060  -999.2500  -999.2500  2526.4399  -999.2500  -999.2500  -999.2500  -999.2500  2342.9141
 3747.0000  -999.2500  -999.2500     7.7060  -999.2500  -999.2500  2410.5200  -999.2500  -999.2500  -999.2500  -999.2500  2238.0759
 3747.5000  -999.2500  -999.2500     7.7060  -999.2500  -999.2500  2294.6001  -999.2500  -999.2500  -999.2500  -999.2500  2134.2690
 3748.0000  -999.2500  -999.2500     7.7060  -999.2500  -999.2500  2178.6799  -999.2500  -999.2500  -999.2500  -999.2500  1984.2520
 3748.5000  -999.2500  -999.2500     7.7060  -999.2500  -999.2500  2060.0000  -999.2500  -999.2500  -999.2500  -999.2500  1835.6940
 3749.0000  -999.2500  -999.2500     7.7060  -999.2500  -999.2500  1892.6530  -999.2500  -999.2500  -999.2500  -999.2500  1687.1370
 3749.5000  -999.2500  -999.2500     7.7060  -999.2500  -999.2500  1721.2240  -999.2500  -999.2500  -999.2500  -999.2500  1538.5800
 3750.0000  -999.2500  -999.2500     7.7060  -999.2500  -999.2500  1549.7960  -999.2500  -999.2500  -999.2500  -999.2500  1390.0220
