~VERSION INFORMATION
 VERS.                2.0:   CWLS LOG ASCII STANDARD - VERSION 2.0
 WRAP.                 NO:   ONE LINE PER DEPTH STEP
~WELL INFORMATION
#MNEM.UNIT      DATA TYPE    INFORMATION
#----------   ------------   ------------------------------
 STRT.F          297.0000:   START DEPTH
 STOP.F         2946.0000:   STOP DEPTH
 STEP.F            0.5000:   STEP LENGTH
 NULL.          -999.2500:   NO VALUE
 COMP.    FENIX & SCISSON:   COMPANY
 WELL. FENIX & SCISSON SH "X" #17-10:   WELL
 FLD .             NPR #3:   FIELD
 LOC .      S10 T38N R78W:   LOCATION
 CNTY.            NATRONA:   COUNTY
 STAT.            WYOMING:   STATE
 CTRY. UNITED STATES OF AMERICA:   COUNTRY
 SRVC.       SCHLUMBERGER:   SERVICE COMPANY
 DATE.        05-APR-1977:   LOGDATE
 API .     49025103310000:   API NUMBER
~CURVE INFORMATION
#MNEM.UNIT       API CODE    CURVE DESCRIPTION
#----------   ------------   ------------------------------
 DEPT.F                  :   
 SPR .MV     07 010 01 00:   SPONTANEOUS POTENTIAL
 ILD .OHMM   07 120 46 00:   DEEP INDUCTION RESISTIVITY
 ILM .OHMM   07 120 44 00:   INDUCTION LOG MEDIUM RESISTIVITY
 LL8 .OHMM   07 220 08 00:   LATEROLOG-8 RES.
 CALD.IN     45 280 60 00:   CALIPER FROM DENSITY LOG
 GRD .GAPI   45 310 01 00:   GAMMA RAY FROM DENSITY LOG
 CORR.G/C3   45 356 01 00:   DENSITY CORRECTION
 RHOB.G/C3   45 350 01 00:   BULK DENSITY
~PARAMETER INFORMATION
#MNEM.UNIT          VALUE    DESCRIPTION
#----------   ------------   ------------------------------
 EKB .F         5270.0000:   Kelly bushing
 EGL .F         5260.0000:   Ground level
 TD  .F         2950.0000:   Total depth
 CLNT.            A2DTECH:   Client Code
 SL  . 205' FWL & 1115' FSL:   Surface Location
 DATE.        05-APR-1977:   Date Logged [DD-MMM-YYYY]
 DD  .F              2950:   Depth driller
 DL  .F              2948:   Depth logger
 BLI .F              2946:   Bottom log interval
 TLI .F               310:   Top log interval
 CS1 .              10.75:   Casing size
 CBD1.      10.75" @ 300':   Casing driller 1
 CBL1.IN              310:   Casing logger 1
 BS1 .IN            8.625:   Bit size
 BSD1.F              2950:   Depth drilled with bit1
 DFT .                KCL:   Type fluid in hole
 DFD .                9.0:   Density
 DFV .                 33:   Viscosity
 DFL .                  9:   Fluid loss
 MSS .            MUD PIT:   Source of sample
 RMS .OHMM          0.153:   Rm
 MST .F                60:   Rm Meas. temp.
 RMF .OHMM          0.130:   Rmf
 MFST.F                60:   Rmf Meas. temp.
 MFSS.               MEAS:   Source Rmf.
 RMC .OHMM          0.229:   Rmc
 MCST.F                60:   Rmc Meas. temp.
 MCSS.               CALC:   Source Rmc.
 RMB .OHMM           0.08:   Rm. at BHT
 BHT .F               115:   BHT.
 TCS .HRS               6:   Time Circ. stopped
 MRT .F               115:   Maximum recorded temp.
 LUN .               7689:   Logging unit number
 LUL .               CODY:   Logging unit location
 ENGI.             RASMUS:   Recorded By
 WITN.              LYONS:   Witnessed by
 ORIG.         2.5" PRINT:   Origin of data
 UWI .     49025103310000:   Unique Well ID
 DICO. A2D TECHNOLOGIES, INC.:   Digitizing Company
 PD  .                 GL:   Permanent Datum
 EPD .               5260:   Elevation Permanent Datum
 LMF .                 KB:   Log Measured From
 DMF .                 KB:   Drilling Measured From
 DAPD.                 10:   Feet Above Permanent Datum
~OTHER INFORMATION
~A   DEPT      SPR        ILD        ILM        LL8       CALD        GRD       CORR       RHOB   
# ...
  985.5000   -50.3367     4.2825     4.6306     8.1952     9.3512   101.6696     0.0337     2.5402
  986.0000   -50.0411     4.5266     4.8141     8.0850     9.3519   100.7878     0.0354     2.5474
  986.5000   -50.0396     4.7112     5.0178     8.7771     9.3526   101.1144     0.0434     2.5531
  987.0000   -50.0382     4.8440     5.1425     9.5283     9.3534   103.1065     0.0464     2.5500
  987.5000   -50.0367     4.9128     5.2144     9.6607     9.3541   104.2034     0.0469     2.5435
  988.0000   -50.0352     4.9825     5.2154     9.7950     9.3548   104.4037     0.0405     2.5424
  988.5000   -50.0338     5.0390     5.2883     9.7963     9.3556   103.4840     0.0361     2.5459
  989.0000   -50.0323     5.0553     5.3112     9.7976     9.3563   102.2932     0.0421     2.5469
  989.5000   -50.0309     5.1098     5.3633     9.7990     9.3864   101.2317     0.0466     2.5454
  990.0000   -50.0294     5.1105     5.3644     9.8003     9.3871    99.6188     0.0469     2.5435
  990.5000   -50.0280     5.1112     5.3654     9.8016     9.3878    98.2756     0.0289     2.5325
  991.0000   -50.0265     5.1118     5.3665     9.8029     9.3733    98.5865     0.0127     2.5144
  991.5000   -50.0250     5.1125     5.3676     9.8043     9.3600    99.1672     0.0068     2.4989
  992.0000   -50.0236     5.0891     5.3687     9.6725     9.3607    99.1731     0.0053     2.4903
  992.5000   -50.0220     5.0443     5.3698     9.5425     9.3616   102.6991     0.0083     2.4865
  993.0000   -50.0206     5.0451     5.3710     9.5339     9.3623   105.3442     0.0143     2.4850
  993.5000   -50.0191     5.0458     5.3721     9.2878     9.3630   106.5230     0.0173     2.4893
  994.0000   -50.0176     4.9779     5.3732     9.1630     9.3638   106.8220     0.0173     2.4964
  994.5000   -50.0162     5.0473     5.3743     9.1643     9.3645   106.5338     0.0158     2.4984
  995.0000   -50.0147     5.0480     5.3877     9.1844     9.3652   106.5404     0.0128     2.4919
  995.5000   -50.3075     5.0486     5.4504     9.2929     9.3659   106.5461     0.0145     2.4895
  996.0000   -50.6588     5.0493     5.4515     9.2942     9.3666   106.8452    -0.0003     2.4896
  996.5000   -51.2505     5.0500     5.4526     9.2696     9.3674   107.4375     0.0145     2.4917
  997.0000   -51.4796     5.0507     5.3796     9.1427     9.3681   105.6837     0.0146     2.4955
  997.5000   -51.5515     5.0514     5.3626     8.8953     9.3688   102.1705     0.0146     2.4992
  998.0000   -51.7708     5.0521     5.2897     8.6544     9.3695   100.7100     0.0132     2.5014
  998.5000   -51.4750     4.9841     5.1667     8.4202     9.3703    99.8358     0.0102     2.4991
  999.0000   -51.4735     4.9170     5.1680     8.1923     9.3710   100.1351     0.0073     2.4926
  999.5000   -51.1779     4.9177     5.0986     7.9705     9.3717   101.0206     0.0044     2.4823
 1000.0000   -51.1075     4.9183     5.1000     7.6997     9.3724   103.0792     0.0015     2.4690
 1000.5000   -50.6886     4.9197     5.1017     7.1540     9.3880   104.8506     0.0001     2.4512
 1001.0000   -50.2666     4.9210     5.1034     6.7922     9.4037   101.6350    -0.0014     2.4247
 1001.5000   -49.9735     4.8556     5.1051     6.6024     9.4193   100.4722    -0.0058     2.2502
 1002.0000   -49.9647     4.3533     4.6680     6.2550     9.4350    98.4297     0.0017     2.1495
 1002.5000   -49.9558     3.4506     3.8428     5.8975     9.4506    97.2669     0.0269     2.0955
 1003.0000   -49.6530     2.6979     3.0502     5.2263     9.4685    96.1041     0.0624     2.0295
 1003.5000   -49.6441     1.7899     2.2651     4.0132    11.2000    94.9413     0.0847     1.9910
 1004.0000   -49.6353     1.5829     1.8166     2.8381    12.2277    94.6569     0.0773     1.9369
 1004.5000   -49.6705     1.5618     1.5267     2.4496    11.1147    96.7213     0.0034     1.9801
 1005.0000   -49.9125     2.0824     1.6262     2.2418     9.6791    99.6640    -0.0039     2.3854
 1005.5000   -49.9568     2.8536     2.0432     2.9092     9.5631   100.8473     0.0139     2.4636
 1006.0000   -50.1891     3.6517     2.7339     5.7771     9.5349   100.8575     0.0346     2.4961
 1006.5000   -50.1794     4.1314     3.6736     7.0398     9.5364   101.4542     0.0351     2.5035
 1007.0000   -50.4657     4.1895     4.2071     7.1835     9.5377   102.0510     0.0274     2.5065
 1007.5000   -50.4559     4.0221     4.1429     6.8675     9.5390   102.3544     0.0244     2.5051
 1008.0000   -50.4470     3.9685     4.0984     6.7100     9.5403   103.2444     0.0335     2.5007
 1008.5000   -50.4383     4.2507     4.5987     7.0241     9.5416   104.4277     0.0424     2.4963
 1009.0000   -50.4294     4.6157     5.1316     7.2573     9.5429   105.9042     0.0361     2.4934
 1009.5000   -50.4206     4.7461     5.4964     7.5656     9.5443   107.9672     0.0275     2.4994
 1010.0000   -50.7073     4.8118     5.1351     7.8435     9.5456   110.0302     0.0259     2.5053
 1010.5000   -50.8000     4.8131     4.8636     8.0173     9.5176   110.9202     0.0203     2.5022
 1011.0000   -50.9840     4.7445     4.8653     8.0178     9.5189   109.1709     0.0206     2.4963
 1011.5000   -50.9735     4.4865     5.0706     8.0184     9.5202   107.7141     0.0249     2.4906
 1012.0000   -50.9647     4.3175     5.2128     8.0189     9.5215   108.8980     0.0182     2.4876
 1012.5000   -50.9559     4.3187     5.3591     8.0195     9.5228   109.4948     0.0131     2.4847
 1013.0000   -50.9471     4.3199     5.5094     8.0200     9.5241   107.4522     0.0146     2.4834
 1013.5000   -50.9382     4.3211     5.2899     8.0206     9.5254   108.0489     0.0302     2.4857
 1014.0000   -50.9294     4.3223     5.0792     8.0211     9.5268   109.2322     0.0422     2.4942
 1014.5000   -50.9206     4.3234     4.9439     8.0217     9.5281   106.3099     0.0459     2.4983
 1015.0000   -50.9118     4.3246     4.8785     8.0223     9.5294   104.8538     0.0347     2.4929
 1015.5000   -50.9029     4.3258     4.8801     8.0229     9.5307   104.5704     0.0243     2.4852
 1016.0000   -50.8942     4.3270     4.8155     8.0234     9.5320   105.1675     0.0224     2.4748
 1016.5000   -50.8853     4.3282     4.8171     8.0239     9.5333   105.4710     0.0224     2.4671
 1017.0000   -50.8765     4.3294     4.8188     8.0245     9.5346   105.7744     0.0204     2.4661
 1017.5000   -50.8676     4.3308     4.8204     8.0250     9.5360   106.0779     0.0154     2.4729
 1018.0000   -50.5630     4.3319     4.8220     7.9166     9.5666   106.6747     0.0094     2.4770
 1018.5000   -50.8483     4.3331     4.8237     7.8096     9.5679   107.0684     0.0042     2.4766
 1019.0000   -50.8396     4.3343     4.8253     7.5997     9.5692   108.6260     0.0027     2.4766
 1019.5000   -50.8308     4.3355     4.8269     7.4970     9.5705   107.3066     0.0020     2.4792
 1020.0000   -50.8221     4.3366     4.7630     7.9188     9.5718   105.4449     0.0021     2.4888
 1020.5000   -50.8133     4.3378     4.7000     8.1388     9.5734   105.2578     0.0068     2.4950
 1021.0000   -50.8046     4.3390     4.7016     8.1393     9.6038   105.5613     0.0174     2.4959
 1021.5000   -50.7958     4.3402     4.7032     8.1399     9.6051   104.3985     0.0274     2.4960
 1022.0000   -50.7871     4.3413     4.7049     7.9209     9.6064   109.1613     0.0274     2.4960
 1022.5000   -51.0735     4.3425     4.7119     7.9215     9.6077   109.4042     0.0275     2.4983
 1023.0000   -51.0637     4.3437     4.8385     7.9220     9.6091   105.8093     0.0246     2.5006
 1023.5000   -51.0549     4.3449     4.8401     7.9225     9.6104   101.8035     0.0217     2.5029
 1024.0000   -51.0462     4.3461     4.8418     7.9231     9.6117    99.9746     0.0213     2.5051
 1024.5000   -51.3324     4.3472     4.8434     7.9236     9.6131   103.8767     0.0218     2.5050
 1025.0000   -51.3228     4.2892     4.8451     7.9242     9.6144   107.1127     0.0174     2.5013
 1025.5000   -51.6082     4.1179     4.8467     7.9247     9.6157   110.0555     0.0115     2.4949
