~VERSION INFORMATION
 VERS.                2.0:   CWLS LOG ASCII STANDARD - VERSION 2.0
 WRAP.                 NO:   ONE LINE PER DEPTH STEP
~WELL INFORMATION
#MNEM.UNIT      DATA TYPE    INFORMATION
#----------   ------------   ------------------------------
 STRT.F          670.0000:   START DEPTH
 STOP.F         3440.0000:   STOP DEPTH
 STEP.F            0.5000:   STEP LENGTH
 NULL.          -999.2500:   NO VALUE
 COMP.    FENIX & SCISSON:   COMPANY
 WELL.   FENIX "A" #57-33:   WELL
 FLD .             NPR #3:   FIELD
 LOC .      S33 T39N R78W:   LOCATION
 CNTY.            NATRONA:   COUNTY
 STAT.            WYOMING:   STATE
 CTRY. UNITED STATES OF AMERICA:   COUNTRY
 SRVC.       SCHLUMBERGER:   SERVICE COMPANY
 DATE.        27-APR-1977:   LOGDATE
 API .     49025103600000:   API NUMBER
~CURVE INFORMATION
#MNEM.UNIT       API CODE    CURVE DESCRIPTION
#----------   ------------   ------------------------------
 DEPT.F                  :   
 SPR .MV     11 010 01 00:   SPONTANEOUS POTENTIAL FROM RES.
 MSFL.OHMM   11 270 04 00:   MICRO SPHERICALLY FOCUSED
 LLD .OHMM   11 220 10 00:   LATEROLOG LOG DEEP
 LLS .OHMM   11 220 09 00:   LATEROLOG LOG SHALLOW
 CALD.IN     45 280 60 00:   CALIPER FROM DENSITY LOG
 DRHO.G/C3   45 356 01 00:   DENSITY CORRECTION
 NPHI.DEC    42 890 03 00:   NEUTRON POROSITY SANDSTONE
 RHOB.G/C3   45 350 01 00:   BULK DENSITY
 GRD .GAPI   45 310 01 00:   GAMMA RAY FROM RESISTIVITY
~PARAMETER INFORMATION
#MNEM.UNIT          VALUE    DESCRIPTION
#----------   ------------   ------------------------------
 EKB .F         5183.0000:   Kelly bushing
 EGL .F         5172.0000:   Ground level
 EDF .F            0.0000:   Drilling floor
 TD  .F         3424.0000:   Total depth
 DATE.        27-APR-1977:   Date logged
 CLNT.            A2DTECH:   Client Code
 SL  . 990' FSL & 2310' FEL:   Surface Location
 PD  .                 GL:   Permanent Datum
 EPD .F              5172:   Elevation Permanent Datum
 LMF .                 KB:   Log Measured From
 DMF .                 KB:   Drilling Measured From
 DAPD.F                11:   Feet Above Permanent Datum
 DD  .F              3421:   Depth driller
 DL  .F              3424:   Depth logger
 BLI .F              3423:   Bottom log interval
 TLI .F               764:   Top log interval
 CS1 .IN            8.625:   Casing size
 CBD1.      8.625" @ 711':   Casing driller 1
 BS1 .IN            7.875:   Bit size
 BSD1.F              3421:   Depth drilled with bit1
 DFT .            KCL MUD:   Type fluid in hole
 DFD .                9.5:   Density
 DFV .                 41:   Viscosity
 DFPH.                  8:   pH
 DFL .               10.8:   Fluid loss
 MSS .            MUD PIT:   Source of sample
 RMS .OHMM           0.26:   Rm
 MST .F                74:   Rm Meas. temp.
 RMF .OHMM           0.21:   Rmf
 MFST.F                74:   Rmf Meas. temp.
 RMC .OHMM            .09:   Rmc
 MCST.F                74:   Rmc Meas. temp.
 MFSS.               MEAS:   Source Rmf.
 MCSS.               CALC:   Source Rmc.
 RMB .OHMM           0.15:   Rm. at BHT
 BHT .F               126:   BHT.
 TCS .HRS            0900:   Time Circ. stopped
 TLAB.HRS            1430:   Time logger at bottom
 MRT .F               126:   Maximum recorded temp.
 LUN .               7711:   Logging unit number
 LUL .               CSPR:   Logging unit location
 ENGI.             SAYLER:   Recorded By
 WITN.         PETTINGILL:   Witnessed by
 ORIG.           5" PRINT:   Origin of data
 UWI .     49025103600000:   Unique Well ID
 DICO. A2D TECHNOLOGIES, INC.:   Digitizing Company
~OTHER INFORMATION
~A   DEPT      SPR       MSFL        LLD        LLS         CALD      DRHO        NPHI       RHOB      GRD   
# ...
 2495.0000   -71.4720     6.2550     4.4030     5.3890     9.0090     0.0180  -999.2500     2.5720   152.9770
 2495.5000   -71.1700     6.6300     4.6390     5.5400     9.0330     0.0120     0.3490     2.5660   150.9980
 2496.0000   -70.8660     6.8620     4.8760     5.7390     9.0300     0.0170     0.3520     2.5610   145.4580
 2496.5000   -70.7490     6.9430     5.1130     5.9630     9.0160     0.0160     0.3430     2.5700   143.0240
 2497.0000   -70.7880     7.0350     5.2910     5.9470     9.0030     0.0140  -999.2500     2.5830   144.5080
 2497.5000   -70.8260     6.8980     5.2120     5.9110     8.9980     0.0260  -999.2500     2.5950   147.2200
 2498.0000   -70.8650     6.6880     5.1440     5.8760     8.9980     0.0370  -999.2500     2.6160   146.9430
 2498.5000   -70.9050     6.5360     5.0760     5.8400     8.9980     0.0310  -999.2500     2.6230   147.8220
 2499.0000   -70.9790     6.9710     5.0540     5.8050     8.9980     0.0230  -999.2500     2.6010   148.3320
 2499.5000   -71.1770     6.8570     5.2910     5.7810     8.9980     0.0170  -999.2500     2.5990   147.2540
 2500.0000   -71.3710     6.6250     5.2020     5.7410     8.9980     0.0150  -999.2500     2.5890   145.8980
 2500.5000   -71.5650     6.3920     5.0220     5.7020     8.9980     0.0130  -999.2500     2.5790   146.9720
 2501.0000   -71.7590     6.2180     4.8270     5.6430     8.9980     0.0120  -999.2500     2.5690   150.3950
 2501.5000   -71.9220     7.1650     4.8270     5.6830     8.9980     0.0150  -999.2500     2.5640   150.3260
 2502.0000   -71.7890     7.0650     4.9910     5.7620     8.9980     0.0180  -999.2500     2.5700   147.4950
 2502.5000   -71.6440     6.9710     5.1370     5.8400     8.9980     0.0140  -999.2500     2.5660   148.8930
 2503.0000   -71.5000     7.6270     5.2840     5.9190     9.0020     0.0090  -999.2500     2.5620   149.7490
 2503.5000   -71.3570     7.8550     5.4390     5.9980     9.0100     0.0040  -999.2500     2.5550   150.7360
 2504.0000   -71.2140     7.7480     5.5020     6.0780     9.0170    -0.0010  -999.2500     2.5430   147.1970
 2504.5000   -71.1860     7.5090     5.5400     6.1290     9.0250     0.0010  -999.2500     2.5520   145.7620
 2505.0000   -71.3130     7.2700     5.2910     6.0130     9.0330     0.0150  -999.2500     2.5630   146.8940
 2505.5000   -71.4390     6.8420     5.0110     5.8540     9.0400     0.0260  -999.2500     2.5750   149.1420
 2506.0000   -71.5650     6.2690     4.7060     5.6500     9.0480     0.0220  -999.2500     2.5770   149.7900
 2506.5000   -71.6850     5.6950     4.4010     5.3870     9.0560     0.0170  -999.2500     2.5650   147.4340
 2507.0000   -71.5180     5.3400     4.0910     5.1230     9.0650     0.0150  -999.2500     2.5680   145.0560
 2507.5000   -71.1010     5.4650     4.0910     4.9620     9.0750     0.0150  -999.2500     2.5700   146.3050
 2508.0000   -70.7240     5.5920     4.0910     5.0120     9.0850     0.0150     0.3610     2.5710   147.1770
 2508.5000   -70.3480     5.6950     4.0910     5.0370     9.0950     0.0130     0.3510     2.5670   145.9540
 2509.0000   -69.9710     5.6500     4.0910     5.0610     9.1050     0.0110     0.3460     2.5620   145.2700
 2509.5000   -69.7410     5.5400     4.0910     5.1000     9.1150     0.0090     0.3520     2.5540   150.5240
 2510.0000   -69.7960     5.0810     3.9170     4.9370     9.1150     0.0080     0.3510     2.5570   150.1620
 2510.5000   -69.8480     4.5800     3.5000     4.5450     9.1010     0.0140     0.3630     2.5620   153.1000
 2511.0000   -69.9010     4.0790     3.0820     4.1530     9.0870     0.0290     0.3720     2.5580   154.3020
 2511.5000   -69.9550     3.5970     2.6810     3.6980     9.0730     0.0450     0.3780     2.5680   156.9960
 2512.0000   -70.0070     4.2990     2.9090     3.8720     9.0580     0.0360     0.3830     2.5750   160.3410
 2512.5000   -70.0560     5.2910     3.2270     4.1390     9.0490     0.0110     0.3790     2.5340   156.2450
 2513.0000   -70.1140     5.2910     3.5460     4.3290     9.0340     0.0090     0.3570     2.5410   149.8670
 2513.5000   -69.9520     5.1210     3.8780     4.5190     9.0190     0.0070     0.3400     2.5580   147.5810
 2514.0000   -70.2130     5.0050     3.6840     4.7830     9.0030     0.0090  -999.2500     2.5540   148.7160
 2514.5000   -70.4620     4.8890     3.4260     4.5890     8.9880     0.0140  -999.2500     2.5530   149.1130
 2515.0000   -70.7060     4.7830     3.3120     4.3230     8.9730     0.0180  -999.2500     2.5630   149.5380
 2515.5000   -70.9510     5.2700     3.4670     4.4360     8.9570     0.0140  -999.2500     2.5570   150.3770
 2516.0000   -71.1910     5.5910     3.5820     4.5050     8.9420     0.0110  -999.2500     2.5480   149.3870
 2516.5000   -71.4200     4.9620     3.7320     4.5260     8.9390     0.0120  -999.2500     2.5520   151.0380
 2517.0000   -71.7250     5.0290     3.6260     4.5260     8.9400     0.0130  -999.2500     2.5530   149.5760
 2517.5000   -71.7410     5.2380     3.4670     4.5260     8.9420     0.0140  -999.2500     2.5450   147.7520
 2518.0000   -71.7850     5.3400     3.5610     4.5260     8.9430     0.0150  -999.2500     2.5380   150.7200
 2518.5000   -71.8250     5.2860     3.6630     4.5260     8.9440     0.0170  -999.2500     2.5330   149.5480
 2519.0000   -71.8650     5.2430     3.7320     4.5680     8.9460     0.0180  -999.2500     2.5610   152.9370
 2519.5000   -71.9060     5.2870     3.5550     4.5680     8.9470     0.0160  -999.2500     2.5580   152.3600
 2520.0000   -71.9400     5.3690     3.4670     4.5680     8.9480     0.0130  -999.2500     2.5650   150.7790
 2520.5000   -71.9950     5.4890     3.8010     4.6390     8.9490     0.0140  -999.2500     2.5740   148.8480
 2521.0000   -72.0490     5.3460     3.6220     4.7390     8.9510     0.0160     0.3450     2.5770   149.6590
 2521.5000   -72.1020     5.0830     3.4670     4.5780     8.9520     0.0170     0.3430     2.5750   149.2390
 2522.0000   -72.1540     4.9160     3.4960     4.4030     8.9530     0.0190     0.3480     2.5710   157.2540
 2522.5000   -72.2070     5.0850     3.5470     4.4610     8.9550     0.0210     0.3490     2.5670   160.2700
 2523.0000   -72.2620     5.2910     3.5990     4.5360     8.9560     0.0160     0.3440     2.5660   160.6200
 2523.5000   -72.3160     5.1910     3.6300     4.5680     8.9560     0.0120     0.3410     2.5750   157.9100
 2524.0000   -72.4990     4.8710     3.4360     4.3630     8.9420     0.0160     0.3400     2.5800   155.0660
 2524.5000   -72.8830     5.6760     3.6690     4.8270     8.9390     0.0170     0.3400     2.5690   153.8680
 2525.0000   -73.2660     6.6950     3.9250     4.7790     8.9400     0.0140     0.3400     2.5560   151.8090
 2525.5000   -73.6480     7.1000     4.1810     4.6270     8.9420     0.0120     0.3400     2.5540   149.6430
 2526.0000   -73.9140     6.3110     4.4850     5.4890     8.9430     0.0130     0.3400     2.5660   147.7460
 2526.5000   -73.9080     5.2910     3.9720     4.9540     8.9440     0.0140     0.3400     2.5640   149.1770
 2527.0000   -73.9090     4.8040     3.4190     4.6100     8.9450     0.0150     0.3400     2.5690   151.7700
 2527.5000   -73.9090     4.0540     2.7310     4.1760     8.9470     0.0160     0.3460     2.5640   160.8860
 2528.0000   -73.9090     4.2700     2.7810     3.7660     8.9480     0.0160     0.3510     2.5550   163.2820
 2528.5000   -73.9090     4.7680     2.9830     3.9300     8.9490     0.0150     0.3520     2.5460   164.2340
 2529.0000   -73.9080     5.5400     3.2240     4.1320     8.9500     0.0130     0.3400     2.5450   164.3970
 2529.5000   -73.9100     5.2950     3.3730     4.3230     8.9510     0.0120     0.3400     2.5440   161.5320
 2530.0000   -73.9530     4.7520     3.1170     4.1830     8.9530     0.0110     0.3410     2.5430   158.5970
 2530.5000   -74.1460     4.2440     2.9660     3.9800     8.9540     0.0120     0.3410     2.5420   156.2650
 2531.0000   -74.3350     4.9260     2.9940     4.0170     8.9550     0.0140     0.3440     2.5420   158.5900
