~VERSION INFORMATION
 VERS.                2.0:   CWLS LOG ASCII STANDARD - VERSION 2.0
 WRAP.                 NO:   ONE LINE PER DEPTH STEP
~WELL INFORMATION
#MNEM.UNIT      DATA TYPE    INFORMATION
#----------   ------------   ------------------------------
 STRT.F          514.0000:   START DEPTH
 STOP.F         4154.0000:   STOP DEPTH
 STEP.F            0.5000:   STEP LENGTH
 NULL.          -999.2500:   NO VALUE
 COMP.    FENIX & SCISSON:   COMPANY
 WELL.  FENIX "MX" #86-10:   WELL
 FLD .        TEAPOT DOME:   FIELD
 LOC .      S10 T38N R78W:   LOCATION
 CNTY.            NATRONA:   COUNTY
 STAT.            WYOMING:   STATE
 CTRY. UNITED STATES OF AMERICA:   COUNTRY
 SRVC.       SCHLUMBERGER:   SERVICE COMPANY
 DATE.        30-SEP-1978:   LOGDATE
 API .     49025107290000:   API NUMBER
~CURVE INFORMATION
#MNEM.UNIT       API CODE    CURVE DESCRIPTION
#----------   ------------   ------------------------------
 DEPT.F                  :   
 SPR .MV     07 010 01 00:   SPONTANEOUS POTENTIAL
 TENR.LBS    07 635 01 00:   TENSION FROM RESISTIVITY
 SFL .OHMM   07 220 01 00:   SHALLOW FOCUSED LOG RESISTIVITY
 ILM .OHMM   07 120 44 00:   INDUCTION LOG MEDIUM RESISTIVITY
 ILD .OHMM   07 120 46 00:   INDUCTION LOG DEEP RESISTIVITY
 CALD.IN     45 280 60 00:   CALIPER FROM DENSITY LOG
 GRD .GAPI   45 310 01 00:   GAMMA RAY FROM DENSITY LOG
 TEND.LBS    45 635 01 00:   TENSION FROM DENSITY LOG
 CORR.G/C3   45 356 01 00:   DENSITY CORRECTION
 RHOB.G/C3   45 350 01 00:   BULK DENSITY
 NPHI.DEC    42 890 03 00:   NEUTRON POROSITY SANDSTONE
~PARAMETER INFORMATION
#MNEM.UNIT          VALUE    DESCRIPTION
#----------   ------------   ------------------------------
 EKB .F         5233.0000:   Kelly bushing
 EGL .F         5222.0000:   Ground level
 EDF .F            0.0000:   Drilling floor
 TD  .F         4150.0000:   Total depth
 DATE.        30-SEP-1978:   Date logged
 CLNT.            A2DTECH:   Client Code
 SL  . 1450' FSL & 600' FEL:   Surface Location
 PD  .                 GL:   Permanent Datum
 LMF .                 KB:   Log Measured From
 DMF .                 KB:   Drilling Measured From
 DAPD.F                11:   Feet Above Permanent Datum
 DD  .F              4150:   Depth driller
 DL  .F              4141:   Depth logger
 BLI .F              4135:   Bottom log interval
 TLI .F               520:   Top log interval
 CS1 .IN            9.625:   Casing size
 CBD1.      9.625" @ 529':   Casing driller 1
 CBL1.F               529:   Casing logger 1
 BS1 .IN             8.75:   Bit size
 BSD1.F              4150:   Depth drilled with bit1
 DFT .                FGM:   Type fluid in hole
 DFD .                9.5:   Density
 DFV .                 36:   Viscosity
 DFPH.                 11:   pH
 DFL .                 60:   Fluid loss
 MSS .           MUD TANK:   Source of sample
 RMS .OHMM            .57:   Rm
 MST .F                68:   Rm Meas. temp.
 RMF .OHMM           .449:   Rmf
 MFST.F                68:   Rmf Meas. temp.
 MFSS.               MEAS:   Source Rmf.
 RMB .OHMM            .27:   Rm. at BHT
 BHT .F               142:   BHT.
 TCS .HRS            1500:   Time Circ. stopped
 TLAB.HRS            0700:   Time logger at bottom
 MRT .F               142:   Maximum recorded temp.
 LUN .               8043:   Logging unit number
 LUL .               CSPR:   Logging unit location
 ENGI.             LARSON:   Recorded By
 WITN.           DINSMORE:   Witnessed by
 ORIG.           5" PRINT:   Origin of data
 UWI .     49025107290000:   Unique Well ID
 DICO. A2D TECHNOLOGIES, INC.:   Digitizing Company
 EPD .               5222:   Elevation Permanent Datum
~OTHER INFORMATION
~A   DEPT      SPR       TENR        SFL        ILM        ILD       CALD         GRD      TEND       CORR       RHOB         NPHI 
# ...
  758.0000   -36.9720   258.4490     5.4810     5.0380     5.8770    13.9120   101.8960   530.5510     0.0120     2.4740     0.4650
  758.5000   -37.3630   258.4490     5.5050     5.0380     5.9080    13.9360   100.5870   530.7380     0.0060     2.4880     0.4660
  759.0000   -37.6110   258.4490     5.5180     5.0380     5.9440    13.9580    99.4650   530.9250     0.0040     2.4880     0.4630
  759.5000   -37.4680   258.4490     5.5010     5.0380     6.0540    14.0190    98.5850   531.1120     0.0050     2.4820     0.4530
  760.0000   -37.3310   258.4490     5.4830     5.0380     5.9920    14.1490    97.7230   531.2990     0.0060     2.4680     0.4300
  760.5000   -37.1870   258.4490     5.4660     5.0380     5.9360    14.2640    96.8540   531.4860     0.0060     2.4660     0.4020
  761.0000   -37.0450   258.4490     5.4480     5.0380     5.8800    14.2260    95.9760   531.6730     0.0170     2.4810     0.4010
  761.5000   -36.9030   258.4490     5.4300     5.0340     5.8230    14.0700    95.1160   531.8600     0.0260     2.4970     0.4000
  762.0000   -36.7570   258.4490     5.3550     5.0210     5.7670    13.9180    94.3970   532.0460     0.0320     2.5140     0.4000
  762.5000   -36.6210   258.4490     5.2280     5.0090     5.7110    13.8360    94.9850   532.2330     0.0300     2.5160     0.4000
  763.0000   -36.4640   258.4490     5.1460     4.9960     5.6550    13.7660    95.7340   532.4200     0.0290     2.5100     0.3950
  763.5000   -36.4870   258.4490     5.2100     4.9830     5.6250    13.7630    96.5430   532.6070     0.0270     2.5070     0.3840
  764.0000   -36.5200   258.4490     5.2730     4.9710     5.6140    13.7610    95.3720   532.7940     0.0270     2.5150     0.3750
  764.5000   -36.5610   258.4490     5.3370     4.9590     5.6040    13.7620    93.2390   532.9810     0.0340     2.5250     0.3830
  765.0000   -36.5970   258.4490     5.4000     4.9470     5.5940    13.7620    93.2070   533.1680     0.0400     2.5350     0.3940
  765.5000   -36.6340   258.4490     5.4280     4.9570     5.5840    13.7620    94.5470   533.3550     0.0400     2.5360     0.4020
  766.0000   -36.6720   258.4490     5.4370     4.9670     5.5740    13.7620    96.3790   533.5420     0.0390     2.5250     0.4000
  766.5000   -36.7090   258.4490     5.4450     4.9780     5.5640    13.7620    96.5520   533.7290     0.0330     2.5160     0.3980
  767.0000   -36.7470   258.4490     5.4540     4.9880     5.5540    13.7620    96.2940   533.9160     0.0240     2.5050     0.4020
  767.5000   -36.7800   258.4490     5.4630     4.9990     5.5440    13.7620    96.1780   534.1030     0.0160     2.4950     0.4180
  768.0000   -36.8250   258.4490     5.4720     5.0090     5.5340    13.7620    98.9890   534.2900     0.0100     2.4880     0.4220
  768.5000   -36.8660   258.4490     5.4810     5.0190     5.5240    13.7620   101.6310   534.4770     0.0130     2.4920     0.4030
  769.0000   -37.0240   258.4490     5.4890     5.0300     5.5140    13.7640   104.5150   534.6640     0.0190     2.4960     0.4010
  769.5000   -37.1850   258.4490     5.4980     5.0410     5.5040    13.7500   105.7080   534.8510     0.0220     2.5000     0.3980
  770.0000   -37.2900   258.4490     5.5070     5.0540     5.4940    13.7280   103.2410   535.0380     0.0210     2.5010     0.3890
  770.5000   -37.6340   258.4490     5.5160     5.0660     5.4840    13.6860   100.6050   535.2240     0.0200     2.5000     0.3800
  771.0000   -38.0090   258.4490     5.5800     5.0790     5.4740    13.6380    97.9640   535.4110     0.0190     2.4930     0.3710
  771.5000   -37.7590   258.4490     5.9440     5.0920     5.4640    13.5880    95.1170   535.5980     0.0180     2.4920     0.3670
  772.0000   -37.4240   258.4490     5.8370     5.1040     5.4530    13.5400    95.2630   535.7850     0.0250     2.4970     0.3690
  772.5000   -37.0600   258.4490     5.8390     5.1170     5.4440    13.4910    96.9450   535.9720     0.0320     2.5010     0.3730
  773.0000   -36.7100   258.4490     5.8430     5.1300     5.4340    13.4560    98.4810   536.1590     0.0260     2.4980     0.3750
  773.5000   -36.5100   258.4490     5.8470     5.1420     5.4220    13.4260   100.0750   536.3460     0.0190     2.4870     0.3600
  774.0000   -36.7180   258.4490     5.8510     5.1550     5.4220    13.4000   100.8520   536.5330     0.0120     2.4760     0.3500
  774.5000   -36.9180   258.4490     5.8550     5.1680     5.4220    13.3990   100.6900   536.7200     0.0060     2.4710     0.3610
  775.0000   -37.1420   258.4490     5.8590     5.1800     5.4220    13.3930    98.7880   536.9070     0.0020     2.4690     0.3770
  775.5000   -37.2640   258.4490     5.8630     5.1930     5.4220    13.3880    96.7380   537.0940     0.0020     2.4690     0.3930
  776.0000   -37.1660   258.4490     5.8670     5.2060     5.4220    13.3830    94.4350   537.2810     0.0050     2.4710     0.3900
  776.5000   -36.8690   258.9580     5.8710     5.2190     5.4220    13.3770    94.2230   537.4680     0.0110     2.4750     0.3670
  777.0000   -36.5550   259.5220     5.8750     5.2270     5.4220    13.3720    95.5910   537.6550     0.0140     2.4780     0.3680
  777.5000   -36.5630   260.0870     5.8790     5.2260     5.4220    13.3660    96.3280   537.8490     0.0140     2.4750     0.3790
  778.0000   -36.7920   260.6510     5.8830     5.2260     5.4220    13.3600    97.3250   540.4180     0.0140     2.4710     0.3890
  778.5000   -36.9990   261.2160     5.8870     5.2260     5.4220    13.3640    98.7440   543.0880     0.0140     2.4690     0.3990
  779.0000   -37.2100   261.7800     5.8910     5.2260     5.4220    13.3730    98.9440   545.7570     0.0140     2.4790     0.4090
  779.5000   -37.1600   262.3450     5.8950     5.2260     5.4220    13.3810    98.2680   548.4260     0.0160     2.4870     0.4200
  780.0000   -36.9060   262.9090     5.8990     5.2260     5.4220    13.3890    95.8550   551.0960     0.0190     2.4910     0.4210
  780.5000   -36.6710   263.4740     5.9020     5.2260     5.4220    13.3970    93.4490   553.7650     0.0200     2.4810     0.4150
  781.0000   -36.4340   264.0390     5.9060     5.2260     5.4220    13.4050    92.9500   556.4340     0.0200     2.4730     0.4090
  781.5000   -36.1590   264.6030     5.9100     5.2260     5.4220    13.4130    93.2760   559.1040     0.0200     2.4790     0.4030
  782.0000   -36.2370   265.1680     5.9140     5.2260     5.4220    13.4210    93.5500   561.7730     0.0170     2.4840     0.4000
  782.5000   -36.7420   265.7320     5.9180     5.2260     5.4220    13.4300    93.2310   564.4420     0.0130     2.4820     0.4100
  783.0000   -37.1840   266.2970     5.9220     5.2270     5.4220    13.4380    92.9500   567.1120     0.0100     2.4790     0.4250
  783.5000   -37.6090   266.8610     5.9260     5.2180     5.4220    13.4490    92.6450   569.7810     0.0100     2.4840     0.4340
  784.0000   -37.3240   267.4260     5.9300     5.1930     5.4220    13.4620    92.3660   572.4500     0.0140     2.4910     0.4290
  784.5000   -37.0250   267.9900     5.9340     5.1700     5.4220    13.4740    92.0400   575.1200     0.0180     2.4820     0.4200
  785.0000   -36.7000   268.5550     5.9370     5.1450     5.4210    13.4860    93.2750   577.6890     0.0180     2.4700     0.4150
  785.5000   -36.4980   269.1190     5.9410     5.1230     5.4220    13.4990    95.0420   577.6890     0.0140     2.4540     0.4150
  786.0000   -36.6880   269.6840     5.9530     5.0990     5.4220    13.5120    96.6430   577.6890     0.0100     2.4620     0.4100
  786.5000   -36.8720   270.2480     5.9760     5.0760     5.4220    13.5200    95.0420   577.6890     0.0250     2.4820     0.4060
  787.0000   -37.0570   270.8130     5.9980     5.0520     5.4220    13.5200    93.6280   577.6890     0.0320     2.4960     0.4080
  787.5000   -37.2360   271.3770     6.0170     5.0380     5.4220    13.5210    92.1090   577.6890     0.0320     2.5010     0.4100
  788.0000   -37.1230   271.9420     6.0360     5.3890     5.5300    13.5480    93.1710   577.6890     0.0340     2.4980     0.4100
