~VERSION INFORMATION
 VERS.                2.0:   CWLS LOG ASCII STANDARD - VERSION 2.0
 WRAP.                 NO:   ONE LINE PER DEPTH STEP
~WELL INFORMATION
#MNEM.UNIT      DATA TYPE    INFORMATION
#----------   ------------   ------------------------------
 STRT.F            0.0000:   START DEPTH
 STOP.F         4152.0000:   STOP DEPTH
 STEP.F            0.5000:   STEP LENGTH
 NULL.          -999.2500:   NO VALUE
 COMP. LAWRENCE ALLISON & ASSOCIATES:   COMPANY
 WELL. LAWRENCE "X" #28-27:   WELL
 FLD .             NPR #3:   FIELD
 LOC .      S27 T39N R78W:   LOCATION
 CNTY.            NATRONA:   COUNTY
 STAT.            WYOMING:   STATE
 CTRY. UNITED STATES OF AMERICA:   COUNTRY
 SRVC.      DRESSER ATLAS:   SERVICE COMPANY
 DATE.        26-FEB-1984:   LOGDATE
 API .     49025109630000:   API NUMBER
~CURVE INFORMATION
#MNEM.UNIT       API CODE    CURVE DESCRIPTION
#----------   ------------   ------------------------------
 DEPT.F                  :   
 GRR .GAPI   07 310 01 00:   GAMMA RAY FROM RES.
 TENR.LBS    07 635 01 00:   TENSION FROM RES.
 SPR .MV     07 010 01 00:   SPONTANEOUS POTENTIAL
 RILD.OHMM   07 120 46 00:   RESISTIVITY INDUCTION LOG DEEP
 RILM.OHMM   07 120 44 00:   RESISTIIVTY INDUCTION LOG MEDIUM
 RFOC.OHMM   07 220 04 00:   RESISTIVITY FOCUSED LOG
 DT  .US/F   60 520 00 00:   DELTA TIME
 TENS.LBS    60 635 01 00:   TENSION FROM SONIC
 CALD.IN     45 280 60 00:   CALIPER FROM DENSITY LOG
 TEND.LBS    45 635 01 00:   TENSION FORM DENSITY LOG
 CNC .DEC    42 890 03 00:   NEUTRON POROSITY SANDSTONE
 CORR.G/C3   45 356 01 00:   DENSITY CORRECTION
 DENS.G/C3   45 350 01 00:   DENSITY
~PARAMETER INFORMATION
#MNEM.UNIT          VALUE    DESCRIPTION
#----------   ------------   ------------------------------
 EKB .F         5088.0000:   Kelly bushing
 EGL .F         5078.0000:   Ground level
 EDF .F            0.0000:   Drilling floor
 TD  .F         4154.0000:   Total depth
 CLNT.            A2DTECH:   Client Code
 SL  . 250' FSL & 810' FWL:   Surface Location
 PD  .                 GL:   Permanent Datum
 EPD .F              5078:   Elevation Permanent Datum
 LMF .                 KB:   Log Measured From
 DMF .                 KB:   Drilling Measured From
 DAPD.F                10:   Feet Above Permanent Datum
 DATE.        26-FEB-1984:   Date Logged [DD-MMM-YYYY]
 DD  .F              4154:   Depth driller
 DL  .F              4148:   Depth logger
 BLI .F              4146:   Bottom log interval
 TLI .F                 0:   Top log interval
 CS1 .IN            8.625:   Casing size
 CBD1.      8.625" @ 537':   Casing driller 1
 CBL1.F               540:   Casing logger 1
 BS1 .IN            7.875:   Bit size
 BSD1.F              4154:   Depth drilled with bit1
 DFT .            GEL KCL:   Type fluid in hole
 DFD .                  9:   Density
 DFV .                 45:   Viscosity
 DFPH.                  8:   pH
 DFL .                 14:   Fluid loss
 MSS .           FLOWLINE:   Source of sample
 RMS .OHMM          0.595:   Rm
 MST .F                60:   Rm Meas. temp.
 RMF .OHMM          0.446:   Rmf
 MFST.F                60:   Rmf Meas. temp.
 MFSS.               CALC:   Source Rmf.
 RMC .OHMM          0.744:   Rmc
 MCST.F                60:   Rmc Meas. temp.
 MCSS.               CALC:   Source Rmc.
 RMB .OHMM           0.26:   Rm. at BHT
 BHT .F               138:   BHT.
 TCS .HRS               4:   Time Circ. stopped
 MRT .F               138:   Maximum recorded temp.
 LUN .               6307:   Logging unit number
 LUL .               GLTE:   Logging unit location
 ENGI.           FAHLSING:   Recorded By
 WITN.           JENNINGS:   Witnessed by
 ORIG.      1" 2.5" PRINT:   Origin of data
 UWI .     49025109630000:   Unique Well ID
 DICO. A2D TECHNOLOGIES, INC.:   Digitizing Company
~OTHER INFORMATION
~A    DEPT       GRR     TENR        SPR       RILD       RILM       RFOC         DT       TENS       CALD       TEND        CNC       CORR       DENS   
# ...
  780.0000    96.7864   -44.9219   -23.4524     8.5007     7.6023     6.3031  -999.2500  -999.2500     9.7523     0.0000     0.2378     0.0849     2.5655
  780.5000    99.1729   -44.9219   -23.4455     8.5028     7.6038     6.3031  -999.2500  -999.2500     9.7536     0.0000     0.2459     0.0821     2.5688
  781.0000    98.5258   -44.9219   -23.4400     8.5049     7.6053     6.2181  -999.2500  -999.2500     9.7552     0.0000     0.2502     0.0909     2.5712
  781.5000    96.1408   -44.9219   -23.4345     8.5072     7.7111     6.1342  -999.2500  -999.2500     9.7565     0.0000     0.2502     0.1075     2.5682
  782.0000    88.5710   -44.9219   -23.1310     8.5095     7.8186     6.1342  -999.2500  -999.2500     9.7577     0.0000     0.2472     0.1277     2.5622
  782.5000    86.4832   -44.9219   -23.1250     8.4514     7.8201     6.1342  -999.2500  -999.2500     9.7591     0.0000     0.2356     0.1097     2.5513
  783.0000    89.0838   -44.9219   -23.1190     8.3990     7.8215     6.1342  -999.2500  -999.2500     9.7604     0.0000     0.2297     0.0948     2.5295
  783.5000    94.4494   -44.9219   -22.8147     8.4014     7.8231     6.1813  -999.2500  -999.2500     9.7618     0.0000     0.2303     0.0919     2.5222
  784.0000    94.4524   -44.9219   -22.8093     8.4035     7.8247     6.1342  -999.2500  -999.2500     9.7631     0.0000     0.2263     0.0884     2.5172
  784.5000    94.2391   -44.9219   -22.5060     8.2918     7.8263     6.1342  -999.2500  -999.2500     9.7343     0.0000     0.2181     0.0770     2.5142
  785.0000    92.9465   -44.9219   -22.5000     8.2943     7.8281     6.1342  -999.2500  -999.2500     9.7358     0.0000     0.2219     0.0215     2.5128
  785.5000    92.0893   -44.9219   -22.4940     8.2970     7.8296     6.2181  -999.2500  -999.2500     9.7370     0.0000     0.2285     0.0262     2.5158
  786.0000    88.5240   -44.9219   -22.4871     8.2990     7.7246     6.2181  -999.2500  -999.2500     9.7383     0.0000     0.2370     0.0414     2.5250
  786.5000    89.1814   -44.9219   -22.1840     8.3011     7.6223     6.2181  -999.2500  -999.2500     9.7094     0.0000     0.2395     0.0506     2.5298
  787.0000    91.2461   -44.9219   -21.2857     8.3034     7.5207     6.1342  -999.2500  -999.2500     9.7109     0.0000     0.2421     0.0570     2.5311
  787.5000    90.4266   -44.9219   -20.6349     8.3056     7.4674     6.2181  -999.2500  -999.2500     9.7122     0.0000     0.2438     0.0508     2.5216
  788.0000    87.3581   -44.9219   -20.0833     8.1955     7.4224     6.1342  -999.2500  -999.2500     9.7138     0.0000     0.2435     0.0305     2.5112
  788.5000    87.9588   -44.9219   -19.7798     8.0868     7.4240     6.1342  -999.2500  -999.2500     9.7151     0.0000     0.2434     0.0147     2.5026
  789.0000    91.5452   -44.9219   -20.6659     8.0891     7.5271     6.1342  -999.2500  -999.2500     9.7164     0.0000     0.2436     0.0061     2.4936
  789.5000    95.1126   -44.9219   -21.8509     8.0912     7.5549     6.1342  -999.2500  -999.2500     9.7177     0.0000     0.2411     0.0057     2.4967
  790.0000    92.8968   -44.9219   -22.4407     8.0934     7.6333     6.1342  -999.2500  -999.2500     9.7190     0.0000     0.2391     0.0334     2.5062
  790.5000    89.7103   -44.9219   -22.7328     8.0956     7.6352     6.1342  -999.2500  -999.2500     9.7204     0.3947     0.2369     0.0556     2.5123
  791.0000    87.3936   -44.9219   -22.7262     8.0981     7.6366     6.1342  -999.2500  -999.2500     9.7218     0.5571     0.2375     0.0647     2.5162
  791.5000    87.9943   -44.9219   -22.7192     8.1002     7.5348     6.0514  -999.2500  -999.2500     9.7234     0.6692     0.2363     0.0700     2.5225
  792.0000    88.0556   -44.9219   -22.7137     8.1022     7.4344     5.9698  -999.2500  -999.2500     9.7246   -19.3133     0.2333     0.0400     2.5180
  792.5000    90.1192   -44.9219   -22.4106     8.1044     7.4033     5.9698  -999.2500  -999.2500     9.7259   -19.3848     0.2285     0.0432     2.5181
  793.0000    92.1786   -44.9219   -22.4048     8.1066     7.2379     5.9698  -999.2500  -999.2500     9.7272   -19.5279     0.2297     0.0583     2.5181
  793.5000    93.3760   -44.9219   -22.3988     8.1093     7.2396     5.9698  -999.2500  -999.2500     9.7285   -19.6969     0.2309     0.0832     2.5197
  794.0000    93.9767   -44.9219   -22.3929     8.1113     7.2409     5.9698  -999.2500  -999.2500     9.7299   -19.8448     0.2315     0.0887     2.5217
  794.5000    93.9822   -44.9219   -22.0884     8.1133     7.2423     5.9698  -999.2500  -999.2500     9.7313   -20.0000     0.2312     0.0818     2.5256
  795.0000    94.0973   -44.9219   -22.0830     8.1155     7.2438     5.9698  -999.2500  -999.2500     9.7329   -20.0000     0.2242     0.0755     2.5334
  795.5000    93.7767   -44.9219   -21.7658     8.1177     7.2453     5.9698  -999.2500  -999.2500     9.7039   -20.0000     0.2194     0.0711     2.5365
  796.0000    91.8332   -44.9219   -21.1786     8.1199     7.1488     5.9698  -999.2500  -999.2500     9.7052   -20.0000     0.2218     0.0592     2.5320
  796.5000    88.6495   -44.9219   -20.7539     8.1224     7.0537     5.9698  -999.2500  -999.2500     9.7065   -20.0000     0.2255     0.0503     2.5321
  797.0000    88.0595   -44.9219   -20.2727     8.1244     7.0552     5.9698  -999.2500  -999.2500     9.7079   -20.0000     0.2370     0.0510     2.5336
  797.5000    93.0455   -44.9219   -19.9696     8.1265     7.0566     6.0373  -999.2500  -999.2500     9.7092   -20.0000     0.2421     0.0626     2.5337
  798.0000    97.0000   -64.4531   -20.2618     8.1288     7.0580     5.9584  -999.2500  -999.2500     9.7106   -20.0000     0.2448     0.0573     2.5324
  798.5000    96.4644   -64.9864   -20.5913     8.1310     7.0594     5.9612  -999.2500  -999.2500     9.7424   -20.0000     0.2369     0.0461     2.5262
  799.0000    93.4415   -64.8333   -21.1437     8.0231     6.9657     5.9641  -999.2500  -999.2500     9.7437   -20.0000     0.2381     0.0359     2.5188
  799.5000    92.2560   -64.6781   -21.1369     8.0255     6.8727     5.9669  -999.2500  -999.2500     9.7450   -20.0000     0.2399     0.0300     2.5143
  800.0000    92.2619   -64.5581   -21.2302     8.0275     6.8742     5.9702  -999.2500  -999.2500     9.7462   -20.0000     0.2405     0.0301     2.5113
  800.5000    91.6886   -64.4887   -21.0709     7.9208     6.8756     5.9728  -999.2500  -999.2500     9.7434   -20.0000     0.2407     0.0430     2.5124
  801.0000    91.5079   -64.4613   -20.8155     7.9232     6.8770     5.9754  -999.2500  -999.2500     9.7186   -20.0000     0.2410     0.0589     2.5156
  801.5000    89.9285   -64.4531   -21.1132     7.9253     6.8784     5.9783  -999.2500  -999.2500     9.7201   -20.0000     0.2413     0.0707     2.5231
  802.0000    88.1938   -64.4531   -22.2844     7.9278     6.8799     5.9811  -999.2500  -999.2500     9.6912   -20.0000     0.2411     0.0639     2.5184
  802.5000    86.4300   -64.4531   -22.5744     7.9297     6.8812     5.9840  -999.2500  -999.2500     9.6928   -20.0000     0.2362     0.0548     2.4980
  803.0000    89.7147   -64.4531   -22.2589     7.9200     6.8826     5.9872  -999.2500  -999.2500     9.6941   -20.0000     0.2320     0.0489     2.4950
  803.5000    98.3786   -64.4531   -21.6036     7.7204     6.9783     5.9088  -999.2500  -999.2500     9.6953   -20.0000     0.2323     0.0490     2.4966
  804.0000    94.8291   -64.4531   -20.9484     7.7228     6.9797     5.9116  -999.2500  -999.2500     9.6967   -20.0000     0.2405     0.0552     2.5072
  804.5000    95.7858   -64.4531   -20.2931     7.7252     6.8870     5.8344  -999.2500  -999.2500     9.6980   -20.0000     0.2447     0.0802     2.5215
  805.0000    96.6696   -64.4531   -20.1476     7.7272     6.8883     5.8374  -999.2500  -999.2500     9.6689   -20.0000     0.2600     0.1047     2.5299
  805.5000    96.0963   -64.4531   -20.4370     7.7291     6.8896     5.9206  -999.2500  -999.2500     9.6705   -20.0000     0.2507     0.1176     2.5229
