~VERSION INFORMATION
 VERS.                2.0:   CWLS LOG ASCII STANDARD - VERSION 2.0
 WRAP.                 NO:   ONE LINE PER DEPTH STEP
~WELL INFORMATION
#MNEM.UNIT      DATA TYPE    INFORMATION
#----------   ------------   ------------------------------
 STRT.F          186.0000:   START DEPTH
 STOP.F         3060.0000:   STOP DEPTH
 STEP.F            0.5000:   STEP LENGTH
 NULL.          -999.2500:   NO VALUE
 COMP.    FENIX & SCISSON:   COMPANY
 WELL. FENIX NPR 3 "AX" #63-29:   WELL
 FLD .              N P R:   FIELD
 LOC .      S29 T39N R78W:   LOCATION
 CNTY.            NATRONA:   COUNTY
 STAT.            WYOMING:   STATE
 CTRY. UNITED STATES OF AMERICA:   COUNTRY
 SRVC.           BIRDWELL:   SERVICE COMPANY
 DATE.        28-FEB-1978:   LOGDATE
 API .     49025105960000:   API NUMBER
~CURVE INFORMATION
#MNEM.UNIT       API CODE    CURVE DESCRIPTION
#----------   ------------   ------------------------------
 DEPT.F                  :   
 CALD.IN     45 280 60 00:   CALIPER FROM DENSITY LOG
 GRD .GAPI   45 310 01 00:   GAMMA RAY FROM DENSITY LOG
 DEN .LBS    07 635 01 00:   
 CORR.G/C3   45 356 01 00:   DENSITY CORRECTION
 SPR .MV     05 010 01 00:   SPONTANEOUS POTENTIAL
 SN  .OHMM   05 040 00 00:   SHORT NORMAL
 ILD .OHMM   05 120 46 00:   DEEP INDUCTION RESISTIVITY
~PARAMETER INFORMATION
#MNEM.UNIT          VALUE    DESCRIPTION
#----------   ------------   ------------------------------
 EKB .F         4993.0000:   Kelly bushing
 EGL .F         4983.0000:   Ground level
 EDF .F            0.0000:   Drilling floor
 TD  .F         3060.0000:   Total depth
 DATE.        28-FEB-1978:   Date logged
 CLNT.            A2DTECH:   Client Code
 SL  . 1300' FNL & 1050' FEL:   Surface Location
 PD  .                 GL:   Permanent Datum
 DD  .F              3060:   Depth driller
 DL  .F              3056:   Depth logger
 BLI .F              5050:   Bottom log interval
 CS1 .IN            8.625:   Casing size
 CBD1.      8.625" @ 214':   Casing driller 1
 CBL1.F               218:   Casing logger 1
 BS1 .IN            7.875:   Bit size
 DFT .     LIGNOSULFONATE:   Type fluid in hole
 DFD .                  9:   Density
 DFV .                 34:   Viscosity
 DFPH.               10.5:   pH
 DFL .                  9:   Fluid loss
 MSS .           FLOWLINE:   Source of sample
 RMS .OHMM            1.8:   Rm
 MST .F                58:   Rm Meas. temp.
 RMF .OHMM             .9:   Rmf
 MFST.F                65:   Rmf Meas. temp.
 RMC .OHMM            2.5:   Rmc
 MCST.F                70:   Rmc Meas. temp.
 MFSS.               MEAS:   Source Rmf.
 RMB .OHMM             88:   Rm. at BHT
 BHT .F               118:   BHT.
 TCS .HRS               8:   Time Circ. stopped
 MRT .F               118:   Maximum recorded temp.
 LUN .               2959:   Logging unit number
 LUL .               CASP:   Logging unit location
 ENGI.             MILLER:   Recorded By
 WITN.         HARRINGTON:   Witnessed by
 ORIG.           5" PRINT:   Origin of data
 UWI .     49025105960000:   Unique Well ID
 DICO. A2D TECHNOLOGIES, INC.:   Digitizing Company
 BSD1.F              3060:   Depth drilled with bit1
 EPD .F              4983:   Elevation Permanent Datum
 LMF .                 KB:   Log Measured From
 DMF .                 KB:   Drilling Measured From
 TLI .F               800:   Top log interval
~OTHER INFORMATION
~A   DEPT     CALD         GRD       DEN       CORR        SPR         SN        ILD   
# ...
 2825.0000     9.2390    81.9110     2.4310     0.0260   -31.6660     6.5970     5.8600
 2825.5000     9.2330    87.1550     2.4360     0.0270   -31.6010     6.3740     5.7500
 2826.0000     9.2260    92.6170     2.4450     0.0270   -31.1490     6.2090     5.6390
 2826.5000     9.2200    94.6200     2.4530     0.0280   -30.4570     6.0960     5.5280
 2827.0000     9.2130    94.7760     2.4590     0.0280   -29.8060     6.0810     5.4170
 2827.5000     9.2070    95.0410     2.4630     0.0280   -29.3100     6.0330     5.3230
 2828.0000     9.2010    95.3990     2.4670     0.0290   -28.9360     5.9850     5.2270
 2828.5000     9.1940    95.6330     2.4700     0.0290   -28.5590     5.7290     5.1020
 2829.0000     9.1880    95.9430     2.4730     0.0300   -28.1740     5.5490     4.9770
 2829.5000     9.1810    95.0500     2.4730     0.0300   -27.9070     5.3690     4.8520
 2830.0000     9.1750    94.0190     2.4700     0.0310   -27.8510     5.1890     4.7260
 2830.5000     9.1690    93.6330     2.4670     0.0320   -27.7780     5.0700     4.5950
 2831.0000     9.1620    94.6180     2.4640     0.0330   -27.7110     5.0700     4.5850
 2831.5000     9.1560    95.5170     2.4610     0.0340   -27.6400     5.0700     4.5670
 2832.0000     9.1500    95.4130     2.4640     0.0350   -27.5730     5.0700     4.5490
 2832.5000     9.1430    95.0820     2.4680     0.0360   -27.5170     5.0700     4.5300
 2833.0000     9.1370    94.7150     2.4710     0.0370   -27.6010     5.0700     4.5120
 2833.5000     9.1300    94.3780     2.4750     0.0380   -27.6800     5.0700     4.4940
 2834.0000     9.1240    94.0310     2.4790     0.0380   -27.7650     5.0700     4.4760
 2834.5000     9.1180    93.6920     2.4790     0.0390   -27.8480     5.0700     4.4580
 2835.0000     9.1110    93.3280     2.4780     0.0390   -27.9300     5.0700     4.4400
 2835.5000     9.1050    93.0260     2.4770     0.0400   -28.0150     5.0700     4.4210
 2836.0000     9.0980    92.6720     2.4760     0.0400   -28.0960     5.0700     4.4030
 2836.5000     9.0920    92.2280     2.4760     0.0410   -28.1790     5.0700     4.3850
 2837.0000     9.0870    93.2640     2.4730     0.0420   -28.2690     5.0700     4.3670
 2837.5000     9.0760    96.5250     2.4690     0.0420   -28.3100     5.0700     4.3490
 2838.0000     9.0610    99.1490     2.4650     0.0450   -28.2830     5.0700     4.3400
 2838.5000     9.0480    97.4400     2.4630     0.0470   -28.2620     5.0700     4.3250
 2839.0000     9.0350    92.4810     2.4640     0.0500   -28.2410     5.0700     4.3110
 2839.5000     9.0210    87.5660     2.4650     0.0520   -28.2190     5.0690     4.2960
 2840.0000     9.0080    82.7900     2.4650     0.0600   -28.1970     5.0700     4.2810
 2840.5000     8.9950    77.7180     2.4630     0.0720   -28.1760     5.0700     4.2690
 2841.0000     8.9810    76.0870     2.4610     0.0730   -28.1540     5.0700     4.3690
 2841.5000     8.9680    77.0600     2.4470     0.0520   -28.1320     5.1170     4.4530
 2842.0000     8.9550    86.2500     2.4520     0.0370   -28.1110     5.3060     4.5370
 2842.5000     8.9420    92.4400     2.4790     0.0420   -28.0890     5.4950     4.5950
 2843.0000     8.9280    90.8880     2.4230     0.0480   -28.0670     5.6840     4.5950
 2843.5000     8.9140    87.4370     2.4330     0.0530   -28.0460     5.8750     4.5950
 2844.0000     8.8990    83.9340     2.4380     0.0640   -28.0240     5.7110     4.5950
 2844.5000     8.8840    81.7310     2.4500     0.0240   -28.0030     5.5440     4.5950
 2845.0000     8.8700    85.2470     2.5020     0.0140   -27.9810     5.3580     4.5950
 2845.5000     8.8550    88.5680     2.4970     0.0130   -27.9590     5.3580     4.5950
 2846.0000     8.8400    92.1990     2.4430     0.0230   -27.9380     5.3580     4.5950
 2846.5000     8.8250    92.4990     2.4590     0.0300   -27.9170     5.3580     4.5950
 2847.0000     8.8110    88.4760     2.4580     0.0380   -27.9630     5.6560     4.5950
 2847.5000     8.7960    84.8980     2.4570     0.0380   -28.0310     6.0960     4.5950
 2848.0000     8.7810    81.0060     2.4580     0.0380   -28.0990     6.0960     4.6420
 2848.5000     8.7670    78.4130     2.4720     0.0370   -28.1650     6.1030     4.6970
 2849.0000     8.7540    78.1680     2.4850     0.0370   -28.2330     6.1140     4.7530
 2849.5000     8.7280    80.2630     2.4870     0.0360   -28.3000     6.1250     4.7680
 2850.0000     8.7040    82.1470     2.4870     0.0360   -28.3680     6.1360     4.7680
 2850.5000     8.6800    83.2280     2.4870     0.0350   -28.4350     6.1470     4.7670
 2851.0000     8.6550    81.9870     2.4860     0.0350   -28.5020     6.1580     4.7680
 2851.5000     8.6320    79.1980     2.4860     0.0340   -28.5700     6.1690     4.7670
 2852.0000     8.6070    74.7140     2.4860     0.0340   -28.6340     6.1790     4.7670
 2852.5000     8.6060    70.9160     2.4850     0.0330   -28.7100     6.1900     4.7670
 2853.0000     8.6050    70.8710     2.4850     0.0320   -28.7140     6.2010     4.8430
 2853.5000     8.6060    72.3280     2.4820     0.0310   -28.7160     6.2930     5.0230
 2854.0000     8.6050    79.6380     2.4800     0.0300   -28.7150     6.6050     5.2030
 2854.5000     8.6050    84.2850     2.4780     0.0290   -28.7150     6.9170     5.3830
 2855.0000     8.6060    84.7770     2.4760     0.0280   -28.7150     7.2290     5.5630
 2855.5000     8.6060    85.0380     2.4750     0.0270   -28.7150     7.5410     5.7430
 2856.0000     8.6060    84.5090     2.4780     0.0250   -28.7150     7.8890     5.9440
 2856.5000     8.6060    83.7760     2.4790     0.0240   -28.7150     8.0360     6.0540
 2857.0000     8.6060    86.4750     2.4780     0.0230   -28.7150     7.5540     6.0540
 2857.5000     8.6060    94.1620     2.4730     0.0220   -28.7150     7.1220     6.0540
 2858.0000     8.6060    85.2310     2.4680     0.0220   -28.7150     6.6910     5.8460
 2858.5000     8.6060    77.7010     2.4670     0.0230   -28.7150     6.2090     5.5890
 2859.0000     8.6060    78.6260     2.4720     0.0230   -28.7150     6.1550     5.3320
 2859.5000     8.6060    80.0990     2.4760     0.0240   -28.7150     6.0460     5.0740
 2860.0000     8.6060    81.7690     2.4810     0.0250   -28.7150     5.9380     4.7670
 2860.5000     8.6060    82.0910     2.4810     0.0260   -28.7150     5.8750     4.7670
 2861.0000     8.6060    81.7730     2.4780     0.0260   -28.7150     5.8710     4.7570
 2861.5000     8.6060    84.5350     2.4750     0.0270   -28.7150     5.8570     4.7470
 2862.0000     8.6060    89.3800     2.4750     0.0280   -28.7150     5.8420     4.7380
 2862.5000     8.6060    91.2570     2.4790     0.0290   -28.7150     5.8270     4.7280
 2863.0000     8.6060    91.2870     2.4810     0.0290   -28.7150     5.8130     4.7180
 2863.5000     8.6060    91.4590     2.4780     0.0300   -28.7150     5.7980     4.7080
 2864.0000     8.6060    91.5590     2.4760     0.0310   -28.7150     5.7830     4.6980
 2864.5000     8.6060    91.9030     2.4750     0.0320   -28.7150     5.7680     4.6880
 2865.0000     8.6060    92.7920     2.4750     0.0320   -28.7150     5.6760     4.6800
 2865.5000     8.6030    93.2920     2.4770     0.0330   -28.7150     5.5810     4.6280
 2866.0000     8.6010    92.6130     2.4790     0.0340   -28.7150     5.4850     4.5050
 2866.5000     8.5980    91.6230     2.4820     0.0330   -28.7150     5.3900     4.3820
 2867.0000     8.5960    90.6500     2.4840     0.0310   -28.7150     5.2940     4.2690
 2867.5000     8.5930    89.7350     2.4860     0.0300   -28.7150     5.1990     4.2690
 2868.0000     8.5900    88.9350     2.4870     0.0290   -28.7150     5.0700     4.2690
 2868.5000     8.5880    87.7490     2.4860     0.0270   -28.7150     5.0720     4.2690
 2869.0000     8.5850    85.7860     2.4860     0.0260   -28.7150     5.0800     4.2690
 2869.5000     8.5830    84.1900     2.4850     0.0240   -28.7150     5.0880     4.2690
 2870.0000     8.5800    85.9190     2.4850     0.0230   -28.7150     5.0960     4.2690
