~VERSION INFORMATION
 VERS.                2.0:   CWLS LOG ASCII STANDARD - VERSION 2.0
 WRAP.                 NO:   ONE LINE PER DEPTH STEP
~WELL INFORMATION
#MNEM.UNIT      DATA TYPE    INFORMATION
#----------   ------------   ------------------------------
 STRT.F          211.0000:   START DEPTH
 STOP.F         3244.0000:   STOP DEPTH
 STEP.F            0.5000:   STEP LENGTH
 NULL.          -999.2500:   NO VALUE
 COMP.    FENIX & SCISSON:   COMPANY
 WELL.  FENIX "AX" #84-15:   WELL
 FLD .  TEAPOT DOME NPR-3:   FIELD
 LOC .      S15 T38N R78W:   LOCATION
 CNTY.            NATRONA:   COUNTY
 STAT.            WYOMING:   STATE
 CTRY. UNITED STATES OF AMERICA:   COUNTRY
 SRVC.           BIRDWELL:   SERVICE COMPANY
 DATE.        17-MAR-1978:   LOGDATE
 API .     49025106050000:   API NUMBER
~CURVE INFORMATION
#MNEM.UNIT       API CODE    CURVE DESCRIPTION
#----------   ------------   ------------------------------
 DEPT.F                  :   
 SPR .MV     05 010 01 00:   SPONTANEOUS POTENTIAL
 SN  .OHMM   05 040 16 00:   SHORT NORMAL
 ILD .OHMM   05 120 46 00:   INDUCTION LOG DEEP
 CALD.IN     45 280 60 00:   CALIPER FROM DENSITY LOG
 GRD .GAPI   45 310 01 00:   GAMMA RAY FROM DENSITY LOG
 RHOB.G/C3   45 350 01 00:   BULK DENSITY
 CORR.G/C3   45 356 01 00:   DENSITY CORRECTION
~PARAMETER INFORMATION
#MNEM.UNIT          VALUE    DESCRIPTION
#----------   ------------   ------------------------------
 EKB .F         5251.0000:   Kelly bushing
 EGL .F         5241.0000:   Ground level
 TD  .F         3250.0000:   Total depth
 CLNT.            A2DTECH:   Client Code
 SL  . 359' FEL & 2310' FNL:   Surface Location
 PD  .                 GL:   Permanent Datum
 LMF .                 KB:   Log Measured From
 DMF .                 KB:   Drilling Measured From
 DATE.        17-MAR-1978:   Date Logged [DD-MMM-YYYY]
 DD  .F              3250:   Depth driller
 DL  .F              3250:   Depth logger
 BLI .F              3244:   Bottom log interval
 TLI .F               224:   Top log interval
 CS1 .IN            8.625:   Casing size
 CBD1.             8.625":   Casing driller 1
 CBL1.F               224:   Casing logger 1
 BS1 .IN            7.875:   Bit size
 BSD1.F              3250:   Depth drilled with bit1
 MSS .           FLOWLINE:   Source of sample
 RMS .OHMM            1.3:   Rm
 MST .F                70:   Rm Meas. temp.
 RMF .OHMM            1.1:   Rmf
 MFST.F                70:   Rmf Meas. temp.
 MFSS.               MEAS:   Source Rmf.
 RMC .OHMM            1.4:   Rmc
 MCST.F                70:   Rmc Meas. temp.
 RMB .OHMM           0.77:   Rm. at BHT
 BHT .F               118:   BHT.
 TCS .HRS               6:   Time Circ. stopped
 MRT .F               118:   Maximum recorded temp.
 LUN .               2958:   Logging unit number
 LUL .               CASP:   Logging unit location
 ENGI.             MILLER:   Recorded By
 WITN.           MCGINLEY:   Witnessed by
 ORIG.           5" PRINT:   Origin of data
 UWI .     49025106050000:   Unique Well ID
 DICO. A2D TECHNOLOGIES, INC.:   Digitizing Company
~OTHER INFORMATION
~A   DEPT      SPR         SN        ILD       CALD         GRD      RHOB       CORR   
# ...
  620.5000   -35.6767    10.1300    12.2090    12.1262    53.8289     2.3523     0.0085
  621.0000   -35.6679    10.0332    12.2132    12.1266    53.5434     2.3554     0.0085
  621.5000   -35.3964     9.9660    12.1327    12.1271    54.4905     2.3645     0.0101
  622.0000   -35.3484     9.8984    12.1368    12.1275    55.0745     2.3676     0.0147
  622.5000   -35.3394     9.9010    12.0571    12.1280    54.1921     2.3676     0.0163
  623.0000   -35.3287     9.7933    11.9776    12.1284    54.0530     2.3676     0.0179
  623.5000   -35.4998     9.7379    11.8982    12.1294    54.0715     2.3677     0.0195
  624.0000   -35.6491     9.6354    11.9033    12.1157    54.2365     2.3579     0.0180
  624.5000   -35.7569     9.6374    11.9073    12.0123    54.4015     2.3542     0.0166
  625.0000   -35.7459     9.6004    11.9113    11.9088    56.3682     2.3591     0.0136
  625.5000   -35.7551     9.5083    11.9154    11.8053    57.2839     2.3558     0.0091
  626.0000   -35.4266     9.5106    11.9195    11.7467    56.9947     2.3498     0.0047
  626.5000   -35.1161     9.4463    11.9236    11.7481    56.4126     2.3423     0.0002
  627.0000   -34.6445     9.3826    11.9278    11.7494    55.7550     2.3408     0.0033
  627.5000   -34.3439     9.3848    11.9326    11.7507    55.0909     2.3507     0.0125
  628.0000   -34.1824     9.3869    11.8539    11.7521    54.5051     2.3787     0.0186
  628.5000   -34.0249     9.3890    11.8579    11.7534    53.9193     2.3833     0.0187
  629.0000   -34.0139     9.3256    11.8616    11.7548    53.3335     2.3818     0.0157
  629.5000   -34.0051     9.3279    11.7827    11.7561    53.9564     2.3826     0.0125
  630.0000   -33.8454     9.2649    11.7875    11.7575    56.9670     2.3864     0.0098
  630.5000   -33.8366     9.2671    11.7917    11.7588    56.8314     2.3955     0.0068
  631.0000   -33.5261     9.2688    11.7957    11.7602    57.0240     2.4002     0.0054
  631.5000   -33.3664     9.2710    11.7998    11.7615    59.5674     2.4047     0.0040
  632.0000   -33.2066     9.2726    11.8047    11.7629    59.8825     2.4077     0.0040
  632.5000   -33.0468     9.2748    11.9741    11.7642    59.7435     2.4078     0.0041
  633.0000   -32.8668     9.2765    11.9782    11.7656    59.3115     2.4063     0.0042
  633.5000   -32.5748     9.2786    12.0065    11.7669    57.5245     2.4109     0.0058
  634.0000   -32.5659     9.3839    12.1542    11.6619    56.7849     2.4208     0.0104
  634.5000   -32.5571     9.4123    12.3287    11.6198    57.4040     2.4329     0.0135
  635.0000   -32.5483     9.4142    12.6809    11.6062    59.3707     2.4458     0.0090
  635.5000   -32.5395     9.5480    12.8629    11.6073    59.9861     2.4503     0.0000
  636.0000   -32.5306     9.5500    12.9572    11.6082    58.6496     2.4451    -0.0045
  636.5000   -32.5219     9.6186    12.8716    11.6091    56.5586     2.4429    -0.0014
  637.0000   -32.6637     9.6098    12.7878    11.6100    56.5771     2.4233     0.0047
  637.5000   -32.6550     9.5560    12.7024    11.6109    57.3427     2.4149     0.0109
  638.0000   -32.7964     9.4263    12.5322    11.6118    59.7599     2.4098     0.0140
  638.5000   -32.7859     9.3629    12.2775    11.6127    60.3799     2.4098     0.0140
  639.0000   -32.9301     9.2704    12.0270    11.6136    60.7037     2.4106     0.0141
  639.5000   -33.0721     9.1729    12.0321    11.6145    61.0060     2.4069     0.0127
  640.0000   -33.2629     9.0095    12.0362    11.6154    58.3213     2.3994     0.0112
  640.5000   -33.5048     8.9254    12.0403    11.6164    58.6364     2.3919     0.0067
  641.0000   -33.4959     8.8334    12.0445    11.6173    58.9515     2.3889     0.0050
  641.5000   -33.4871     8.7448    11.9649    11.6182    59.2666     2.3874     0.0023
  642.0000   -33.4681     8.7471    11.8860    11.6191    59.2814     2.3920     0.0024
  642.5000   -33.1423     8.7488    11.8905    11.6200    59.1461     2.3906     0.0010
  643.0000   -33.0059     8.7506    11.8129    11.6209    57.9597     2.3883    -0.0005
  643.5000   -32.6954     8.7524    11.7710    11.6218    55.5721     2.3914    -0.0004
  644.0000   -32.5358     8.7542    11.7377    11.6227    56.1875     2.3953    -0.0003
  644.5000   -32.3761     8.7560    11.7427    11.6236    56.9530     2.3977    -0.0003
  645.0000   -32.3680     8.7577    11.7470    11.6245    57.8687     2.3983    -0.0002
  645.5000   -32.2076     8.7595    11.6692    11.6254    58.7857     2.3969    -0.0001
  646.0000   -32.0480     8.7613    11.6293    11.6263    59.4011     2.3969    -0.0001
  646.5000   -32.0391     8.7633    11.5961    11.6272    59.5660     2.4030     0.0015
  647.0000   -31.8793     8.7650    11.6010    11.6282    59.5808     2.4129     0.0024
  647.5000   -31.7195     8.7668    11.5947    11.6291    59.5956     2.4227     0.0032
  648.0000   -31.7088     8.7686    11.5275    11.6300    59.7606     2.4318     0.0056
  648.5000   -31.5491     8.7705    11.5320    11.6309    59.9256     2.4372     0.0064
  649.0000   -31.3895     8.7724    11.5363    11.6318    60.0905     2.4382     0.0064
  649.5000   -31.0790     8.7741    11.5401    11.6327    60.1053     2.4305     0.0065
  650.0000   -30.7685     8.7762    11.6247    11.6336    63.4234     2.4517     0.0091
  650.5000   -30.4602     8.7778    11.6287    11.6345    63.1379     2.4638     0.0106
  651.0000   -30.9020     8.7796    11.6328    11.6354    61.5495     2.4678     0.0120
  651.5000   -31.3453     8.7814    11.6375    11.6363    58.9384     2.4903     0.0120
  652.0000   -31.6382     8.8147    11.6409    11.6372    58.6778     2.4934     0.0135
  652.5000   -31.9310     8.8464    11.6449    11.6375    59.2969     2.4730     0.0028
  653.0000   -31.9199     8.8486    11.6493    11.6376    59.3117     2.4587     0.0058
  653.5000   -31.9111     8.8501    11.5722    11.6377    58.5758     2.4739     0.0148
  654.0000   -31.9023     8.8522    11.4960    11.6378    58.4368     2.4671     0.0193
  654.5000   -31.7008     8.8540    11.4203    11.6379    58.9057     2.4574     0.0132
  655.0000   -31.5830     8.9174    11.2664    11.6380    60.5722     2.4529     0.0086
  655.5000   -31.2725     8.9192    11.1922    11.6381    63.7078     2.4537     0.0071
  656.0000   -30.9620     8.9212    11.1968    11.6382    64.4676     2.4545     0.0085
  656.5000   -30.6515     8.9230    11.2006    11.6383    63.8820     2.4663     0.0085
  657.0000   -30.6425     8.8630    11.2039    11.6384    63.4436     2.4678     0.0100
  657.5000   -30.6335     8.8649    11.2082    11.6385    60.6028     2.4671     0.0114
  658.0000   -30.6228     8.8052    11.2120    11.6386    59.5607     2.4641     0.0129
  658.5000   -30.7670     8.7460    11.2158    11.6387    60.4767     2.4611     0.0129
  659.0000   -30.7560     8.7393    11.2196    11.6388    63.9421     2.4672     0.0128
  659.5000   -30.8973     8.6288    11.1456    11.6389    67.5577     2.4695     0.0128
  660.0000   -30.8884     8.5708    10.9953    11.6390    68.3175     2.4702     0.0127
  660.5000   -30.8796     8.5131    10.9101    11.6391    67.4286     2.4703     0.0112
  661.0000   -30.8708     8.5153    10.7018    11.6392    67.2905     2.4673     0.0081
  661.5000   -30.7111     8.4576    10.6303    11.6393    67.4557     2.4612     0.0035
  662.0000   -30.7023     8.4598    10.4874    11.6394    67.4677     2.4567    -0.0011
  662.5000   -30.8443     8.4240    10.3456    11.6395    67.6299     2.4537    -0.0042
  663.0000   -31.1371     8.4046    10.3500    11.6396    67.7921     2.4545    -0.0042
  663.5000   -31.4299     8.4063    10.3535    11.6397    67.9542     2.4561    -0.0012
  664.0000   -31.5719     8.3498    10.3569    11.6398    68.1164     2.4561     0.0048
  664.5000   -31.7139     8.2941    10.3605    11.6399    68.5789     2.4553     0.0078
  665.0000   -31.7029     8.2955    10.3641    11.6400    68.5909     2.4531     0.0077
  665.5000   -31.3924     8.2972    10.3684    11.6401    67.7020     2.4509     0.0077
