~VERSION INFORMATION
 VERS.                2.0:   CWLS LOG ASCII STANDARD - VERSION 2.0
 WRAP.                 NO:   ONE LINE PER DEPTH STEP
~WELL INFORMATION
#MNEM.UNIT      DATA TYPE    INFORMATION
#----------   ------------   ------------------------------
 STRT.F          297.0000:   START DEPTH
 STOP.F         2946.0000:   STOP DEPTH
 STEP.F            0.5000:   STEP LENGTH
 NULL.          -999.2500:   NO VALUE
 COMP.    FENIX & SCISSON:   COMPANY
 WELL. FENIX & SCISSON SH "X" #17-10:   WELL
 FLD .             NPR #3:   FIELD
 LOC .      S10 T38N R78W:   LOCATION
 CNTY.            NATRONA:   COUNTY
 STAT.            WYOMING:   STATE
 CTRY. UNITED STATES OF AMERICA:   COUNTRY
 SRVC.       SCHLUMBERGER:   SERVICE COMPANY
 DATE.        05-APR-1977:   LOGDATE
 API .     49025103310000:   API NUMBER
~CURVE INFORMATION
#MNEM.UNIT       API CODE    CURVE DESCRIPTION
#----------   ------------   ------------------------------
 DEPT.F                  :   
 SPR .MV     07 010 01 00:   SPONTANEOUS POTENTIAL
 ILD .OHMM   07 120 46 00:   DEEP INDUCTION RESISTIVITY
 ILM .OHMM   07 120 44 00:   INDUCTION LOG MEDIUM RESISTIVITY
 LL8 .OHMM   07 220 08 00:   LATEROLOG-8 RES.
 CALD.IN     45 280 60 00:   CALIPER FROM DENSITY LOG
 GRD .GAPI   45 310 01 00:   GAMMA RAY FROM DENSITY LOG
 CORR.G/C3   45 356 01 00:   DENSITY CORRECTION
 RHOB.G/C3   45 350 01 00:   BULK DENSITY
~PARAMETER INFORMATION
#MNEM.UNIT          VALUE    DESCRIPTION
#----------   ------------   ------------------------------
 EKB .F         5270.0000:   Kelly bushing
 EGL .F         5260.0000:   Ground level
 TD  .F         2950.0000:   Total depth
 CLNT.            A2DTECH:   Client Code
 SL  . 205' FWL & 1115' FSL:   Surface Location
 DATE.        05-APR-1977:   Date Logged [DD-MMM-YYYY]
 DD  .F              2950:   Depth driller
 DL  .F              2948:   Depth logger
 BLI .F              2946:   Bottom log interval
 TLI .F               310:   Top log interval
 CS1 .              10.75:   Casing size
 CBD1.      10.75" @ 300':   Casing driller 1
 CBL1.IN              310:   Casing logger 1
 BS1 .IN            8.625:   Bit size
 BSD1.F              2950:   Depth drilled with bit1
 DFT .                KCL:   Type fluid in hole
 DFD .                9.0:   Density
 DFV .                 33:   Viscosity
 DFL .                  9:   Fluid loss
 MSS .            MUD PIT:   Source of sample
 RMS .OHMM          0.153:   Rm
 MST .F                60:   Rm Meas. temp.
 RMF .OHMM          0.130:   Rmf
 MFST.F                60:   Rmf Meas. temp.
 MFSS.               MEAS:   Source Rmf.
 RMC .OHMM          0.229:   Rmc
 MCST.F                60:   Rmc Meas. temp.
 MCSS.               CALC:   Source Rmc.
 RMB .OHMM           0.08:   Rm. at BHT
 BHT .F               115:   BHT.
 TCS .HRS               6:   Time Circ. stopped
 MRT .F               115:   Maximum recorded temp.
 LUN .               7689:   Logging unit number
 LUL .               CODY:   Logging unit location
 ENGI.             RASMUS:   Recorded By
 WITN.              LYONS:   Witnessed by
 ORIG.         2.5" PRINT:   Origin of data
 UWI .     49025103310000:   Unique Well ID
 DICO. A2D TECHNOLOGIES, INC.:   Digitizing Company
 PD  .                 GL:   Permanent Datum
 EPD .               5260:   Elevation Permanent Datum
 LMF .                 KB:   Log Measured From
 DMF .                 KB:   Drilling Measured From
 DAPD.                 10:   Feet Above Permanent Datum
~OTHER INFORMATION
~A   DEPT      SPR        ILD        ILM        LL8       CALD        GRD       CORR       RHOB   
# ...
 1836.0000   -50.3529     4.6793     4.5369     8.6409    10.2776   103.8673     0.0085     2.5385
 1836.5000   -50.3456     4.6160     4.5381     8.7610    10.2782   103.9528     0.0070     2.5391
 1837.0000   -50.3382     4.6164     4.5393     8.7616    10.2788   103.5410     0.0069     2.5356
 1837.5000   -50.3309     4.5957     4.4788     8.7622    10.2806   104.6418     0.0085     2.5371
 1838.0000   -50.3235     4.5542     4.4802     8.7628    10.3094   105.3741     0.0115     2.5445
 1838.5000   -50.3162     4.5545     4.4815     8.7634    10.3115   102.6771     0.0130     2.5489
 1839.0000   -50.3088     4.5548     4.4826     8.7640    10.3400   103.5586     0.0174     2.5534
 1839.5000   -50.3015     4.5552     4.4839     8.7646    10.3406   104.4402     0.0219     2.5666
 1840.0000   -50.2941     4.5555     4.4851     8.7652    10.3412   105.0294     0.0234     2.5770
 1840.5000   -50.2868     4.5558     4.4864     8.6463    10.3417   103.8642     0.0219     2.5711
 1841.0000   -50.2794     4.5561     4.4876     8.6468    10.3446   102.4066     0.0204     2.5579
 1841.5000   -50.2721     4.5564     4.4888     8.6474    10.3723   100.3642     0.0219     2.5535
 1842.0000   -50.2647     4.5567     4.4900     8.7676    10.3729   100.6609     0.0235     2.5505
 1842.5000   -50.2574     4.5570     4.4912     8.7681    10.3735   102.1273     0.0249     2.5506
 1843.0000   -50.2500     4.5875     4.4925     8.7687    10.3741   100.6697     0.0238     2.5535
 1843.5000   -50.2426     4.6204     4.4937     8.7693    10.3747   102.7209     0.0149     2.5565
 1844.0000   -50.2353     4.6208     4.4949     8.7699    10.3753   104.4796     0.0081     2.5181
 1844.5000   -50.2279     4.6211     4.5578     8.7705    10.3758   103.8992     0.0093     2.5152
 1845.0000   -50.2206     4.6214     4.4971     8.7711    10.3764   102.1492     0.0123     2.5246
 1845.5000   -50.2132     4.6217     4.4986     8.7717    10.3770   100.3992     0.0153     2.5383
 1846.0000   -50.2059     4.6221     4.4998     8.7636    10.3776    99.8188     0.0182     2.5570
 1846.5000   -50.3284     4.5595     4.5011     8.6433    10.3782    99.2383     0.0228     2.5660
 1847.0000   -50.4853     4.5235     4.5023     8.4196    10.3788   100.1199     0.0257     2.5716
 1847.5000   -50.4780     4.4982     4.5036     8.3054    10.3794   101.0015     0.0237     2.5758
 1848.0000   -50.4706     4.4985     4.5048     8.3059    10.3800   101.5907     0.0163     2.5698
 1848.5000   -50.4632     4.4988     4.5060     8.3065    10.3805   105.2662     0.0118     2.5670
 1849.0000   -50.4559     4.4991     4.5072     8.2909    10.3811   110.9444     0.0125     2.5647
 1849.5000   -50.4485     4.4995     4.4786     8.0827    10.3817   113.1038     0.0184     2.5521
 1850.0000   -50.4412     4.4998     4.4183     8.1018    10.3823   113.0110     0.0193     2.5546
 1850.5000   -50.4338     4.4388     4.3893     8.3089    10.3830   112.4255     0.0133     2.5617
 1851.0000   -50.4265     4.4392     4.3309     8.4243    10.3836   107.8510     0.0059     2.5672
 1851.5000   -50.4191     4.4395     4.3640     8.3099    10.3842   106.8759     0.0014     2.5605
 1852.0000   -50.4118     4.5010     4.3929     8.3106    10.3847   106.1013    -0.0022     2.5539
 1852.5000   -50.4044     4.6262     4.4278     8.1977    10.3853   105.0365    -0.0013     2.5593
 1853.0000   -50.3971     4.7549     4.4907     8.1984    10.3859   104.0596     0.0047     2.5668
 1853.5000   -50.5539     4.8207     4.5545     8.3408    10.3865   100.5347     0.0060     2.5739
 1854.0000   -50.6765     4.8211     4.6191     8.6623    10.3871    94.2280     0.0038     2.5776
 1854.5000   -50.6691     4.8214     4.7102     8.6629    10.3583    97.9254     0.0016     2.5762
 1855.0000   -50.8334     4.8217     4.7763     8.9236    10.3589    99.3121     0.0008     2.5762
 1855.5000   -50.9485     4.8220     4.8434     9.4461    10.3594    97.2697     0.0002     2.5747
 1856.0000   -50.6456     4.8223     4.7789     9.2032    10.3306   103.8875     0.0002     2.5725
 1856.5000   -50.6397     4.7571     4.7153     8.9063    10.3018   106.6738    -0.0013     2.5591
 1857.0000   -50.6310     4.7453     4.6524     8.9070    10.3024   108.2134    -0.0013     2.5417
 1857.5000   -50.6236     4.6167     4.7826     8.9076    10.3030   107.7706    -0.0013     2.5303
 1858.0000   -50.3222     4.5535     4.7190     8.9083    10.3330   106.8947     0.0017     2.5232
 1858.5000   -50.3149     4.4910     4.6562     8.9089    10.3336   102.7383     0.0062     2.5271
 1859.0000   -50.3075     4.4440     4.5942     8.7879    10.3636   103.1391     0.0106     2.5393
 1859.5000   -50.3002     4.4290     4.5955     8.7886    10.3641   106.1888     0.0151     2.5547
 1860.0000   -50.2929     4.3842     4.5926     8.6222    10.3647   109.3568     0.0195     2.5612
 1860.5000   -50.2856     4.3845     4.5356     8.2735    10.3653   107.5433     0.0225     2.5661
 1861.0000   -50.2783     4.3848     4.5313     8.0488    10.3659   106.3830     0.0181     2.5656
 1861.5000   -50.2709     4.3851     4.4157     7.8768    10.3665   107.9166     0.0122     2.5586
 1862.0000   -49.9695     4.3854     4.3570     7.8773    10.3965   109.2652     0.0107     2.5538
 1862.5000   -49.9622     4.4059     4.2990     7.9867    10.3971   109.6613     0.0122     2.5529
 1863.0000   -49.9548     4.4465     4.3003     8.1503    10.3977   108.8625     0.0196     2.5600
 1863.5000   -49.9475     4.5080     4.3014     8.3791    10.3982   110.2850     0.0255     2.5648
 1864.0000   -49.9402     4.5315     4.3026     8.6143    10.3988   110.6433     0.0211     2.5648
 1864.5000   -50.2270     4.5708     4.3038     8.7341    10.3994   108.1686     0.0197     2.5627
 1865.0000   -50.2197     4.5711     4.3158     8.6142    10.4000   106.4186     0.0212     2.5598
 1865.5000   -50.2123     4.5714     4.3654     8.6201    10.4300   104.0838     0.0226     2.5581
 1866.0000   -50.2674     4.5717     4.3072     8.7413    10.4306   101.1642     0.0241     2.5643
 1866.5000   -50.4212     4.5447     4.3084     8.7971    10.4312   101.1028     0.0250     2.5800
 1867.0000   -50.4857     4.4215     4.3096     8.7977    10.4318   104.6818     0.0205     2.5653
 1867.5000   -50.4779     4.3290     4.3108     8.2474    10.4618   106.1481     0.0161     2.5533
 1868.0000   -50.4706     4.2705     4.3120     7.8208    10.4918   106.7373     0.0138     2.5502
 1868.5000   -50.4633     4.2708     4.2976     7.8845    10.4923   105.8645     0.0139     2.5445
 1869.0000   -50.4559     4.2711     4.2399     7.8850    10.5223   104.6993     0.0139     2.5392
 1869.5000   -50.4485     4.2714     4.1827     7.8856    10.5229   104.4113     0.0124     2.5385
 1870.0000   -50.7359     4.2717     4.1432     7.8861    10.5235   104.4156     0.0102     2.5407
 1870.5000   -50.7280     4.2720     4.1445     7.9956    10.5241   104.7124     0.0087     2.5444
 1871.0000   -50.7206     4.2723     4.1456     7.9962    10.5247   105.3016     0.0072     2.5444
 1871.5000   -50.7132     4.2726     4.1467     7.9967    10.5253   105.5984     0.0051     2.5348
 1872.0000   -50.7647     4.2729     4.1677     7.9973    10.5259   102.9712     0.0028     2.5320
 1872.5000   -50.9934     4.2151     4.2061     7.9978    10.5265   101.8060     0.0021     2.5350
 1873.0000   -51.2802     4.2154     4.2072     7.9984    10.5270   103.5647     0.0014     2.5357
 1873.5000   -51.2721     4.2157     4.2084     7.9989    10.5276   106.4931     0.0007     2.5357
 1874.0000   -51.1961     4.1587     4.2095     7.9994    10.5282   108.8366     0.0007     2.5389
 1874.5000   -50.9632     4.1590     4.1535     7.9999    10.5288   109.1828    -0.0002     2.5440
 1875.0000   -50.9559     4.1592     4.1547     8.0466    10.5294   107.6758    -0.0016     2.5437
 1875.5000   -50.9485     4.2168     4.1558     8.1116    10.5300   106.5106    -0.0013     2.5399
 1876.0000   -51.0197     4.2752     4.1570     8.2243    10.5306   106.5150     0.0052     2.5329
