~VERSION INFORMATION
 VERS.                2.0:   CWLS LOG ASCII STANDARD - VERSION 2.0
 WRAP.                 NO:   ONE LINE PER DEPTH STEP
~WELL INFORMATION
#MNEM.UNIT      DATA TYPE    INFORMATION
#----------   ------------   ------------------------------
 STRT.F          209.5000:   START DEPTH
 STOP.F         3130.0000:   STOP DEPTH
 STEP.F            0.5000:   STEP LENGTH
 NULL.          -999.2500:   NO VALUE
 COMP. FENIX & SCISSON-U.S. NAVY:   COMPANY
 WELL.   FENIX "A" #66-29:   WELL
 FLD .              NPR 3:   FIELD
 LOC .      S29 T39N R78W:   LOCATION
 CNTY.            NATRONA:   COUNTY
 STAT.            WYOMING:   STATE
 CTRY. UNITED STATES OF AMERICA:   COUNTRY
 SRVC.       SCHLUMBERGER:   SERVICE COMPANY
 DATE.        12-JUN-1977:   LOGDATE
 API .     49025103850000:   API NUMBER
~CURVE INFORMATION
#MNEM.UNIT       API CODE    CURVE DESCRIPTION
#----------   ------------   ------------------------------
 DEPT.F                  :   
 CALD.IN     45 280 60 00:   CALIPER FROM DENSITY LOG
 GRD .GAPI   45 310 01 00:   GAMMA RAY FROM DENSITY LOG
 RHOB.G/C3   45 350 01 00:   BULK DENSITY
 CORR.G/C3   45 356 01 00:   DENSITY CORRECTION
 LL8 .OHMM   07 220 08 00:   LATEROLOG-8 RES.
 ILD .OHMM   07 120 46 00:   DEEP INDUCTION RESISTIVITY
 ILM .OHMM   07 120 44 00:   INDUCTION LOG MEDIUM RESISTIVITY
 SPR .MV     07 010 01 00:   SPONTANEOUS POTENTIAL
~PARAMETER INFORMATION
#MNEM.UNIT          VALUE    DESCRIPTION
#----------   ------------   ------------------------------
 EKB .F         5058.0000:   Kelly bushing
 EGL .F         5048.0000:   Ground level
 EDF .F            0.0000:   Drilling floor
 TD  .F         3120.0000:   Total depth
 DATE.        12-JUN-1977:   Date logged
 CLNT.            A2DTECH:   Client Code
 SL  . 1650' FSL & 1650' FEL:   Surface Location
 PD  .                 GL:   Permanent Datum
 EPD .F              5048:   Elevation Permanent Datum
 LMF .                 KB:   Log Measured From
 DMF .                 KB:   Drilling Measured From
 DAPD.F                10:   Feet Above Permanent Datum
 DD  .F              3120:   Depth driller
 DL  .F              3120:   Depth logger
 BLI .F              3120:   Bottom log interval
 TLI .F               219:   Top log interval
 CS1 .IN            8.625:   Casing size
 CBD1.      8.625" @ 225':   Casing driller 1
 CBL1.F               219:   Casing logger 1
 BS1 .IN            7.875:   Bit size
 BSD1.F              3120:   Depth drilled with bit1
 DFT .            KCL MUD:   Type fluid in hole
 DFD .                8.8:   Density
 DFV .                 32:   Viscosity
 DFPH.                7.5:   pH
 DFL .                  8:   Fluid loss
 MSS .              CIRC.:   Source of sample
 RMS .OHMM           2.01:   Rm
 MST .F                72:   Rm Meas. temp.
 RMF .OHMM            1.9:   Rmf
 MFST.F                72:   Rmf Meas. temp.
 RMC .OHMM           3.02:   Rmc
 MCST.F                72:   Rmc Meas. temp.
 MFSS.               MEAS:   Source Rmf.
 MCSS.               CALC:   Source Rmc.
 RMB .OHMM           1.21:   Rm. at BHT
 BHT .F               120:   BHT.
 TCS .HRS            1400:   Time Circ. stopped
 TLAB.HRS            1730:   Time logger at bottom
 MRT .F               120:   Maximum recorded temp.
 LUN .               7711:   Logging unit number
 LUL .               CSPR:   Logging unit location
 ENGI.             SAYLER:   Recorded By
 WITN.             RHODES:   Witnessed by
 ORIG.           5" PRINT:   Origin of data
 UWI .     49025103850000:   Unique Well ID
 DICO. A2D TECHNOLOGIES, INC.:   Digitizing Company
~OTHER INFORMATION
~A   DEPT     CALD         GRD      RHOB       CORR        LL8        ILD        ILM        SPR   
# ...
 2882.5000     8.6226   127.8509     2.5461     0.0051     6.3723     5.4137     5.0311   -19.0833
 2883.0000     8.6025   129.2343     2.5401     0.0031     6.3717     5.4132     4.9845   -18.8868
 2883.5000     8.6022   131.2120     2.5322    -0.0019     6.4297     5.3633     4.9843   -18.8877
 2884.0000     8.6020   132.5955     2.5222    -0.0059     6.2551     5.2655     4.9384   -18.4937
 2884.5000     8.6017   133.9790     2.5172    -0.0079     6.1411     5.1223     4.8483   -18.0996
 2885.0000     8.5618   134.5707     2.5162    -0.0069     6.0292     5.0288     4.7599   -17.9031
 2885.5000     8.5418   136.3501     2.5202    -0.0029     5.9194     4.9371     4.5881   -17.9040
 2886.0000     8.5019   138.9215     2.5331     0.0120     5.9732     4.8470     4.4633   -18.4976
 2886.5000     8.4818   139.7116     2.5212     0.0040     5.8643     4.6721     4.3819   -18.8937
 2887.0000     8.4816   141.8871     2.5132    -0.0030     5.8105     4.5868     4.3415   -18.8946
 2887.5000     8.4813   144.0626     2.5022    -0.0119     5.8099     4.5031     4.3015   -18.8956
 2888.0000     8.4810   145.6443     2.4903    -0.0080     5.7565     4.4617     4.3011   -19.0941
 2888.5000     8.5005   148.8101     2.5122    -0.0010     5.5492     4.4613     4.3007   -19.8854
 2889.0000     8.5003   151.2540     2.5271     0.0020     5.3493     4.4611     4.3003   -20.0839
 2889.5000     8.5000   147.6179     2.5281     0.0030     5.2518     4.4604     4.3395   -20.0849
 2890.0000     8.5592   144.8443     2.5271     0.0139     5.3975     4.4600     4.3791   -19.8884
 2890.5000     8.4797   137.3189     2.5201     0.0109     5.7539     4.4599     4.4191   -20.2844
 2891.0000     8.4596   134.5451     2.5062     0.0029     5.7534     4.4592     4.5417   -20.2854
 2891.5000     8.4989   131.7709     2.5052     0.0029     5.7528     4.4588     4.4997   -20.2864
 2892.0000     8.4986   130.9769     2.5081     0.0049     5.7523     4.4995     4.4994   -19.4971
 2892.5000     8.4984   127.4111     2.5181    -0.0011     5.8046     4.5405     4.4990   -19.4983
 2893.0000     8.4981   127.6068     2.5061    -0.0011     5.8574     4.5818     4.5818   -18.9067
 2893.5000     8.4978   129.1885     2.5061     0.0019     5.9651     4.6661     4.6235   -18.7101
 2894.0000     8.4976   130.7702     2.5081     0.0049     6.0193     4.7086     4.6231   -18.7111
 2894.5000     8.4973   129.5801     2.5140     0.0118     6.0741     4.7082     4.7082   -18.1193
 2895.0000     8.4970   127.7960     2.5230     0.0098     6.0182     4.7948     4.7511   -18.1203
 2895.5000     8.4966   127.7938     2.5309     0.0138     5.9629     4.8385     4.7506   -17.7262
 2896.0000     8.4964   127.7917     2.5289     0.0128     5.9623     4.8826     4.7939   -17.5297
 2896.5000     8.4962   126.2055     2.5449     0.0088     5.9075     4.9271     4.7935   -17.5307
 2897.0000     8.5157   124.4209     2.5369     0.0167     6.1271     4.9267     4.7930   -17.7292
 2897.5000     8.5155   121.8446     2.5289     0.0018     6.1828     4.9716     4.8367   -17.9277
 2898.0000     8.5152   119.4663     2.5100    -0.0022     6.1823     4.9711     4.8363   -18.1264
 2898.5000     8.5149   124.2161     2.5060    -0.0042     6.1254     4.9707     4.8358   -18.3249
 2899.0000     8.5146   126.7885     2.5040    -0.0062     6.1811     5.1086     4.8354   -18.7210
 2899.5000     8.5144   127.1823     2.5060    -0.0062     6.1806     5.1082     4.8349   -18.9195
 2900.0000     8.5141   127.9721     2.5110     0.0017     6.1800     5.1078     4.7904   -18.9205
 2900.5000     8.5138   130.0875     2.5127    -0.0045     6.1272     5.0151     4.7531   -19.2627
 2901.0000     8.5136   133.1147     2.5079    -0.0102     6.1792     4.9686     4.7028   -19.5209
 2901.5000     8.5134   134.4985     2.5069    -0.0102     6.1225     4.9229     4.6170   -20.1174
 2902.0000     8.5132   134.4957     2.5029    -0.0053     6.1221     4.7891     4.5329   -19.7264
 2902.5000     8.5526   133.7009     2.5049    -0.0033     5.8479     4.7018     4.4097   -19.5321
 2903.0000     8.5524   131.5195     2.4999    -0.0053     5.5352     4.5740     4.3293   -18.9435
 2903.5000     8.5719   130.7247     2.4959    -0.0053     5.3359     4.4906     4.2504   -17.7624
 2904.0000     8.5123   130.7219     2.4979    -0.0033     5.1911     4.4088     4.1730   -16.7788
 2904.5000     8.5913   127.5513     2.4949     0.0016     5.1434     4.3682     4.0969   -14.0177
 2905.0000     8.5713   126.1627     2.4939     0.0046     5.2862     4.3679     4.0592   -15.6018
 2905.5000     8.5710   125.7640     2.4949     0.0086     5.4830     4.3278     4.0589   -18.9635
 2906.0000     8.5708   126.3552     2.5068     0.0245     5.4326     4.3275     4.0586   -28.0539
 2906.5000     8.5706   127.3423     2.5058    -0.0014     5.3337     4.3670     4.0583   -44.8481
 2907.0000     8.5704   129.9133     2.5058    -0.0024     5.2366     4.4069     4.1331   -59.9887
 2907.5000     8.5701   130.9005     2.5038    -0.0005     5.0944     4.4471     4.2092   -75.1293
 2908.0000     8.6095   130.5017     2.5416     0.0045     5.2359     4.4877     4.2867   -91.6754
 2908.5000     8.6093   128.7171     2.5445     0.0075     5.3812     4.6125     4.4465   -93.6538
 2909.0000     8.6091   125.7448     2.5445     0.0104     5.6327     4.7407     4.5284   -93.8553
 2909.5000     8.6484   123.7624     2.5455     0.0084     5.9503     4.7840     4.5697   -94.0568
 2910.0000     8.6284   122.3733     2.5455     0.0034     6.2857     4.8277     4.6114   -94.6533
 2910.5000     8.6282   122.7671     2.5415    -0.0025     6.7626     4.8273     4.4452   -94.8548
 2911.0000     8.6280   127.1196     2.5285    -0.0045     6.5191     4.6532     4.0930   -95.4513
 2911.5000     8.6277   132.2645     2.5116    -0.0105     5.8945     4.4445     3.8034   -95.4553
 2912.0000     8.6275   138.2005     2.5046    -0.0105     5.6305     4.1681     3.5668   -95.6568
 2912.5000     8.6273   147.1063     2.5036    -0.0046     5.0909     3.9813     3.2245   -95.8583
 2913.0000     8.6666   155.4915     2.4976    -0.0026     4.5195     3.5652     2.8621   -95.8623
 2913.5000     8.6664   165.3878     2.4897    -0.0006     3.8329     3.1926     2.7337   -95.6688
 2914.0000     8.6662   168.3554     2.4737     0.0043     3.0767     2.9146     2.7085   -95.0802
 2914.5000     8.6660   162.4146     2.4588     0.0053     2.9933     2.8095     2.7084   -94.2942
 2915.0000     8.7251   151.2478     2.4777     0.0053     3.1332     2.8351     2.7836   -93.7056
 2915.5000     8.7447   145.7030     2.5055     0.0023     3.4648     3.0227     2.9139   -93.1163
 2916.0000     8.7445   131.0516     2.5254     0.0003     6.0546     3.3431     3.4050   -92.7252
 2916.5000     8.7642   120.9526     2.5353     0.0052     6.0544     3.6303     4.0523   -92.7292
 2917.0000     8.7639   120.5541     2.5373     0.0062     5.9988     4.0520     4.4819   -92.9307
 2917.5000     8.7438   120.7499     2.5433     0.0102     5.8896     4.5229     5.0027   -92.7372
 2918.0000     8.7635   120.3507     2.5522     0.0171     5.9434     5.0484     5.2851   -92.3462
 2918.5000     8.7631   119.7543     2.5592     0.0062     6.2212     5.2365     5.5326   -92.3502
 2919.0000     8.7630   119.9495     2.5532     0.0022     6.4529     5.2844     5.6862   -92.5517
 2919.5000     8.7627   120.5412     2.5442     0.0051     6.5118     5.2358     5.5827   -92.7532
 2920.0000     8.8021   122.7157     2.5472     0.0121     6.3350     5.0934     5.5316   -93.1522
 2920.5000     8.8019   124.4943     2.5551     0.0151     5.9959     5.0005     5.4305   -93.1562
 2921.0000     8.8016   126.6688     2.5651     0.0180     5.8331     4.9093     5.3806   -93.5552
 2921.5000     8.8014   128.8427     2.5551     0.0150     5.6748     4.8642     5.2825   -93.9542
 2922.0000     8.8012   127.2577     2.5491     0.0120     5.5207     4.8639     5.2339   -94.5507
 2922.5000     8.8010   125.8695     2.5570     0.0110     5.5204     4.8635     5.1858   -94.7522
