~VERSION INFORMATION
 VERS.                2.0:   CWLS LOG ASCII STANDARD - VERSION 2.0
 WRAP.                 NO:   ONE LINE PER DEPTH STEP
~WELL INFORMATION
#MNEM.UNIT      DATA TYPE    INFORMATION
#----------   ------------   ------------------------------
 STRT.F          492.0000:   START DEPTH
 STOP.F         3008.0000:   STOP DEPTH
 STEP.F            0.5000:   STEP LENGTH
 NULL.          -999.2500:   NO VALUE
 COMP.    FENIX & SCISSON:   COMPANY
 WELL. FENIX & SCISSON AX #24-28:   WELL
 FLD .             TEAPOT:   FIELD
 LOC .      S28 T39N R78W:   LOCATION
 CNTY.            NATRONA:   COUNTY
 STAT.            WYOMING:   STATE
 CTRY. UNITED STATES OF AMERICA:   COUNTRY
 SRVC.              WELEX:   SERVICE COMPANY
 DATE.        03-AUG-1980:   LOGDATE
 API .     49025108490000:   API NUMBER
~CURVE INFORMATION
#MNEM.UNIT       API CODE    CURVE DESCRIPTION
#----------   ------------   ------------------------------
 DEPT.F                  :   
 SPR .MV     07 010 01 00:   SPONTANEOUS POTENTIAL
 ILD .OHMM   07 120 46 00:   DEEP INDUCTION RESISTIVITY
 ILM .OHMM   07 120 44 00:   INDUCTION LOG MEDIUM RESISTIVITY
 SGRD.OHMM   07 220 05 00:   SHALLOW SHORT GUARD RESISTIVITY
 GRD .GAPI   45 310 01 00:   GAMMA RAY FROM DENSITY LOG
 CALD.IN     45 280 60 00:   CALIPER FROM DENSITY LOG
 CORR.G/C3   45 356 01 00:   DENSITY CORRECTION
 RHOB.G/C3   45 350 01 00:   BULK DENSITY
~PARAMETER INFORMATION
#MNEM.UNIT          VALUE    DESCRIPTION
#----------   ------------   ------------------------------
 EKB .F         5061.0000:   Kelly bushing
 EGL .F         5051.0000:   Ground level
 TD  .F         3000.0000:   Total depth
 CLNT.            A2DTECH:   Client Code
 SL  . 2350' FNL & 1000' FWL:   Surface Location
 DATE.         3-AUG-1980:   Date Logged [DD-MMM-YYYY]
 DD  .F              3000:   Depth driller
 DL  .F              3010:   Depth logger
 BLI .F              3008:   Bottom log interval
 TLI .F               308:   Top log interval
 CS1 .              8.625:   Casing size
 CBD1.      8.625" @ 393':   Casing driller 1
 BS1 .IN            7.875:   Bit size
 BSD1.F              3000:   Depth drilled with bit1
 DFT .     WATER BASE MUD:   Type fluid in hole
 DFD .                8.9:   Density
 TCS .HRS               8:   Time Circ. stopped
 MRT .F               115:   Maximum recorded temp.
 ENGI.           WACHTELL:   Recorded By
 WITN.           DINSMORE:   Witnessed by
 ORIG.      2.5" 5" PRINT:   Origin of data
 UWI .     49025108490000:   Unique Well ID
 DICO. A2D TECHNOLOGIES, INC.:   Digitizing Company
 PD  .                 GL:   Permanent Datum
 EPD .F              3051:   Elevation Permanent Datum
 LMF .                 KB:   Log Measured From
 DMF .                 KB:   Drilling Measured From
 DAPD.F                10:   Feet Above Permanent Datum
 DFV .                 43:   Viscosity
 DFPH.                9.5:   pH
 DFL .                7.2:   Fluid loss
 MSS .           FLOWLINE:   Source of sample
 RMS .OHMM             .9:   Rm
 MST .F                80:   Rm Meas. temp.
 RMF .OHMM            .72:   Rmf
 MFST.F                80:   Rmf Meas. temp.
 MFSS.               MEAS:   Source Rmf.
 RMC .OHMM           1.08:   Rmc
 MCST.F                80:   Rmc Meas. temp.
 MCSS.               MEAS:   Source Rmc.
 RMB .OHMM            .06:   Rm. at BHT
 BHT .F               115:   BHT.
 LUN .               1892:   Logging unit number
 LUL .             CASPER:   Logging unit location
~OTHER INFORMATION
~A   DEPT      SPR        ILD        ILM       SGRD        GRD       CALD       CORR       RHOB   
# ...
 2152.5000    -8.6911     6.2364     8.0792    10.5863   119.1337     8.6475     0.0745     2.4969
 2153.0000    -8.7026     6.3147     8.2886    10.4335   119.5727     8.7061     0.0805     2.5260
 2153.5000    -9.0119     6.3310     8.4015    10.2829   116.0583     8.8256     0.0380     2.5013
 2154.0000    -9.0238     6.4234     8.6343    10.2752   112.5768     8.7187    -0.0210     2.5089
 2154.5000    -8.7369     6.5737     8.7514    10.5588   110.5420     8.5687     0.0697     2.5289
 2155.0000    -8.7500     6.7051     8.7473    11.1563   108.9961     8.5379     0.0983     2.5042
 2155.5000    -8.7619     6.9420     8.7431    11.3064   107.5246     8.5220     0.0967     2.4877
 2156.0000    -8.6430     7.0355     8.8617    11.2990   115.5990     8.5210     0.1235     2.5116
 2156.5000    -8.4881     7.2297     9.0283    11.2921   116.2608     8.5198     0.1465     2.5709
 2157.0000    -8.5023     7.3272     9.2648    11.1293   115.1148     8.5339     0.1661     2.5788
 2157.5000    -8.5138     7.3233     9.5324    10.9687   114.1905     8.5478     0.1917     2.5459
 2158.0000    -8.5252     7.4222     9.6720    10.9618   113.5019     8.5466     0.2007     2.6042
 2158.5000    -8.5367     7.4181     9.7455    10.9549   113.0349     8.5605     0.1931     2.5929
 2159.0000    -8.5481     7.5181     9.7408    11.2581   111.2186     8.5444     0.1628     2.5832
 2159.5000    -8.5596     7.5137     9.7353    11.4089   108.2778     8.5285     0.1355     2.5479
 2160.0000    -8.5714     7.5096     9.5960    11.4004   104.6324     8.5275     0.1172     2.5353
 2160.5000    -8.5833     7.5054     9.5915    11.3933   108.5434     8.5414     0.1368     2.5651
 2161.0000    -8.8929     7.5012     9.5870    11.2275   111.8200     8.5404     0.1549     2.5830
 2161.5000    -8.9048     7.4970     9.5825    11.0657   113.3770     8.5543     0.1338     2.6032
 2162.0000    -8.9167     7.4920     9.5779    10.9062   116.9580     8.5682     0.1026     2.5483
 2162.5000    -8.9286     7.4880     9.4245    10.7491   119.1897     8.5670     0.1176     2.5426
 2163.0000    -9.2381     7.4840     9.2795    10.7426   119.3974     8.5958     0.1372     2.5740
 2163.5000    -9.5498     7.4800     9.1366    10.7361   115.7776     8.6097     0.1435     2.5665
 2164.0000    -9.5613     7.4760     8.9960    10.8879   114.4111     8.6236     0.0941     2.5448
 2164.5000    -9.5727     7.4719     8.7883    11.1996   115.9681     8.6375     0.0763     2.5492
 2165.0000    -9.8818     7.4678     8.7840    11.4887   117.5251     8.6363     0.0747     2.5514
 2165.5000    -9.8933     7.4637     8.6574    11.6426   119.0821     8.6353     0.0746     2.5148
 2166.0000    -9.9048     7.4595     8.5336    11.4736   119.7395     8.6641     0.0761     2.5110
 2166.5000    -9.6186     7.4874     8.4116    11.3999   114.7705     8.6654     0.0714     2.5095
 2167.0000    -9.6310     7.5565     8.2913    11.1448   111.1551     8.6770     0.0116     2.4982
 2167.5000    -9.6429     7.6009     8.2874    10.9839   107.5396     8.6757    -0.0030     2.4735
 2168.0000    -9.6548     7.7119     8.3997    12.0986   102.7998     8.6598     0.0181     2.4496
 2168.5000    -9.6667     7.7563     8.5136    12.4335   100.9835     8.6440     0.0271     2.4623
 2169.0000    -9.3810     7.7513     8.6290    12.4250    99.3877     8.5514     0.0270     2.4817
 2169.5000    -9.3929     7.7472     8.7728    12.2459    98.4710     8.4778     0.0284     2.4674
 2170.0000    -9.4069     7.7430     9.0644    11.9026    98.9079     8.4470     0.0449     2.4540
 2170.5000    -9.4183     7.8476     9.4677    11.7311    98.6614     8.4311     0.0736     2.4666
 2171.0000    -9.4298     7.9533     9.8251    11.8883    98.4193     8.4301     0.0871     2.4808
 2171.5000    -9.4412     7.9607    10.1088    12.0476    99.3509     8.4440     0.0991     2.4696
 2172.0000    -9.4527     8.0563    10.3120    12.0395   103.7779     8.4728     0.1126     2.4949
 2172.5000    -9.4643     8.0217    10.3063    12.0319   108.0335     8.5016     0.1187     2.5158
 2173.0000    -9.4762     7.9356    10.3014    11.9624   110.9399     8.5155     0.1245     2.5136
 2173.5000    -9.4881     7.9311    10.2966    11.6150   113.6213     8.5143     0.1304     2.5240
 2174.0000    -9.5000     7.8170    10.1494    11.3593   114.7285     8.4984     0.1318     2.5217
 2174.5000    -9.5119     7.7037    10.0035    11.1939   115.8695     8.4971     0.1090     2.5030
 2175.0000    -9.2262     7.6996     9.8496    11.0326   112.2160     8.5262     0.0862     2.4776
 2175.5000    -9.2381     7.5890     9.6981    11.0259   107.9259     8.5550     0.0892     2.4603
 2176.0000    -8.9524     7.5849     9.5489    11.0193   105.8847     8.5985     0.0557     2.4342
 2176.5000    -8.9663     7.5809     9.4018    11.0126   105.4177     8.6435     0.0239     2.4394
 2177.0000    -8.6786     7.5768     9.2572    10.8539   106.3001     8.6561     0.0162     2.4513
 2177.5000    -8.6916     7.4678     9.1749    10.6974   106.5078     8.6102     0.0297     2.4445
 2178.0000    -8.7030     7.4637     9.0436    10.6750   106.4862     8.5495     0.0525     2.4071
 2178.5000    -8.7145     7.4595     8.9133    10.5364   106.6939     8.5038     0.0583     2.4116
 2179.0000    -8.7262     7.4553     8.9091    10.5298   108.0260     8.4730     0.0536     2.4048
 2179.5000    -8.7381     7.3481     8.7817    10.5232   109.3581     8.4718     0.0898     2.4609
 2180.0000    -8.7500     7.3440     8.6562    10.5166   109.2807     8.4708     0.1139     2.5214
 2180.5000    -8.7619     7.3399     8.6521    10.3648   107.2954     8.4850     0.1229     2.5049
 2181.0000    -8.7738     7.2336     8.5283    10.0741   105.7040     8.5135     0.0774     2.4824
 2181.5000    -8.7857     7.2297     8.5242     9.9275   104.1125     8.5431     0.0395     2.4570
 2182.0000    -8.5000     7.0272     8.4021     9.9215   102.2962     8.6007     0.0121     2.4465
 2182.5000    -8.5142     6.9263     8.3680     9.9155   102.0541     8.6593     0.0060     2.4427
 2183.0000    -8.5257     6.8268     8.2778     9.9096   103.6068     8.6884     0.0165     2.4509
 2183.5000    -8.5372     6.7287     8.2737     9.9036   104.9389     8.5977     0.0254     2.4659
 2184.0000    -8.5486     6.7249     8.3269     9.8976   106.2710     8.5067     0.0147     2.4642
 2184.5000    -8.5601     6.6282     8.3817     9.7548   107.6031     8.4912     0.0071     2.4665
 2185.0000    -8.5715     6.6001     8.3769     9.7308   108.9352     8.5053    -0.0127     2.4725
 2185.5000    -8.5833     6.4978     8.2571     9.4752   110.0425     8.5041    -0.0249     2.4852
 2186.0000    -8.5952     6.4352     8.1390     9.2667   104.6236     8.5182     0.0294     2.5016
 2186.5000    -8.6071     6.3426     7.9116     8.8217   103.0322     8.5322     0.0539     2.5114
 2187.0000    -8.6190     6.1642     7.5841     8.3137   101.6657     8.5477     0.0776     2.5269
 2187.5000    -8.6310     6.0757     7.2619     7.7265   100.9738     8.5598     0.1078     2.5546
 2188.0000    -8.3452     5.9055     6.8387     6.7808   101.6339     8.5735     0.1349     2.5710
 2188.5000    -8.3571     5.5824     6.4969     6.0472   102.7342     8.5724     0.1514     2.5747
 2189.0000    -8.3713     5.4260     6.3795     5.6375   103.8414     8.5865     0.1620     2.5761
 2189.5000    -8.3827     5.2011     6.2812     5.0406   102.0251     8.6002     0.1542     2.5611
 2190.0000    -8.3942     4.9808     6.1358     6.8415    96.1608     8.5990     0.1451     2.5499
 2190.5000    -8.4056     4.9137     6.1328     8.1929    92.0956     8.6129     0.1480     2.5574
 2191.0000    -8.4171     4.8433     6.3908     8.7779    90.0118     8.6119     0.1524     2.5641
 2191.5000    -8.4292     5.0686     6.5683     8.7723    88.9084     8.6258     0.1417     2.5618
 2192.0000    -8.7381     5.2433     6.7508     8.7668    88.2165     8.6397     0.1053     2.5469
 2192.5000    -9.0476     5.4404     6.8423     8.7900    88.1993     8.6685     0.1264     2.5064
