~VERSION INFORMATION
 VERS.                2.0:   CWLS LOG ASCII STANDARD - VERSION 2.0
 WRAP.                 NO:   ONE LINE PER DEPTH STEP
~WELL INFORMATION
#MNEM.UNIT      DATA TYPE    INFORMATION
#----------   ------------   ------------------------------
 STRT.F            0.0000:   START DEPTH
 STOP.F         4700.0000:   STOP DEPTH
 STEP.F            0.5000:   STEP LENGTH
 NULL.          -999.2500:   NO VALUE
 COMP. LAWRENCE ALLISON & ASSOCIATES:   COMPANY
 WELL. LAWRENCE NPR 3 "X" #33-23:   WELL
 FLD .                NPR:   FIELD
 LOC .      S23 T38N R78W:   LOCATION
 CNTY.            NATRONA:   COUNTY
 STAT.            WYOMING:   STATE
 CTRY. UNITED STATES OF AMERICA:   COUNTRY
 SRVC.      DRESSER ATLAS:   SERVICE COMPANY
 DATE.        12-NOV-1984:   LOGDATE
 API .     49025109930000:   API NUMBER
~CURVE INFORMATION
#MNEM.UNIT       API CODE    CURVE DESCRIPTION
#----------   ------------   ------------------------------
 DEPT.F                  :   
 TEND.LBS    45 635 01 00:   TENSION FROM DENSITY LOG
 CALD.IN     45 280 60 00:   CALIPER FROM DENSITY LOG
 CORR.G/C3   45 356 01 00:   DENSITY CORRECTION
 DEN .G/C3   45 350 01 00:   BULK DENSITY
 CNC .DEC    42 890 03 00:   NEUTRON PORISITY SANDSTONE
 SPR .MV     07 010 01 00:   SPONTANEOUS POTENTIAL
 GRR .GAPI   07 310 01 00:   GAMMA RAY FROM RESISTIVITY
 RFOC.OHMM   07 220 01 00:   RESISTIVITY FOCUSED LOG RES.
 ILM .OHMM   07 120 44 00:   INDUCTION LOG MEDIUM RESISTIVITY
 ILD .OHMM   07 120 46 00:   INDUCTION LOG DEEP RESISTIVITY
 TENS.LBS    60 635 01 00:   TENSION FROM SONIC LOG
 DT  .US/F   60 520 00 00:   DELTA TIME
 TENR.LBS    07 635 01 00:   TENSION
~PARAMETER INFORMATION
#MNEM.UNIT          VALUE    DESCRIPTION
#----------   ------------   ------------------------------
 EKB .F         5308.0000:   Kelly bushing
 EGL .F         5296.0000:   Ground level
 EDF .F            0.0000:   Drilling floor
 EPD .F            0.0000:   Permanent datum
 TD  .F         4695.0000:   Total depth
 DATE.        12-NOV-1984:   Date logged
 CLNT.            A2DTECH:   Client Code
 SL  . 1415' FNL & 1874' FWL:   Surface Location
 PD  .                 GL:   Permanent Datum
 LMF .                 KB:   Log Measured From
 DMF .                 KB:   Drilling Measured From
 DAPD.F                12:   Feet Above Permanent Datum
 DD  .F              4695:   Depth driller
 DL  .F              4694:   Depth logger
 BLI .F              4691:   Bottom log interval
 TLI .F              1205:   Top log interval
 CS1 .IN            8.625:   Casing size
 CBD1.     8.625" @ 1206':   Casing driller 1
 CBL1.F              1205:   Casing logger 1
 BS1 .IN            7.875:   Bit size
 BSD1.F              4695:   Depth drilled with bit1
 DFT .     GFL/KCL/STAFLO:   Type fluid in hole
 DFD .                9.2:   Density
 DFV .                 45:   Viscosity
 DFPH.                  8:   pH
 DFL .                 10:   Fluid loss
 MSS .           FLOWLINE:   Source of sample
 RMS .OHMM            .51:   Rm
 MST .F                72:   Rm Meas. temp.
 RMF .OHMM            .43:   Rmf
 MFST.F                70:   Rmf Meas. temp.
 RMC .OHMM            .64:   Rmc
 MCST.F                72:   Rmc Meas. temp.
 MFSS.               MEAS:   Source Rmf.
 MCSS.               CALC:   Source Rmc.
 RMB .OHMM           .272:   Rm. at BHT
 BHT .F               135:   BHT.
 TCS .HRS               4:   Time Circ. stopped
 MRT .F               135:   Maximum recorded temp.
 LUN .               6274:   Logging unit number
 LUL .               GLTE:   Logging unit location
 ENGI.             RAUTIO:   Recorded By
 ORIG.           5" PRINT:   Origin of data
 UWI .     49025109930000:   Unique Well ID
 DICO. A2D TECHNOLOGIES, INC.:   Digitizing Company
~OTHER INFORMATION
~A    DEPT    TEND       CALD       CORR        DEN        CNC        SPR         GRR      RFOC        ILM        ILD       TENS         DT       TENR   
# ...
   52.0000   -18.6120    14.7270     0.2590  -999.2500     0.0270   -13.2320    81.3360 10040.5869     5.7810     2.9420   -19.9600  -999.2500   -13.7000
   52.5000   -18.6120    15.0710     0.2270  -999.2500     0.0270   -13.4940    85.2730 10039.3574     2.6590     3.7210   -20.1520  -999.2500   -13.6140
   53.0000   -18.6120    14.9980     0.1720  -999.2500     0.0250   -22.1590    93.2180 10037.5752     2.7210     5.2500   -20.3440  -999.2500   -13.5270
   53.5000   -18.6120    15.5590     0.1990  -999.2500     0.0240   -28.1550    97.9450  9945.7334     2.8620    54.8010   -20.5360  -999.2500   -13.4400
   54.0000   -18.6120    16.1200     0.2410  -999.2500     0.0250   -34.1590    99.1490  9945.7334     2.8230    98.5470   -20.7280  -999.2500   -13.3530
   54.5000   -18.6120    16.1550     0.2530  -999.2500     0.0260   -40.8790    98.4230  9945.7334     2.7710    11.7230   -20.9200  -999.2500   -13.2670
   55.0000   -18.6120    16.2720     0.2310  -999.2500     0.0240   -45.2950    98.3620 10037.5752     2.7190     5.2500   -21.1120  -999.2500   -13.1800
   55.5000   -18.6120    16.2550     0.2180  -999.2500     0.0200   -42.5850   100.5280 10037.5752     2.6670     2.7680   -21.3050  -999.2500   -13.0930
   56.0000   -18.6120    16.2510     0.2060  -999.2500     0.0210   -30.1680   102.7290 10130.2646     2.6150     2.4480   -21.4970  -999.2500   -13.0070
   56.5000   -18.6120    16.2520     0.1910  -999.2500     0.0230   -18.2230    99.1810 10117.3213     2.5630     2.4980   -21.6890  -999.2500   -12.9200
   57.0000   -18.6120    16.2450     0.1590  -999.2500     0.0260   -17.2920    93.9670 10085.0264     2.5400     2.5630   -21.8810  -999.2500   -12.8330
   57.5000   -18.6120    16.2440     0.1220  -999.2500     0.0280    -9.3640    95.8660 10052.7314     2.5570     2.5630   -22.0730  -999.2500   -12.7470
   58.0000   -18.6120    16.2400     0.1210  -999.2500     0.0260    10.5200    98.2040 10020.4355     2.4650     2.5920   -22.2650  -999.2500   -12.6600
   58.5000   -18.6120    16.2370     0.1220  -999.2500     0.0220    32.9630   100.2680  9988.1406     2.3980     2.7170   -22.4570  -999.2500   -12.5730
   59.0000   -18.6120    16.2320     0.1250  -999.2500     0.0190    23.1480    98.1510  9955.8457     2.3600     2.8620   -22.6490  -999.2500   -12.4860
   59.5000   -18.6120    16.2320     0.1600  -999.2500     0.0210    16.4020    95.9490  9923.5498     2.4300     2.8550   -22.8420  -999.2500   -12.4000
   60.0000   -18.6120    16.2240     0.2070  -999.2500     0.0310    34.7330    95.6270  9891.2549     2.4860     2.8360   -23.0340  -999.2500   -12.3130
   60.5000   -18.6120    16.2220     0.2300  -999.2500     0.0420    48.4100    95.6430  9858.9600     2.5830     2.8530   -23.2260  -999.2500   -12.2260
   61.0000   -18.6120    16.2330     0.2080  -999.2500     0.0460    24.3540    94.6090  9854.7314     2.7260     2.8890   -23.4180  -999.2500   -12.1400
   61.5000   -18.6120    16.1160     0.1600  -999.2500     0.0400    -3.5420    93.1070  6496.2100     2.8690     3.0580   -23.6100  -999.2500   -12.0530
   62.0000   -18.6120    16.1530     0.1440  -999.2500     0.0290   -22.7630    91.5530  3373.1580     3.0840     3.4180   -23.8020  -999.2500   -11.9660
   62.5000   -18.6120    15.1700     0.1400  -999.2500     0.0200   -41.2520    89.7440   201.1780     3.3750     3.8060   -23.9940  -999.2500   -11.8800
   63.0000   -18.6120    15.3370     0.1180  -999.2500     0.0190   -57.2650    87.4540    79.0380     3.6660     4.2090   -24.1860  -999.2500   -11.7930
   63.5000   -18.6120    15.6440     0.0740  -999.2500     0.0200   -71.8320    84.6700    52.2630     3.9570     4.5450   -24.3790  -999.2500   -11.7060
   64.0000   -18.6120    15.8590     0.0270  -999.2500     0.0210   -81.4120    81.8830   215.2910     4.1420     4.8820   -24.5710  -999.2500   -11.6200
   64.5000   -18.6120    15.5520     0.0930  -999.2500     0.0230   -47.2170    79.0820  5319.5151     4.2860     5.1550   -24.7630  -999.2500   -11.5330
   65.0000   -18.6120    15.1260     0.1930  -999.2500     0.0250     9.6420    76.2690  9854.7314     4.4090     5.0810   -24.9550  -999.2500   -11.4460
   65.5000   -18.6120    15.0400     0.1960  -999.2500     0.0380    50.1990    75.7740  9854.7314     4.2730     4.8490   -25.1470  -999.2500   -11.3590
   66.0000   -18.6120    14.6640     0.1970  -999.2500     0.0560    27.0350    77.5550  9854.7314     3.8920     4.4600   -25.3390  -999.2500   -11.2730
   66.5000   -18.6120    14.5820     0.1990  -999.2500     0.0690   -31.1770    79.9270  9854.7314     3.5120     4.0710   -25.5310  -999.2500   -11.1860
   67.0000   -18.6120    14.7990     0.1990  -999.2500     0.0510   -73.7190    82.3150  9854.7314     3.1310     3.6820   -25.7230  -999.2500   -11.0990
   67.5000   -18.6120    14.9550     0.1580  -999.2500     0.0270   -92.9340    84.7070  9854.7314     2.8810     3.3730   -25.9160  -999.2500   -11.0130
   68.0000   -18.6120    14.3540     0.0740  -999.2500     0.0220   -80.9290    87.1060  9854.7314     2.7280     3.1960   -26.1080  -999.2500   -10.9260
   68.5000   -18.6120    11.7160     0.0070  -999.2500     0.0220   -65.7880    88.2940  9854.7314     2.6350     3.0250   -26.3000  -999.2500   -10.8390
   69.0000   -18.6120    11.4200     0.0590  -999.2500     0.0230   -39.9910    90.7820  9854.7314     2.6350     2.9130   -26.4920  -999.2500   -10.7530
   69.5000   -18.6120    11.4630     0.1010     2.0240     0.0250   -11.8290    93.7070  9854.7314     2.6350     2.7590   -26.6840  -999.2500   -10.6660
   70.0000   -18.6120    11.5200     0.1060     2.0580     0.0270    25.4230    98.3120  9854.7314     2.6350     2.7760   -26.8760  -999.2500   -10.5790
   70.5000   -18.6120    11.6010     0.0980     2.0980     0.0280    73.3180   102.6130  9854.7314     2.6940     2.8180   -27.0680  -999.2500   -10.4920
   71.0000   -18.6120    11.7570     0.0900     2.1370     0.0300   100.5440   101.2080  9854.7314     2.7840     2.8590   -27.2610  -999.2500   -10.4060
   71.5000   -18.6120    11.9490     0.0920     2.1550     0.0310    89.0540    99.8620  9854.7314     2.8180     2.9010   -27.4530  -999.2500   -10.3190
   72.0000   -18.6120    12.0900     0.1010     2.1720     0.0310    57.3560    98.5930  9854.7314     2.8510     2.9500   -27.6450  -999.2500   -10.2320
   72.5000   -18.6120    12.1850     0.1090     2.1900     0.0310   -19.7510    98.0650  9854.7314     2.9250     3.0030   -27.8370  -999.2500   -10.1460
   73.0000   -18.6120    12.2950     0.1170     2.2000     0.0310   -49.7320   100.1280  9854.7314     3.0210     3.0530   -28.0290  -999.2500   -10.0590
   73.5000   -18.6120    12.3710     0.1250     2.1970     0.0310   -48.0410   102.1170  9854.7314     3.1090     3.2750   -28.2210  -999.2500    -9.9720
   74.0000   -18.6120    12.3990     0.1300     2.1940     0.0330   -45.7860   102.8300  9854.7314     3.3150     3.4840   -28.4130   231.9080    -9.8860
   74.5000   -18.6120    12.4330     0.1200     2.1890     0.0350   -43.5320   101.5920  9854.7314     3.5070     3.6920   -28.6050   211.6670    -9.7990
   75.0000   -18.6120    12.4710     0.1090     2.1930     0.0340   -42.8100   101.4750  9854.7314     3.6990     3.9010   -28.7980   191.4260    -9.7120
   75.5000   -18.6120    12.4840     0.1100     2.2040     0.0330   -42.7210   101.3780  9854.7314     3.8900     4.1090   -28.9900   173.4340    -9.6250
   76.0000   -18.6120    12.4990     0.1170     2.2420     0.0320   -42.5420   101.2810  9854.7314     4.0820     4.3480   -29.1820   188.9600    -9.5390
   76.5000   -18.6120    12.5110     0.1240     2.2800     0.0320   -35.9680   101.4900  9854.7314     4.2680     4.6160   -29.3740   210.4150    -9.4520
   77.0000   -18.6120    12.5260     0.1180     2.2920     0.0330   -18.5220   104.1770  9854.7314     4.4150     4.8830   -29.5660   240.3010    -9.3650
   77.5000   -18.6120    12.5390     0.1000     2.2880     0.0340     6.7610   108.9990  9854.7314     4.5620     5.1080   -29.7580   240.1570    -9.2790
