~VERSION INFORMATION
 VERS.                2.0:   CWLS LOG ASCII STANDARD - VERSION 2.0
 WRAP.                 NO:   ONE LINE PER DEPTH STEP
~WELL INFORMATION
#MNEM.UNIT      DATA TYPE    INFORMATION
#----------   ------------   ------------------------------
 STRT.F           29.5000:   START DEPTH
 STOP.F         2719.5000:   STOP DEPTH
 STEP.F            0.5000:   STEP LENGTH
 NULL.          -999.2500:   NO VALUE
 COMP.          INTEX OIL:   COMPANY
 WELL. INTEX NPR 3 "AX" #82-20:   WELL
 FLD .             TEAPOT:   FIELD
 LOC .      S20 T39N R78W:   LOCATION
 CNTY.            NATRONA:   COUNTY
 STAT.            WYOMING:   STATE
 CTRY. UNITED STATES OF AMERICA:   COUNTRY
 SRVC.       SCHLUMBERGER:   SERVICE COMPANY
 DATE.        19-MAY-1956:   LOGDATE
 API .     49025095270000:   API NUMBER
~CURVE INFORMATION
#MNEM.UNIT       API CODE    CURVE DESCRIPTION
#----------   ------------   ------------------------------
 DEPT.F                  :   
 CALD.IN     45 280 60 00:   CALIPER FROM DENSITY LOG
 GRD .GAPI   45 310 01 00:   GAMMA RAY FROM DENSITY LOG
 CORR.G/C3   45 356 01 00:   DENSITY CORRECTION
 RHOB.G/C3   45 350 01 00:   BULK DENSITY
 SPR .MV     05 010 01 00:   SPONTANEOUS POTENTIAL
 ILD .OHMM   05 120 46 00:   DEEP INDUCTION RESISTIVITY
 SN  .OHMM   05 040 00 00:   SHORT NORMAL
~PARAMETER INFORMATION
#MNEM.UNIT          VALUE    DESCRIPTION
#----------   ------------   ------------------------------
 EKB .F         5014.3000:   Kelly bushing
 EGL .F         5004.0000:   Ground level
 EDF .F            0.0000:   Drilling floor
 TD  .F         2717.0000:   Total depth
 DATE.        19-MAY-1956:   Date logged
 CLNT.            A2DTECH:   Client Code
 PD  .                 GL:   Permanent Datum
 EPD .F              5004:   Elevation Permanent Datum
 LMF .                 KB:   Log Measured From
 DMF .                 KB:   Drilling Measured From
 DAPD.F              10.3:   Feet Above Permanent Datum
 DD  .F              2717:   Depth driller
 DL  .F              2717:   Depth logger
 BLI .F              2716:   Bottom log interval
 TLI .F               100:   Top log interval
 CS1 .IN            10.75:   Casing size
 CBD1.       10.75" @ 30':   Casing driller 1
 BS1 .IN            7.875:   Bit size
 BSD1.F              2717:   Depth drilled with bit1
 DFT .        GEL/CAUSTIC:   Type fluid in hole
 DFD .                9.7:   Density
 DFV .                 35:   Viscosity
 DFPH.                7.6:   pH
 DFL .                8.8:   Fluid loss
 MSS .           FLOWLINE:   Source of sample
 RMS .OHMM           1.68:   Rm
 MST .F                58:   Rm Meas. temp.
 RMF .OHMM           1.17:   Rmf
 MFST.F                68:   Rmf Meas. temp.
 MFSS.                 FP:   Source Rmf.
 RMB .OHMM              1:   Rm. at BHT
 BHT .F               101:   BHT.
 TCS .HRS               4:   Time Circ. stopped
 MRT .F               101:   Maximum recorded temp.
 LUN .               4507:   Logging unit number
 LUL .               CSPR:   Logging unit location
 ENGI.            MANGOLD:   Recorded By
 WITN.             TUTTLE:   Witnessed by
 ORIG.           5" PRINT:   Origin of data
 UWI .     49025095270000:   Unique Well ID
 DICO. A2D TECHNOLOGIES, INC.:   Digitizing Company
~OTHER INFORMATION
~A   DEPT     CALD         GRD      CORR       RHOB        SPR        ILD         SN   
# ...
  257.0000     9.4410    85.5300     0.0380     2.4620   -71.4710    10.3010    11.5100
  257.5000     9.4980    82.7350     0.0960     2.4720   -71.4700    10.2870    11.7980
  258.0000     9.5450    80.7320     0.0810     2.4770   -71.4200    10.2600    11.9800
  258.5000     9.5250    79.4850     0.0710     2.4690   -71.3670    10.1890    11.9760
  259.0000     9.5050    80.9930     0.0860     2.4720   -71.3140    10.1170    11.8280
  259.5000     9.4900    80.0790     0.0770     2.4680   -71.2620    10.0460    11.6990
  260.0000     9.5010    81.2420     0.0860     2.4550   -71.2090     9.9740    11.5670
  260.5000     9.5120    82.4330     0.0750     2.4430   -71.1570     9.9020    11.4360
  261.0000     9.5230    83.6370     0.0640     2.4300   -71.1040     9.8910    11.3050
  261.5000     9.5120    84.8500     0.0520     2.4150   -71.1060     9.8910    11.1740
  262.0000     9.4840    83.5480     0.0410     2.3960   -71.1780     9.8920    11.0820
  262.5000     9.4560    82.0190     0.0260     2.3790   -71.2500     9.9110    11.0840
  263.0000     9.4270    82.8360     0.0370     2.3960   -71.3220     9.9850    11.0840
  263.5000     9.3990    83.1190     0.0580     2.4160   -71.3940    10.0570    11.0840
  264.0000     9.3710    81.2900     0.0790     2.4370   -71.4660    10.1280    11.0840
  264.5000     9.3690    79.4910     0.0890     2.4470   -71.5380    10.2000    11.0820
  265.0000     9.3700    77.6800     0.0830     2.4400   -71.6100    10.2780    11.0740
  265.5000     9.3700    75.8340     0.0780     2.4310   -71.6820    10.0750    11.1100
  266.0000     9.3700    75.7630     0.0720     2.4210   -71.7530     9.8060    10.7820
  266.5000     9.3700    75.1030     0.0670     2.4120   -71.8250     9.5360    10.4690
  267.0000     9.3700    74.8830     0.0670     2.4080   -71.8120     9.2680     9.9900
  267.5000     9.3700    77.5340     0.0680     2.4120   -71.6730     8.8010     9.4660
  268.0000     9.3700    80.3290     0.0610     2.4130   -71.5370     8.2770     8.9400
  268.5000     9.3700    83.1230     0.0470     2.4010   -71.4000     7.7510     8.4140
  269.0000     9.3700    84.0220     0.0500     2.3880   -71.2630     7.2240     7.8880
  269.5000     9.3700    82.8220     0.0450     2.3790   -71.1250     6.6200     7.3620
  270.0000     9.3700    81.4100     0.0730     2.3840   -70.9880     5.7350     6.8360
  270.5000     9.3810    82.6800     0.0970     2.3880   -70.8510     4.8480     6.3090
  271.0000     9.3930    85.1090     0.0990     2.3900   -70.7130     3.9700     5.7840
  271.5000     9.4050    86.4400     0.0820     2.3440   -70.5760     3.2050     5.2590
  272.0000     9.4170    86.0540     0.0890     2.3090   -70.4390     3.2040     4.7320
  272.5000     9.4280    85.6230     0.1040     2.2730   -70.3020     3.1860     4.1840
  273.0000     9.4290    85.1020     0.1190     2.2370   -70.1670     3.1640     4.2180
  273.5000     9.4050    80.9510     0.1290     2.2040   -70.0780     3.1330     4.6920
  274.0000     9.3420    76.5890     0.1150     2.1920   -69.8800     3.5830     5.1790
  274.5000     9.2790    74.9510     0.0940     2.2540   -70.1370     4.2700     5.6680
  275.0000     9.2160    77.1550     0.0700     2.3450   -70.4240     4.9590     6.1560
  275.5000     9.1940    79.3600     0.0810     2.4360   -70.7110     5.6480     6.6450
  276.0000     9.2060    81.8000     0.0970     2.4750   -70.9990     6.3390     7.1330
  276.5000     9.2180    85.9410     0.1080     2.4890   -71.2860     7.0280     7.6220
  277.0000     9.2310    90.1730     0.1050     2.4760   -71.4730     7.7170     8.1100
  277.5000     9.2430    87.9080     0.0990     2.4630   -71.4700     8.4120     8.5980
  278.0000     9.2550    85.0380     0.1040     2.4640   -71.4710     8.6930     9.0880
  278.5000     9.2670    82.1310     0.0920     2.4660   -71.4710     8.6950     9.3980
  279.0000     9.2790    79.3560     0.0840     2.4700   -71.4710     8.6960     9.5960
  279.5000     9.2910    78.7140     0.0830     2.4690   -71.4710     8.6720     9.6990
  280.0000     9.3030    80.1370     0.0830     2.4530   -71.4710     8.6470     9.7880
  280.5000     9.3020    82.2250     0.0800     2.4360   -71.4710     8.6220     9.7910
  281.0000     9.2820    82.4830     0.0640     2.4190   -71.4710     8.5980     9.8080
  281.5000     9.2630    85.5610     0.0560     2.4040   -71.4710     8.5730     9.8250
  282.0000     9.2560    89.7940     0.0790     2.4220   -71.4710     8.5480     9.8410
  282.5000     9.2690    91.4470     0.1030     2.4470   -71.4710     8.5240     9.8580
  283.0000     9.2810    90.2950     0.1210     2.4630   -71.4730     8.5000     9.8740
  283.5000     9.2930    89.2390     0.1150     2.4570   -71.4850     8.4990     9.8900
  284.0000     9.3060    90.4850     0.0900     2.4620   -71.2640     8.4990     9.8910
  284.5000     9.2700    89.9100     0.0890     2.4630   -71.2730     8.4990     9.8900
  285.0000     9.2090    88.4340     0.0870     2.4540   -71.2710     8.4990     9.8900
  285.5000     9.1480    86.9450     0.0850     2.4460   -71.3520     8.4990     9.8670
  286.0000     9.1140    85.4550     0.0840     2.4550   -71.4450     8.5010     9.8180
  286.5000     9.1560    83.9590     0.0920     2.4680   -71.5390     8.4960     9.7690
  287.0000     9.1980    82.6380     0.0870     2.4750   -71.6340     8.4010     9.7190
  287.5000     9.2400    83.9360     0.0820     2.4540   -71.7280     8.4020     9.6700
  288.0000     9.2820    85.1740     0.0760     2.4300   -71.8220     8.3990     9.6210
  288.5000     9.3240    84.4800     0.0700     2.4170   -71.9170     8.2990     9.5720
  289.0000     9.3280    85.0960     0.0650     2.4120   -72.0110     8.1800     9.5230
  289.5000     9.3230    87.3740     0.0590     2.4100   -72.1050     8.1030     9.4940
  290.0000     9.3180    89.0420     0.0700     2.4290   -72.1990     8.2300     9.5530
  290.5000     9.3130    88.6350     0.0820     2.4500   -72.2700     8.2990     9.6190
  291.0000     9.3080    88.2810     0.0880     2.4510   -72.1810     8.3700     9.6840
  291.5000     9.3030    87.9370     0.0800     2.4500   -72.0760     8.4410     9.7500
  292.0000     9.2980    87.5540     0.0940     2.4670   -71.9700     8.5110     9.8160
  292.5000     9.2930    87.7230     0.1070     2.4890   -71.8650     8.5810     9.8810
  293.0000     9.2780    88.5080     0.1200     2.5050   -71.7590     8.6520     9.9470
  293.5000     9.2510    87.9250     0.1250     2.4810   -71.6540     8.7050    10.0130
  294.0000     9.2250    86.7490     0.1090     2.4530   -71.5490     8.5900    10.0790
  294.5000     9.1980    86.3930     0.0960     2.4370   -71.4780     8.5270    10.0940
  295.0000     9.1710    87.4970     0.0930     2.4340   -71.5150     8.2790     9.9230
  295.5000     9.1450    88.5170     0.0980     2.4300   -71.5500     8.0380     9.7280
  296.0000     9.1180    89.4640     0.0870     2.4290   -71.5840     7.7990     9.5310
  296.5000     9.0910    90.6190     0.0780     2.4420   -71.6190     7.5600     9.3330
  297.0000     9.0650    90.7120     0.0750     2.4410   -71.6530     7.3200     9.1360
  297.5000     9.0380    90.8070     0.0650     2.4360   -71.6880     7.0840     8.9380
  298.0000     9.0140    91.7950     0.0720     2.4560   -71.7220     6.9110     8.7410
  298.5000     9.0140    93.1400     0.0810     2.4480   -71.7570     6.8040     8.5440
  299.0000     9.0140    93.8040     0.0900     2.4350   -71.7910     6.8100     8.3470
  299.5000     9.0140    92.4120     0.0980     2.4210   -71.8260     6.8100     8.1500
  300.0000     9.0140    90.8490     0.0890     2.4190   -71.8610     6.8120     7.9580
  300.5000     9.0140    89.2770     0.0750     2.4220   -71.8580     6.8750     7.8820
  301.0000     9.0140    88.4700     0.0580     2.4250   -71.8450     7.1590     8.2400
  301.5000     9.0170    88.4160     0.0670     2.4290   -71.8320     7.4380     8.5890
  302.0000     9.0210    88.3590     0.0870     2.4550   -71.8190     7.7170     8.9360
