~VERSION INFORMATION
 VERS.                2.0:   CWLS LOG ASCII STANDARD - VERSION 2.0
 WRAP.                 NO:   ONE LINE PER DEPTH STEP
~WELL INFORMATION
#MNEM.UNIT      DATA TYPE    INFORMATION
#----------   ------------   ------------------------------
 STRT.F            0.0000:   START DEPTH
 STOP.F         2775.5000:   STOP DEPTH
 STEP.F            0.5000:   STEP LENGTH
 NULL.          -999.2500:   NO VALUE
 COMP.          U.S. NAVY:   COMPANY
 WELL.   U.S. "A" #107-29:   WELL
 FLD .        TEAPOT DOME:   FIELD
 LOC .      S29 T39N R78W:   LOCATION
 CNTY.            NATRONA:   COUNTY
 STAT.            WYOMING:   STATE
 CTRY. UNITED STATES OF AMERICA:   COUNTRY
 SRVC.         MCCULLOUGH:   SERVICE COMPANY
 DATE.        07-SEP-1966:   LOGDATE
 API .     49025095920000:   API NUMBER
~CURVE INFORMATION
#MNEM.UNIT       API CODE    CURVE DESCRIPTION
#----------   ------------   ------------------------------
 DEPT.F                  :   
 GR  .GAPI   30 310 01 00:   GAMMA RAY
 CALI.IN     70 280 01 00:   CALIPER
~PARAMETER INFORMATION
#MNEM.UNIT          VALUE    DESCRIPTION
#----------   ------------   ------------------------------
 EKB .F            0.0000:   Kelly bushing
 EGL .F            0.0000:   Ground level
 EDF .F            0.0000:   Drilling floor
 EPD .F            0.0000:   Permanent datum
 TD  .F         2777.5000:   Total depth
 DATE.        07-SEP-1966:   Date logged
 CLNT.            A2DTECH:   Client Code
 PD  .                 GL:   Permanent Datum
 LMF .                 GL:   Log Measured From
 DMF .                 GL:   Drilling Measured From
 DL  .F            2777.5:   Depth logger
 BLI .F              2776:   Bottom log interval
 TLI .F              2200:   Top log interval
 CS1 .IN                5:   Casing size
 CBD1.         5" @ 2722':   Casing driller 1
 DFT .              WATER:   Type fluid in hole
 RMB .OHMM           .053:   Rm. at BHT
 TCS .HRS             1.5:   Time Circ. stopped
 LUN .               1460:   Logging unit number
 ENGI.        FITZSIMMONS:   Recorded By
 WITN.             TUTTLE:   Witnessed by
 ORIG.           5" PRINT:   Origin of data
 UWI .     49025095920000:   Unique Well ID
 DICO. A2D TECHNOLOGIES, INC.:   Digitizing Company
~OTHER INFORMATION
~A    DEPT      GR         CALI 
# ...
  729.0000  -999.2500     7.0310
  729.5000  -999.2500     7.0280
  730.0000  -999.2500     7.0240
  730.5000  -999.2500     7.0050
  731.0000  -999.2500     6.9810
  731.5000  -999.2500     6.9750
  732.0000  -999.2500     6.9680
  732.5000  -999.2500     6.9620
  733.0000  -999.2500     6.9550
  733.5000  -999.2500     6.9490
  734.0000  -999.2500     6.9440
  734.5000  -999.2500     6.9440
  735.0000  -999.2500     6.9450
  735.5000  -999.2500     6.9460
  736.0000  -999.2500     6.9460
  736.5000  -999.2500     6.9470
  737.0000  -999.2500     6.9470
  737.5000  -999.2500     6.9480
  738.0000  -999.2500     6.9490
  738.5000  -999.2500     6.9490
  739.0000  -999.2500     6.9500
  739.5000  -999.2500     6.9500
  740.0000  -999.2500     6.9510
  740.5000  -999.2500     6.9510
  741.0000  -999.2500     6.9520
  741.5000  -999.2500     6.9530
  742.0000  -999.2500     6.9530
  742.5000  -999.2500     6.9600
  743.0000  -999.2500     6.9740
  743.5000  -999.2500     6.9880
  744.0000  -999.2500     7.0020
  744.5000  -999.2500     7.0160
  745.0000  -999.2500     7.0310
  745.5000  -999.2500     7.0310
  746.0000  -999.2500     7.0290
  746.5000  -999.2500     7.0260
  747.0000  -999.2500     7.0240
  747.5000  -999.2500     7.0290
  748.0000  -999.2500     7.0520
  748.5000  -999.2500     7.0750
  749.0000  -999.2500     7.0940
  749.5000  -999.2500     7.0990
  750.0000  -999.2500     7.1050
  750.5000  -999.2500     7.1110
  751.0000  -999.2500     7.1060
  751.5000  -999.2500     7.0990
  752.0000  -999.2500     7.0920
  752.5000  -999.2500     7.0900
  753.0000  -999.2500     7.0890
  753.5000  -999.2500     7.0870
  754.0000  -999.2500     7.0860
  754.5000  -999.2500     7.0840
  755.0000  -999.2500     7.0820
  755.5000  -999.2500     7.0780
  756.0000  -999.2500     7.0740
  756.5000  -999.2500     7.0690
  757.0000  -999.2500     7.0640
  757.5000  -999.2500     7.0400
  758.0000  -999.2500     7.0040
  758.5000  -999.2500     7.0010
  759.0000  -999.2500     6.9990
  759.5000  -999.2500     6.9970
  760.0000  -999.2500     6.9940
  760.5000  -999.2500     6.9960
  761.0000  -999.2500     7.0040
  761.5000  -999.2500     7.0350
  762.0000  -999.2500     7.0670
  762.5000  -999.2500     7.0750
  763.0000  -999.2500     7.0780
  763.5000  -999.2500     7.0810
  764.0000  -999.2500     7.0840
  764.5000  -999.2500     7.0870
  765.0000  -999.2500     7.0900
  765.5000  -999.2500     7.0930
  766.0000  -999.2500     7.0970
  766.5000  -999.2500     7.1000
  767.0000  -999.2500     7.1030
  767.5000  -999.2500     7.1060
  768.0000  -999.2500     7.1090
  768.5000  -999.2500     7.1140
  769.0000  -999.2500     7.1280
  769.5000  -999.2500     7.1430
  770.0000  -999.2500     7.1580
  770.5000  -999.2500     7.1700
  771.0000  -999.2500     7.1640
  771.5000  -999.2500     7.1480
  772.0000  -999.2500     7.1120
  772.5000  -999.2500     7.0750
  773.0000  -999.2500     7.0540
  773.5000  -999.2500     7.0600
  774.0000  -999.2500     7.0450
  774.5000  -999.2500     7.0170
  775.0000  -999.2500     6.9890
  775.5000  -999.2500     6.9800
  776.0000  -999.2500     6.9750
  776.5000  -999.2500     6.9710
  777.0000  -999.2500     6.9660
  777.5000  -999.2500     6.9660
  778.0000  -999.2500     6.9730
  778.5000  -999.2500     6.9800
  779.0000  -999.2500     6.9940
  779.5000  -999.2500     7.0190
  780.0000  -999.2500     7.0440
  780.5000  -999.2500     7.0690
  781.0000  -999.2500     7.0740
  781.5000  -999.2500     7.0750
  782.0000  -999.2500     7.0770
  782.5000  -999.2500     7.0790
  783.0000  -999.2500     7.0800
  783.5000  -999.2500     7.0820
  784.0000  -999.2500     7.0780
  784.5000  -999.2500     7.0420
  785.0000  -999.2500     7.0320
  785.5000  -999.2500     7.0300
  786.0000  -999.2500     7.0280
  786.5000  -999.2500     7.0260
  787.0000  -999.2500     7.0240
  787.5000  -999.2500     7.0220
  788.0000  -999.2500     6.9630
  788.5000  -999.2500     6.8820
  789.0000  -999.2500     6.8820
  789.5000  -999.2500     6.8810
  790.0000  -999.2500     6.8790
  790.5000  -999.2500     6.8770
  791.0000  -999.2500     6.8750
  791.5000  -999.2500     6.8730
  792.0000  -999.2500     6.8710
  792.5000  -999.2500     6.8700
  793.0000  -999.2500     6.8680
  793.5000  -999.2500     6.8660
  794.0000  -999.2500     6.8670
  794.5000  -999.2500     6.8780
  795.0000  -999.2500     6.8900
  795.5000  -999.2500     6.9010
  796.0000  -999.2500     6.9120
  796.5000  -999.2500     6.9100
  797.0000  -999.2500     6.9050
  797.5000  -999.2500     6.9010
  798.0000  -999.2500     6.8960
  798.5000  -999.2500     6.8920
  799.0000  -999.2500     6.8870
  799.5000  -999.2500     6.8820
  800.0000  -999.2500     6.8780
  800.5000  -999.2500     6.8750
  801.0000  -999.2500     6.8750
  801.5000  -999.2500     6.8870
  802.0000  -999.2500     6.9110
  802.5000  -999.2500     6.9370
  803.0000  -999.2500     6.9420
  803.5000  -999.2500     6.9400
  804.0000  -999.2500     6.9380
  804.5000  -999.2500     6.9350
  805.0000  -999.2500     6.9270
  805.5000  -999.2500     6.9000
  806.0000  -999.2500     6.8730
  806.5000  -999.2500     6.8680
  807.0000  -999.2500     6.8720
  807.5000  -999.2500     6.8760
  808.0000  -999.2500     6.8800
  808.5000  -999.2500     6.8850
  809.0000  -999.2500     6.8930
  809.5000  -999.2500     6.9010
  810.0000  -999.2500     6.9090
  810.5000  -999.2500     6.9170
  811.0000  -999.2500     6.9260
  811.5000  -999.2500     6.9340
  812.0000  -999.2500     6.9420
  812.5000  -999.2500     6.9420
  813.0000  -999.2500     6.9410
  813.5000  -999.2500     6.9400
  814.0000  -999.2500     6.9380
  814.5000  -999.2500     6.9370
  815.0000  -999.2500     6.9350
  815.5000  -999.2500     6.9330
  816.0000  -999.2500     6.9160
  816.5000  -999.2500     6.8970
  817.0000  -999.2500     6.8790
  817.5000  -999.2500     6.8750
  818.0000  -999.2500     6.8740
  818.5000  -999.2500     6.8740
  819.0000  -999.2500     6.8750
  819.5000  -999.2500     6.8750
  820.0000  -999.2500     6.8750
  820.5000  -999.2500     6.8740
  821.0000  -999.2500     6.8770
  821.5000  -999.2500     6.8810
  822.0000  -999.2500     6.8840
  822.5000  -999.2500     6.9000
  823.0000  -999.2500     6.9210
  823.5000  -999.2500     6.9430
  824.0000  -999.2500     6.9640
  824.5000  -999.2500     6.9830
  825.0000  -999.2500     6.9820
  825.5000  -999.2500     6.9810
  826.0000  -999.2500     6.9800
  826.5000  -999.2500     6.9800
  827.0000  -999.2500     6.9790
  827.5000  -999.2500     6.9780
  828.0000  -999.2500     6.9770
  828.5000  -999.2500     6.9760
  829.0000  -999.2500     6.9750
  829.5000  -999.2500     6.9740
  830.0000  -999.2500     6.9730
  830.5000  -999.2500     6.9730
  831.0000  -999.2500     6.9730
  831.5000  -999.2500     6.9730
  832.0000  -999.2500     6.9730
  832.5000  -999.2500     6.9730
  833.0000  -999.2500     6.9730
  833.5000  -999.2500     6.9760
  834.0000  -999.2500     6.9790
  834.5000  -999.2500     6.9820
  835.0000  -999.2500     6.9850
  835.5000  -999.2500     6.9880
  836.0000  -999.2500     6.9910
  836.5000  -999.2500     6.9890
  837.0000  -999.2500     6.9680
  837.5000  -999.2500     6.9480
  838.0000  -999.2500     6.9300
  838.5000  -999.2500     6.8950
  839.0000  -999.2500     6.8990
  839.5000  -999.2500     6.9020
  840.0000  -999.2500     6.9180
  840.5000  -999.2500     6.9570
  841.0000  -999.2500     6.9750
  841.5000  -999.2500     6.9820
  842.0000  -999.2500     6.9730
  842.5000  -999.2500     6.9590
  843.0000  -999.2500     6.9500
  843.5000  -999.2500     6.9430
  844.0000  -999.2500     6.9370
  844.5000  -999.2500     6.9300
  845.0000  -999.2500     6.9230
  845.5000  -999.2500     6.9170
  846.0000  -999.2500     6.9100
  846.5000  -999.2500     6.9030
  847.0000  -999.2500     6.8970
  847.5000  -999.2500     6.8900
  848.0000  -999.2500     6.8850
  848.5000  -999.2500     6.8890
  849.0000  -999.2500     6.8930
  849.5000  -999.2500     6.8970
  850.0000  -999.2500     6.9010
