~VERSION INFORMATION
 VERS.                2.0:   CWLS LOG ASCII STANDARD - VERSION 2.0
 WRAP.                 NO:   ONE LINE PER DEPTH STEP
~WELL INFORMATION
#MNEM.UNIT      DATA TYPE    INFORMATION
#----------   ------------   ------------------------------
 STRT.F          224.0000:   START DEPTH
 STOP.F         2912.0000:   STOP DEPTH
 STEP.F            0.5000:   STEP LENGTH
 NULL.          -999.2500:   NO VALUE
 COMP.    FENIX & SCISSON:   COMPANY
 WELL. FENIX & SCISSON NPR 34 "A" #3-21:   WELL
 FLD .             NPR #3:   FIELD
 LOC .      S21 T39N R78W:   LOCATION
 CNTY.            NATRONA:   COUNTY
 STAT.            WYOMING:   STATE
 CTRY. UNITED STATES OF AMERICA:   COUNTRY
 SRVC.              WELEX:   SERVICE COMPANY
 DATE.        15-JUL-1977:   LOGDATE
 API .     49025103970000:   API NUMBER
~CURVE INFORMATION
#MNEM.UNIT       API CODE    CURVE DESCRIPTION
#----------   ------------   ------------------------------
 DEPT.F                  :   
 CALD.IN     45 280 60 00:   CALIPER FROM DENSITY LOG
 CORR.G/C3   45 356 01 00:   DENSITY CORRECTION
 RHOB.G/C3   45 350 01 00:   BULK DENSITY
 GRD .GAPI   45 310 01 00:   GAMMA RAY FROM DENSITY LOG
 SPR .MV     07 010 01 00:   SPONTANEOUS POTENTIAL
 ILD .OHMM   07 120 46 00:   DEEP INDUCTION RESISTIVITY
 ILM .OHMM   07 120 44 00:   INDUCTION LOG MEDIUM RESISTIVITY
 SGRD.OHMM   07 220 05 00:   SHALLOW SHORT GUARD RESISTIVITY
~PARAMETER INFORMATION
#MNEM.UNIT          VALUE    DESCRIPTION
#----------   ------------   ------------------------------
 EKB .F         4921.0000:   Kelly bushing
 EGL .F         4911.0000:   Ground level
 TD  .F         2914.0000:   Total depth
 CLNT.            A2DTECH:   Client Code
 SL  . 2310' FNL & 1650' FWL:   Surface Location
 DATE.        15-JUL-1977:   Date Logged [DD-MMM-YYYY]
 DD  .F              2900:   Depth driller
 DL  .F              2914:   Depth logger
 BLI .F              2912:   Bottom log interval
 TLI .F               218:   Top log interval
 CS1 .              8.625:   Casing size
 CBD1.      8.625" @ 230':   Casing driller 1
 CBL1.IN              226:   Casing logger 1
 BS1 .IN            7.875:   Bit size
 BSD1.F              2900:   Depth drilled with bit1
 DFT .                KCL:   Type fluid in hole
 DFD .                8.9:   Density
 DFV .               1.42:   Viscosity
 DFPH.                7.5:   pH
 DFL .               19.6:   Fluid loss
 MSS .            MUD PIT:   Source of sample
 RMS .OHMM           3.75:   Rm
 MST .F                83:   Rm Meas. temp.
 RMF .OHMM           3.40:   Rmf
 MFST.F                83:   Rmf Meas. temp.
 MFSS.           MEASURED:   Source Rmf.
 RMC .OHMM            9.0:   Rmc
 MCST.F                83:   Rmc Meas. temp.
 MCSS.           MEASURED:   Source Rmc.
 RMB .OHMM           2.80:   Rm. at BHT
 BHT .F               111:   BHT.
 TCS .HRS               3:   Time Circ. stopped
 MRT .F               111:   Maximum recorded temp.
 LUN .               8766:   Logging unit number
 LUL .             CASPER:   Logging unit location
 ENGI.          T. JOYNER:   Recorded By
 WITN.     MR. PETTINGILL:   Witnessed by
 ORIG.           5" PRINT:   Origin of data
 UWI .     49025103970000:   Unique Well ID
 DICO. A2D TECHNOLOGIES, INC.:   Digitizing Company
 PD  .                 GL:   Permanent Datum
 EPD .F              4911:   Elevation Permanent Datum
 LMF .                 KB:   Log Measured From
 DMF .                 KB:   Drilling Measured From
 DAPD.F                10:   Feet Above Permanent Datum
~OTHER INFORMATION
~A   DEPT      CALD        CORR       RHOB       GRD       SPR        ILD        ILM       SGRD   
# ...
 1115.0000     8.9199     0.0291     2.4358   119.7338   -62.4640     6.8821     6.8349     7.9734
 1115.5000     8.9219     0.0337     2.4471   119.4740   -62.4462     6.8448     6.8382     7.9767
 1116.0000     8.9240     0.0398     2.4584   118.3201   -62.4284     6.7999     6.8415     7.9800
 1116.5000     8.9260     0.0414     2.4586   117.4453   -62.5636     6.7553     6.8448     7.9832
 1117.0000     8.9281     0.0340     2.4497   117.2110   -62.5414     6.7581     6.8481     7.9865
 1117.5000     8.9301     0.0267     2.4362   119.0414   -62.6721     6.7287     6.8034     7.9898
 1118.0000     8.9321     0.0193     2.4250   120.2681   -62.6543     6.6957     6.7598     7.8835
 1118.5000     8.9344     0.0134     2.4186   121.7919   -62.6365     6.6627     6.7639     7.8324
 1119.0000     8.9213     0.0075     2.4142   122.1270   -62.6211     6.6297     6.7198     7.8357
 1119.5000     8.9239     0.0032     2.4240   120.6791   -62.6009     6.6020     6.7238     7.8933
 1120.0000     8.9259     0.0018     2.4435   118.9340   -62.8802     6.6055     6.7541     7.9512
 1120.5000     8.9280     0.0019     2.4249   116.5945   -62.8624     6.5619     6.8028     7.9545
 1121.0000     8.9300     0.0020     2.4220   115.4342   -62.9977     6.5653     6.8474     7.9578
 1121.5000     8.9167     0.0037     2.4296   115.7788   -62.9754     6.5680     6.8512     7.9610
 1122.0000     8.9192     0.0053     2.4341   117.5998   -63.1062     6.5708     6.8069     7.9643
 1122.5000     8.9059     0.0057     2.4379   119.1236   -63.0883     6.5735     6.8116     7.9676
 1123.0000     8.9084     0.0070     2.4425   119.1620   -63.0705     6.6219     6.8626     7.9160
 1123.5000     8.8956     0.0071     2.4456   117.6137   -63.0527     6.6246     6.8663     7.9194
 1124.0000     8.8976     0.0088     2.4368   116.2657   -63.1835     6.6734     6.8701     7.9227
 1124.5000     8.8848     0.0134     2.4271   119.2849   -63.1657     6.6761     6.8739     7.9259
 1125.0000     8.8868     0.0150     2.4354   120.5115   -63.1478     6.7253     6.8777     7.9292
 1125.5000     8.8740     0.0151     2.4400   119.0636   -63.1300     6.7748     6.8815     7.9875
 1126.0000     8.8616     0.0152     2.4371   117.6061   -62.9636     6.7776     6.8853     7.9914
 1126.5000     8.8637     0.0153     2.4357   119.4366   -62.9458     6.7804     6.8891     7.9947
 1127.0000     8.8657     0.0155     2.4432   121.5548   -62.9280     6.7832     6.8929     7.9980
 1127.5000     8.8678     0.0156     2.4448   122.4843   -62.9102     6.7391     6.8967     8.0013
 1128.0000     8.8698     0.0157     2.4464   121.9184   -62.7453     6.6955     6.9005     8.0046
 1128.5000     8.8719     0.0158     2.4457   120.4799   -62.7260     6.6521     6.9043     8.0079
 1129.0000     8.8739     0.0174     2.4466   119.6255   -62.7103     6.6548     6.9081     8.0112
 1129.5000     8.8763     0.0206     2.4497   119.3670   -62.8434     6.5661     6.8634     8.0145
 1130.0000     8.8783     0.0268     2.4572   118.4547   -62.8211     6.5235     6.8681     8.0178
 1130.5000     8.8802     0.0343     2.4625   115.8768   -62.8033     6.5262     6.8719     8.0211
 1131.0000     8.8822     0.0359     2.4649   118.3017   -62.9385     6.5289     6.8757     8.0244
 1131.5000     8.8846     0.0345     2.4627   119.2311   -62.9162     6.5316     6.8795     8.0277
 1132.0000     8.8865     0.0346     2.4568   118.0804   -62.8984     6.5374     6.8833     8.0310
 1132.5000     8.8731     0.0318     2.4509   115.7409   -63.0336     6.6282     6.8871     8.0900
 1133.0000     8.8607     0.0289     2.4465   114.5901   -63.0114     6.6770     6.8909     8.0933
 1133.5000     8.8628     0.0290     2.4444   117.5998   -63.1466     6.7728     6.8947     8.0967
 1134.0000     8.8649     0.0291     2.4475   120.0152   -63.1243     6.8700     6.9463     8.1000
 1134.5000     8.8520     0.0292     2.4535   116.1898   -62.9579     6.9206     6.9983     8.1033
 1135.0000     8.8542     0.0308     2.4551   116.5249   -62.9401     7.0201     7.0507     8.0501
 1135.5000     8.8412     0.0340     2.4627   117.7516   -62.7737     7.0716     7.1528     7.8891
 1136.0000     8.8286     0.0356     2.4687   119.5726   -62.9089     7.0752     7.2064     7.7841
 1136.5000     8.8306     0.0387     2.4756   120.8112   -63.0397     7.1272     7.1607     7.6277
 1137.0000     8.8176     0.0418     2.4786   121.4315   -63.1705     7.1302     7.1646     7.3719
 1137.5000     8.8202     0.0420     2.4788   118.4000   -63.3013     7.0832     7.1686     7.2730
 1138.0000     8.8222     0.0450     2.4766   117.6441   -63.2790     7.0869     7.1222     7.1770
 1138.5000     8.8242     0.0436     2.4729   117.6915   -63.2612     6.9441     6.9809     7.1298
 1139.0000     8.8263     0.0423     2.4692   117.7294   -63.2434     6.8043     6.8414     7.1335
 1139.5000     8.8283     0.0394     2.4679   117.7674   -63.3786     6.6672     6.7503     7.1859
 1140.0000     8.8304     0.0365     2.4702   117.4987   -63.3563     6.5776     6.6164     7.2386
 1140.5000     8.8326     0.0322     2.4643   117.2394   -63.3385     6.4899     6.6201     7.2918
 1141.0000     8.8345     0.0308     2.4495   118.7727   -63.3207     6.3599     6.5779     7.2948
 1141.5000     8.8370     0.0294     2.4406   120.5937   -63.3014     6.3186     6.5817     7.2978
 1142.0000     8.8390     0.0310     2.4452   120.3345   -63.4336     6.3212     6.5399     7.3008
 1142.5000     8.8411     0.0311     2.4490   116.8063   -63.4143     6.3238     6.4985     7.3038
 1143.0000     8.8580     0.0328     2.4498   118.3301   -63.5511     6.3265     6.4573     7.2565
 1143.5000     8.8600     0.0344     2.4469   120.7459   -63.5288     6.3291     6.4164     7.2096
 1144.0000     8.8621     0.0360     2.4455   121.6760   -63.6596     6.3317     6.4200     7.2625
 1144.5000     8.8641     0.0361     2.4441   120.2365   -63.6417     6.3343     6.4235     7.2155
 1145.0000     8.8662     0.0362     2.4412   119.0762   -63.6239     6.3369     6.3827     7.2686
 1145.5000     8.8831     0.0334     2.4361   118.8170   -63.4575     6.3396     6.3863     7.2716
 1146.0000     8.8851     0.0320     2.4309   118.5577   -63.4397     6.3422     6.3458     7.3250
 1146.5000     8.8872     0.0291     2.4303   118.0013   -63.4219     6.3448     6.3494     7.4299
 1147.0000     8.8743     0.0262     2.4359   117.4449   -63.4041     6.3915     6.3969     7.4946
 1147.5000     8.8769     0.0248     2.4454   117.7895   -63.2377     6.3941     6.4448     7.5401
 1148.0000     8.8635     0.0265     2.4590   118.4218   -63.2199     6.4412     6.4484     7.5432
 1148.5000     8.8512     0.0296     2.4665   118.4597   -63.0534     6.4886     6.4519     7.5986
 1149.0000     8.8532     0.0327     2.4651   117.6061   -63.0356     6.5820     6.5002     7.6017
 1149.5000     8.8553     0.0343     2.4570   117.0497   -63.0178     6.5845     6.5489     7.6049
 1150.0000     8.8381     0.0299     2.4518   116.4933   -62.8514     6.6329     6.5980     7.6080
 1150.5000     8.8153     0.0285     2.4646   116.5535   -62.8336     6.6818     6.6474     7.7169
 1151.0000     8.8182     0.0332     2.4677   118.4410   -62.8158     6.7309     6.6971     7.7736
 1151.5000     8.8060     0.0393     2.4723   120.1827   -62.9510     6.7805     6.7941     7.8307
 1152.0000     8.8089     0.0482     2.4761   119.0320   -63.0818     6.7833     6.7978     7.9428
 1152.5000     8.7967     0.0561     2.4807   118.2976   -63.2081     6.7861     6.8488     8.0012
 1153.0000     8.8002     0.0578     2.4845   116.7372   -63.1903     6.8360     6.8554     8.0045
 1153.5000     8.8031     0.0578     2.4869   115.2926   -63.3211     6.8864     6.9518     8.0632
 1154.0000     8.8054     0.0532     2.4855   119.8018   -63.3032     6.9370     7.0039     8.1225
 1154.5000     8.8087     0.0461     2.4818   117.1684   -63.2854     6.9881     7.0563     8.1258
 1155.0000     8.8115     0.0418     2.4819   116.9021   -63.2676     6.9910     7.0602     8.0724
