~VERSION INFORMATION
 VERS.                2.0:   CWLS LOG ASCII STANDARD - VERSION 2.0
 WRAP.                 NO:   ONE LINE PER DEPTH STEP
~WELL INFORMATION
#MNEM.UNIT      DATA TYPE    INFORMATION
#----------   ------------   ------------------------------
 STRT.F            5.5000:   START DEPTH
 STOP.F         3261.0000:   STOP DEPTH
 STEP.F            0.5000:   STEP LENGTH
 NULL.          -999.2500:   NO VALUE
 COMP. LAWRENCE ALLISON & ASSOCIATES:   COMPANY
 WELL. LAWRENCE "X" #12-14:   WELL
 FLD .              NPR 3:   FIELD
 LOC .      S14 T38N R78W:   LOCATION
 CNTY.            NATRONA:   COUNTY
 STAT.            WYOMING:   STATE
 CTRY. UNITED STATES OF AMERICA:   COUNTRY
 SRVC.      DRESSER ATLAS:   SERVICE COMPANY
 DATE.        18-AUG-1986:   LOGDATE
 API .     49025111080000:   API NUMBER
~CURVE INFORMATION
#MNEM.UNIT       API CODE    CURVE DESCRIPTION
#----------   ------------   ------------------------------
 DEPT.F                  :   
 RILM.OHMM   07 120 44 00:   INDUCTION LOG MEDIUM RESISTIVITY
 GRR .GAPI   07 310 01 00:   GAMMA RAY FROM RESISTIVITY
 SPR .MV     07 010 01 00:   SPONTANEOUS POTENTIAL
 NPHI.DEC    42 890 03 00:   NEUTRON POROSITY SANDSTONE
 CALD.IN     45 280 60 00:   CALIPER FROM DENSITY LOG
 TEND.LBS    45 635 01 00:   TENSION FORM DENSITY LOG
 DRHO.G/C3   45 356 01 00:   DENSITY CORRECTION
 DEN .G/C3   45 350 01 00:   BULK DENSITY
 RILD.OHMM   07 120 46 00:   DEEP INDUCTION RESISTIVITY
 RFOC.OHMM   07 220 04 00:   RESISTIVITY FOCUSED LOG RES.
~PARAMETER INFORMATION
#MNEM.UNIT          VALUE    DESCRIPTION
#----------   ------------   ------------------------------
 EKB .F         5245.0000:   Kelly bushing
 EGL .F         5234.0000:   Ground level
 TD  .F         3250.0000:   Total depth
 CLNT.            A2DTECH:   Client Code
 SL  . 901' FNL & 485' FWL:   Surface Location
 PD  .                 GL:   Permanent Datum
 EPD .F              5234:   Elevation Permanent Datum
 LMF .                 KB:   Log Measured From
 DMF .                 KB:   Drilling Measured From
 DAPD.F                11:   Feet Above Permanent Datum
 DATE.        18-AUG-1986:   Date Logged [DD-MMM-YYYY]
 DD  .F              3250:   Depth driller
 DL  .F              3246:   Depth logger
 BLI .F              3244:   Bottom log interval
 TLI .F                 0:   Top log interval
 CS1 .IN            8.625:   Casing size
 CBD1.      8.625" @ 733':   Casing driller 1
 CBL1.F               735:   Casing logger 1
 BS1 .IN            7.875:   Bit size
 BSD1.F              3250:   Depth drilled with bit1
 DFT .            KCL-GEL:   Type fluid in hole
 DFD .                8.8:   Density
 DFV .                 36:   Viscosity
 DFPH.                8.5:   pH
 DFL .               12.8:   Fluid loss
 MSS .           FLOWLINE:   Source of sample
 RMS .OHMM          0.292:   Rm
 MST .F                73:   Rm Meas. temp.
 RMF .OHMM          0.224:   Rmf
 MFST.F                73:   Rmf Meas. temp.
 MFSS.               MEAS:   Source Rmf.
 RMC .OHMM          0.365:   Rmc
 MCST.F                73:   Rmc Meas. temp.
 MCSS.               CALC:   Source Rmc.
 RMB .OHMM          0.154:   Rm. at BHT
 BHT .F               138:   BHT.
 TCS .HRS               5:   Time Circ. stopped
 MRT .F               138:   Maximum recorded temp.
 LUN .            HL-6214:   Logging unit number
 LUL .           GILLETTE:   Logging unit location
 ENGI.             RAUTIO:   Recorded By
 WITN.             STRONG:   Witnessed by
 ORIG.        2" 5" PRINT:   Origin of data
 UWI .     49025111080000:   Unique Well ID
 DICO. A2D TECHNOLOGIES, INC.:   Digitizing Company
~OTHER INFORMATION
~A    DEPT    RILM         GRR       SPR       NPHI       CALD       TEND       DRHO        DEN       RILD       RFOC   
# ...
 2652.0000     5.4627   134.3878   -42.7397     0.2967     9.6351   -54.8120     0.0380     2.5150     5.4596     6.5620
 2652.5000     5.3133   135.0018   -42.7324     0.2985     9.6348   -54.9010     0.0365     2.5097     5.3841     6.5169
 2653.0000     5.3141   137.1219   -42.7252     0.2967     9.6345   -47.4542     0.0364     2.5044     5.2728     6.4272
 2653.5000     5.3150   140.4468   -42.5779     0.2815     9.6342   -32.4885     0.0409     2.4991     5.2362     5.7497
 2654.0000     5.4901   146.1813   -42.4215     0.2688     9.6339   -32.5605     0.0545     2.4969     5.2728     5.4764
 2654.5000     5.5679   145.5906   -42.5663     0.2640     9.6198   -40.1512     0.0695     2.5029     5.3841     5.6315
 2655.0000     5.9285   140.6827   -42.5591     0.2691     9.6197   -55.2631     0.0849     2.5145     5.4596     6.1658
 2655.5000     6.4008   133.2674   -42.4027     0.2722     9.6195   -40.3131     0.0789     2.5240     5.5748     6.7126
 2656.0000     6.8153   124.2429   -42.3969     0.2700     9.6194   -25.3295     0.0668     2.5270     5.6925     6.9421
 2656.5000     6.9117   121.8449   -42.2405     0.2525     9.6113   -25.4194     0.0577     2.5323     5.9767     6.9425
 2657.0000     6.9126   121.2512   -42.0841     0.2383     9.6039   -40.5290     0.0547     2.5323     6.5429     7.1392
 2657.5000     6.9135   121.2657   -42.2289     0.2337     9.6038   -48.3663     0.0577     2.5360     6.8220     7.7084
 2658.0000     6.9147   121.2774   -42.3737     0.2325     9.5883   -55.7284     0.0592     2.5436     6.7746     7.7628
 2658.5000     6.9156   119.4818   -42.3664     0.2404     9.5580   -21.8596     0.0502     2.5556     6.7746     7.5999
 2659.0000     6.8684   120.7012   -42.6618     0.2407     9.5579    -6.6775     0.0411     2.5609     6.7746     7.1412
 2659.5000     6.7744   123.7248   -42.6560     0.2380     9.5577    -6.5330     0.0336     2.5601     6.8490     6.9453
 2660.0000     6.8228   126.7485   -42.6502     0.2425     9.5576    -6.3885     0.0457     2.5511     6.7557     7.1921
 2660.5000     6.8714   127.6609   -42.6444     0.2473     9.5574    -6.9741     0.0608     2.5473     6.7574     7.4997
 2661.0000     6.9203   126.1694   -42.6386     0.2482     9.5573   -28.6199     0.0486     2.5420     6.8536     7.5526
 2661.5000     6.9144   124.9762   -42.6314     0.2482     9.5565   -36.0303     0.0457     2.5314     6.9028     7.6059
 2662.0000     6.6394   124.9880   -42.7776     0.2506     9.5266   -35.8498     0.0547     2.5321     6.7612     7.6065
 2662.5000     6.5485   125.0000   -42.7704     0.2603     9.4962   -35.7053     0.0517     2.5390     6.6694     7.5146
 2663.0000     6.5494   125.0141   -42.6140     0.2739     9.4809   -20.5232     0.0411     2.5502     6.6222     7.3604
 2663.5000     6.5503   124.7216   -42.4576     0.2733     9.4807   -12.8571     0.0245     2.5570     6.5798     7.1591
 2664.0000     6.5969   125.9410   -42.4518     0.2651     9.4806   -35.2357     0.0049     2.5585     6.6275     6.9626
 2664.5000     6.5978   125.0490   -42.4458     0.2603     9.4805   -50.1288     0.0034     2.5570     6.6288     6.8128
 2665.0000     6.6080   122.9522   -42.4387     0.2594     9.4803   -65.0581     0.0170     2.5524     6.6765     7.3135
 2665.5000     6.8811   120.5518   -42.5849     0.2558     9.4634   -79.9512     0.0442     2.5509     6.7714     7.7878
 2666.0000     7.0762   118.6712   -42.5777     0.2464     9.4194   -64.7330     0.0758     2.5501     6.9158     7.9534
 2666.5000     7.2264   119.3756   -42.7239     0.2367     9.4041   -64.5865     0.0804     2.5509     7.1125     7.9545
 2667.0000     7.3798   121.4956   -42.7167     0.2361     9.3585   -64.4079     0.0426     2.5524     7.1680     7.7910
 2667.5000     7.3808   122.4109   -42.7108     0.2323     9.3583   -79.3372     0.0336     2.5546     7.3167     7.7379
 2668.0000     7.3818   121.8172   -42.7036     0.2267     9.3582   -86.6753     0.0396     2.5538     7.3693     7.7931
 2668.5000     7.3828   120.3257   -42.6978     0.2264     9.3580   -94.0858     0.0517     2.5538     7.4737     7.6332
 2669.0000     7.3328   117.6265   -42.6920     0.2361     9.3579   -93.9052     0.0638     2.5553     7.3719     7.5283
 2669.5000     7.2325   116.7346   -42.6862     0.2506     9.3577   -93.7594     0.0638     2.5538     7.3222     7.5822
 2670.0000     7.0841   121.5684   -42.6804     0.2491     9.3576   -93.5801     0.0426     2.5289     7.1727     7.5832
 2670.5000     6.8904   123.6885   -42.6746     0.2361     9.3574   -93.4357     0.0185     2.5205     6.9771     7.4793
 2671.0000     6.7024   121.8929   -42.6687     0.2343     9.3421   -85.7724     0.0032     2.5243     6.5832     7.2727
 2671.5000     6.6107   121.6004   -42.6616     0.2500     9.3268   -85.6279    -0.0011     2.5289     6.6479     6.8736
 2672.0000     6.4744   126.1330   -42.6558     0.2627     9.3267   -86.5890     0.0094     2.5363     6.4670     7.0769
 2672.5000     6.3798   130.3615   -42.6500     0.2724     9.3265   -92.8577     0.0275     2.5386     6.3346     7.1772
 2673.0000     6.3430   130.9756   -42.4936     0.2766     9.3263   -92.6772     0.0275     2.5340     6.2050     7.1782
 2673.5000     6.3441   125.5685   -42.4878     0.2784     9.3262  -100.0876     0.0336     2.5310     6.0779     7.1293
 2674.0000     6.3449   121.9656   -42.4819     0.2772     9.3260  -107.4619     0.0458     2.5325     6.0792     7.0807
 2674.5000     6.3016   122.2785   -42.4747     0.2689     9.3259  -107.2813     0.0577     2.5401     6.0804     6.9341
 2675.0000     6.2589   124.3986   -42.4689     0.2495     9.3258  -107.1369     0.0547     2.5476     6.0817     6.7927
 2675.5000     6.2598   125.6121   -42.4631     0.2421     9.3256  -106.9924     0.0215     2.5325     6.0832     6.7464
 2676.0000     6.3043   123.5182   -42.3067     0.2406     9.3232  -106.8421    -0.0011     2.5181     6.0844     6.8901
 2676.5000     6.3054   121.0681   -42.3009     0.2409     9.2950   -99.1485    -0.0102     2.5098     6.0856     7.0365
 2677.0000     6.3503   117.8215   -42.2951     0.2409     9.2948   -91.4852    -0.0147     2.5082     6.1294     7.1362
 2677.5000     6.3511   118.1344   -42.1386     0.2360     9.2947   -76.3032    -0.0147     2.5143     6.0881     7.1871
 2678.0000     6.3520   119.6520   -42.1314     0.2330     9.2945   -76.1587    -0.0132     2.5251     6.0893     7.1881
 2678.5000     6.3528   122.3745   -42.1256     0.2365     9.2792   -83.5330    -0.0072     2.5316     6.0906     7.1391
 2679.0000     6.1793   123.5910   -42.1198     0.2409     9.2791   -75.8647    -0.0026     2.5308     6.0079     7.0413
 2679.5000     6.0080   124.2050   -42.1140     0.2475     9.2789   -90.7267    -0.0026     2.5331     5.8440     6.8968
 2680.0000     5.8464   123.0118   -42.1082     0.2536     9.2788   -90.5822    -0.0042     2.5376     5.6847     6.6616
 2680.5000     5.7264   123.9300   -41.9518     0.2644     9.2786   -90.4377    -0.0026     2.5323     5.5297     6.4794
 2681.0000     5.6091   124.5441   -41.9446     0.2750     9.2785   -90.2933     0.0034     2.5323     5.3789     6.4352
 2681.5000     5.6098   125.4593   -41.7882     0.2780     9.2783   -90.1488     0.0109     2.5345     5.3056     6.4375
 2682.0000     5.5331   123.3625   -41.1800     0.2802     9.2782   -90.0000     0.0109     2.5383     5.3067     6.7120
 2682.5000     5.5725   120.6633   -40.5718     0.2808     9.2780   -89.8237     0.0140     2.5421     5.3078     6.7129
 2683.0000     5.6121   119.7714   -40.1141     0.2771     9.2779   -89.6793     0.0170     2.5458     5.3836     6.7138
 2683.5000     5.7040   120.0983   -39.6565     0.2656     9.2626   -82.0160     0.0275     2.5579     5.4983     6.5758
 2684.0000     6.0182   120.7012   -39.0341     0.2596     9.2624   -74.3527     0.0396     2.5557     5.7340     6.5308
 2684.5000     6.3635   121.0140   -38.4387     0.2599     9.2168   -74.2082     0.0426     2.5329     6.0636     6.5319
 2685.0000     6.7286   120.7215   -37.6799     0.2605     9.1712   -59.0225     0.0502     2.5072     6.6857     6.6245
