~VERSION INFORMATION
 VERS.                2.0:   CWLS LOG ASCII STANDARD - VERSION 2.0
 WRAP.                 NO:   ONE LINE PER DEPTH STEP
~WELL INFORMATION
#MNEM.UNIT      DATA TYPE    INFORMATION
#----------   ------------   ------------------------------
 STRT.F           22.5000:   START DEPTH
 STOP.F         4120.0000:   STOP DEPTH
 STEP.F            0.5000:   STEP LENGTH
 NULL.          -999.2500:   NO VALUE
 COMP. LAWRENCE ALLISON & ASSOCIATES:   COMPANY
 WELL. LAWRENCE-ALLISON SHX #37-10:   WELL
 FLD .              N P R:   FIELD
 LOC .      S10 T38N R78W:   LOCATION
 CNTY.            NATRONA:   COUNTY
 STAT.            WYOMING:   STATE
 CTRY. UNITED STATES OF AMERICA:   COUNTRY
 SRVC.      DRESSER ATLAS:   SERVICE COMPANY
 DATE.        29-JUN-1983:   LOGDATE
 API .     49025107370001:   API NUMBER
~CURVE INFORMATION
#MNEM.UNIT       API CODE    CURVE DESCRIPTION
#----------   ------------   ------------------------------
 DEPT.F                  :   
 TEND.LBS    45 635 01 00:   TENSION FROM DENSITY LOG
 CORR.G/C3   45 356 01 00:   DENSITY CORRECTION
 NPHI.DEC    42 890 03 00:   NEUTRON POROSITY SANDSTONE
 CALD.IN     45 280 60 00:   CALIPER FROM DENSITY LOG
 GRR .GAPI   07 310 01 00:   GAMMA RAY FROM RESISTIVITY
 SPR .MV     07 010 01 00:   SPONTANEOUS POTENTIAL
 TENR.LBS    07 635 01 00:   TENSION FROM RESISTIVITY
 RILD.OHMM   07 120 46 00:   DEEP INDUCTION RESISTIVITY
 RILM.OHMM   07 120 44 00:   INDUCTION LOG MEDIUM RESISTIVITY
 RFOC.OHMM   07 220 04 00:   RESISTIVITY FOCUSED LOG RES.
 RHOB.G/C3   45 350 01 00:   BULK DENSITY
~PARAMETER INFORMATION
#MNEM.UNIT          VALUE    DESCRIPTION
#----------   ------------   ------------------------------
 EKB .F         5228.0000:   Kelly bushing
 EGL .F         5218.0000:   Ground level
 EDF .F            0.0000:   Drilling floor
 EPD .F         5218.0000:   Permanent datum
 TD  .F         4125.0000:   Total depth
 DATE.        29-JUN-1983:   Date logged
 CLNT.            A2DTECH:   Client Code
 SL  . 984' FWL & 1620' FEL:   Surface Location
 PD  .                 GL:   Permanent Datum
 DD  .F              4125:   Depth driller
 DL  .F              4107:   Depth logger
 BLI .F              4105:   Bottom log interval
 CS1 .IN              4.5:   Casing size
 CBD1.       4.5" @ 2213':   Casing driller 1
 CBL1.F              2213:   Casing logger 1
 BS1 .IN             6.25:   Bit size
 DFT .                KCL:   Type fluid in hole
 DFD .                8.8:   Density
 DFV .                 45:   Viscosity
 DFPH.                  9:   pH
 DFL .               10.8:   Fluid loss
 MSS .            MUDTANK:   Source of sample
 RMS .OHMM            .44:   Rm
 MST .F               108:   Rm Meas. temp.
 RMF .OHMM            .37:   Rmf
 MFST.F               108:   Rmf Meas. temp.
 RMC .OHMM            .55:   Rmc
 MCST.F               108:   Rmc Meas. temp.
 MFSS.               MEAS:   Source Rmf.
 RMB .OHMM            .36:   Rm. at BHT
 BHT .F               126:   BHT.
 TCS .HRS               2:   Time Circ. stopped
 MRT .F               126:   Maximum recorded temp.
 LUN .               6343:   Logging unit number
 LUL .                 FM:   Logging unit location
 ENGI.          I. GOVETT:   Recorded By
 WITN.          G. STRONG:   Witnessed by
 ORIG.     2.5", 5" PRINT:   Origin of data
 UWI .     49025107370001:   Unique Well ID
 DICO. A2D TECHNOLOGIES, INC.:   Digitizing Company
 DAPD.                 10:   Feet Above Permanent Datum
 BSD1.               4125:   Depth drilled with bit1
 MCSS.               CALC:   Source Rmc.
 TLI .               2213:   Top log interval
~OTHER INFORMATION
~A   DEPT     TEND       CORR       NPHI       CALD         GRR       SPR       TENR       RILD       RILM       RFOC       RHOB   
# ...
 2340.5000  -999.2500  -999.2500  -999.2500  -999.2500   118.9300   -30.5110     4.9500     9.8210     9.7970    10.7110  -999.2500
 2341.0000  -999.2500  -999.2500  -999.2500  -999.2500   119.9280   -30.3490     4.9500    10.0210     9.8860    11.5230  -999.2500
 2341.5000  -999.2500  -999.2500  -999.2500  -999.2500   118.6370   -30.1860     4.9500    10.1700     9.9740    12.1070  -999.2500
 2342.0000  -999.2500  -999.2500  -999.2500  -999.2500   117.1360   -30.0240     4.9500    10.1950    10.0700    11.5250  -999.2500
 2342.5000  -999.2500  -999.2500  -999.2500  -999.2500   119.5830   -29.8610     4.9500    10.2190    10.1260    10.7410  -999.2500
 2343.0000  -999.2500  -999.2500  -999.2500  -999.2500   121.3230   -29.6980     4.9500    10.2440    10.1890    11.0660  -999.2500
 2343.5000  -999.2500  -999.2500  -999.2500  -999.2500   121.0500   -29.5350     4.9500    10.2680    10.2510    11.6860  -999.2500
 2344.0000  -999.2500  -999.2500  -999.2500  -999.2500   120.7860   -29.3710     4.9500    10.2930    10.3130    12.3320  -999.2500
 2344.5000  -999.2500  -999.2500  -999.2500  -999.2500   119.8400   -29.2120     4.9500    10.3170    10.3520    11.5700  -999.2500
 2345.0000  -999.2500  -999.2500  -999.2500  -999.2500   115.6450   -29.1920     4.9500    10.3520     9.6340    10.7740  -999.2500
 2345.5000  -999.2500  -999.2500  -999.2500  -999.2500   111.4960   -29.1780     4.9500    10.0970     9.0180     9.9770  -999.2500
 2346.0000  -999.2500  -999.2500  -999.2500  -999.2500   108.9680   -29.1630     4.9500     9.4380     8.4020     9.1840  -999.2500
 2346.5000  -999.2500  -999.2500  -999.2500  -999.2500   106.8390   -29.1480     4.9500     8.7790     7.7860     9.2460  -999.2500
 2347.0000  -999.2500  -999.2500  -999.2500  -999.2500   104.6870   -29.1330     4.9500     8.1200     7.1700     9.3080  -999.2500
 2347.5000  -999.2500  -999.2500  -999.2500  -999.2500   103.4120   -29.1180     4.9500     7.4610     6.5540     9.3550  -999.2500
 2348.0000  -999.2500  -999.2500  -999.2500  -999.2500   103.3420   -29.1040     4.9500     6.8030     5.8630     8.0800  -999.2500
 2348.5000  -999.2500  -999.2500  -999.2500  -999.2500   108.1480   -29.0890     4.9500     5.7950     5.9720     7.0490  -999.2500
 2349.0000  -999.2500  -999.2500  -999.2500  -999.2500   112.8620   -29.0740     4.9500     5.8480     6.1170     5.6890  -999.2500
 2349.5000  -999.2500  -999.2500  -999.2500  -999.2500   114.6490   -29.0590     4.9500     5.9800     6.2620     6.2410  -999.2500
 2350.0000  -999.2500  -999.2500  -999.2500  -999.2500   111.1890   -29.0440     4.9500     6.1310     6.4060     7.3850  -999.2500
 2350.5000  -999.2500  -999.2500  -999.2500  -999.2500   103.4580   -29.0290     4.9500     6.2810     6.5510     8.5290  -999.2500
 2351.0000  -999.2500  -999.2500  -999.2500  -999.2500    95.5470   -29.0150     4.9500     6.4320     6.7600     9.4610  -999.2500
 2351.5000  -999.2500  -999.2500  -999.2500  -999.2500    93.1760   -28.9470     4.9500     6.7290     6.9930     8.9290  -999.2500
 2352.0000  -999.2500  -999.2500  -999.2500  -999.2500    92.7530   -28.8630     4.9500     7.0810     7.2260     8.3970  -999.2500
 2352.5000  -999.2500  -999.2500  -999.2500  -999.2500    94.8110   -28.7780     4.9500     7.4330     7.4590     7.8650  -999.2500
 2353.0000  -999.2500  -999.2500  -999.2500  -999.2500    97.1420   -28.6930     4.9500     7.7850     7.6920     7.5690  -999.2500
 2353.5000  -999.2500  -999.2500  -999.2500  -999.2500    95.1320   -28.6080     4.9500     8.0320     7.9260     8.5350  -999.2500
 2354.0000  -999.2500  -999.2500  -999.2500  -999.2500    91.0740   -28.5240     4.9500     8.1160     7.9720     9.5160  -999.2500
 2354.5000  -999.2500  -999.2500  -999.2500  -999.2500    86.9950   -28.4390     4.9500     8.1740     8.0190    10.4980  -999.2500
 2355.0000  -999.2500  -999.2500  -999.2500  -999.2500    82.8840   -28.3540     4.9500     8.2170     8.0660    11.2470  -999.2500
 2355.5000  -999.2500  -999.2500  -999.2500  -999.2500    80.3100   -28.2690     4.9500     8.2590     8.1130    10.2750  -999.2500
 2356.0000  -999.2500  -999.2500  -999.2500  -999.2500    80.7530   -28.1840     4.9500     8.2990     8.2110     9.4900  -999.2500
 2356.5000  -999.2500  -999.2500  -999.2500  -999.2500    82.4830   -28.0990     4.9500     8.4240     8.4500     8.7040  -999.2500
 2357.0000  -999.2500  -999.2500  -999.2500  -999.2500    86.7620   -28.0150     4.9500     8.5410     8.6880     8.0730  -999.2500
 2357.5000  -999.2500  -999.2500  -999.2500  -999.2500    90.4660   -27.9300     4.9500     8.6580     8.9270     9.0160  -999.2500
 2358.0000  -999.2500  -999.2500  -999.2500  -999.2500    90.1060   -27.8430     4.9500     8.7750     9.1840    10.0670  -999.2500
 2358.5000  -999.2500  -999.2500  -999.2500  -999.2500    89.6890   -27.8220     4.9500     8.8920     9.7640    11.1180  -999.2500
 2359.0000  -999.2500  -999.2500  -999.2500  -999.2500    89.0180   -27.8220     4.9500     9.0090    10.5450    12.2190  -999.2500
 2359.5000  -999.2500  -999.2500  -999.2500  -999.2500    88.3760   -27.8220     4.9500     9.1260    10.2190    11.1670  -999.2500
 2360.0000  -999.2500  -999.2500  -999.2500  -999.2500    84.7410   -27.8220     4.9500     9.2690     9.6360     9.4830  -999.2500
 2360.5000  -999.2500  -999.2500  -999.2500  -999.2500    80.3530   -27.8220     4.9500     8.9730     9.0520     8.5760  -999.2500
 2361.0000  -999.2500  -999.2500  -999.2500  -999.2500    79.2930   -27.8120     4.9500     8.5940     8.7430     9.6820  -999.2500
 2361.5000  -999.2500  -999.2500  -999.2500  -999.2500    80.3980   -27.7970     4.9500     8.2160     8.5030    10.5680  -999.2500
 2362.0000  -999.2500  -999.2500  -999.2500  -999.2500    82.7200   -27.7820     4.9500     7.8920     8.2640    11.2470  -999.2500
 2362.5000  -999.2500  -999.2500  -999.2500  -999.2500    90.8980   -27.7660     4.9500     7.7500     8.0250     9.4670  -999.2500
 2363.0000  -999.2500  -999.2500  -999.2500  -999.2500    98.3390   -27.7510     4.9500     7.6070     7.7850     6.8400  -999.2500
 2363.5000  -999.2500  -999.2500  -999.2500  -999.2500    99.5070   -27.7350     4.9500     7.4640     7.5460     7.2460  -999.2500
 2364.0000  -999.2500  -999.2500  -999.2500  -999.2500   100.3270   -27.7200     4.9500     7.3050     7.3060     8.1080  -999.2500
 2364.5000  -999.2500  -999.2500  -999.2500  -999.2500   100.9960   -27.7040     4.9500     7.1040     7.0670     8.9700  -999.2500
 2365.0000  -999.2500  -999.2500  -999.2500  -999.2500   101.5600   -27.6890     4.9500     6.8660     6.8520    10.0700  -999.2500
 2365.5000  -999.2500  -999.2500  -999.2500  -999.2500   100.1160   -27.6740     4.9500     6.5470     6.6900     9.2640  -999.2500
 2366.0000  -999.2500  -999.2500  -999.2500  -999.2500    98.4450   -27.6580     4.9500     6.2280     6.5280     8.1510  -999.2500
 2366.5000  -999.2500  -999.2500  -999.2500  -999.2500   103.9160   -27.6430     4.9500     5.9080     6.3660     7.0380  -999.2500
 2367.0000  -999.2500  -999.2500  -999.2500  -999.2500   114.2600   -27.6300     4.9500     5.5890     6.1810     6.7530  -999.2500
 2367.5000  -999.2500  -999.2500  -999.2500  -999.2500   124.6520   -27.5320     4.9500     5.1410     6.1810     6.7210  -999.2500
 2368.0000  -999.2500  -999.2500  -999.2500  -999.2500   134.8580   -27.4160     4.9500     5.4260     6.2380     6.1600  -999.2500
 2368.5000  -999.2500  -999.2500  -999.2500  -999.2500   141.3300   -27.2990     4.9500     5.9060     6.5660     5.4590  -999.2500
 2369.0000  -999.2500  -999.2500  -999.2500  -999.2500   139.2010   -27.1830     4.9500     6.3860     6.9010     5.2850  -999.2500
 2369.5000  -999.2500  -999.2500  -999.2500  -999.2500   131.8940   -27.0660     4.9500     6.8650     7.2370     8.8950  -999.2500
 2370.0000  -999.2500  -999.2500  -999.2500  -999.2500   124.9120   -26.9490     4.9500     7.3450     7.5720    11.8320  -999.2500
 2370.5000  -999.2500  -999.2500  -999.2500  -999.2500   120.9530   -26.8320     4.9500     8.0730     7.9070    14.5560  -999.2500
