~VERSION INFORMATION
 VERS.                2.0:   CWLS LOG ASCII STANDARD - VERSION 2.0
 WRAP.                 NO:   ONE LINE PER DEPTH STEP
~WELL INFORMATION
#MNEM.UNIT      DATA TYPE    INFORMATION
#----------   ------------   ------------------------------
 STRT.F          176.5000:   START DEPTH
 STOP.F         3010.0000:   STOP DEPTH
 STEP.F            0.5000:   STEP LENGTH
 NULL.          -999.2500:   NO VALUE
 COMP.    FENIX & SCISSON:   COMPANY
 WELL.   FENIX "A" #36-28:   WELL
 FLD .              NPR 3:   FIELD
 LOC .      S28 T39N R78W:   LOCATION
 CNTY.            NATRONA:   COUNTY
 STAT.            WYOMING:   STATE
 CTRY. UNITED STATES OF AMERICA:   COUNTRY
 SRVC.       SCHLUMBERGER:   SERVICE COMPANY
 DATE.        19-AUG-1977:   LOGDATE
 API .     49025104150000:   API NUMBER
~CURVE INFORMATION
#MNEM.UNIT       API CODE    CURVE DESCRIPTION
#----------   ------------   ------------------------------
 DEPT.F                  :   
 SPR .MV     07 010 01 00:   SPONTANEOUS POTENTIAL
 ILM .OHMM   07 120 44 00:   INDUCTION LOG MEDIUM RESISTIVITY
 ILD .OHMM   07 120 46 00:   INDUCTION LOG DEEP RESISTIVITY
 LL8 .OHMM   07 220 08 00:   LATEROLOG-8 RESISTIVITY
 GRD .GAPI   45 310 01 00:   GAMMA RAY FROM DENSITY LOG
 CALD.IN     45 280 60 00:   CALIPER FROM DENSITY LOG
 RHOB.G/C3   45 350 01 00:   BULK DENSITY
 DCOR.G/C3   45 356 01 00:   DENSITY CORRECTION
~PARAMETER INFORMATION
#MNEM.UNIT          VALUE    DESCRIPTION
#----------   ------------   ------------------------------
 EKB .F         5107.0000:   Kelly bushing
 EGL .F         5097.0000:   Ground level
 EDF .F            0.0000:   Drilling floor
 TD  .F         3012.0000:   Total depth
 DATE.        19-AUG-1977:   Date logged
 CLNT.            A2DTECH:   Client Code
 SL  . 1650' FSL & 1650' FWL:   Surface Location
 PD  .                 GL:   Permanent Datum
 EPD .F              5097:   Elevation Permanent Datum
 LMF .                 KB:   Log Measured From
 DMF .                 KB:   Drilling Measured From
 DAPD.F                10:   Feet Above Permanent Datum
 DD  .F              3010:   Depth driller
 DL  .F              3011:   Depth logger
 BLI .F              3005:   Bottom log interval
 TLI .F               215:   Top log interval
 CS1 .IN            8.625:   Casing size
 CBD1.      8.625" @ 205':   Casing driller 1
 CBL1.F               215:   Casing logger 1
 BS1 .IN            7.875:   Bit size
 BSD1.F              3010:   Depth drilled with bit1
 DFT .                FGM:   Type fluid in hole
 DFD .                8.8:   Density
 DFV .                 33:   Viscosity
 DFPH.               10.5:   pH
 DFL .               10.6:   Fluid loss
 MSS .            MUD PIT:   Source of sample
 RMS .OHMM            .19:   Rm
 MST .F                76:   Rm Meas. temp.
 RMF .OHMM            .17:   Rmf
 MFST.F                78:   Rmf Meas. temp.
 MFSS.               MEAS:   Source Rmf.
 RMB .OHMM            .13:   Rm. at BHT
 BHT .F               112:   BHT.
 TCS .HRS            0700:   Time Circ. stopped
 TLAB.HRS            1400:   Time logger at bottom
 MRT .F               112:   Maximum recorded temp.
 LUN .               5642:   Logging unit number
 ENGI.          CHALUPSKY:   Recorded By
 WITN.     WES PETTINGILL:   Witnessed by
 ORIG.           5" PRINT:   Origin of data
 UWI .     49025104150000:   Unique Well ID
 DICO. A2D TECHNOLOGIES, INC.:   Digitizing Company
 LUL .               CSPR:   Logging unit location
~OTHER INFORMATION
~A   DEPT      SPR        ILM        ILD        LL8        GRD       CALD       RHOB       DCOR   
# ...
  946.0000   -50.4570     8.2010     9.5590    11.4040   119.5740     8.7110     2.4260     0.0470
  946.5000   -50.0880     8.2130     9.5410    11.2110   120.6400     8.7100     2.4600     0.0630
  947.0000   -50.7930     8.2320     9.5220    10.9150   121.3780     8.7090     2.4540     0.0510
  947.5000   -51.5100     8.2510     9.4960    10.6200   120.5910     8.7070     2.4440     0.0360
  948.0000   -52.0860     8.2700     9.5060    10.4060   119.6260     8.7060     2.4680     0.0640
  948.5000   -52.2200     8.3740     9.5290    10.5290   120.3100     8.7050     2.4910     0.0560
  949.0000   -52.0640     8.5180     9.5520    10.6710   124.6100     8.7040     2.4760     0.0450
  949.5000   -51.8510     8.6610     9.5750    10.9280   123.3700     8.7020     2.4570     0.0480
  950.0000   -51.3640     8.8050     9.5970    11.1840   120.6380     8.7010     2.4690     0.0940
  950.5000   -50.6890     8.9050     9.6200    11.4400   117.9280     8.7000     2.4950     0.0890
  951.0000   -51.3900     8.8740     9.6430    11.7210   116.4640     8.6980     2.5210     0.0830
  951.5000   -52.2230     8.8500     9.6660    11.4530   115.1640     8.6970     2.5380     0.0720
  952.0000   -52.3420     8.8260     9.6890    11.1570   113.8750     8.6980     2.5200     0.0480
  952.5000   -51.7640     8.8010     9.7120    10.9090   112.5870     8.7040     2.5050     0.0290
  953.0000   -52.2770     8.7770     9.7350    11.0550   112.2970     8.7100     2.4900     0.0420
  953.5000   -52.8780     8.7530     9.7600    11.2000   113.1840     8.7160     2.4710     0.0490
  954.0000   -51.8000     8.7290     9.7820    11.3000   114.6720     8.7220     2.4470     0.0350
  954.5000   -51.0140     8.7050     9.8060    11.1810   116.5140     8.7280     2.4220     0.0180
  955.0000   -52.2190     8.6810     9.8300    11.0910   118.3540     8.7340     2.4420     0.0400
  955.5000   -53.1690     8.6640     9.8550    10.9940   120.1840     8.7400     2.4620     0.0340
  956.0000   -52.5480     8.7250     9.8790    11.2100   121.9730     8.7460     2.4420     0.0240
  956.5000   -51.6490     8.7720     9.9030    11.4440   122.8060     8.7530     2.4260     0.0170
  957.0000   -51.2120     8.8180     9.9280    11.5090   122.4110     8.7590     2.4250     0.0290
  957.5000   -51.1440     8.8640     9.9520    11.5090   123.2730     8.7650     2.4490     0.0420
  958.0000   -51.0750     8.9100     9.9760    11.5090   123.7160     8.7710     2.4690     0.0560
  958.5000   -51.1750     8.9570    10.0010    11.5570   121.2420     8.7720     2.4880     0.0670
  959.0000   -51.4130     8.9870    10.0310    11.6240   118.8450     8.7660     2.4800     0.0600
  959.5000   -50.9090     8.9820    10.0260    11.7210   117.5010     8.7610     2.4640     0.0510
  960.0000   -50.2310     8.9780    10.0190    11.6780   116.1820     8.7550     2.4460     0.0460
  960.5000   -49.5410     8.9740    10.0110    11.5960   114.9150     8.7490     2.4650     0.0540
  961.0000   -48.9660     8.9700    10.0040    11.5150   115.7990     8.7440     2.4870     0.0650
  961.5000   -48.4750     8.9660     9.9970    11.4340   116.4340     8.7380     2.4800     0.0700
  962.0000   -47.9980     8.9620     9.9890    11.3530   116.8600     8.7320     2.4770     0.0660
  962.5000   -48.1830     8.9580     9.9820    11.3000   119.0480     8.7260     2.4830     0.0740
  963.0000   -50.0160     8.9540     9.9750    11.4580   121.4160     8.7210     2.4720     0.0690
  963.5000   -52.2000     8.9500     9.9670    11.5750   122.5470     8.7150     2.4600     0.0600
  964.0000   -53.5750     8.9460     9.9600    11.7210   123.3460     8.7090     2.4480     0.0500
  964.5000   -52.8300     8.9420     9.9520    11.6290   123.5570     8.7030     2.4350     0.0410
  965.0000   -51.8210     8.9380     9.9450    11.5060   122.9970     8.6980     2.4300     0.0220
  965.5000   -50.8180     8.9340     9.9380    11.4040   121.5560     8.6890     2.4540     0.0290
  966.0000   -49.8840     8.9300     9.9300    11.6090   121.6810     8.6780     2.4720     0.0480
  966.5000   -50.0120     8.9260     9.9230    11.7020   122.4620     8.6680     2.4820     0.0420
  967.0000   -50.1750     8.9220     9.9160    11.4970   121.5890     8.6580     2.4610     0.0300
  967.5000   -50.3330     8.9180     9.9080    11.3330   120.8830     8.6470     2.4530     0.0360
  968.0000   -50.4900     8.9140     9.9010    11.1970   122.3570     8.6370     2.4450     0.0450
  968.5000   -50.6470     8.9100     9.8940    11.4170   123.7680     8.6260     2.4370     0.0280
  969.0000   -50.8030     8.9070     9.8860    11.6980   124.3770     8.6160     2.4330     0.0410
  969.5000   -50.9580     8.8700     9.8790    11.6420   125.3230     8.6060     2.4530     0.0510
  970.0000   -50.8930     8.8240     9.8720    11.4300   127.1680     8.6000     2.4680     0.0500
  970.5000   -50.5630     8.7780     9.8640    11.3140   129.3460     8.6120     2.4600     0.0380
  971.0000   -50.2350     8.7320     9.8570    11.4450   127.8790     8.6230     2.4510     0.0250
  971.5000   -50.2040     8.6860     9.8490    11.6030   124.9220     8.6330     2.4740     0.0460
  972.0000   -50.5150     8.6410     9.7340    11.4750   127.1930     8.6440     2.5000     0.0830
  972.5000   -50.8190     8.5950     9.6180    11.1130   129.3880     8.6550     2.5160     0.0770
  973.0000   -50.9590     8.5170     9.5010    10.9020   127.6590     8.6660     2.4640     0.0580
  973.5000   -50.5820     8.4310     9.3840    10.9810   124.8070     8.6760     2.4450     0.0340
  974.0000   -50.2190     8.3460     9.2670    11.0440   121.0260     8.6850     2.4670     0.0470
  974.5000   -49.8580     8.2600     9.1510    11.0950   120.2320     8.6930     2.4920     0.0620
  975.0000   -49.4970     8.1740     9.0340    10.8440   121.2000     8.7010     2.4550     0.0360
  975.5000   -49.1350     8.0880     8.9080    10.6340   122.5380     8.7090     2.4660     0.0430
  976.0000   -48.7600     8.0020     8.7750    10.4250   124.2360     8.7150     2.4840     0.0500
  976.5000   -48.7510     7.9160     8.6430    10.2170   129.0030     8.7070     2.4530     0.0320
  977.0000   -48.8610     7.8300     8.5100    10.1190   133.9800     8.6990     2.4580     0.0300
  977.5000   -48.9750     7.7470     8.3780    10.0220   136.2980     8.6990     2.4620     0.0310
  978.0000   -49.0890     7.6760     8.3170     9.9260   136.3870     8.7040     2.4190     0.0190
  978.5000   -49.2030     7.6040     8.2720     9.8370   136.9170     8.7080     2.4020     0.0100
  979.0000   -49.3170     7.5320     8.2280     9.7780   138.0240     8.7130     2.4250     0.0260
  979.5000   -49.4360     7.4610     8.1840     9.7180   137.9390     8.7180     2.4440     0.0400
  980.0000   -49.3680     7.3890     8.1400     9.6590   134.9830     8.7230     2.4640     0.0560
  980.5000   -49.2420     7.3410     8.0950     9.6000   133.4120     8.7270     2.4550     0.0400
  981.0000   -49.1160     7.3260     8.0520     9.5410   134.8200     8.7320     2.4440     0.0290
  981.5000   -48.6710     7.3100     8.0360     9.4950   136.1880     8.7330     2.4320     0.0340
  982.0000   -47.9830     7.2950     8.0210     9.6470   137.7090     8.7230     2.4270     0.0240
  982.5000   -47.6140     7.2800     8.0060     9.7710   136.7220     8.7130     2.4500     0.0460
  983.0000   -48.6280     7.2050     7.9910     9.9260   132.8520     8.7040     2.4440     0.0340
  983.5000   -48.8520     7.1480     7.9750     9.8740   130.6790     8.6950     2.4310     0.0210
  984.0000   -48.6370     7.1690     7.9600     9.7700   129.9520     8.6850     2.4470     0.0310
  984.5000   -49.1340     7.1850     7.9450     9.6710   130.9720     8.6770     2.4860     0.0430
  985.0000   -49.6180     7.2020     7.9300     9.7480   132.0060     8.6760     2.4790     0.0550
  985.5000   -50.1010     7.2180     7.9060     9.8410   131.6010     8.6760     2.4680     0.0670
  986.0000   -50.5850     7.2350     7.9470     9.7710   131.1560     8.6760     2.4880     0.0760
