~VERSION INFORMATION
 VERS.                2.0:   CWLS LOG ASCII STANDARD - VERSION 2.0
 WRAP.                 NO:   ONE LINE PER DEPTH STEP
~WELL INFORMATION
#MNEM.UNIT      DATA TYPE    INFORMATION
#----------   ------------   ------------------------------
 STRT.F            0.0000:   START DEPTH
 STOP.F         3205.0000:   STOP DEPTH
 STEP.F            0.5000:   STEP LENGTH
 NULL.          -999.2500:   NO VALUE
 COMP. LAWRENCE-ALLISON AND ASSOCIATES:   COMPANY
 WELL. LAWRENCE "X" #64-28:   WELL
 FLD .          N.P.R. #3:   FIELD
 LOC .      S28 T39N R78W:   LOCATION
 CNTY.            NATRONA:   COUNTY
 STAT.            WYOMING:   STATE
 CTRY. UNITED STATES OF AMERICA:   COUNTRY
 SRVC.      DRESSER ATLAS:   SERVICE COMPANY
 DATE.        25-MAY-1986:   LOGDATE
 API .     49025110730000:   API NUMBER
~CURVE INFORMATION
#MNEM.UNIT       API CODE    CURVE DESCRIPTION
#----------   ------------   ------------------------------
 DEPT.F                  :   
 GRR .GAPI   07 310 01 00:   GAMMA RAY FROM RESISTIVITY
 SPR .MV     07 010 01 00:   SPONTANEOUS POTENTIAL
 RILD.OHMM   07 120 46 00:   DEEP INDUCTION RESISTIVITY
 RILM.OHMM   07 120 44 00:   INDUCTION LOG MEDIUM RESISTIVITY
 RSFL.OHMM   07 221 01 00:   AMPPLIFIED SHALLOW FOCUSED LOG RESISTIVITY
 TENR.LBS    07 635 01 00:   TENSION FROM RESISTIVITY
 CNC .DEC    42 890 03 00:   NEUTRON POROSITY SANDSTONE
 CALD.IN     45 280 60 00:   CALIPER FROM DENSITY LOG
 DEN .G/C3   45 350 01 00:   BULK DENSITY
 CORR.G/C3   45 356 01 00:   DENSITY CORRECTION
 TEND.LBS    45 635 01 00:   TENSION FROM DENSITY LOG
~PARAMETER INFORMATION
#MNEM.UNIT          VALUE    DESCRIPTION
#----------   ------------   ------------------------------
 EKB .F         5070.0000:   Kelly bushing
 EGL .F         5058.0000:   Ground level
 TD  .F         3205.0000:   Total depth
 DATE.        25-MAY-1986:   Date logged
 CLNT.            A2DTECH:   Client Code
 SL  . 2248' FNL & 1636' FEL:   Surface Location
 PD  .                 GL:   Permanent Datum
 EPD .F              5058:   Elevation Permanent Datum
 LMF .                 KB:   Log Measured From
 DMF .                 KB:   Drilling Measured From
 DAPD.F                12:   Feet Above Permanent Datum
 DD  .F              3205:   Depth driller
 DL  .F              3203:   Depth logger
 BLI .F              3201:   Bottom log interval
 CS1 .IN            8.625:   Casing size
 CBD1.      8.625" @ 476':   Casing driller 1
 CBL1.F               478:   Casing logger 1
 BS1 .IN            7.875:   Bit size
 BSD1.F              3205:   Depth drilled with bit1
 DFT .        POLYMER-KCL:   Type fluid in hole
 DFD .                  9:   Density
 DFV .                 37:   Viscosity
 DFPH.                8.5:   pH
 DFL .                 10:   Fluid loss
 MSS .           FLOWLINE:   Source of sample
 RMS .OHMM           0.31:   Rm
 MST .F                69:   Rm Meas. temp.
 RMF .OHMM           0.25:   Rmf
 MFST.F                69:   Rmf Meas. temp.
 RMC .OHMM           0.39:   Rmc
 MCST.F                69:   Rmc Meas. temp.
 MFSS.               MEAS:   Source Rmf.
 MCSS.               CALC:   Source Rmc.
 RMB .OHMM           0.19:   Rm. at BHT
 BHT .F               115:   BHT.
 TCS .HRS               4:   Time Circ. stopped
 MRT .F               115:   Maximum recorded temp.
 LUN .            HL-6274:   Logging unit number
 LUL .           GILLETTE:   Logging unit location
 ENGI.             RAUTIO:   Recorded By
 WITN.             STRONG:   Witnessed by
 ORIG.           5" PRINT:   Origin of data
 UWI .     49025110730000:   Unique Well ID
 DICO. A2D TECHNOLOGIES, INC.:   Digitizing Company
~OTHER INFORMATION
~A    DEPT     GRR        SPR       RILD       RILM       RSFL       TENR        CNC       CALD        DEN       CORR       TEND   
# ...
 1037.0000    99.8360   -53.2750     6.5560     6.7850     7.5460   -27.4160  -999.2500  -999.2500  -999.2500  -999.2500  -999.2500
 1037.5000   101.7390   -53.2750     6.6310     6.8540     7.6170   -25.4490  -999.2500  -999.2500  -999.2500  -999.2500  -999.2500
 1038.0000   109.9940   -53.4030     6.7070     6.9240     7.6800   -27.1820  -999.2500  -999.2500  -999.2500  -999.2500  -999.2500
 1038.5000   113.8830   -53.5530     6.7820     6.9810     7.7420   -29.4820  -999.2500  -999.2500  -999.2500  -999.2500  -999.2500
 1039.0000   108.3150   -53.6720     6.8580     6.9810     7.8040   -31.7820  -999.2500  -999.2500  -999.2500  -999.2500  -999.2500
 1039.5000   102.2870   -53.8220     6.9180     6.9810     7.8670   -34.0820  -999.2500  -999.2500  -999.2500  -999.2500  -999.2500
 1040.0000    97.9530   -53.9490     6.8870     6.9720     7.9400   -33.9840  -999.2500  -999.2500  -999.2500  -999.2500  -999.2500
 1040.5000    94.0040   -53.8570     6.8610     6.9480     7.8460   -30.4940  -999.2500  -999.2500  -999.2500  -999.2500  -999.2500
 1041.0000    94.4580   -53.6100     6.8350     6.9240     7.7320   -27.0050  -999.2500  -999.2500  -999.2500  -999.2500  -999.2500
 1041.5000   100.4760   -53.3410     6.8090     6.9010     7.6180   -23.5150  -999.2500  -999.2500  -999.2500  -999.2500  -999.2500
 1042.0000   107.3380   -53.1060     6.7830     6.8770     7.5040   -20.0250  -999.2500  -999.2500  -999.2500  -999.2500  -999.2500
 1042.5000   110.7120   -53.0980     6.7580     6.8530     7.3900   -15.4690  -999.2500  -999.2500  -999.2500  -999.2500  -999.2500
 1043.0000   110.8710   -53.2710     6.7290     6.8300     7.3100   -19.1030  -999.2500  -999.2500  -999.2500  -999.2500  -999.2500
 1043.5000   110.0740   -53.4190     6.7290     6.8060     7.4340   -24.3380  -999.2500  -999.2500  -999.2500  -999.2500  -999.2500
 1044.0000   109.4490   -53.5740     6.7290     6.7820     7.5290   -29.5720  -999.2500  -999.2500  -999.2500  -999.2500  -999.2500
 1044.5000   109.1530   -53.7450     6.7290     6.7590     7.6250   -34.8060  -999.2500  -999.2500  -999.2500  -999.2500  -999.2500
 1045.0000   107.9210   -53.8740     6.7290     6.7290     7.7240   -40.0410  -999.2500  -999.2500  -999.2500  -999.2500  -999.2500
 1045.5000   106.3100   -54.0670     6.7290     6.7000     7.7000   -45.4090  -999.2500  -999.2500  -999.2500  -999.2500  -999.2500
 1046.0000   106.0990   -54.1890     6.7290     6.6620     7.6750   -41.0590  -999.2500  -999.2500  -999.2500  -999.2500  -999.2500
 1046.5000   105.9870   -54.0220     6.7290     6.6230     7.6490   -36.5940  -999.2500  -999.2500  -999.2500  -999.2500  -999.2500
 1047.0000   104.8710   -53.6670     6.7120     6.5850     7.6240   -32.1300  -999.2500  -999.2500  -999.2500  -999.2500  -999.2500
 1047.5000   105.8600   -53.2430     6.6890     6.5460     7.5980   -27.6650  -999.2500  -999.2500  -999.2500  -999.2500  -999.2500
 1048.0000   109.1280   -52.9860     6.6670     6.5080     7.5730   -23.2010  -999.2500  -999.2500  -999.2500  -999.2500  -999.2500
 1048.5000   108.7270   -52.8610     6.6450     6.4690     7.5480   -18.7360  -999.2500  -999.2500  -999.2500  -999.2500  -999.2500
 1049.0000   105.1100   -52.8340     6.6230     6.4300     7.5220   -15.4690  -999.2500  -999.2500  -999.2500  -999.2500  -999.2500
 1049.5000   102.0710   -53.1960     6.6070     6.3910     7.4410   -18.8510  -999.2500  -999.2500  -999.2500  -999.2500  -999.2500
 1050.0000   100.9470   -53.6350     6.5100     6.3520     7.3340   -22.0100  -999.2500  -999.2500  -999.2500  -999.2500  -999.2500
 1050.5000   101.8600   -53.8420     6.4350     6.3100     7.2260   -25.4490  -999.2500  -999.2500  -999.2500  -999.2500  -999.2500
 1051.0000   102.4760   -53.9590     6.3680     6.2970     7.1180   -21.0060  -999.2500  -999.2500  -999.2500  -999.2500  -999.2500
 1051.5000   103.2720   -54.0460     6.3610     6.2780     6.9810   -16.1290  -999.2500  -999.2500  -999.2500  -999.2500  -999.2500
 1052.0000   102.8860   -54.1450     6.3550     6.2590     7.0470   -11.2520  -999.2500  -999.2500  -999.2500  -999.2500  -999.2500
 1052.5000   100.7840   -54.2080     6.3490     6.2400     7.1370    -6.3740  -999.2500  -999.2500  -999.2500  -999.2500  -999.2500
 1053.0000   100.5160   -54.2100     6.3430     6.2210     7.1660    -1.4970  -999.2500  -999.2500  -999.2500  -999.2500  -999.2500
 1053.5000   100.6380   -54.1410     6.3360     6.2020     7.1350     4.4910  -999.2500  -999.2500  -999.2500  -999.2500  -999.2500
 1054.0000   101.6370   -53.9730     6.3300     6.1840     7.1050    -1.0690  -999.2500  -999.2500  -999.2500  -999.2500  -999.2500
 1054.5000   106.4230   -53.7820     6.3240     6.1650     7.0750    -8.2690  -999.2500  -999.2500  -999.2500  -999.2500  -999.2500
 1055.0000   110.7960   -53.6150     6.3170     6.1460     7.0440   -15.4690  -999.2500  -999.2500  -999.2500  -999.2500  -999.2500
 1055.5000   112.1480   -53.4900     6.3100     6.1140     7.0140   -22.6690  -999.2500  -999.2500  -999.2500  -999.2500  -999.2500
 1056.0000   112.0960   -53.3910     6.2670     6.0740     6.9830   -29.8690  -999.2500  -999.2500  -999.2500  -999.2500  -999.2500
 1056.5000   110.0440   -53.2690     6.2150     6.0340     6.9530   -35.4290  -999.2500  -999.2500  -999.2500  -999.2500  -999.2500
 1057.0000   106.0190   -53.2950     6.1620     5.9940     6.9230   -28.5540  -999.2500  -999.2500  -999.2500  -999.2500  -999.2500
 1057.5000   100.7600   -53.5220     6.1100     5.9540     6.8920   -22.9540  -999.2500  -999.2500  -999.2500  -999.2500  -999.2500
 1058.0000   100.0980   -53.7230     6.0570     5.9170     6.8620   -17.3540  -999.2500  -999.2500  -999.2500  -999.2500  -999.2500
 1058.5000   105.1310   -53.9720     6.0050     5.9400     6.8320   -11.7540  -999.2500  -999.2500  -999.2500  -999.2500  -999.2500
 1059.0000   106.6930   -54.1900     5.9520     5.9620     6.8010    -5.4890  -999.2500  -999.2500  -999.2500  -999.2500  -999.2500
 1059.5000   106.1430   -54.1530     5.9000     5.9850     6.8180    -9.5260  -999.2500  -999.2500  -999.2500  -999.2500  -999.2500
 1060.0000   105.8240   -54.0440     5.8630     6.0070     6.8560   -14.1080  -999.2500  -999.2500  -999.2500  -999.2500  -999.2500
 1060.5000   103.4810   -53.8910     5.9470     6.0270     6.8940   -18.6900  -999.2500  -999.2500  -999.2500  -999.2500  -999.2500
 1061.0000   100.6440   -53.6470     6.0130     6.1040     6.9320   -23.2720  -999.2500  -999.2500  -999.2500  -999.2500  -999.2500
 1061.5000    96.1970   -53.3690     6.0780     6.1730     6.9700   -33.0050  -999.2500  -999.2500  -999.2500  -999.2500  -999.2500
 1062.0000    92.5070   -53.2270     6.1430     6.2430     7.0080   -45.4090  -999.2500  -999.2500  -999.2500  -999.2500  -999.2500
 1062.5000    92.8660   -53.3820     6.2090     6.3130     7.0460   -32.6570  -999.2500  -999.2500  -999.2500  -999.2500  -999.2500
 1063.0000    96.4750   -53.5690     6.2740     6.3820     7.0850   -23.9520  -999.2500  -999.2500  -999.2500  -999.2500  -999.2500
 1063.5000    99.4430   -53.6950     6.3390     6.4520     7.1230   -19.7520  -999.2500  -999.2500  -999.2500  -999.2500  -999.2500
 1064.0000    99.7490   -53.8100     6.4050     6.5210     7.1610   -15.4690  -999.2500  -999.2500  -999.2500  -999.2500  -999.2500
 1064.5000   101.3590   -53.8110     6.4700     6.5910     7.2340   -19.7650  -999.2500  -999.2500  -999.2500  -999.2500  -999.2500
 1065.0000   101.9830   -53.7980     6.5350     6.6600     7.3330   -24.1470  -999.2500  -999.2500  -999.2500  -999.2500  -999.2500
 1065.5000   100.2400   -53.7880     6.6010     6.7290     7.4320   -28.5300  -999.2500  -999.2500  -999.2500  -999.2500  -999.2500
 1066.0000   100.5180   -53.7020     6.6660     6.7590     7.5310   -32.9120  -999.2500  -999.2500  -999.2500  -999.2500  -999.2500
 1066.5000   100.8940   -53.6680     6.7290     6.7890     7.6290   -44.0120  -999.2500  -999.2500  -999.2500  -999.2500  -999.2500
 1067.0000    99.8540   -53.5980     6.7400     6.8180     7.7240   -46.2410  -999.2500  -999.2500  -999.2500  -999.2500  -999.2500
