~VERSION INFORMATION
 VERS.                2.0:   CWLS LOG ASCII STANDARD - VERSION 2.0
 WRAP.                 NO:   ONE LINE PER DEPTH STEP
~WELL INFORMATION
#MNEM.UNIT      DATA TYPE    INFORMATION
#----------   ------------   ------------------------------
 STRT.F           44.0000:   START DEPTH
 STOP.F         6166.0000:   STOP DEPTH
 STEP.F            0.5000:   STEP LENGTH
 NULL.          -999.2500:   NO VALUE
 COMP.   TESORO PETROLEUM:   COMPANY
 WELL. TESORO 11X NPR #3-23:   WELL
 FLD .             TEAPOT:   FIELD
 LOC .      S23 T38N R78W:   LOCATION
 CNTY.            NATRONA:   COUNTY
 STAT.            WYOMING:   STATE
 CTRY. UNITED STATES OF AMERICA:   COUNTRY
 SRVC.       SCHLUMBERGER:   SERVICE COMPANY
 DATE.        29-OCT-1968:   LOGDATE
 API .     49025100170000:   API NUMBER
~CURVE INFORMATION
#MNEM.UNIT       API CODE    CURVE DESCRIPTION
#----------   ------------   ------------------------------
 DEPT.F                  :   
 SN  .OHMM   05 040 18 00:   SHORT NORMAL 18"
 RES .OHMM   05 000 00 00:   RESISTIVITY
 ILD .OHMM   05 120 46 00:   INDUCTION LOG DEEP RESISTIVITY
 SPR .MV     05 010 01 00:   SPONTANEOUS POTENTIAL FROM RES.
~PARAMETER INFORMATION
#MNEM.UNIT          VALUE    DESCRIPTION
#----------   ------------   ------------------------------
 EKB .F         5283.0000:   Kelly bushing
 EGL .F         5272.0000:   Ground level
 EDF .F            0.0000:   Drilling floor
 TD  .F         6171.0000:   Total depth
 CLNT.            A2DTECH:   Client Code
 SL  . 380' FNL & 380' FWL:   Surface Location
 PD  .                 GL:   Permanent Datum
 EPD .F              5272:   Elevation Permanent Datum
 LMF .                 KB:   Log Measured From
 DMF .                 KB:   Drilling Measured From
 DAPD.F                11:   Feet Above Permanent Datum
 DATE.        29-OCT-1968:   Date Logged [DD-MMM-YYYY]
 DD  .F              6171:   Depth driller
 DL  .F              6167:   Depth logger
 BLI .F              6166:   Bottom log interval
 TLI .F               975:   Top log interval
 CS1 .IN            10.75:   Casing size
 CBD1.      10.75" @ 975':   Casing driller 1
 CBL1.F               975:   Casing logger 1
 BS1 .IN            9.125:   Bit size
 BSD1.F              6171:   Depth drilled with bit1
 DFT .           GEL-CHEM:   Type fluid in hole
 DFD .                9.6:   Density
 DFV .                 61:   Viscosity
 DFPH.                 10:   pH
 DFL .                6.8:   Fluid loss
 MSS .           FLOWLINE:   Source of sample
 RMS .OHMM           0.89:   Rm
 MST .F                80:   Rm Meas. temp.
 RMF .OHMM           0.60:   Rmf
 MFST.F                80:   Rmf Meas. temp.
 MFSS.               MEAS:   Source Rmf.
 RMB .OHMM           0.45:   Rm. at BHT
 BHT .F               160:   BHT.
 TCS .HRS               4:   Time Circ. stopped
 MRT .F               160:   Maximum recorded temp.
 LUN .               7041:   Logging unit number
 LUL .               CSPR:   Logging unit location
 ENGI.            MANGOLD:   Recorded By
 WITN.                MAY:   Witnessed by
 ORIG.         2.5" PRINT:   Origin of data
 UWI .     49025100170000:   Unique Well ID
 DICO. A2D TECHNIOLOGIES,INC.:   Digitizing Company
~OTHER INFORMATION
~A  DEPTH       SN        RES        ILD        SPR
# ...
 1650.0000     7.5758  -999.2500     8.8147   -62.2115
 1650.5000     7.8732  -999.2500     9.2652   -62.2758
 1651.0000     8.1706  -999.2500     9.2368   -62.3401
 1651.5000     8.4667  -999.2500     9.6061   -62.4044
 1652.0000     8.7626  -999.2500     9.9873   -62.4688
 1652.5000     9.0600  -999.2500    10.2876   -62.5331
 1653.0000     9.2059  -999.2500    10.5878   -62.5974
 1653.5000     9.3809  -999.2500    10.8990   -62.6618
 1654.0000     9.6492  -999.2500    11.2222   -62.7261
 1654.5000     9.7045  -999.2500    11.5454   -62.7904
 1655.0000     9.7879  -999.2500    11.7879   -62.8547
 1655.5000     9.7810  -999.2500    11.9364   -62.9191
 1656.0000     9.9269  -999.2500    12.0848   -62.9834
 1656.5000     9.9212  -999.2500    12.0818   -63.0477
 1657.0000     9.9152  -999.2500    12.2305   -63.1121
 1657.5000     9.9091  -999.2500    12.2727   -63.1766
 1658.0000    10.0545  -999.2500    12.3758   -63.2409
 1658.5000    10.2000  -999.2500    12.3722   -63.3059
 1659.0000    10.1934  -999.2500    12.3694   -63.3700
 1659.5000    10.1878  -999.2500    12.3665   -63.4337
 1660.0000    10.1818  -999.2500    12.3636   -63.5014
 1660.5000    10.1758  -999.2500    12.3273   -63.5615
 1661.0000    10.1697  -999.2500    12.2061   -63.6083
 1661.5000    10.1625  -999.2500    12.0515   -63.4717
 1662.0000    10.1569  -999.2500    11.8965   -63.3525
 1662.5000    10.1513  -999.2500    11.7422   -63.2237
 1663.0000    10.1455  -999.2500    11.4363   -63.0978
 1663.5000    10.1220  -999.2500    11.2606   -62.9726
 1664.0000     9.9525  -999.2500    11.0828   -62.8460
 1664.5000     9.7831  -999.2500    10.8212   -62.7200
 1665.0000     9.6658  -999.2500    10.5146   -62.5938
 1665.5000     9.5087  -999.2500    10.3603   -62.4677
 1666.0000     9.5010  -999.2500    10.0544   -62.3427
 1666.5000     9.1939  -999.2500     9.9000   -62.2152
 1667.0000     9.1384  -999.2500     9.7131   -62.0884
 1667.5000     8.8788  -999.2500     9.5354   -62.0096
 1668.0000     8.8717  -999.2500     9.4364   -62.0886
 1668.5000     8.5631  -999.2500     9.2814   -62.1648
 1669.0000     8.5574  -999.2500     9.1270   -62.2453
 1669.5000     8.5515  -999.2500     8.9727   -62.3250
 1670.0000     8.5051  -999.2500     8.9697   -62.4047
 1670.5000     8.3879  -999.2500     8.8152   -62.4838
 1671.0000     8.2291  -999.2500     8.8121   -62.5631
 1671.5000     8.2235  -999.2500     8.6570   -62.6457
 1672.0000     8.2182  -999.2500     8.3512   -62.7190
 1672.5000     8.1326  -999.2500     8.3483   -62.7958
 1673.0000     7.9631  -999.2500     8.1939   -62.6598
 1673.5000     7.8970  -999.2500     8.1909   -62.5117
 1674.0000     7.8909  -999.2500     8.0364   -62.3550
 1674.5000     7.8336  -999.2500     8.0333   -62.2030
 1675.0000     7.6957  -999.2500     7.8783   -62.0507
 1675.5000     7.6079  -999.2500     7.8755   -61.8947
 1676.0000     7.5636  -999.2500     7.7212   -61.7458
 1676.5000     7.5576  -999.2500     7.7182   -61.5929
 1677.0000     7.5515  -999.2500     7.7152   -61.5897
 1677.5000     7.5444  -999.2500     7.5606   -61.5754
 1678.0000     7.5388  -999.2500     7.5570   -61.5909
 1678.5000     7.5333  -999.2500     7.5542   -61.5978
 1679.0000     7.5273  -999.2500     7.5514   -61.5279
 1679.5000     7.5212  -999.2500     7.5485   -61.9637
 1680.0000     7.5152  -999.2500     7.5455   -61.6503
 1680.5000     7.5091  -999.2500     7.5424   -61.6047
 1681.0000     7.5030  -999.2500     7.6162   -61.5666
 1681.5000     7.4970  -999.2500     7.6879   -61.5919
 1682.0000     7.4909  -999.2500     7.6846   -61.5864
 1682.5000     7.4848  -999.2500     7.6818   -61.5846
 1683.0000     7.4788  -999.2500     7.6788   -61.5879
 1683.5000     7.4727  -999.2500     7.6343   -61.5804
 1684.0000     7.4667  -999.2500     7.5212   -61.5954
 1684.5000     7.4601  -999.2500     7.5176   -61.5841
 1685.0000     7.4545  -999.2500     7.3633   -61.5585
 1685.5000     7.2970  -999.2500     7.3604   -61.6722
 1686.0000     7.2485  -999.2500     7.3576   -60.9152
 1686.5000     7.1333  -999.2500     7.3545   -60.7851
 1687.0000     7.1261  -999.2500     7.2990   -60.7465
 1687.5000     7.1205  -999.2500     7.1970   -60.7840
 1688.0000     6.9634  -999.2500     7.1935   -60.7709
 1688.5000     6.9576  -999.2500     7.3424   -60.7688
 1689.0000     6.9515  -999.2500     7.3393   -60.7732
 1689.5000     6.9455  -999.2500     7.3364   -60.7707
 1690.0000     6.9394  -999.2500     7.3333   -60.7728
 1690.5000     6.9333  -999.2500     7.1788   -60.7706
 1691.0000     6.9273  -999.2500     7.1752   -60.7716
 1691.5000     6.9212  -999.2500     7.1723   -60.7782
 1692.0000     6.9394  -999.2500     7.0747   -60.7594
 1692.5000     7.0606  -999.2500     7.0152   -60.7787
 1693.0000     7.0545  -999.2500     7.0121   -60.8438
 1693.5000     7.0474  -999.2500     7.1106   -61.2223
 1694.0000     7.0424  -999.2500     7.1576   -61.1654
 1694.5000     7.0364  -999.2500     7.0025   -61.1782
 1695.0000     7.0303  -999.2500     7.1512   -61.1839
 1695.5000     7.1952  -999.2500     7.1484   -61.1766
 1696.0000     7.3224  -999.2500     7.1455   -61.1796
 1696.5000     7.3152  -999.2500     7.1424   -61.1796
 1697.0000     7.3083  -999.2500     7.1394   -61.1789
 1697.5000     7.3027  -999.2500     7.1364   -61.1789
 1698.0000     7.2970  -999.2500     7.2845   -61.1789
 1698.5000     7.2909  -999.2500     7.2816   -61.1789
 1699.0000     7.2848  -999.2500     7.2788   -61.1789
 1699.5000     7.2788  -999.2500     7.2758   -61.1789
 1700.0000     7.2718  -999.2500     7.2727   -61.1789
 1700.5000     7.2680  -999.2500     7.2697   -61.1789
 1701.0000     7.2654  -999.2500     7.2662   -61.1790
 1701.5000     7.2627  -999.2500     7.2650   -61.1791
 1702.0000     7.2601  -999.2500     7.2656   -61.1797
 1702.5000     7.2571  -999.2500     7.2662   -61.1793
 1703.0000     6.9513  -999.2500     7.2669   -61.1792
 1703.5000     6.9484  -999.2500     7.2675   -61.1821
 1704.0000     6.7778  -999.2500     7.2681   -61.1771
 1704.5000     6.6394  -999.2500     7.2687   -61.1710
 1705.0000     6.6364  -999.2500     7.2694   -60.9741
 1705.5000     6.6333  -999.2500     7.2700   -60.7664
 1706.0000     6.6298  -999.2500     7.2706   -60.5529
 1706.5000     6.6273  -999.2500     7.2712   -60.3399
 1707.0000     6.5533  -999.2500     7.2719   -60.1283
 1707.5000     6.3883  -999.2500     7.2725   -59.9614
 1708.0000     6.3152  -999.2500     7.2704   -59.9591
 1708.5000     6.3121  -999.2500     7.2682   -59.9544
 1709.0000     6.3091  -999.2500     7.1155   -59.9626
 1709.5000     6.3589  -999.2500     7.1140   -59.9494
 1710.0000     6.4253  -999.2500     6.9605   -59.9542
 1710.5000     6.4515  -999.2500     6.9590   -59.9925
 1711.0000     6.4770  -999.2500     6.9574   -59.8731
 1711.5000     6.5970  -999.2500     6.9556   -60.5927
 1712.0000     6.5934  -999.2500     6.9542   -61.1661
 1712.5000     6.5909  -999.2500     6.9527   -61.6485
 1713.0000     6.5879  -999.2500     6.9513   -61.5737
 1713.5000     6.5848  -999.2500     6.9498   -61.5734
 1714.0000     6.5818  -999.2500     6.9483   -61.5610
 1714.5000     6.5788  -999.2500     6.9468   -61.5243
 1715.0000     6.5758  -999.2500     6.9453   -61.5005
 1715.5000     6.5727  -999.2500     6.9438   -61.4739
 1716.0000     6.5697  -999.2500     6.9422   -61.4462
 1716.5000     6.5667  -999.2500     6.9407   -61.4198
 1717.0000     6.5632  -999.2500     6.9390   -61.3933
 1717.5000     6.5606  -999.2500     6.7857   -61.3669
 1718.0000     6.5576  -999.2500     6.7841   -61.3404
 1718.5000     6.5545  -999.2500     6.6307   -61.3139
 1719.0000     6.5515  -999.2500     6.6292   -61.2876
 1719.5000     6.5485  -999.2500     6.6277   -61.2611
 1720.0000     6.5455  -999.2500     6.6261   -61.2342
 1720.5000     6.5420  -999.2500     6.6246   -61.2089
 1721.0000     6.5394  -999.2500     6.6231   -61.1805
 1721.5000     6.5363  -999.2500     6.6216   -61.1791
 1722.0000     6.5333  -999.2500     6.6198   -61.1783
 1722.5000     6.5303  -999.2500     6.6184   -61.1789
