~VERSION INFORMATION
 VERS.                2.0:   CWLS LOG ASCII STANDARD - VERSION 2.0
 WRAP.                 NO:   ONE LINE PER DEPTH STEP
~WELL INFORMATION
#MNEM.UNIT      DATA TYPE    INFORMATION
#----------   ------------   ------------------------------
 STRT.F            0.0000:   START DEPTH
 STOP.F         4152.0000:   STOP DEPTH
 STEP.F            0.5000:   STEP LENGTH
 NULL.          -999.2500:   NO VALUE
 COMP. LAWRENCE ALLISON & ASSOCIATES:   COMPANY
 WELL. LAWRENCE "X" #28-27:   WELL
 FLD .             NPR #3:   FIELD
 LOC .      S27 T39N R78W:   LOCATION
 CNTY.            NATRONA:   COUNTY
 STAT.            WYOMING:   STATE
 CTRY. UNITED STATES OF AMERICA:   COUNTRY
 SRVC.      DRESSER ATLAS:   SERVICE COMPANY
 DATE.        26-FEB-1984:   LOGDATE
 API .     49025109630000:   API NUMBER
~CURVE INFORMATION
#MNEM.UNIT       API CODE    CURVE DESCRIPTION
#----------   ------------   ------------------------------
 DEPT.F                  :   
 GRR .GAPI   07 310 01 00:   GAMMA RAY FROM RES.
 TENR.LBS    07 635 01 00:   TENSION FROM RES.
 SPR .MV     07 010 01 00:   SPONTANEOUS POTENTIAL
 RILD.OHMM   07 120 46 00:   RESISTIVITY INDUCTION LOG DEEP
 RILM.OHMM   07 120 44 00:   RESISTIIVTY INDUCTION LOG MEDIUM
 RFOC.OHMM   07 220 04 00:   RESISTIVITY FOCUSED LOG
 DT  .US/F   60 520 00 00:   DELTA TIME
 TENS.LBS    60 635 01 00:   TENSION FROM SONIC
 CALD.IN     45 280 60 00:   CALIPER FROM DENSITY LOG
 TEND.LBS    45 635 01 00:   TENSION FORM DENSITY LOG
 CNC .DEC    42 890 03 00:   NEUTRON POROSITY SANDSTONE
 CORR.G/C3   45 356 01 00:   DENSITY CORRECTION
 DENS.G/C3   45 350 01 00:   DENSITY
~PARAMETER INFORMATION
#MNEM.UNIT          VALUE    DESCRIPTION
#----------   ------------   ------------------------------
 EKB .F         5088.0000:   Kelly bushing
 EGL .F         5078.0000:   Ground level
 EDF .F            0.0000:   Drilling floor
 TD  .F         4154.0000:   Total depth
 CLNT.            A2DTECH:   Client Code
 SL  . 250' FSL & 810' FWL:   Surface Location
 PD  .                 GL:   Permanent Datum
 EPD .F              5078:   Elevation Permanent Datum
 LMF .                 KB:   Log Measured From
 DMF .                 KB:   Drilling Measured From
 DAPD.F                10:   Feet Above Permanent Datum
 DATE.        26-FEB-1984:   Date Logged [DD-MMM-YYYY]
 DD  .F              4154:   Depth driller
 DL  .F              4148:   Depth logger
 BLI .F              4146:   Bottom log interval
 TLI .F                 0:   Top log interval
 CS1 .IN            8.625:   Casing size
 CBD1.      8.625" @ 537':   Casing driller 1
 CBL1.F               540:   Casing logger 1
 BS1 .IN            7.875:   Bit size
 BSD1.F              4154:   Depth drilled with bit1
 DFT .            GEL KCL:   Type fluid in hole
 DFD .                  9:   Density
 DFV .                 45:   Viscosity
 DFPH.                  8:   pH
 DFL .                 14:   Fluid loss
 MSS .           FLOWLINE:   Source of sample
 RMS .OHMM          0.595:   Rm
 MST .F                60:   Rm Meas. temp.
 RMF .OHMM          0.446:   Rmf
 MFST.F                60:   Rmf Meas. temp.
 MFSS.               CALC:   Source Rmf.
 RMC .OHMM          0.744:   Rmc
 MCST.F                60:   Rmc Meas. temp.
 MCSS.               CALC:   Source Rmc.
 RMB .OHMM           0.26:   Rm. at BHT
 BHT .F               138:   BHT.
 TCS .HRS               4:   Time Circ. stopped
 MRT .F               138:   Maximum recorded temp.
 LUN .               6307:   Logging unit number
 LUL .               GLTE:   Logging unit location
 ENGI.           FAHLSING:   Recorded By
 WITN.           JENNINGS:   Witnessed by
 ORIG.      1" 2.5" PRINT:   Origin of data
 UWI .     49025109630000:   Unique Well ID
 DICO. A2D TECHNOLOGIES, INC.:   Digitizing Company
~OTHER INFORMATION
~A    DEPT       GRR     TENR        SPR       RILD       RILM       RFOC         DT       TENS       CALD       TEND        CNC       CORR       DENS   
# ...
 1976.0000   133.4677   -43.5039   -23.9419     7.0089     6.8779     6.8644  -999.2500  -999.2500     8.4473   -20.0000     0.2495     0.0966     2.5233
 1976.5000   136.5519   -28.9847   -24.2292     7.0107     6.8801     6.8658  -999.2500  -999.2500     8.4474   -20.0000     0.2583     0.1150     2.5260
 1977.0000   143.9909   -29.2899   -24.5165     7.0126     6.8819     6.8672  -999.2500  -999.2500     8.4476   -20.0000     0.2685     0.1205     2.5216
 1977.5000   145.7877   -29.5858   -24.8059     6.9742     6.8836     6.8689  -999.2500  -999.2500     8.4477   -20.0000     0.2740     0.1088     2.5064
 1978.0000   145.8042   -29.8817   -24.7976     6.9215     6.8854     6.8702  -999.2500  -999.2500     8.4479   -20.0000     0.2830     0.0904     2.4974
 1978.5000   145.8220   -30.2165   -24.7887     6.9236     7.0044     6.8715  -999.2500  -999.2500     8.4480   -20.0000     0.2744     0.0887     2.4959
 1979.0000   144.8506   -30.4902   -24.7798     6.9254     7.0792     6.8728  -999.2500  -999.2500     8.4179   -20.0000     0.2748     0.1054     2.4976
 1979.5000   142.2967   -30.7692   -24.7708     6.9365     7.0815     6.8742  -999.2500  -999.2500     8.4180   -20.0000     0.2752     0.1175     2.5094
 1980.0000   137.5695   -31.0651   -24.4629     7.0241     7.1803     6.8756  -999.2500  -999.2500     8.4182   -20.0000     0.2704     0.1080     2.5206
 1980.5000   133.4316   -31.3610   -24.1571     7.0260     7.1821     6.8770  -999.2500  -999.2500     8.3880   -20.0000     0.2619     0.0986     2.5209
 1981.0000   129.8873   -35.5287   -23.8512     7.2225     7.1839     6.8786  -999.2500  -999.2500     8.3882   -20.0000     0.2595     0.0934     2.5156
 1981.5000   128.7167   -46.7887   -23.5446     7.2243     7.1859     6.9740  -999.2500  -999.2500     8.3884   -20.0000     0.2634     0.0934     2.5065
 1982.0000   128.7359   -47.0624   -23.1389     7.2261     7.1878     6.9697  -999.2500  -999.2500     8.3885   -20.0000     0.2678     0.0904     2.4914
 1982.5000   136.7656   -47.3373   -22.9315     7.3272     7.1898     6.8825  -999.2500  -999.2500     8.4189   -20.0000     0.2749     0.0422     2.4747
 1983.0000   136.4894   -47.6331   -22.9212     7.3292     7.1920     6.8841  -999.2500  -999.2500     8.4191   -20.0000     0.2770     0.0482     2.4703
 1983.5000   133.5385   -47.9290   -22.9130     7.2870     7.0965     6.8855  -999.2500  -999.2500     8.4495   -20.0000     0.2710     0.0612     2.4758
 1984.0000   132.9614   -48.2248   -22.9048     7.2339     7.0984     6.8870  -999.2500  -999.2500     8.4606   -20.0000     0.2632     0.0819     2.4899
 1984.5000   133.5713   -48.5679   -22.8958     7.2361     7.1004     6.8883  -999.2500  -999.2500     8.4802   -20.0000     0.2662     0.0975     2.4945
 1985.0000   132.2057   -48.8416   -23.2837     7.2379     7.1023     6.7921  -999.2500  -999.2500     8.4803   -20.0000     0.2741     0.0993     2.4915
 1985.5000   130.9377   -49.1154   -23.6220     7.1304     7.1042     6.7062  -999.2500  -999.2500     8.4805   -20.0000     0.2764     0.0813     2.4839
 1986.0000   129.1328   -64.2012   -24.6534     7.0469     7.0104     6.6170  -999.2500  -999.2500     8.4806   -20.0000     0.2672     0.0482     2.4732
 1986.5000   128.0059   -60.0342   -24.6451     7.0491     6.9174     6.6679  -999.2500  -999.2500     8.4808   -20.0000     0.2586     0.0361     2.4653
 1987.0000   131.2906   -50.0000   -24.6369     7.0513     6.9192     6.7106  -999.2500  -999.2500     8.4809   -20.0000     0.2545     0.0394     2.4613
 1987.5000   132.4939   -50.3472   -24.6280     7.0531     6.9211     6.7119  -999.2500  -999.2500     8.4811   -20.0000     0.2704     0.0422     2.4703
 1988.0000   125.3887   -50.6209   -24.6190     6.8652     6.9230     6.8050  -999.2500  -999.2500     8.4812   -20.0000     0.2740     0.0462     2.4674
 1988.5000   122.4378   -50.8947   -24.6101     6.8670     6.9248     6.8255  -999.2500  -999.2500     8.4208   -20.0000     0.2738     0.0587     2.4629
 1989.0000   123.0504   -49.5597   -24.5998     6.8689     6.9270     6.9009  -999.2500  -999.2500     8.4209   -20.0000     0.2686     0.0783     2.4568
 1989.5000   123.9585   -36.6492   -24.5916     6.8708     6.9287     6.9023  -999.2500  -999.2500     8.3908   -20.0000     0.2611     0.0790     2.4507
 1990.0000   125.4627   -36.9823   -24.2857     6.8730     6.8368     6.8108  -999.2500  -999.2500     8.3909   -20.0000     0.2572     0.0753     2.4420
 1990.5000   126.0726   -37.3336   -23.9792     6.8747     6.8387     6.8120  -999.2500  -999.2500     8.3911   -20.0000     0.2590     0.0783     2.4312
 1991.0000   126.6825   -37.6073   -23.8710     6.8764     6.8406     6.7214  -999.2500  -999.2500     8.3912   -20.0000     0.2632     0.0813     2.4312
 1991.5000   127.3927   -37.8810   -23.3661     6.8783     6.8424     6.7228  -999.2500  -999.2500     8.3914   -20.0000     0.2716     0.0804     2.4358
 1992.0000   128.1029   -52.9586   -23.3558     6.8802     6.9383     6.6012  -999.2500  -999.2500     8.3915     0.6000     0.2648     0.0665     2.4667
 1992.5000   130.5935   -53.2545   -23.0499     6.8820     6.9401     6.5453  -999.2500  -999.2500     8.3917    15.6667     0.2589     0.0482     2.4810
 1993.0000   136.2520   -53.5503   -23.3393     6.8842     6.9418     6.5468  -999.2500  -999.2500     8.3918    -1.6000     0.2604     0.0482     2.4719
 1993.5000   141.6097   -53.8462   -23.3800     6.8859     7.1352     6.7284  -999.2500  -999.2500     8.3920   -20.0000     0.2668     0.0482     2.4667
 1994.0000   147.5608   -54.1794   -23.6204     6.8877     7.1372     6.8236  -999.2500  -999.2500     8.3921   -20.0000     0.2783     0.0542     2.4630
 1994.5000   153.9090   -39.6603   -23.3125     6.8895     7.1862     6.9164  -999.2500  -999.2500     8.3923   -20.0000     0.2790     0.0607     2.4630
 1995.0000   157.6855   -39.9408   -23.1052     6.8914     7.1411     6.9178  -999.2500  -999.2500     8.3924   -20.0000     0.2729     0.0680     2.4615
 1995.5000   156.2196   -40.2367   -23.8892     6.9391     7.1431     6.9680  -999.2500  -999.2500     8.3926   -20.0000     0.2668     0.0783     2.4631
 1996.0000   150.6021   -55.3254   -23.8810     7.0859     7.1449     7.0155  -999.2500  -999.2500     8.3927   -20.0000     0.2654     0.0796     2.4663
 1996.5000   146.4643   -44.2680   -23.2768     7.0877     7.1469     7.0168  -999.2500  -999.2500     8.3626   -20.0000     0.2638     0.0783     2.4695
 1997.0000   145.8873   -41.1243   -23.1687     7.1868     7.2468     6.9234  -999.2500  -999.2500     8.3627   -20.0000     0.2629     0.0783     2.4728
 1997.5000   145.9050   -41.4395   -22.6637     7.2873     7.3480     7.0364  -999.2500  -999.2500     8.3629   -20.0000     0.2663     0.0813     2.4796
 1998.0000   145.1316   -41.7160   -23.2486     7.2893     7.7614     7.3513  -999.2500  -999.2500     8.3630   -20.0000     0.2676     0.1001     2.4932
 1998.5000   140.8954   -42.0119   -23.2404     7.2913     7.7633     7.7763  -999.2500  -999.2500     8.3632   -20.0000     0.2614     0.1054     2.5037
 1999.0000   136.4657   -42.3077   -23.8274     7.2936     7.5565     7.6206  -999.2500  -999.2500     8.3634   -20.0000     0.2596     0.1024     2.4976
 1999.5000   135.2938   -42.6036   -24.4144     7.2954     7.3559     7.5190  -999.2500  -999.2500     8.3635   -20.0000     0.2627     0.0978     2.4929
 2000.0000   137.0920   -42.9450   -24.4048     7.3974     7.2583     7.3190  -999.2500  -999.2500     8.3636   -20.0000     0.2722     0.0964     2.4917
 2000.5000   137.7033   -43.2188   -24.3958     7.5009     7.2117     7.3205  -999.2500  -999.2500     8.3638   -20.0000     0.2819     0.0964     2.4932
 2001.0000   136.9296   -43.4911   -24.0879     7.5029     7.1644     7.3220  -999.2500  -999.2500     8.3639   -20.0000     0.2776     0.1115     2.4963
 2001.5000   143.3786   -43.7870   -23.7821     7.5050     7.1665     7.2247  -999.2500  -999.2500     8.3641   -20.0000     0.2706     0.1206     2.4948
