~VERSION INFORMATION
 VERS.                2.0:   CWLS LOG ASCII STANDARD - VERSION 2.0
 WRAP.                 NO:   ONE LINE PER DEPTH STEP
~WELL INFORMATION
#MNEM.UNIT      DATA TYPE    INFORMATION
#----------   ------------   ------------------------------
 STRT.F          397.0000:   START DEPTH
 STOP.F         5516.0000:   STOP DEPTH
 STEP.F            0.5000:   STEP LENGTH
 NULL.          -999.2500:   NO VALUE
 COMP.  FENIX AND SCISSON:   COMPANY
 WELL.   FENIX TPX #54-10:   WELL
 FLD . NAVAL PETROLEUM RESERVE=3:   FIELD
 LOC .      S10 T38N R78W:   LOCATION
 CNTY.            NATRONA:   COUNTY
 STAT.            WYOMING:   STATE
 CTRY. UNITED STATES OF AMERICA:   COUNTRY
 SRVC.       SCHLUMBERGER:   SERVICE COMPANY
 DATE.        03-APR-1981:   LOGDATE
 API .     49025108690000:   API NUMBER
~CURVE INFORMATION
#MNEM.UNIT       API CODE    CURVE DESCRIPTION
#----------   ------------   ------------------------------
 DEPT.F                  :   
 SPR .MV     11 010 01 00:   SPONTANEOUS POTENTIAL FROM RES.
 TENR.LBS    11 635 01 00:   TENSION FROM RES.
 LLD .OHMM   11 220 10 00:   LATEROLOG DEEP
 LLS .OHMM   11 220 09 00:   LATEROLOG LOG SHALLOW
 TEND.LBS    45 635 01 00:   TENSION FORM DENSITY LOG
 GRD .GAPI   45 310 01 00:   GAMMA RAY FROM DENSITY LOG
 NPHI.DEC    42 890 03 00:   NEUTRON POROSITY SANDSTONE
 CALD.IN     45 280 60 00:   CALIPER FROM DENSITY LOG
 CORR.G/C3   45 356 01 00:   DENSITY CORRECTION
 RHOB.G/C3   45 350 01 00:   BULK DENSITY
~PARAMETER INFORMATION
#MNEM.UNIT          VALUE    DESCRIPTION
#----------   ------------   ------------------------------
 EKB .F         5206.0000:   Kelly bushing
 EGL .F         5196.0000:   Ground level
 EDF .F            0.0000:   Drilling floor
 TD  .F         5498.0000:   Total depth
 CLNT.            A2DTECH:   Client Code
 SL  . 2080' FNL & 2150' FEL:   Surface Location
 PD  .                 GL:   Permanent Datum
 EPD .F              5196:   Elevation Permanent Datum
 LMF .                 KB:   Log Measured From
 DMF .                 KB:   Drilling Measured From
 DAPD.F                10:   Feet Above Permanent Datum
 DATE.         3-APR-1981:   Date Logged [DD-MMM-YYYY]
 DD  .F              5485:   Depth driller
 DL  .F              5498:   Depth logger
 BLI .F              5496:   Bottom log interval
 TLI .F               397:   Top log interval
 CS1 .IN                7:   Casing size
 CBD1.         7" @ 3891':   Casing driller 1
 CBL1.F              3889:   Casing logger 1
 BS1 .IN            6.125:   Bit size
 BSD1.F              5485:   Depth drilled with bit1
 DFT .           CHEM GEL:   Type fluid in hole
 DFD .                9.1:   Density
 DFV .                 42:   Viscosity
 DFPH.                9.0:   pH
 DFL .                5.0:   Fluid loss
 MSS .           MUD TANK:   Source of sample
 RMS .OHMM           0.81:   Rm
 MST .F                62:   Rm Meas. temp.
 RMF .OHMM           0.64:   Rmf
 MFST.F                62:   Rmf Meas. temp.
 MFSS.               MEAS:   Source Rmf.
 RMB .OHMM          0.031:   Rm. at BHT
 BHT .F               174:   BHT.
 TCS .HRS            0830:   Time Circ. stopped
 TLAB.HRS            2130:   Time logger at bottom
 MRT .F               174:   Maximum recorded temp.
 LUN .               8035:   Logging unit number
 LUL .               CSPR:   Logging unit location
 ENGI.             BEATIE:   Recorded By
 WITN.              FIVAS:   Witnessed by
 ORIG.           5" PRINT:   Origin of data
 UWI .     49025108690000:   Unique Well ID
 DICO. A2D TECHNOLOGIES, INC:   Digitizing Company
~OTHER INFORMATION
~A   DEPT      SPR       TENR        LLD        LLS       TEND         GRD        NPHI     CALD       CORR       RHOB   
# ...
 5254.5000   -20.0132  1848.5042   110.5472    93.7227  1855.3724   107.5802     0.0899     6.8218     0.0614     2.7442
 5255.0000   -20.1562  1849.8032   115.2646    98.5043  1855.3007   107.5778     0.0914     6.8213     0.0561     2.7329
 5255.5000   -20.2993  1851.1024   117.6787   104.0408  1855.2273   106.9712     0.0942     6.8208     0.0339     2.7097
 5256.0000   -20.4424  1852.4015   121.8319   107.7098  1855.1390   102.1039     0.1004     6.8204     0.0170     2.6945
 5256.5000   -20.5855  1853.7007   133.4292   112.7254  1855.0673    92.7664     0.1099     6.8199     0.0080     2.6961
 5257.0000   -20.6930  1854.9998   151.3506   133.7768  1839.8440    87.0238     0.1175     6.8345     0.0057     2.7081
 5257.5000   -21.5940  1855.5637   157.8093   144.4572  1839.7722    80.3749     0.1226     6.8491     0.0072     2.7283
 5258.0000   -21.9851  1854.8335   164.5298   148.5045  1839.6824    67.0795     0.1223     6.8636     0.0132     2.7531
 5258.5000   -22.6405  1854.1034   225.5771   163.7764  1839.6106    52.6539     0.1091     6.8783     0.0251     2.7958
 5259.0000   -23.0878  1853.3732   477.9365   252.0295  1839.5388    33.5393     0.0895     6.8777     0.0506     2.8462
 5259.5000   -23.4391  1852.6431   820.3171   751.4197  1839.4669    27.7968     0.0792     6.9073     0.0784     2.8484
 5260.0000   -23.9823  1851.9128  1028.6238   901.5865  1839.3940    24.0423     0.0762     6.9219     0.0911     2.8228
 5260.5000   -24.4651  1851.1827  1108.6395   940.0718  1839.3054    21.1397     0.0768     6.9365     0.0952     2.7755
 5261.0000   -25.0267  1850.4525   910.4244   670.5840  1839.2335    20.8305     0.0833     6.9210     0.0798     2.6376
 5261.5000   -25.4742  1849.7224   597.2726   516.4429  1839.1667    22.4341     0.0856     6.8905     0.0438     2.5996
 5262.0000   -26.0732  1848.9922   522.5180   488.3089  1823.9395    29.2737     0.0820     6.8450     0.0272     2.6093
 5262.5000   -26.3685  1848.2621   511.4585   501.9900  1823.8486    37.4237     0.0715     6.7995     0.0182     2.6371
 5263.0000   -26.7042  1847.5320   686.5600   637.1313  1823.7769    40.7399     0.0606     6.7840     0.0070     2.6844
 5263.5000   -27.1089  1846.8018  1121.8860  1101.5679  1823.7122    32.6019     0.0488     6.7686     0.0031     2.7420
 5264.0000   -27.2523  1846.0717  1733.1198  1986.5531  1823.6333    23.5033     0.0386     6.7531     0.0016     2.7730
 5264.5000   -27.5454  1845.3414  2530.3340  2510.3726  1823.5607    21.6835     0.0332     6.7527     0.0016     2.7760
 5265.0000   -27.3847  1844.6113  3326.9028  3048.5713  1823.4718    20.7701     0.0317     6.7523     0.0023     2.7707
 5265.5000   -27.2241  1843.8811  3279.4272  2984.4011  1823.3999    23.9093     0.0323     6.7517     0.0035     2.7579
 5266.0000   -27.2158  1843.1510  2582.2307  2145.5620  1823.3281    33.1408     0.0362     6.7513     0.0075     2.7338
 5266.5000   -26.9027  1842.4208  1974.7968  1788.1648  1823.2562    39.1760     0.0399     6.7509     0.0113     2.7248
 5267.0000   -26.5881  1841.6907  1517.9565  1367.0201  1853.4874    43.7006     0.0456     6.7504     0.0173     2.7308
 5267.5000   -26.2413  1840.9604  1061.7018   910.5549  1853.3977    44.9020     0.0496     6.7500     0.0270     2.7503
 5268.0000   -25.8599  1840.2303   669.8894   556.8378  1853.3259    43.0804     0.0535     6.7495     0.0345     2.7577
 5268.5000   -25.3463  1839.5001   611.2578   457.4016  1868.4236    40.6564     0.0590     6.7490     0.0360     2.7637
 5269.0000   -24.8652  1838.7700   594.1345   425.9276  1853.1818    36.1175     0.0629     6.7486     0.0284     2.7652
 5269.5000   -24.4149  1838.0398   577.4909   414.5551  1853.0925    32.1073     0.0651     6.7482     0.0209     2.7659
 5270.0000   -24.0629  1837.3097   577.8301   426.3700  1853.0208    28.2465     0.0657     6.7477     0.0149     2.7606
 5270.5000   -23.5817  1836.5795   632.1995   454.1995  1852.9490    26.1246     0.0627     6.7322     0.0118     2.7508
 5271.0000   -23.3251  1835.8494   687.5355   473.7544  1852.8771    24.6070     0.0591     6.7318     0.0111     2.7395
 5271.5000   -22.8584  1835.1191   711.9191   480.4580  1852.8031    23.6934     0.0606     6.7464     0.0155     2.7365
 5272.0000   -22.7808  1834.3890   514.2852   381.0386  1852.7272    23.9885     0.0706     6.7459     0.0200     2.7395
 5272.5000   -22.4923  1833.6588   312.8687   271.9668  1837.4923    25.1881     0.0809     6.7455     0.0253     2.7485
 5273.0000   -22.2245  1832.9287   218.6401   184.8013  1837.4204    28.2021     0.0867     6.7450     0.0298     2.7605
 5273.5000   -22.0638  1832.1985   156.0429   148.7929  1837.3485    32.5248     0.0909     6.7445     0.0342     2.7642
 5274.0000   -22.0531  1831.4684   126.3676   126.4577  1837.2589    43.2919     0.0888     6.7441     0.0462     2.7611
 5274.5000   -21.8936  1830.7382   104.8443   108.3480  1837.1970    69.2666     0.0867     6.7437     0.0522     2.7423
 5275.0000   -21.8838  1830.0081    87.0413    86.5338  1837.1212    94.9393     0.0918     6.7432     0.0387     2.7183
 5275.5000   -21.7231  1829.2778    71.4850    60.6827  1837.0435   121.0368     0.1064     6.7427     0.0311     2.6940
 5276.0000   -21.8663  1828.5477    56.2875    50.0264  1821.8202   147.4913     0.1151     6.7423     0.0266     2.6761
 5276.5000   -22.0076  1827.8175    51.0017    48.9831  1836.8999   152.3180     0.1179     6.7418     0.0266     2.6611
 5277.0000   -22.1702  1827.0874    47.1919    48.6402  1851.9615   152.6148     0.1161     6.7414     0.0236     2.6460
 5277.5000   -22.2957  1826.3572    47.1762    49.3284  1851.8898   150.9949     0.1082     6.7410     0.0183     2.6370
 5278.0000   -22.5363  1825.6271    48.8453    49.3284  1851.8180   145.3463     0.1096     6.7405     0.0153     2.6332
 5278.5000   -22.7343  1824.8969    50.2196    49.3284  1851.7281   141.1095     0.1186     6.7400     0.0235     2.6452
 5279.0000   -23.0282  1824.1667    51.2714    49.3284  1851.6564   136.8728     0.1246     6.7396     0.0340     2.6632
 5279.5000   -23.2000  1823.4365    51.2500    48.9831  1851.5846   135.3299     0.1289     6.7392     0.0422     2.6699
 5280.0000   -23.3131  1822.7064    50.5187    48.9831  1851.5127   134.7420     0.1292     6.7387     0.0444     2.6736
 5280.5000   -23.3998  1821.9762    49.4494    48.9831  1851.4393   134.4328     0.1264     6.7532     0.0407     2.6759
 5281.0000   -23.4555  1821.2461    49.0873    48.6402  1851.3512   135.0051     0.1226     6.7528     0.0380     2.6773
 5281.5000   -23.6231  1820.5159    49.0668    48.6402  1851.2793   135.6521     0.1184     6.7675     0.0361     2.6758
 5282.0000   -23.8838  1819.7858    49.7481    48.4653  1851.2075   136.5245     0.1163     6.7820     0.0346     2.6615
 5282.5000   -23.8737  1819.0557    49.3796    47.9615  1851.1357   137.1216     0.1160     6.7965     0.0338     2.6494
 5283.0000   -24.0191  1818.3254    48.3344    47.2923  1851.0460   137.4184     0.1173     6.7960     0.0346     2.6479
 5283.5000   -24.1596  1817.5953    47.2988    47.1287  1850.9741   137.7116     0.1212     6.8107     0.0349     2.6697
 5284.0000   -24.1520  1816.8651    46.5873    46.6325  1850.9023   136.7964     0.1242     6.8102     0.0300     2.6756
 5284.5000   -24.2964  1816.1350    46.0487    45.9818  1850.8333   134.9766     0.1254     6.8398     0.0255     2.6704
 5285.0000   -24.4368  1815.4048    45.3110    45.3402  1850.7576   132.5526     0.1251     6.8544     0.0209     2.6515
 5285.5000   -24.4286  1814.6747    44.3519    44.7076  1850.6691   129.1970     0.1236     6.8538     0.0172     2.6370
 5286.0000   -24.4723  1813.9445    43.6656    44.0838  1850.5972   128.3087     0.1243     6.8534     0.0179     2.6335
 5286.5000   -24.5696  1813.2144    42.4908    43.7372  1845.0320   131.9252     0.1279     6.8530     0.0276     2.6537
 5287.0000   -24.7040  1812.4841    41.3005    42.8623  1835.3020   134.6372     0.1309     6.8525     0.0381     2.6694
 5287.5000   -24.6960  1811.7540    39.8627    41.3828  1850.3817   135.5364     0.1340     6.8671     0.0411     2.6724
