~VERSION INFORMATION
 VERS.                2.0:   CWLS LOG ASCII STANDARD - VERSION 2.0
 WRAP.                 NO:   ONE LINE PER DEPTH STEP
~WELL INFORMATION
#MNEM.UNIT      DATA TYPE    INFORMATION
#----------   ------------   ------------------------------
 STRT.F            1.5000:   START DEPTH
 STOP.F          985.0000:   STOP DEPTH
 STEP.F            0.5000:   STEP LENGTH
 NULL.          -999.2500:   NO VALUE
 COMP.       FLUOR DANIEL:   COMPANY
 WELL.  FLUOR 41 "X" #1-2:   WELL
 FLD .          N.P.R. #3:   FIELD
 LOC .       S2 T38N R78W:   LOCATION
 CNTY.            NATRONA:   COUNTY
 STAT.            WYOMING:   STATE
 CTRY. UNITED STATES OF AMERICA:   COUNTRY
 SRVC.     ATLAS WIRELINE:   SERVICE COMPANY
 DATE.        09-AUG-1994:   LOGDATE
 API .     49025226450000:   API NUMBER
~CURVE INFORMATION
#MNEM.UNIT       API CODE    CURVE DESCRIPTION
#----------   ------------   ------------------------------
 DEPT.F                  :   
 GRR .GAPI   07 310 01 00:   GAMMA RAY FROM RESISTIVITY
 TENR.LBS    07 635 01 00:   TENSION FROM RESISTIVITY
 RILD.OHMM   07 120 46 00:   INDUCTION LOG DEEP RESISTIVITY
 RILM.OHMM   07 120 44 00:   INDUCTION LOG MEDIUM RESISTIVITY
~PARAMETER INFORMATION
#MNEM.UNIT          VALUE    DESCRIPTION
#----------   ------------   ------------------------------
 EKB .F         5143.0000:   Kelly bushing
 EGL .F         5133.0000:   Ground level
 EDF .F         5142.0000:   Drilling floor
 TD  .F          970.0000:   Total depth
 CLNT.            A2DTECH:   Client Code
 PD  .                 GL:   Permanent Datum
 EPD .F              5133:   Elevation Permanent Datum
 LMF .                 KB:   Log Measured From
 DMF .                 KB:   Drilling Measured From
 DAPD.F                10:   Feet Above Permanent Datum
 DATE.        09-AUG-1994:   Date Logged [DD-MMM-YYYY]
 DD  .F               970:   Depth driller
 DL  .F               970:   Depth logger
 BLI .F               962:   Bottom log interval
 TLI .F                 0:   Top log interval
 CS1 .IN            9.625:   Casing size
 CBD1.       9.625" @ 56':   Casing driller 1
 CBL1.F                59:   Casing logger 1
 BS1 .IN             8.75:   Bit size
 BSD1.F               970:   Depth drilled with bit1
 DFT .                AIR:   Type fluid in hole
 MRT .F                94:   Maximum recorded temp.
 LUN .            HL 6530:   Logging unit number
 LUL .             CASPER:   Logging unit location
 ENGI.      PAT RASMUSSEN:   Recorded By
 WITN.        GARY STRONG:   Witnessed by
 ORIG.           5" PRINT:   Origin of data
 UWI .     49025226450000:   Unique Well ID
 DICO. A2D TECHNOLOGIES, INC.:   Digitizing Company
 SL  . 173' FNL & 2204' FWL:   Surface Location
~OTHER INFORMATION
~A    DEPT      GRR      TENR       RILD       RILM   
# ...
  585.5000   137.0492   -35.9937     8.3063     8.2883
  586.0000   134.0084   -35.8434     8.3627     8.4025
  586.5000   133.7005   -35.6653     8.4780     8.5181
  587.0000   134.6037   -27.9892     8.5355     8.6354
  587.5000   137.3292   -27.8432     8.5934     8.6935
  588.0000   141.8756   -35.2638     8.6517     8.6905
  588.5000   140.9094   -35.0814     8.5894     8.7490
  589.0000   139.7380   -34.9354     8.5877     8.6858
  589.5000   140.6425   -42.3195     8.5263     8.6835
  590.0000   146.0995   -42.1687     8.4654     8.6208
  590.5000   147.9160   -41.9911     8.4637     8.6168
  591.0000   139.4109   -26.7848     8.4032     8.5458
  591.5000   138.1618   -26.6389     8.3432     8.4349
  592.0000   140.0304   -26.4929     8.2835     8.2581
  592.5000   142.4281   -26.3469     8.2240     8.1415
  593.0000   141.5103   -26.2009     8.1086     8.0266
  593.5000   140.5939   -26.0542     7.9392     7.9687
  594.0000   140.5881   -25.9036     7.8278     7.9112
  594.5000   139.9752   -33.2931     7.6643     7.7453
  595.0000   139.3623   -33.1106     7.5567     7.6894
  595.5000   140.5704   -40.5313     7.4506     7.5277
  596.0000   143.3078   -40.3488     7.3460     7.3699
  596.5000   147.9253   -32.7092     7.2426     7.3167
  597.0000   148.7470   -42.1086     7.2411     7.2639
  597.5000   147.2222   -47.4653     7.1894     7.2619
  598.0000   146.9128   -54.8193     7.2385     7.3108
  598.5000   146.9069   -47.1368     7.2367     7.3599
  599.0000   147.5080   -24.3976     7.3367     7.4094
  599.5000   144.1637   -16.6879     7.3352     7.4592
  600.0000   134.7046   -24.1086     7.5410     7.6676
  600.5000   128.6695   -34.5706     7.6897     7.7587
  601.0000   128.3572   -38.4036     7.8383     7.8234
  601.5000   133.5077   -45.5615     7.9113     7.8791
  602.0000   134.7132   -45.1807     7.9086     7.9815
  602.5000   135.6145   -37.2102     7.9065     7.9783
  603.0000   136.5442   -29.3152     7.9044     7.9751
  603.5000   139.2365   -21.4201     7.9580     8.0284
  604.0000   141.9591   -21.0551     7.9001     8.0244
  604.5000   141.0398   -20.6902     7.9533     8.0211
  605.0000   139.2100   -27.8614     7.9511     8.0179
  605.5000   138.5942   -42.5506     8.0045     8.0145
  606.0000   139.4959   -49.7159     8.0018     8.0106
  606.5000   141.6115   -49.2596     7.9997     7.9517
  607.0000   142.8166   -48.8947     7.8868     7.9485
  607.5000   143.1113   -40.9996     7.8106     7.8901
  608.0000   140.6723   -40.6347     7.7735     7.8321
  608.5000   139.1461   -32.7396     7.7175     7.8289
  609.0000   139.1372   -32.3746     7.7085     7.7173
  609.5000   139.7354   -32.0030     7.6592     7.6599
  610.0000   140.6370   -16.4933     7.6040     7.6568
  610.5000   141.2352    -8.5982     7.6020     7.6537
  611.0000   140.5827    -8.2332     7.5999     7.7049
  611.5000   138.1804   -15.4896     7.6515     7.7010
  612.0000   135.1367   -22.6549     7.7024     7.8060
  612.5000   132.0930   -37.2589     7.7542     7.8574
  613.0000   132.3876   -44.4277     7.9153     8.0195
  613.5000   133.2893   -43.3952     8.0808     8.2429
  614.0000   133.9241   -21.0126     8.2487     8.3561
  614.5000   129.3255   -13.1175     8.4795     8.5293
  615.0000   125.6748   -20.2826     8.6563     8.7052
  615.5000   124.7555   -19.9177     8.8367     8.8239
  616.0000   124.1396   -27.1741     8.9583     9.0722
  616.5000   124.4322   -19.1878     9.2084     9.2577
  617.0000   134.1350   -18.8229     9.4660     9.5147
  617.5000   139.2856   -19.2037     9.7990     9.8483
  618.0000   140.1894   -25.6231    10.0732    10.1237
  618.5000   134.1086   -40.3184    10.3550    10.4776
  619.0000   126.8160   -39.8622    10.6448    10.8449
  619.5000   124.0757   -31.9671    10.9427    11.0696
  620.0000   124.3704   -16.5419    11.1916    11.2205
  620.5000   126.1803    -8.6469    11.4834    11.4531
  621.0000   125.5645   -15.8133    11.7220    11.6092
  621.5000   122.8243   -22.9772    11.7188    11.6857
  622.0000   120.6910   -22.5210    11.7157    11.6798
  622.5000   120.6822   -22.1561    11.7125    11.5940
  623.0000   120.3699   -21.7911    11.6280    11.5893
  623.5000   118.8436   -29.0475    11.6176    11.5845
  624.0000   117.9243   -36.2127    11.3806    11.4983
  624.5000   119.7342   -20.6963    11.2201    11.2557
  625.0000   122.1533    -5.2711    10.9851    11.0183
  625.5000   122.7537    -4.8946    10.8302    10.6365
  626.0000   122.4391    -4.4499    10.6033    10.4849
  626.5000   122.7338    -4.0850    10.4538    10.2638
  627.0000   124.8494   -11.3414    10.3029    10.1849
  627.5000   128.1790   -26.0367    10.1603    10.0422
  628.0000   128.7771   -40.6407    10.0870    10.0381
  628.5000   117.8405   -40.2758    10.0843    10.0340
  629.0000   112.3688   -32.3795    10.0116     9.9603
  629.5000   110.8425   -24.4729     9.9394     9.9563
  630.0000   111.1372   -16.4993     9.9069     9.9522
  630.5000   117.8052    -8.6043     9.8651     9.9482
  631.0000   123.5627    -8.2393     9.8623     9.9440
  631.5000   124.1609    -7.8744     9.8591     9.9399
  632.0000   121.9625    -7.5094     9.8565     9.9351
  632.5000   120.5013   -29.7440     9.8538     9.9311
  633.0000   120.4902   -29.3675     9.9207     9.9271
  633.5000   118.6605   -21.4609     9.8485     9.9231
  634.0000   114.4028   -28.6400     9.8458     9.9191
  634.5000   114.3940   -35.8052     9.8431     9.9150
  635.0000   118.3305   -35.3490     9.5694     9.4380
  635.5000   122.8740   -34.9840     9.3039     9.1747
  636.0000   122.7922   -34.6191     8.9830     8.9812
  636.5000   121.3367   -26.7240     8.7948     8.7917
  637.0000   121.6336   -18.5256     8.5508     8.6062
  637.5000   120.7121    -3.3885     8.4891     8.4247
  638.0000   118.5788    -2.9476     8.3694     8.3627
  638.5000   118.2665   -10.2040     8.3085     8.3005
  639.0000   115.5263   -24.8993     8.3063     8.2971
  639.5000   114.3035   -32.0644     8.3040     8.2937
  640.0000   114.9419   -24.0782     8.3018     8.2328
  640.5000   120.9604   -23.7132     8.2419     8.2295
  641.0000   121.8643   -23.3434     8.1257     8.1690
  641.5000   120.0323   -15.3619     8.0111     8.1084
  642.0000   118.5060    -7.4669     7.9452     7.9933
  642.5000   118.4972   -14.7233     7.8407     7.8787
  643.0000   120.3093   -21.8884     7.7841     7.8208
  643.5000   120.9075   -29.0536     7.6743     7.7633
  644.0000   121.2463   -13.5372     7.6190     7.6527
  644.5000   121.8003    -5.6421     7.6170     7.6497
  645.0000   122.6997    -5.2711     7.6149     7.5934
  645.5000   123.9049     2.7091     7.6661     7.6435
  646.0000   125.4157     3.0741     7.7176     7.6938
  646.5000   122.9768    10.9692     7.7695     7.7445
  647.0000   122.9679     3.7128     7.8217     7.7956
  647.5000   123.2726   -10.9826     7.8737     7.7916
  648.0000   124.2125   -18.0723     7.8716     7.8438
  648.5000   125.3694   -17.6915     7.8695     7.8398
  649.0000   126.8758   -17.3193     7.9223     7.8914
  649.5000   130.2054   -16.8704     7.9756     7.8875
  650.0000   131.1092   -16.1965     7.9729     7.8843
  650.5000   132.0380   -11.2447     7.8950     7.8556
  651.0000   133.8269    -0.8958     7.6958     7.8254
  651.5000   134.1244    -0.6024     7.5872     7.6614
  652.0000   129.8331    -1.2047     7.5325     7.6061
  652.5000   129.5588    -7.5472     7.5305     7.6040
  653.0000   131.6773    -7.1811     7.5810     7.6551
  653.5000   133.7959   -14.4915     7.6320     7.6585
  654.0000   135.6109   -14.1254     7.6833     7.7584
  654.5000   137.4259   -21.4358     7.6807     7.6484
  655.0000   136.5096   -13.5396     7.6786     7.7003
  655.5000   136.2002   -13.2467     7.7307     7.8063
  656.0000   137.4329    -5.4217     7.7281     7.8588
  656.5000   139.8302    -5.1307     7.6723     7.6935
  657.0000   136.7880   -12.3679     7.5641     7.5849
  657.5000   132.8367   -12.0482     7.5096     7.5829
  658.0000   130.7064   -19.3123     7.4553     7.5758
