~VERSION INFORMATION
 VERS.                2.0:   CWLS LOG ASCII STANDARD - VERSION 2.0
 WRAP.                 NO:   ONE LINE PER DEPTH STEP
~WELL INFORMATION
#MNEM.UNIT      DATA TYPE    INFORMATION
#----------   ------------   ------------------------------
 STRT.F          200.0000:   START DEPTH
 STOP.F         3142.0000:   STOP DEPTH
 STEP.F            0.5000:   STEP LENGTH
 NULL.          -999.2500:   NO VALUE
 COMP.    FENIX & SCISSON:   COMPANY
 WELL.  FENIX "AX" #37-10:   WELL
 FLD .              NPR-3:   FIELD
 LOC .      S10 T38N R78W:   LOCATION
 CNTY.            NATRONA:   COUNTY
 STAT.            WYOMING:   STATE
 CTRY. UNITED STATES OF AMERICA:   COUNTRY
 SRVC.              WELEX:   SERVICE COMPANY
 DATE.        19-SEP-1977:   LOGDATE
 API .     49025104190000:   API NUMBER
~CURVE INFORMATION
#MNEM.UNIT       API CODE    CURVE DESCRIPTION
#----------   ------------   ------------------------------
 DEPT.F                  :   
 CALD.IN     45 280 60 00:   CALIPER FROM DENSITY LOG
 GRD .GAPI   45 310 01 00:   GAMMA RAY FROM DENSITY LOG
 RHOB.G/C3   45 350 01 00:   BULK DENSITY
 CORR.G/C3   45 356 01 00:   DENSITY CORRECTION
 NPHI.DEC    42 890 03 00:   NEUTRON POROSITY SANDSTONE
 SPR .MV     07 010 01 00:   SPONTANEOUS POTENTIAL
 SGRD.OHMM   07 220 05 00:   SHALLOW GUARD RESISTIVITY
 ILD .OHMM   07 120 46 00:   INDUCTION LOG DEEP RESISTIVITY
 ILM .OHMM   07 120 44 00:   INDUCTION LOG MEDIUM RESISTIVITY
 TENR.LBS    07 635 01 00:   TENSION FROM RESISTIVITY
~PARAMETER INFORMATION
#MNEM.UNIT          VALUE    DESCRIPTION
#----------   ------------   ------------------------------
 EKB .F         5221.0000:   Kelly bushing
 EGL .F         5211.0000:   Ground level
 EDF .F            0.0000:   Drilling floor
 TD  .F         3150.0000:   Total depth
 DATE.        19-SEP-1977:   Date logged
 CLNT.            A2DTECH:   Client Code
 SL  . 1190' FSL & 1750' FWL:   Surface Location
 PD  .                 GL:   Permanent Datum
 DD  .F              3150:   Depth driller
 DL  .F              3146:   Depth logger
 BLI .F              3144:   Bottom log interval
 CS1 .IN            8.625:   Casing size
 CBD1.      8.625" @ 215':   Casing driller 1
 BS1 .IN            7.875:   Bit size
 DFT .            KCL/MUD:   Type fluid in hole
 DFD .                8.9:   Density
 TCS .HRS               2:   Time Circ. stopped
 MRT .F               116:   Maximum recorded temp.
 ENGI.            C. DOAK:   Recorded By
 WITN.      B. HARRINGTON:   Witnessed by
 ORIG.           5" PRINT:   Origin of data
 UWI .     49025104190000:   Unique Well ID
 DICO. A2D TECHNOLOGIES, INC.:   Digitizing Company
 DAPD.F                10:   Feet Above Permanent Datum
 BSD1.F              3150:   Depth drilled with bit1
 EPD .F              5211:   Elevation Permanent Datum
 LMF .                 KB:   Log Measured From
 DMF .                 KB:   Drilling Measured From
 TLI .F               200:   Top log interval
 CBL1.                213:   Casing logger 1
 DFV .                 37:   Viscosity
 DFPH.                 11:   pH
 DFL .                5.8:   Fluid loss
 MSS .           MEASURED:   Source of sample
 RMS .               2.82:   Rm
 MST .                 94:   Rm Meas. temp.
 RMF .               1.61:   Rmf
 MFST.                 94:   Rmf Meas. temp.
 MFSS.               MEAS:   Source Rmf.
 RMC .               3.12:   Rmc
 MCST.                 94:   Rmc Meas. temp.
 MCSS.               MEAS:   Source Rmc.
 RMB .               2.28:   Rm. at BHT
 BHT .                116:   BHT.
 LUN .               8611:   Logging unit number
 LUL .             CASPER:   Logging unit location
~OTHER INFORMATION
~A   DEPT       CALD       GRD        RHOB      CORR      NPHI        SPR       SGRD        ILD        ILM       TENR   
# ...
 2913.5000     8.9661    61.0996     2.5029    -0.0073     0.1639   -72.0154     8.1207     4.0823     5.2773  2003.9529
 2914.0000     8.9463    60.7054     2.5109    -0.0073     0.1701   -72.2098     8.5028     4.2745     5.4751  2063.1875
 2914.5000     8.9463    60.1133     2.5129    -0.0073     0.1704   -72.2058     8.8216     4.5582     5.8914  2042.8622
 2915.0000     8.9325    59.3235     2.5129    -0.0074     0.1648   -72.2019     8.9041     4.9058     6.0010  2042.4838
 2915.5000     8.9188    58.9292     2.5109    -0.0074     0.1684   -72.1979     9.1537     5.1366     6.1132  2042.1053
 2916.0000     8.9050    58.7326     2.5069    -0.0074     0.1712   -71.9954     9.4969     5.4781     6.2848  2061.6746
 2916.5000     8.8912    58.5382     2.5049    -0.0074     0.1571   -71.9914     9.6740     5.8956     6.4022  2061.2964
 2917.0000     8.8774    58.5394     2.5049    -0.0054     0.1637   -71.9875     9.8544     6.0609     6.8913  2040.9698
 2917.5000     8.8637    58.5406     2.5109    -0.0054     0.1679   -71.9835     9.8557     6.1175     7.0842  2040.5914
 2918.0000     8.8499    58.7395     2.5149    -0.0054     0.1559   -71.8810    10.1319     7.0204     7.3497  2060.1606
 2918.5000     8.8361    58.9391     2.5169    -0.0015     0.1449   -71.9755    10.2266     7.2172     7.5559  2059.7825
 2919.0000     8.8224    58.9394     2.5189    -0.0015     0.1449   -71.9715    10.3222     6.3485     7.4879  2039.4551
 2919.5000     8.8086    58.9398     2.5189    -0.0015     0.1553   -71.9675    10.7173     5.9544     7.3525  2059.0256
 2920.0000     8.7888    58.9419     2.5129    -0.0035     0.1457   -71.9635    10.7185     5.9008     7.3548  2038.6981
 2920.5000     8.7888    58.9431     2.5069    -0.0055     0.1465   -71.9603    10.7199     5.9559     7.4233  2018.3700
 2921.0000     8.7691    58.9423     2.4909    -0.0095     0.1569   -71.9563    10.7213     5.9567     7.7732  2037.9410
 2921.5000     8.7496    58.7449     2.4770    -0.0115     0.1617   -71.9523    10.2347     5.9030     7.7742  2057.5122
 2922.0000     8.7694    58.6249     2.4650    -0.0115     0.1563   -72.0475    10.0502     5.9038     7.3580  2017.2336
 2922.5000     8.7497    58.5049     2.4590    -0.0195     0.1504   -71.7459     9.6892     5.9045     7.0934  2036.8053
 2923.0000     8.7300    58.3537     2.4490    -0.0235     0.1517   -71.1466     9.4274     5.9053     7.0944  2016.4755
 2923.5000     8.7102    58.5523     2.4450    -0.0235     0.1532   -71.1426     9.9621     5.9060     7.0954  2055.9980
 2924.0000     8.7103    58.9491     2.4450    -0.0235     0.1423   -71.1386    10.4310     5.9068     7.1618  2055.6196
 2924.5000     8.7103    59.5437     2.4530    -0.0176     0.1434   -71.3331    10.8223     5.9075     7.2289  2055.2412
 2925.0000     8.7104    60.3362     2.4610    -0.0096     0.1466   -71.1307    11.0241     5.9082     7.2296  2054.8628
 2925.5000     8.7104    61.5244     2.4710    -0.0076     0.1500   -71.1267    10.9249     5.9090     7.2305  2054.4846
 2926.0000     8.7105    62.7126     2.4769    -0.0056     0.1534   -71.1227    10.4365     5.8023     7.2315  2054.1062
 2926.5000     8.7105    64.0987     2.4809    -0.0017     0.1567   -70.9203    10.2481     5.8030     7.0359  2053.7275
 2927.0000     8.6908    65.6825     2.4809     0.0023     0.1601   -70.9163     9.4372     5.5947     6.7209  2013.4449
 2927.5000     8.6711    68.7843     2.4729     0.0023     0.1626   -70.7138     9.9725     5.3445     6.4199  2033.0186
 2928.0000     8.6514    71.7199     2.4709     0.0023     0.1674   -70.5114     8.4557     4.9216     6.0209  2052.5916
 2928.5000     8.6118    74.6555     2.4650     0.0043     0.1706   -70.3090     8.4568     4.6161     5.8579  2052.2131
 2929.0000     8.5921    77.1655     2.4610     0.0043     0.1778   -70.1066     8.4579     4.4500     5.5442  2051.8347
 2929.5000     8.5922    82.0387     2.4510     0.0043     0.1794   -69.7057     8.4590     4.0239     5.3448  2051.4563
 2930.0000     8.5724    86.9120     2.4390     0.0042     0.2048   -69.3049     8.3063     3.7738     4.8318  2011.0197
 2930.5000     8.5725    91.7852     2.4350     0.0042     0.2328   -69.1025     7.7191     3.5721     4.3279  2030.7457
 2931.0000     8.5527    94.9777     2.4271     0.0002     0.2655   -68.9000     5.2720     3.3815     3.7366  2050.3208
 2931.5000     8.4934    90.0329     2.4291    -0.0018     0.2691   -68.6984     3.6007     3.4127     3.6690  2049.9421
 2932.0000     8.2956    82.7133     2.4510    -0.0078     0.2518   -68.8928     2.7137     3.5408     3.6358  2049.5637
 2932.5000     8.1571    62.3351     2.4909    -0.0078     0.1657   -69.2857     4.7064     3.6735     3.9498  2049.1853
 2933.0000     8.1770    52.2441     2.4968    -0.0058     0.1399   -69.8762     6.0284     3.8114     5.3991  2048.8059
 2933.5000     8.3155    51.2557     2.5048    -0.0078     0.1158   -70.0714     9.9031     3.9182     5.8655  2048.4275
 2934.0000     8.6124    52.0483     2.5088    -0.0058     0.1194   -69.8690    10.4576     4.3348     5.6541  2048.0488
 2934.5000     8.6916    53.0388     2.5088    -0.0019     0.1362   -70.2619    10.4595     4.7519     5.7603  2047.6703
 2935.0000     8.6917    53.8313     2.5048     0.0001     0.1411   -70.2579     9.8105     4.9301     5.9216  2047.2917
 2935.5000     8.6917    57.1968     2.4948     0.0021     0.1430   -70.4523     9.3718     5.1622     6.2579  2046.9131
 2936.0000     8.6918    62.1458     2.4948     0.0041     0.1462   -70.6468     8.4732     5.2103     6.4336  2046.5345
 2936.5000     8.7314    63.7302     2.5008     0.0101     0.1506   -70.6428     8.4743     5.2111     6.0891  2066.1118
 2937.0000     8.7314    65.7106     2.5028     0.0120     0.1635   -70.8372     8.1700     5.0702     6.0902  2045.7773
 2937.5000     8.7513    67.8891     2.5028     0.0120     0.1707   -70.8332     7.8770     4.8881     5.8709  2045.3988
 2938.0000     8.7712    70.8594     2.5008     0.0120     0.1643   -70.8292     7.7344     4.5013     5.7122  2064.9758
 2938.5000     8.8108    75.2151     2.4968     0.0120     0.1602   -70.8252     7.4566     4.2217     5.4062  2024.6842
 2939.0000     8.8307    76.8001     2.4908     0.0120     0.1755   -70.8212     7.1232     3.9235     5.0703  2044.2622
 2939.5000     8.8505    81.7482     2.4709     0.0040     0.2039   -70.8172     6.9306     3.5148     4.7550  2103.7546
 2940.0000     8.8704    84.0085     2.4569     0.0000     0.2466   -70.8133     6.2088     3.4197     4.4185  2083.4194
 2940.5000     8.8704    88.4831     2.4510     0.0000     0.2663   -70.8093     5.7706     3.2074     4.0684  2043.1263
 2941.0000     8.8903    89.0791     2.4490    -0.0020     0.2671   -70.8053     5.5626     3.1495     3.7803  2042.7477
 2941.5000     8.9299    89.0802     2.4510    -0.0040     0.2514   -70.8013     3.2676     3.1211     3.5127  2062.3269
 2942.0000     8.9102    80.1743     2.4569    -0.0060     0.2381   -70.5989     2.9815     3.1213     3.4175  2041.9904
 2942.5000     8.9300    66.7153     2.4689    -0.0100     0.1805   -70.5949     5.5122     3.1218     3.7470  2041.6117
 2943.0000     8.9895    63.5486     2.4808    -0.0100     0.1617   -70.7893     6.2126     3.2690     4.5873  2061.1907
 2943.5000     8.9895    59.7870     2.4888    -0.0081     0.1463   -70.7853     8.7264     3.4541     4.8035  2060.8123
 2944.0000     9.0094    60.1837     2.4888    -0.0081     0.1578   -70.9797     8.4906     3.6502     5.4142  2060.4336
 2944.5000     9.0688    60.5801     2.4848    -0.0081     0.1736   -70.9757     8.8903     3.7869     5.8276  2060.0552
 2945.0000     9.0887    62.4929     2.4828    -0.0101     0.1752   -70.9718     8.9735     4.3068     5.9365  2059.6768
 2945.5000     9.1283    64.1468     2.4868    -0.0081     0.1720   -70.9678     8.8926     4.6782     5.9371  2039.3387
 2946.0000     9.1086    64.7421     2.4988    -0.0081     0.1680   -71.1622     8.4952     5.0816     5.8298  2038.9601
 2946.5000     9.1483    63.7534     2.5048    -0.0081     0.1486   -71.1582     8.4960     5.1289     5.8306  2038.5813
