~VERSION INFORMATION
 VERS.                2.0:   CWLS LOG ASCII STANDARD - VERSION 2.0
 WRAP.                 NO:   ONE LINE PER DEPTH STEP
~WELL INFORMATION
#MNEM.UNIT      DATA TYPE    INFORMATION
#----------   ------------   ------------------------------
 STRT.F           10.0000:   START DEPTH
 STOP.F         3234.0000:   STOP DEPTH
 STEP.F            0.5000:   STEP LENGTH
 NULL.          -999.2500:   NO VALUE
 COMP. LAWRENCE ALLISON & ASSOSCIATES:   COMPANY
 WELL. 		  38-X-10:   WELL
 FLD .             NPR #3:   FIELD
 LOC .      S10 T38N R78W:   LOCATION
 CNTY.            NATRONA:   COUNTY
 STAT.            WYOMING:   STATE
 CTRY. UNITED STATES OF AMERICA:   COUNTRY
 SRVC.      DRESSER ATLAS:   SERVICE COMPANY
 DATE.        02-AUG-1986:   LOGDATE
 API .       490251120600:   API NUMBER
~CURVE INFORMATION
#MNEM.UNIT       API CODE    CURVE DESCRIPTION
#----------   ------------   ------------------------------
 DEPT.F                  :   
 GRR .GAPI   07 310 01 00:   GAMMA RAY FROM RESISTIVITY
 SPR .MV     07 010 01 00:   SPONTANEOUS POTENTIAL
 TENR.LBS    07 635 01 00:   TENSION FROM RESISTIVITY
 RILM.OHMM   07 120 44 00:   RESISTIVITY INDUCTION LOG MEDIUM
 CNC .DEC    42 890 03 00:   NEUTRON POROSITY SANDSTONE
 CALD.IN     45 280 60 00:   CALIPER FROM DENSITY LOG
 GRD .GAPI   45 310 01 00:   GAMMA RAY FROM DENSITY LOG
 RHOB.G/C3   45 350 01 00:   BULK DENSITY
 TEND.LBS    45 635 01 00:   TENSION FORM DENSITY LOG
 CORR.G/C3   45 356 01 00:   DENSITY CORRECTION
 RILD.OHMM   07 120 46 00:   RESISTIVITY INDUCTION LOG DEEP
 RFOC.OHMM   07 220 04 00:   RESISTIVITY FOCUSED
~PARAMETER INFORMATION
#MNEM.UNIT          VALUE    DESCRIPTION
#----------   ------------   ------------------------------
 EKB .F         5224.0000:   Kelly bushing
 EGL .F         5212.0000:   Ground level
 EDF .F            0.0000:   Drilling floor
 TD  .F         3231.0000:   Total depth
 CLNT.            A2DTECH:   Client Code
 SL  . 296' FSL & 1435' FWL:   Surface Location
 PD  .                 GL:   Permanent Datum
 EPD .F              5212:   Elevation Permanent Datum
 LMF .                 KB:   Log Measured From
 DMF .                 KB:   Drilling Measured From
 DAPD.F                12:   Feet Above Permanent Datum
 DATE.        02-AUG-1986:   Date Logged [DD-MMM-YYYY]
 DD  .F              3230:   Depth driller
 DL  .F              3231:   Depth logger
 BLI .F              3229:   Bottom log interval
 TLI .F                11:   Top log interval
 CS1 .IN            8.625:   Casing size
 CBD1.      8.625" @ 626':   Casing driller 1
 CBL1.F               626:   Casing logger 1
 BS1 .IN            7.875:   Bit size
 BSD1.F              3230:   Depth drilled with bit1
 DFT .            KCL-GEL:   Type fluid in hole
 DFD .                  9:   Density
 DFV .                 36:   Viscosity
 DFPH.               10.5:   pH
 DFL .                 12:   Fluid loss
 MSS .           FLOWLINE:   Source of sample
 RMS .OHMM          0.263:   Rm
 MST .F               100:   Rm Meas. temp.
 RMF .OHMM          0.197:   Rmf
 MFST.F               100:   Rmf Meas. temp.
 MFSS.               MEAS:   Source Rmf.
 RMC .OHMM          0.329:   Rmc
 MCST.F               100:   Rmc Meas. temp.
 MCSS.               CALC:   Source Rmc.
 RMB .OHMM          0.193:   Rm. at BHT
 BHT .F               136:   BHT.
 TCS .HRS               5:   Time Circ. stopped
 MRT .F               136:   Maximum recorded temp.
 LUN .            HL-6274:   Logging unit number
 LUL .           GILLETTE:   Logging unit location
 ENGI.            PANASUK:   Recorded By
 WITN.             STRONG:   Witnessed by
 ORIG.        2" 5" PRINT:   Origin of data
 UWI .       490251120600:   Unique Well ID
 DICO. A2D TECHNOLOGIES, INC.:   Digitizing Company
~OTHER INFORMATION
~A   DEPT       GRR       SPR       TENR       RILM        CNC       CALD        GRD       RHOB       TEND       CORR       RILD       RFOC   
# ...
 2866.0000   116.0429   -33.0788   -13.1463     9.1823     0.1767     9.7168   114.4516     2.5453   -33.7909     0.0032     9.3628    13.4276
 2866.5000   106.6407   -33.2321   -13.2930     9.4519     0.1756     9.7166   102.6735     2.5597   -34.0802     0.0018     9.6963    13.7100
 2867.0000   100.2687   -33.6881   -21.0249     9.5727     0.1786     9.7013    99.9446     2.5567   -34.3697    -0.0027     9.7654    13.1461
 2867.5000   103.8947   -33.9926   -28.7226     9.5055     0.1819     9.6861   103.5696     2.5483   -42.1892    -0.0133     9.8351    12.6058
 2868.0000   105.7046   -34.1455   -28.8674     9.6381     0.1837     9.6859   105.0781     2.5468   -42.4786    -0.0224     9.8367    12.0878
 2868.5000   105.0902   -34.2985   -36.5651     9.7048     0.1852     9.6858   104.7682     2.5514   -42.7710    -0.0148     9.6344    11.5039
 2869.0000   105.9910   -34.1485   -44.2627     9.5699     0.1867     9.6856   104.7624     2.5552   -58.1900     0.0019     9.5019    11.2703
 2869.5000   106.5887   -34.2126   -44.4109     9.3714     0.1879     9.6855   105.6974     2.5567   -66.0094     0.0034     9.5035    11.5070
 2870.0000   106.8834   -34.3032   -52.1414     9.5687     0.1882     9.6853   105.6570     2.5506   -73.8289    -0.0132     9.7736    11.8308
 2870.5000   104.7518   -34.3047   -52.2861     9.7699     0.1870     9.6852   103.5332     2.5499   -81.6485    -0.0237     9.6375    12.2489
 2871.0000   102.6223   -34.3062   -59.9838     9.3045     0.1848     9.6850   101.7120     2.5560   -66.8674     0.0035     9.3109    12.5061
 2871.5000   102.3109   -34.1561   -60.1286     8.9232     0.1821     9.6849   101.1010     2.5597   -52.1068    -0.0010     8.9931    12.7795
 2872.0000   103.8178   -34.1576   -52.7190     8.6776     0.1836     9.6847   103.5157     2.5529   -29.8057    -0.0161     8.6258    12.9463
 2872.5000   108.9610   -34.0079   -44.3020     8.3124     0.1917     9.6845   107.1997     2.5477   -22.5651    -0.0191     8.3314    12.0724
 2873.0000   117.1422   -34.0093   -15.2819     7.9809     0.2057     9.6693   119.8415     2.5439   -15.3243     0.0112     8.1600    10.2823
 2873.5000   126.8210   -33.8589     7.2320     8.3208     0.2132     9.6540   129.2169     2.5439   -15.6626     0.0400     8.4512     9.2601
 2874.0000   130.1461   -33.8607     7.0871     8.6150     0.2169     9.6387   126.7890     2.5507   -23.5055     0.0476     8.8748     9.2557
 2874.5000   121.6529   -34.0137    -0.6105     8.8576     0.2086     9.6234   115.8906     2.5621   -23.7952     0.0234     9.1270    11.2650
 2875.0000   115.5840   -34.4697    -0.7553     9.1071     0.1989     9.6233   113.4642     2.5681   -24.0964     0.0189     9.2564    12.9351
 2875.5000   115.2579   -34.7983    -0.9362     9.0225     0.1932     9.6080   115.2738     2.5659   -24.4461     0.0174     8.9405    12.4035
 2876.0000   116.7795   -35.1455    -1.0810     8.9177     0.1953     9.5927   115.5706     2.5613   -24.6988     0.0019     9.0672    11.8937
 2876.5000   116.7691   -35.3835    -1.2259     9.2328     0.2027     9.5774   115.2607     2.5651   -25.0000    -0.0037     9.2601    11.6460
 2877.0000   117.0658   -35.6880    -8.9235     9.2969     0.2165     9.5622   116.1626     2.5712   -32.8444     0.0009     9.4015    11.4831
 2877.5000   117.3606   -35.8410    -9.0683     9.3611     0.2231     9.5620   115.5516     2.5727   -25.6036    -0.0006     9.5249    11.4015
 2878.0000   117.0471   -35.8424   -16.7674     9.2955     0.2243     9.5619   110.7047     2.5621   -25.9036     0.0009     9.5928    11.5600
 2878.5000   112.4934   -35.8439   -16.9469     9.4252     0.2158     9.5617   108.8834     2.5629   -26.2547     0.0085     9.6612    11.8854
 2879.0000   110.0001   -35.8457   -24.6445     9.5567     0.2054     9.5616   109.1802     2.5705   -26.5442     0.0179     9.7301    12.2199
 2879.5000   109.1413   -35.9987   -24.7894     9.7576     0.1940     9.5614   110.3832     2.5758   -34.3636     0.0222     9.7314    12.5638
 2880.0000   109.5672   -36.1517   -32.4774     9.8937     0.1903     9.5613   111.5876     2.5750   -42.1832     0.0162     9.7328    12.7385
 2880.5000   111.2459   -36.1531   -32.6318     9.6213     0.1933     9.5611   112.6589     2.5712   -42.4725     0.0087     9.6565    12.7364
 2881.0000   113.0558   -36.3061   -32.7794     9.3565     0.1991     9.5610   113.9966     2.5750   -57.8313     0.0011     9.5341    12.7347
 2881.5000   114.8656   -36.3076   -40.5104     9.0253     0.2033     9.5759   117.3190     2.5803   -65.7140     0.0148     9.2732    12.5567
 2882.0000   117.9667   -36.1575   -48.2080     8.7260     0.2102     9.5758   119.7417     2.5803   -66.0035     0.0148     9.0193    12.0406
 2882.5000   120.3035   -36.1593   -48.3529     8.6047     0.2284     9.5756   118.2136     2.5751   -66.2928     0.0209     8.8338    11.3859
 2883.0000   119.6871   -36.0089   -56.0505     8.5445     0.2302     9.5755   116.9975     2.5690   -74.1122     0.0300     8.7736    10.8261
 2883.5000   118.1636   -35.8588   -63.7482     8.5439     0.2178     9.5753   116.6891     2.5644   -89.4620     0.0361     8.7751    10.3239
 2884.0000   117.5492   -35.7091   -63.8973     8.6631     0.2165     9.5601   115.7756     2.5660   -89.7591     0.0119     8.8377     9.9689
 2884.5000   116.9349   -35.7106   -64.0739     8.7838     0.2171     9.5426   114.2569     2.5683   -82.5106    -0.0093     8.9630    10.5393
 2885.0000   115.6927   -35.7124   -64.2187     8.9686     0.2092     9.5295   111.8305     2.5683   -75.2698    -0.0213     9.0900    11.4575
 2885.5000   114.1889   -35.8654   -64.3635     9.2213     0.1944     9.5293   112.5045     2.5690   -75.6316    -0.0130     9.2834    11.8624
 2886.0000   112.3624   -36.0184   -64.5083     9.4810     0.1962     9.5595   115.7508     2.5751   -75.9210     0.0105     9.3854    11.6153
 2886.5000   115.0813   -36.1713   -64.6530     9.8162     0.1980     9.5745   115.4425     2.5812   -76.2048     0.0226     9.8189    12.1095
 2887.0000   116.5903   -36.4758   -63.6038    10.0227     0.1973     9.5743   113.9238     2.5819   -80.5966     0.0257    10.0979    12.4503
 2887.5000   115.9738   -36.6288   -57.3897    10.1625     0.1925     9.5741   111.4974     2.5744   -76.7891     0.0257    10.0993    12.7117
 2888.0000   111.6712   -36.7818   -49.9817    10.0912     0.1901     9.5740   109.3735     2.5721   -77.1084     0.0197    10.1007    12.7990
 2888.5000   110.5026   -36.9351   -50.1626    10.0905     0.1888     9.5738   109.3486     2.5729   -77.4402     0.0243    10.1727    12.7972
 2889.0000   109.2801   -37.0881   -57.8603    10.2315     0.1912     9.5737   107.2424     2.5691   -77.7297     0.0228    10.3944    12.8851
 2889.5000   107.1506   -37.0895   -65.5589    10.3742     0.1955     9.5735   106.0263     2.5570   -78.0190     0.0153    10.7595    13.0642
 2890.0000   107.0997   -37.0910   -73.2918    10.5188     0.1945     9.5734   107.5334     2.5464   -78.3133    -0.0104    10.9120    13.0621
 2890.5000   108.6491   -37.2440   -80.9894    10.7526     0.1894     9.5732   108.4367     2.5426   -86.1445    -0.0134    11.0667    12.2660
 2891.0000   108.2988   -37.2364   -81.1342    10.9659     0.1851     9.5731   105.4037     2.5419   -86.4458    -0.0210    11.2236    11.9905
 2891.5000   103.7819   -37.0954   -81.2790    11.1189     0.1790     9.5729   102.0659     2.5457   -94.2771    -0.0497    11.3828    13.0915
 2892.0000    98.3190   -37.0972   -81.4238    11.1960     0.1763     9.5728    97.0285     2.5502   -94.5986    -0.0386    11.6249    15.8690
 2892.5000    93.7653   -37.2500   -81.5710    11.2733     0.1710     9.5726    92.3757     2.5533   -94.8879    -0.0239    11.7901    16.3156
 2893.0000    92.2439   -37.2515   -74.1605    11.3512     0.1678     9.5725    94.7889     2.5533  -102.7109    -0.0087    11.9573    16.3134
 2893.5000    94.0517   -37.2530   -81.8944    11.1934     0.1705     9.5723    95.6923     2.5502  -103.0692    -0.0254    12.0426    16.0854
