~VERSION INFORMATION
 VERS.                2.0:   CWLS LOG ASCII STANDARD - VERSION 2.0
 WRAP.                 NO:   ONE LINE PER DEPTH STEP
~WELL INFORMATION
#MNEM.UNIT      DATA TYPE    INFORMATION
#----------   ------------   ------------------------------
 STRT.F          470.0000:   START DEPTH
 STOP.F         3791.5000:   STOP DEPTH
 STEP.F            0.5000:   STEP LENGTH
 NULL.          -999.2500:   NO VALUE
 COMP.    FENIX & SCISSON:   COMPANY
 WELL.   FENIX MDX #44-10:   WELL
 FLD .                NPR:   FIELD
 LOC .      S10 T38N R78W:   LOCATION
 CNTY.            NATRONA:   COUNTY
 STAT.            WYOMING:   STATE
 CTRY. UNITED STATES OF AMERICA:   COUNTRY
 SRVC.       SCHLUMBERGER:   SERVICE COMPANY
 DATE.        25-OCT-1977:   LOGDATE
 API .     49025104310000:   API NUMBER
~CURVE INFORMATION
#MNEM.UNIT       API CODE    CURVE DESCRIPTION
#----------   ------------   ------------------------------
 DEPT.F                  :   
 DT  .US/F   60 520 00 00:   DELTA TIME
 SPR .MV     11 010 01 00:   SPONTANEOUS POTENTIAL FROM RES.
 LLS .OHMM   11 220 09 00:   LATEROLOG LOG SHALLOW
 LLD .OHMM   11 220 10 00:   LATEROLOG LOG DEEP
 MSFL.OHMM   11 270 04 00:   MICRO SPHERICALLY FOCUSED
 NPOR.DEC    42 890 03 00:   ALPHA PROCESSED NEUTRON POROSITY
 RHOB.G/C3   45 350 01 00:   BULK DENSITY
 CORR.G/C3   45 356 01 00:   DENSITY CORRECTION
 GRD .GAPI   45 310 01 00:   GAMMA RAY FROM DENSITY LOG
 CALD.IN     45 280 60 00:   CALIPER FROM DENSITY LOG
~PARAMETER INFORMATION
#MNEM.UNIT          VALUE    DESCRIPTION
#----------   ------------   ------------------------------
 EKB .F         5239.0000:   Kelly bushing
 EGL .F         5229.0000:   Ground level
 EDF .F            0.0000:   Drilling floor
 EPD .F           10.0000:   Permanent datum
 TD  .F         3802.0000:   Total depth
 DATE.        25-OCT-1977:   Date logged
 CLNT.            A2DTECH:   Client Code
 SL  . 2640' FNL & 2640' FEL:   Surface Location
 PD  .                 GL:   Permanent Datum
 DD  .F              3802:   Depth driller
 DL  .F              3791:   Depth logger
 BLI .F              3789:   Bottom log interval
 TLI .F               505:   Top log interval
 CS1 .IN            8.625:   Casing size
 CBD1.       8.625 @ 505':   Casing driller 1
 CBL1.F               505:   Casing logger 1
 BS1 .IN            7.875:   Bit size
 DFT .            KCL MUD:   Type fluid in hole
 DFD .                9.1:   Density
 DFV .                 45:   Viscosity
 DFPH.               10.5:   pH
 DFL .                  8:   Fluid loss
 MSS .             MUDPIT:   Source of sample
 RMS .OHMM           .209:   Rm
 MST .F                72:   Rm Meas. temp.
 RMF .OHMM           .179:   Rmf
 MFST.F                72:   Rmf Meas. temp.
 RMC .OHMM           .314:   Rmc
 MCST.F                72:   Rmc Meas. temp.
 MFSS.               MEAS:   Source Rmf.
 RMB .OHMM           .122:   Rm. at BHT
 BHT .F               123:   BHT.
 TCS .HRS            1400:   Time Circ. stopped
 MRT .F               123:   Maximum recorded temp.
 LUN .               5642:   Logging unit number
 LUL .               CSPR:   Logging unit location
 ENGI.             SAYLER:   Recorded By
 WITN.         PETTINGILL:   Witnessed by
 ORIG.           5" PRINT:   Origin of data
 UWI .     49025104310000:   Unique Well ID
 DICO. A2D TECHNOLOGIES, INC.:   Digitizing Company
 DAPD.                 10:   Feet Above Permanent Datum
 BSD1.               3802:   Depth drilled with bit1
 MCSS.               CALC:   Source Rmc.
~OTHER INFORMATION
~A   DEPT        DT       SPR        LLS        LLD       MSFL       NPOR       RHOB       CORR        GRD       CALD   
# ...
 3317.5000    94.8790   -55.8650     5.9460     4.6770     8.7720     0.3190     2.4530     0.0070   161.8780     8.4170
 3318.0000    94.8910   -55.7150     5.9260     4.6030     8.6510     0.3100     2.4490     0.0090   161.4020     8.4150
 3318.5000    94.7250   -55.5660     5.9060     4.7110     8.4980     0.3030     2.4520    -0.0080   161.5490     8.4120
 3319.0000    94.5590   -55.4170     5.8860     4.7890     8.3760     0.3030     2.4570     0.0040   161.8310     8.4100
 3319.5000    94.3930   -55.2670     5.8660     4.8200     8.3760     0.3080     2.4630    -0.0020   161.8420     8.4080
 3320.0000    94.3120   -55.1180     5.8460     4.7380     8.4530     0.3190     2.4760     0.0220   160.0170     8.4060
 3320.5000    94.7550   -54.9690     5.8260     4.6360     8.3960     0.3310     2.4700     0.0000   157.8860     8.4040
 3321.0000    95.1980   -54.8180     5.8070     4.5350     8.3050     0.3320     2.4650     0.0190   157.0190     8.4020
 3321.5000    95.6400   -54.7560     5.7870     4.4900     8.2130     0.3190     2.4730     0.0050   159.2680     8.4000
 3322.0000    95.7040   -54.8710     5.7670     4.4550     8.1210     0.3060     2.4830     0.0180   161.8410     8.3970
 3322.5000    95.4280   -54.9960     5.7470     4.4360     7.9990     0.3010     2.4840     0.0020   162.4160     8.3950
 3323.0000    95.4910   -55.1210     5.7270     4.5450     8.0840     0.3060     2.4710     0.0200   161.7890     8.3930
 3323.5000    95.6860   -55.2450     5.7070     4.6200     8.2110     0.3170     2.4610    -0.0020   164.0890     8.3910
 3324.0000    95.8820   -55.3700     5.6890     4.6940     8.3390     0.3280     2.4740     0.0170   166.1720     8.3910
 3324.5000    96.0780   -55.4940     5.7310     4.7690     8.4670     0.3350     2.4600     0.0120   164.6430     8.3910
 3325.0000    96.2730   -55.6180     5.7700     4.8440     8.5670     0.3300     2.4720     0.0120   163.0290     8.3910
 3325.5000    96.4500   -55.7310     5.8090     4.9180     8.6380     0.3190     2.4840    -0.0040   164.0310     8.3910
 3326.0000    96.5500   -56.0700     5.8470     4.9550     8.7080     0.3060     2.4710     0.0080   165.7430     8.3910
 3326.5000    96.0840   -56.4730     5.8860     4.8810     8.7710     0.3050     2.4720     0.0110   167.4250     8.3910
 3327.0000    95.8760   -56.8780     5.9250     4.8010     8.7710     0.3100     2.4770    -0.0040   168.8640     8.3910
 3327.5000    95.2680   -57.2830     5.9640     4.7320     8.7710     0.3090     2.4710     0.0110   167.9010     8.3910
 3328.0000    94.9850   -57.6880     6.0020     4.7380     8.7710     0.2960     2.4680     0.0180   163.0260     8.3980
 3328.5000    95.1090   -58.0880     6.0120     4.7480     8.7710     0.2960     2.4790     0.0060   158.2100     8.4310
 3329.0000    94.9310   -58.2980     5.9450     4.7590     8.7710     0.3010     2.4690     0.0200   157.4640     8.4620
 3329.5000    94.4880   -59.0670     5.8950     4.7690     8.6570     0.3040     2.4740     0.0270   162.8070     8.5400
 3330.0000    94.3960   -59.9530     5.8450     4.7760     8.3510     0.3060     2.4980     0.0140   166.0400     8.6240
 3330.5000    94.7130   -60.8370     5.7950     4.5850     8.2230     0.3090     2.4820     0.0510   168.9000     8.7080
 3331.0000    94.8740   -61.4990     5.6890     4.4460     8.3760     0.3120     2.5110     0.0720   172.8460     8.7490
 3331.5000    94.5500   -61.4860     5.5820     4.3070     7.7890     0.3140     2.4960     0.0770   175.6030     8.6670
 3332.0000    89.0500   -61.4800     5.4750     4.1590     7.3630     0.3170     2.4560     0.0360   174.5950     8.5220
 3332.5000    90.4800   -61.2090     5.3680     4.1590     7.3630     0.3190     2.4480     0.0080   171.9670     8.4720
 3333.0000    93.0210   -60.6370     5.2850     4.2090     7.8440     0.3360     2.4710     0.0270   170.4600     8.4750
 3333.5000    93.3500   -60.0700     5.2150     4.2580     7.9990     0.3430     2.4540     0.0030   170.9460     8.4790
 3334.0000    94.2780   -59.5000     5.1820     4.2760     7.7670     0.3400     2.4380     0.0230   173.2760     8.4840
 3334.5000    95.2500   -58.9260     5.1480     4.0030     7.4050     0.3350     2.4590     0.0070   175.5700     8.4880
 3335.0000    95.9500   -58.3450     5.1150     3.9000     7.0430     0.3300     2.4700     0.0020   177.8520     8.4920
 3335.5000    95.9050   -58.3120     5.0810     3.9000     6.7770     0.3270     2.4650     0.0160   179.1810     8.4960
 3336.0000    95.8500   -58.3160     5.0480     3.9820     6.7770     0.3340     2.4560    -0.0050   177.4380     8.5000
 3336.5000    95.8910   -58.3170     5.0140     4.1980     7.4310     0.3440     2.4470     0.0150   174.8180     8.5040
 3337.0000    96.1070   -58.3170     4.9810     4.1980     7.4310     0.3450     2.4370    -0.0040   172.4370     8.5080
 3337.5000    96.4940   -58.3170     4.9470     4.0740     7.1160     0.3450     2.4360    -0.0060   171.0290     8.5130
 3338.0000    96.5500   -58.3170     4.9140     3.9640     6.9050     0.3410     2.4490     0.0190   169.5960     8.5170
 3338.5000    95.7220   -58.3170     4.8800     3.8920     6.6940     0.3350     2.4530     0.0080   168.1020     8.5210
 3339.0000    95.0500   -58.3170     4.7920     3.8290     6.5530     0.3290     2.4530     0.0280   167.6160     8.5250
 3339.5000    94.8500   -58.2960     4.6530     3.7770     6.4720     0.3250     2.4520     0.0060   166.7870     8.5290
 3340.0000    93.7500   -58.1670     4.5140     3.6520     6.2460     0.3300     2.4480     0.0290   168.6270     8.5390
 3340.5000    93.6690   -58.0390     4.3750     3.5270     6.0050     0.3350     2.4340     0.0180   173.3040     8.5490
 3341.0000    93.2390   -57.9120     4.2360     3.3960     5.7470     0.3310     2.4230     0.0080   178.1250     8.5600
 3341.5000    92.5230   -57.7840     4.0970     3.3960     5.4590     0.3300     2.4350     0.0200   179.9100     8.5700
 3342.0000    91.8070   -57.6560     3.9580     3.3010     5.1710     0.3310     2.4240     0.0030   180.1270     8.5810
 3342.5000    91.5300   -57.5290     3.8190     3.1250     4.8830     0.3220     2.4120     0.0210   180.4940     8.5910
 3343.0000    91.6510   -57.3980     3.6800     2.9490     3.7570     0.3190     2.4000     0.0020   182.3280     8.6010
 3343.5000    91.0170   -57.1390     3.6230     2.8780     2.3960     0.3230     2.3880     0.0010   185.7390     8.6100
 3344.0000    90.3500   -56.6840     3.7260     3.0020     1.5810     0.3290     2.3850     0.0200   187.0910     8.6140
 3344.5000    91.0580   -56.2310     4.2360     3.1260     3.2960     0.3350     2.3840     0.0210   184.6160     8.6180
 3345.0000    91.5270   -55.7790     4.7460     5.4540     6.4710     0.3460     2.3890     0.0070   177.6460     8.6220
 3345.5000    91.3500   -55.3260     5.1680     6.8400     9.7960     0.3710     2.4100     0.0160   170.2430     8.6260
 3346.0000    93.5120   -54.8730     5.1880     5.7950     6.3570     0.3850     2.4380    -0.0020   160.4700     8.6290
 3346.5000    96.4700   -54.4200     5.0140     4.5350     2.9300     0.3420     2.4760     0.0130   150.9410     8.6270
 3347.0000    98.1500   -53.9660     4.9090     3.5890     1.9010     0.2990     2.4620     0.0010   149.7960     8.5890
 3347.5000    96.8000   -53.5160     4.9090     3.8240     3.1400     0.2710     2.4490     0.0320   150.3190     8.5520
 3348.0000    93.4500   -52.9650     5.0190     4.7320     5.8160     0.2710     2.4040     0.0640   151.0090     8.5170
 3348.5000    88.7260   -52.3810     5.1470     5.6400     8.0040     0.2950     2.4090     0.0730   152.6950     8.5280
 3349.0000    87.3500   -51.7910     5.1880     6.4720     8.6110     0.3140     2.3730     0.0310   155.2880     8.6730
 3349.5000    90.4830   -51.2000     5.1410     6.5320     5.8810     0.3270     2.3950    -0.0110   158.0840     8.7050
 3350.0000    96.0500   -50.6130     4.9800     3.2140     2.3520     0.3140     2.4390     0.0000   167.0250     8.5890
 3350.5000    96.7500   -50.1880     4.8440     3.0410     0.7930     0.3060     2.4190     0.0280   177.1340     8.5080
