~VERSION INFORMATION
 VERS.                2.0:   CWLS LOG ASCII STANDARD - VERSION 2.0
 WRAP.                 NO:   ONE LINE PER DEPTH STEP
~WELL INFORMATION
#MNEM.UNIT      DATA TYPE    INFORMATION
#----------   ------------   ------------------------------
 STRT.F          148.0000:   START DEPTH
 STOP.F         3394.0000:   STOP DEPTH
 STEP.F            0.5000:   STEP LENGTH
 NULL.          -999.2500:   NO VALUE
 COMP.    FENIX & SCISSON:   COMPANY
 WELL.  FENIX "AX" #28-10:   WELL
 FLD .        TEAPOT DOME:   FIELD
 LOC .      S10 T38N R78W:   LOCATION
 CNTY.            NATRONA:   COUNTY
 STAT.            WYOMING:   STATE
 CTRY. UNITED STATES OF AMERICA:   COUNTRY
 SRVC.       SCHLUMBERGER:   SERVICE COMPANY
 DATE.        03-MAR-1981:   LOGDATE
 API .     49025108680000:   API NUMBER
~CURVE INFORMATION
#MNEM.UNIT       API CODE    CURVE DESCRIPTION
#----------   ------------   ------------------------------
 DEPT.F                  :   
 SFL .OHMM   07 220 01 00:   SHALLOW FOCUSED LOG RESISTIVITY
 ILD .OHMM   07 120 46 00:   INDUCTION LOG DEEP RESISTIVITY
 ILM .OHMM   07 120 44 00:   INDUCTION LOG MEDIUM RESISTIVITY
 TENR.LBS    07 635 01 00:   TENSION
 SPR .MV     07 010 01 00:   SPONTANEOUS POTENTIAL
 CALD.IN     45 280 60 00:   CALIPER FROM DENSITY LOG
 GRD .GAPI   45 310 01 00:   GAMMA RAY FROM DENSITY LOG
 TEND.LBS    45 635 01 00:   TENSION FROM DENSITY LOG
 CORR.G/C3   45 356 01 00:   DENSITY CORRECTION
 RHOB.G/C3   45 350 01 00:   BULK DENSITY
~PARAMETER INFORMATION
#MNEM.UNIT          VALUE    DESCRIPTION
#----------   ------------   ------------------------------
 EKB .F         5241.0000:   Kelly bushing
 EGL .F         5231.0000:   Ground level
 EDF .F            0.0000:   Drilling floor
 TD  .F         3381.0000:   Total depth
 DATE.        03-MAR-1981:   Date logged
 CLNT.            A2DTECH:   Client Code
 SL  . 640' FSL & 720' FWL:   Surface Location
 PD  .                 GL:   Permanent Datum
 EPD .F              5231:   Elevation Permanent Datum
 LMF .                 KB:   Log Measured From
 DMF .                 KB:   Drilling Measured From
 DAPD.F                10:   Feet Above Permanent Datum
 DD  .F              3361:   Depth driller
 DL  .F              3381:   Depth logger
 BLI .F              3375:   Bottom log interval
 TLI .F               233:   Top log interval
 CS1 .IN            8.625:   Casing size
 CBD1.      8.625" @ 224':   Casing driller 1
 CBL1.F               233:   Casing logger 1
 BS1 .IN            7.875:   Bit size
 BSD1.F              3361:   Depth drilled with bit1
 DFT .           CHEM/GEL:   Type fluid in hole
 DFD .                  9:   Density
 DFV .                 40:   Viscosity
 DFPH.                8.5:   pH
 DFL .                 11:   Fluid loss
 MSS .           MUD/TANK:   Source of sample
 RMS .OHMM           2.52:   Rm
 MST .F                66:   Rm Meas. temp.
 RMF .OHMM            1.8:   Rmf
 MFST.F                67:   Rmf Meas. temp.
 MFSS.               MEAS:   Source Rmf.
 RMB .OHMM           1.47:   Rm. at BHT
 BHT .F               118:   BHT.
 TCS .HRS            0500:   Time Circ. stopped
 TLAB.HRS            0830:   Time logger at bottom
 MRT .F               118:   Maximum recorded temp.
 LUN .               8035:   Logging unit number
 LUL .               CSPR:   Logging unit location
 ENGI.            BEATTLE:   Recorded By
 WITN.              FIVAS:   Witnessed by
 ORIG.           5" PRINT:   Origin of data
 UWI .     49025108680000:   Unique Well ID
 DICO. A2D TECHNOLOGIES, INC.:   Digitizing Company
~OTHER INFORMATION
~A   DEPT      SFL        ILD        ILM       TENR        SPR         CALD       GRD      TEND       CORR       RHOB   
# ...
 1052.5000     7.7420     7.2100     7.2250   335.3660   -28.6320     8.9800   115.4840   402.7210     0.1330     2.5320
 1053.0000     7.3440     6.9820     6.9000   335.3660   -28.6920     8.9890   112.4110   402.7980     0.1120     2.5210
 1053.5000     6.9450     6.8230     6.5740   335.3660   -28.7520     8.9670   111.2490   402.8750     0.1090     2.5200
 1054.0000     6.8160     6.6650     6.4440   335.3660   -28.8120     8.9300   113.1760   402.9510     0.0870     2.5090
 1054.5000     6.8490     6.5070     6.4440   335.3660   -28.8740     8.8940   117.0720   403.0280     0.0490     2.4890
 1055.0000     6.8750     6.3910     6.3250   335.3660   -28.9340     8.8570   120.7600   403.1050     0.0170     2.4970
 1055.5000     6.9020     6.3030     6.2660   335.3660   -29.0730     8.8310   123.7860   403.1820     0.0120     2.5090
 1056.0000     6.9450     6.2150     6.2070   335.3660   -29.2430     8.8320   125.1020   403.2590     0.0150     2.5210
 1056.5000     6.8290     6.1270     5.8610   335.4510   -29.4110     8.8300   125.2310   403.3360     0.0240     2.5260
 1057.0000     6.5380     5.9330     5.5720   335.6630   -29.5790     8.8260   124.7060   403.4130     0.0430     2.5290
 1057.5000     6.2460     5.6680     5.2830   335.8760   -29.7470     8.8220   123.4050   403.4900     0.0660     2.5350
 1058.0000     5.9550     5.4040     5.0520   336.0880   -29.9150     8.8180   122.2050   403.5670     0.0920     2.5350
 1058.5000     5.6640     5.2450     5.0520   336.3010   -30.0830     8.8150   120.9790   403.6440     0.0810     2.4940
 1059.0000     5.3440     5.2940     5.0520   336.5140   -30.2510     8.8110   119.7280   403.7210     0.0280     2.4580
 1059.5000     5.5270     5.3440     5.1180   336.7260   -30.4190     8.8070   119.1630   403.7980     0.0190     2.4630
 1060.0000     5.9860     5.4530     5.2810   336.9390   -30.5880     8.8030   119.5320   403.8750     0.0020     2.4770
 1060.5000     6.4440     5.5620     5.4450   337.1510   -30.7530     8.7980   119.9640   403.9520     0.0090     2.4870
 1061.0000     6.5060     5.6720     5.6280   337.3640   -30.9220     8.7950   121.8130   404.0290     0.0100     2.4920
 1061.5000     6.6080     5.7810     5.8110   337.5760   -30.9790     8.7920   123.5300   404.1060     0.0080     2.4950
 1062.0000     6.6900     5.8680     5.9950   337.7890   -30.9310     8.8030   123.4650   404.1830     0.0070     2.4960
 1062.5000     6.6430     5.8920     6.1780   338.0010   -30.8380     8.8130   121.4780   404.2600     0.0050     2.4970
 1063.0000     6.6050     5.9120     6.3250   338.2140   -30.7520     8.8230   119.5890   404.3370     0.0030     2.5030
 1063.5000     6.5660     5.9320     6.3250   338.4260   -30.6640     8.8330   117.6400   404.4130     0.0140     2.5110
 1064.0000     6.6570     5.9510     6.3250   338.6390   -30.5770     8.8440   115.0240   404.4900     0.0300     2.5120
 1064.5000     6.7480     5.9710     6.3360   338.8510   -30.4890     8.8540   115.2630   404.5670     0.0260     2.5010
 1065.0000     6.8390     5.9790     6.3460   339.0640   -30.4010     8.8640   117.3020   404.6440     0.0130     2.4940
 1065.5000     6.9310     5.9790     6.3550   339.2760   -30.3150     8.8750   119.1950   404.7210     0.0030     2.4960
 1066.0000     7.0220     6.0980     6.3650   339.4890   -30.2230     8.8850   118.6230   404.7980     0.0010     2.5040
 1066.5000     7.0760     6.1090     6.3750   339.7020   -30.1640     8.8950   117.6710   404.8750    -0.0010     2.5050
 1067.0000     7.0110     6.1210     6.3840   339.9140   -30.1720     8.9060   116.8870   404.9520    -0.0010     2.5010
 1067.5000     6.9450     6.1310     6.3940   340.1270   -30.3120     8.9070   120.0660   405.0290    -0.0010     2.4970
 1068.0000     6.9450     6.1400     6.4040   340.3390   -30.4470     8.8920   123.3600   405.1060    -0.0010     2.4930
 1068.5000     6.9450     6.1500     6.4130   340.5520   -30.5890     8.8780   124.5010   405.1830     0.0050     2.4970
 1069.0000     6.9450     6.1610     6.4230   340.7640   -30.7270     8.8640   123.9890   405.2600     0.0120     2.5080
 1069.5000     6.9450     6.1710     6.4320   340.9770   -30.8660     8.8500   124.0910   405.3370     0.0190     2.5180
 1070.0000     7.0590     6.1810     6.4440   341.1890   -31.0050     8.8350   123.2950   405.4140     0.0180     2.5250
 1070.5000     7.2480     6.1920     6.4750   341.4020   -31.1440     8.8220   121.5680   405.4910     0.0120     2.5190
 1071.0000     7.4370     6.2020     6.5140   341.6140   -31.2840     8.8100   119.2870   405.5680     0.0060     2.5120
 1071.5000     7.6270     6.2120     6.5530   341.8270   -31.4220     8.7970   116.3940   405.6450     0.0020     2.5090
 1072.0000     7.5660     6.2230     6.5910   342.0390   -31.5590     8.7910   116.9180   405.7220     0.0010     2.5140
 1072.5000     7.4660     6.2330     6.6300   342.2520   -31.7100     8.7910   118.3780   405.7990     0.0050     2.5180
 1073.0000     7.3660     6.2440     6.6690   342.4640   -31.7640     8.7910   119.9440   405.8750     0.0100     2.5230
 1073.5000     7.2660     6.2540     6.7070   342.6770   -31.6890     8.7910   120.3050   405.9520     0.0150     2.5210
 1074.0000     7.1660     6.2640     6.7460   342.8900   -31.6290     8.7910   119.8420   406.0290     0.0190     2.5260
 1074.5000     7.0650     6.2750     6.7840   343.1020   -31.5670     8.7910   120.6250   406.1060     0.0210     2.5350
 1075.0000     6.9450     6.2850     6.8150   343.3150   -31.5020     8.7910   122.2430   406.1830     0.0200     2.5410
 1075.5000     6.9450     6.2950     6.6890   343.5270   -31.4410     8.7910   123.4300   406.2600     0.0170     2.5280
 1076.0000     6.9660     6.3060     6.6630   343.7400   -31.3780     8.7910   122.6170   406.3370     0.0120     2.5120
 1076.5000     7.0010     6.3160     6.6360   343.9520   -31.3290     8.7910   120.5170   406.4140     0.0080     2.4950
 1077.0000     7.0360     6.3240     6.6100   344.1650   -31.2810     8.7910   118.2860   406.4910     0.0100     2.4870
 1077.5000     7.0710     6.3240     6.5830   344.3770   -31.2330     8.7890   117.8460   406.5680     0.0110     2.4870
 1078.0000     7.1050     6.3290     6.5560   344.5900   -31.1850     8.7870   119.5400   406.6450     0.0060     2.4920
 1078.5000     7.1400     6.3380     6.5300   344.8020   -31.1370     8.7850   122.3730   406.7220     0.0010     2.4980
 1079.0000     7.1750     6.3460     6.5030   345.0150   -31.0890     8.7840   124.0030   406.7990    -0.0030     2.5050
 1079.5000     7.2100     6.3540     6.4760   345.2270   -31.0420     8.7820   122.1380   406.8760    -0.0020     2.5130
 1080.0000     7.1630     6.3630     6.4440   345.4400   -30.9890     8.7800   119.4210   406.9530    -0.0010     2.5190
 1080.5000     7.1150     6.3710     6.4440   345.6520   -31.0000     8.7790   116.9520   407.0300     0.0000     2.5220
 1081.0000     7.0680     6.3790     6.4440   345.8650   -31.0650     8.7770   113.8970   407.1070     0.0010     2.5140
 1081.5000     7.0210     6.3880     6.3900   346.0780   -31.1230     8.7750   113.9460   407.1840     0.0020     2.5040
 1082.0000     6.9740     6.3960     6.3220   346.2900   -31.1830     8.7730   117.2260   407.2610     0.0030     2.4970
 1082.5000     6.9450     6.4040     6.2540   346.5030   -31.2420     8.7720   123.8300   407.3380     0.0020     2.4920
 1083.0000     7.0760     6.4120     6.1860   346.7150   -31.3000     8.7700   128.2870   407.4140     0.0010     2.4880
 1083.5000     7.1500     6.4200     6.0920   346.9280   -31.3630     8.7680   126.8450   407.4910    -0.0010     2.4870
 1084.0000     7.2110     6.4290     6.1000   347.1400   -31.3430     8.7670   124.1020   407.5680     0.0030     2.4880
 1084.5000     7.2730     6.4380     6.1140   347.3530   -31.2320     8.7650   121.0410   407.6450     0.0070     2.5000
 1085.0000     7.3460     6.4460     6.1280   347.5650   -31.1250     8.7630   119.3040   407.7220     0.0120     2.5100
 1085.5000     7.3460     6.4860     6.1410   347.7780   -31.0170     8.7610   118.3410   407.7990     0.0170     2.5140
