~VERSION INFORMATION
 VERS.                2.0:   CWLS LOG ASCII STANDARD - VERSION 2.0
 WRAP.                 NO:   ONE LINE PER DEPTH STEP
~WELL INFORMATION
#MNEM.UNIT      DATA TYPE    INFORMATION
#----------   ------------   ------------------------------
 STRT.F          200.0000:   START DEPTH
 STOP.F         3078.0000:   STOP DEPTH
 STEP.F            0.5000:   STEP LENGTH
 NULL.          -999.2500:   NO VALUE
 COMP.   FENIX & SCISSION:   COMPANY
 WELL. FENIX NPR 72 "A" #3-28:   WELL
 FLD .              NPR-3:   FIELD
 LOC .      S28 T39N R78W:   LOCATION
 CNTY.            NATRONA:   COUNTY
 STAT.            WYOMING:   STATE
 CTRY. UNITED STATES OF AMERICA:   COUNTRY
 SRVC.              WELEX:   SERVICE COMPANY
 DATE.        06-JUN-1977:   LOGDATE
 API .     49025103770000:   API NUMBER
~CURVE INFORMATION
#MNEM.UNIT       API CODE    CURVE DESCRIPTION
#----------   ------------   ------------------------------
 DEPT.F                  :   
 CORR.G/C3   45 356 01 00:   DENSITY CORRECTION
 RHOB.G/C3   45 350 01 00:   BULK DENSITY
 CALD.IN     45 280 60 00:   CALIPER FROM DENSITY LOG
 SPR .MV     07 010 01 00:   SPONTANEOUS POTENTIAL
 GURD.OHMM   07 220 05 00:   GUARD LOG RESISTIVITY
 ILM .OHMM   07 120 44 00:   INDUCTION LOG MEDIUM RESISTIVITY
 ILD .OHMM   07 120 46 00:   DEEP INDUCTION RESISTIVITY
 GRD .GAPI   45 310 01 00:   GAMMA RAY FROM DENSITY LOG
~PARAMETER INFORMATION
#MNEM.UNIT          VALUE    DESCRIPTION
#----------   ------------   ------------------------------
 EKB .F         5022.0000:   Kelly bushing
 EGL .F         5011.0000:   Ground level
 EDF .F            0.0000:   Drilling floor
 EPD .F         5011.0000:   Permanent datum
 TD  .F         3081.0000:   Total depth
 DATE.        06-JUN-1977:   Date logged
 CLNT.            A2DTECH:   Client Code
 SL  . 990' FNL & 990' FEL:   Surface Location
 PD  .                 GL:   Permanent Datum
 DAPD.F                11:   Feet Above Permanent Datum
 DD  .F              3041:   Depth driller
 DL  .F              3081:   Depth logger
 BLI .F              3079:   Bottom log interval
 TLI .F               200:   Top log interval
 CS1 .IN            8.625:   Casing size
 CBD1.      8.625" @ 200':   Casing driller 1
 CBL1.F               218:   Casing logger 1
 BS1 .IN            7.875:   Bit size
 BSD1.F              3041:   Depth drilled with bit1
 DFT .            KCL MUD:   Type fluid in hole
 DFD .                8.8:   Density
 DFV .                 38:   Viscosity
 DFPH.                7.5:   pH
 DFL .                5.8:   Fluid loss
 MSS .           FLOWLINE:   Source of sample
 RMS .OHMM           1.19:   Rm
 MST .F                89:   Rm Meas. temp.
 RMF .OHMM           1.05:   Rmf
 MFST.F                89:   Rmf Meas. temp.
 RMC .OHMM           2.17:   Rmc
 MCST.F                89:   Rmc Meas. temp.
 MFSS.               FANN:   Source Rmf.
 MCSS.                KIT:   Source Rmc.
 RMB .OHMM           0.98:   Rm. at BHT
 BHT .F               108:   BHT.
 TCS .HRS             2.5:   Time Circ. stopped
 MRT .F               108:   Maximum recorded temp.
 LUN .               8611:   Logging unit number
 LUL .             CASPER:   Logging unit location
 ENGI.          T. JOYNER:   Recorded By
 WITN.      W. PETTINGILL:   Witnessed by
 ORIG.           5" PRINT:   Origin of data
 UWI .     49025103770000:   Unique Well ID
 DICO. A2D TECHNOLOGIES, INC.:   Digitizing Company
~OTHER INFORMATION
~A   DEPT     CORR       RHOB         CALD      SPR       GURD        ILM        ILD         GRD  
# ...
 2670.5000     0.0210     2.4840     7.8870   -44.9860    10.7180     9.8220     9.3010   108.0850
 2671.0000     0.0220     2.4880     7.8800   -44.9700    10.7320     9.8500     9.3230   109.1200
 2671.5000     0.0230     2.4880     7.8560   -44.9540    10.7320     9.8790     9.3530   109.7230
 2672.0000     0.0210     2.4810     7.8320   -44.9380    10.8630     9.7030     9.2680   109.1120
 2672.5000     0.0170     2.4740     7.8090   -44.9220    11.0310     9.8120     9.3310   108.5360
 2673.0000     0.0140     2.4680     7.7850   -44.9050    10.9460    10.1580     9.4230   107.9730
 2673.5000     0.0190     2.4720     7.7640   -44.8890    10.7320    10.1210     9.5160   107.4050
 2674.0000     0.0230     2.4780     7.7500   -44.8730    10.7720    10.0440     9.4380   108.4280
 2674.5000     0.0270     2.4840     7.7350   -44.8570    10.8310     9.9680     9.3380   111.0330
 2675.0000     0.0300     2.4900     7.7190   -44.8410    10.8900     9.8910     9.2570   113.5410
 2675.5000     0.0320     2.4920     7.7060   -44.8250    10.9890     9.8150     9.2180   116.8640
 2676.0000     0.0330     2.4870     7.7730   -44.8090    10.5850     9.6850     9.1800   119.7190
 2676.5000     0.0330     2.4820     7.8470   -44.7610    10.1810     9.5340     9.1410   118.7120
 2677.0000     0.0330     2.4760     7.8970   -44.7020     9.9410     9.3830     9.1000   117.2540
 2677.5000     0.0330     2.4770     7.8790   -44.6420     9.6990     9.2320     8.8110   115.7860
 2678.0000     0.0330     2.4780     7.8620   -44.5830     9.4390     9.0540     8.4920   114.2620
 2678.5000     0.0330     2.4770     7.8450   -44.5230     9.3340     8.6880     8.1500   114.4960
 2679.0000     0.0340     2.4740     7.8270   -44.4630     9.2210     8.3210     7.8090   114.9830
 2679.5000     0.0350     2.4710     7.8230   -44.4260     9.1000     7.9550     7.4670   116.8860
 2680.0000     0.0360     2.4680     7.8230   -44.5270     8.3440     7.6100     7.1050   119.0040
 2680.5000     0.0360     2.4700     7.8220   -44.6290     7.5370     7.2740     6.8690   121.2100
 2681.0000     0.0370     2.4730     7.8160   -44.7310     7.1600     6.9380     6.6190   122.2820
 2681.5000     0.0390     2.4760     7.7900   -44.8330     7.1420     6.7770     6.3680   123.3760
 2682.0000     0.0410     2.4740     7.7640   -44.9350     7.1240     6.7480     6.2930   123.1330
 2682.5000     0.0430     2.4710     7.7390   -45.0370     7.1050     6.7240     6.2680   122.0980
 2683.0000     0.0380     2.4690     7.7120   -45.1380     7.1470     6.7240     6.2430   121.0480
 2683.5000     0.0330     2.4660     7.7310   -45.2400     7.1910     6.7240     6.2180   120.1870
 2684.0000     0.0290     2.4690     7.7670   -45.3420     7.2360     6.7240     6.1920   121.5110
 2684.5000     0.0290     2.4720     7.8030   -45.4440     7.1620     6.6990     6.2070   122.8160
 2685.0000     0.0280     2.4750     7.8410   -45.5460     7.0870     6.6560     6.2220   124.1140
 2685.5000     0.0250     2.4740     7.8600   -45.5760     7.0290     6.6120     6.2370   125.1230
 2686.0000     0.0220     2.4740     7.8790   -45.5560     7.0010     6.5610     6.2490   122.6380
 2686.5000     0.0200     2.4730     7.9000   -45.5350     6.9730     6.5080     6.1620   120.2280
 2687.0000     0.0200     2.4720     7.9010   -45.5150     6.9450     6.4550     6.0890   118.5230
 2687.5000     0.0220     2.4760     7.9010   -45.4940     6.9180     6.4020     6.0160   119.0330
 2688.0000     0.0230     2.4810     7.9010   -45.4740     6.8790     6.3490     5.9210   119.4910
 2688.5000     0.0230     2.4870     7.9010   -45.4530     6.8380     6.3070     5.9520   119.1910
 2689.0000     0.0220     2.4880     7.9000   -45.4330     6.7970     6.3700     6.0130   118.1420
 2689.5000     0.0210     2.4860     7.9010   -45.4120     6.7560     6.4230     6.0740   117.0950
 2690.0000     0.0200     2.4870     7.9240   -45.3930     6.7240     6.4750     6.1350   116.0360
 2690.5000     0.0190     2.4890     7.9490   -45.4140     6.7240     6.5280     6.1960   114.9640
 2691.0000     0.0180     2.4860     7.9750   -45.4360     6.7240     6.5810     6.2570   113.8650
 2691.5000     0.0160     2.4840     7.9960   -45.4580     6.9640     6.6330     6.3180   113.3240
 2692.0000     0.0140     2.4820     7.9560   -45.4800     7.3450     6.7870     6.3710   113.1000
 2692.5000     0.0120     2.4830     7.9160   -45.5020     7.7260     7.0740     6.3980   114.9010
 2693.0000     0.0110     2.4840     7.8830   -45.5240     7.9010     7.3600     6.4250   116.6400
 2693.5000     0.0110     2.4850     7.9130   -45.5450     8.0040     7.5750     6.4520   118.3670
 2694.0000     0.0100     2.4830     7.9430   -45.5660     7.5750     6.9120     6.4810   120.0960
 2694.5000     0.0100     2.4790     7.9720   -45.5970     7.6210     6.9850     6.4680   121.7340
 2695.0000     0.0090     2.4750     7.9970   -45.8460     7.7160     7.0540     6.4500   123.2560
 2695.5000     0.0090     2.4740     7.9580   -46.0950     7.5330     7.1050     6.4330   124.7580
 2696.0000     0.0090     2.4740     7.9140   -46.3390     7.1370     6.7700     6.3150   126.2670
 2696.5000     0.0090     2.4710     7.8700   -46.4240     6.7140     6.5040     6.0830   127.8040
 2697.0000     0.0090     2.4680     7.8260   -46.4990     6.2140     6.2820     5.9150   128.0170
 2697.5000     0.0090     2.4650     7.8210   -46.5710     5.7540     6.1070     5.9530   129.0060
 2698.0000     0.0090     2.4650     7.8550   -46.6440     5.5290     5.9320     6.0340   130.9920
 2698.5000     0.0100     2.4670     7.8890   -46.7150     5.4670     5.8070     6.1700   133.0660
 2699.0000     0.0100     2.4680     7.9200   -46.7850     5.4050     5.8250     6.3060   132.1380
 2699.5000     0.0110     2.4650     7.9250   -46.8550     5.3420     5.8390     6.4820   130.6980
 2700.0000     0.0110     2.4630     7.9300   -46.9240     5.2930     5.8610     6.4350   129.2560
 2700.5000     0.0110     2.4620     7.9350   -46.8440     5.2720     5.7510     6.3680   127.8280
 2701.0000     0.0110     2.4650     7.9390   -46.6150     5.2500     5.5980     6.3070   126.8310
 2701.5000     0.0110     2.4670     7.9400   -46.3860     5.4830     5.9240     6.3830   127.0690
 2702.0000     0.0110     2.4700     7.9400   -46.1560     5.7430     6.1740     6.4520   127.0030
 2702.5000     0.0110     2.4720     7.9400   -45.9270     6.0020     6.2710     6.5210   125.2080
 2703.0000     0.0100     2.4740     7.9400   -45.6970     6.1010     6.3070     6.6610   123.3710
 2703.5000     0.0080     2.4760     7.9360   -45.5790     6.1360     7.0820     6.8490   118.9820
 2704.0000     0.0070     2.4760     7.9330   -45.5600     9.2250     7.9430     7.4960   113.6670
 2704.5000     0.0060     2.4750     7.9290   -45.5400    12.3140     8.8040     8.2160   108.7780
 2705.0000     0.0050     2.4760     7.9260   -45.5210    13.1300     9.6660     8.9350   108.3500
 2705.5000     0.0040     2.4770     7.9220   -45.5030    13.1300    10.4410     9.6540   109.0310
 2706.0000     0.0040     2.4780     7.9190   -45.4840    11.9800    11.1180    10.2390   109.6970
 2706.5000     0.0050     2.4780     7.9160   -45.4650    12.1550    11.5490    10.5370   110.3570
 2707.0000     0.0070     2.4760     7.9130   -45.4460    12.5420    11.1540    10.4630   111.0170
 2707.5000     0.0080     2.4750     7.9100   -45.4270    12.2860    10.8310    10.3460   111.6750
 2708.0000     0.0090     2.4780     7.9060   -45.4080    11.9410    10.9820    10.3460   112.3300
 2708.5000     0.0090     2.4800     7.9030   -45.3960    11.5700    11.1330    10.3460   112.0170
 2709.0000     0.0090     2.4820     7.9010   -45.4210    11.1330    10.7980    10.1590   110.3210
 2709.5000     0.0080     2.4800     7.9030   -45.4460    11.2200    10.4930     9.8930   108.6930
 2710.0000     0.0080     2.4780     7.9060   -45.4700    11.3440    10.1580     9.6260   107.3650
 2710.5000     0.0080     2.4730     7.9090   -45.4950    11.4680    10.3710     9.4390   109.3110
