~VERSION INFORMATION
 VERS.                2.0:   CWLS LOG ASCII STANDARD - VERSION 2.0
 WRAP.                 NO:   ONE LINE PER DEPTH STEP
~WELL INFORMATION
#MNEM.UNIT      DATA TYPE    INFORMATION
#----------   ------------   ------------------------------
 STRT.F          218.5000:   START DEPTH
 STOP.F         3291.0000:   STOP DEPTH
 STEP.F            0.5000:   STEP LENGTH
 NULL.          -999.2500:   NO VALUE
 COMP.    FENIX & SCISSON:   COMPANY
 WELL.   FENIX SHX #63-23:   WELL
 FLD .  TEAPOT DOME NPR-3:   FIELD
 LOC .      S23 T38N R78W:   LOCATION
 CNTY.            NATRONA:   COUNTY
 STAT.            WYOMING:   STATE
 CTRY. UNITED STATES OF AMERICA:   COUNTRY
 SRVC.           BIRDWELL:   SERVICE COMPANY
 DATE.        08-JUL-1978:   LOGDATE
 API .     49025106600000:   API NUMBER
~CURVE INFORMATION
#MNEM.UNIT       API CODE    CURVE DESCRIPTION
#----------   ------------   ------------------------------
 DEPT.F                  :   
 GRD .GAPI   45 310 01 00:   GAMMA RAY FROM DENSITY LOG
 CALD.IN     45 280 60 00:   CALIPER FROM DENSITY LOG
 CORR.G/C3   45 356 01 00:   DENSITY CORRECTION
 RHOB.G/C3   45 350 01 00:   BULK DENSITY
 GR  .GAPI   35 310 01 00:   GAMMA RAY
 NEUT.NAPI   35 330 01 00:   NEUTRON
~PARAMETER INFORMATION
#MNEM.UNIT          VALUE    DESCRIPTION
#----------   ------------   ------------------------------
 EKB .F         5368.0000:   Kelly bushing
 EGL .F         5358.0000:   Ground level
 TD  .F         3299.0000:   Total depth
 CLNT.            A2DTECH:   Client Code
 PD  .                 GL:   Permanent Datum
 EPD .F              5358:   Elevation Permanent Datum
 LMF .                 KB:   Log Measured From
 DMF .                 KB:   Drilling Measured From
 DAPD.F                10:   Feet Above Permanent Datum
 DATE.        08-JUL-1978:   Date Logged [DD-MMM-YYYY]
 DD  .F              3299:   Depth driller
 DL  .F              3291:   Depth logger
 BLI .F              3291:   Bottom log interval
 TLI .F              1430:   Top log interval
 CS1 .IN            9.625:   Casing size
 CBD1.     9.625" @ 1450':   Casing driller 1
 CBL1.F              1442:   Casing logger 1
 BS1 .IN            8.750:   Bit size
 BSD1.F              3299:   Depth drilled with bit1
 DFT .          KCL WATER:   Type fluid in hole
 BHT .F               118:   BHT.
 TCS .HRS               2:   Time Circ. stopped
 MRT .F               118:   Maximum recorded temp.
 LUN .               2958:   Logging unit number
 LUL .               CASP:   Logging unit location
 ENGI.             MILLER:   Recorded By
 WITN.           MCGINLEY:   Witnessed by
 ORIG.           5" PRINT:   Origin of data
 UWI .     49025106600000:   Unique Well ID
 DICO. A2D TECHNOLOGIES, INC.:   Digitizing Company
 SL  . 1800' FNL & 1825' FEL:   Surface Location
~OTHER INFORMATION
~A   DEPT      GRD       CALD       CORR       RHOB          GR      NEUT   
# ...
 2506.5000    82.4929     9.2999     0.0736     2.5923  -999.2500  -999.2500
 2507.0000    82.5109     9.3150     0.0721     2.5900  -999.2500  -999.2500
 2507.5000    83.1159     9.3449     0.0751     2.5885  -999.2500  -999.2500
 2508.0000    84.3281     9.3748     0.0812     2.5915  -999.2500  -999.2500
 2508.5000    85.0850     9.4193     0.0829     2.5938  -999.2500  -999.2500
 2509.0000    85.5514     9.4638     0.0874     2.5976  -999.2500  -999.2500
 2509.5000    85.8391     9.5084     0.0905     2.6044  -999.2500  -999.2500
 2510.0000    85.7954     9.4941     0.0905     2.6098  -999.2500  -999.2500
 2510.5000    86.1365     9.4946     0.0920     2.5991  -999.2500  -999.2500
 2511.0000    86.4376     9.5097     0.0936     2.5944  -999.2500  -999.2500
 2511.5000    87.0481     9.5249     0.0936     2.5960  -999.2500  -999.2500
 2512.0000    87.9508     9.5565     0.0952     2.5921  -999.2500  -999.2500
 2512.5000    89.1637     9.6435     0.0997     2.5860  -999.2500  -999.2500
 2513.0000    90.3766     9.7321     0.0998     2.5913  -999.2500  -999.2500
 2513.5000    90.6784     9.7472     0.1013     2.5952  -999.2500  -999.2500
 2514.0000    88.6991     9.7035     0.0998     2.5791  -999.2500  -999.2500
 2514.5000    86.8717     9.6746     0.0953     2.5882  -999.2500  -999.2500
 2515.0000    86.1090     9.6604     0.0928     2.5928  -999.2500  -999.2500
 2515.5000    85.4989     9.6608     0.0893     2.5821  -999.2500  -999.2500
 2516.0000    88.5348     9.6612     0.0894     2.5790  -999.2500  -999.2500
 2516.5000    89.4437     9.6469     0.1000     2.5889  -999.2500  -999.2500
 2517.0000    90.0866     9.6621     0.1137     2.5981  -999.2500  -999.2500
 2517.5000    90.9569     9.6920     0.1244     2.6065  -999.2500  -999.2500
 2518.0000    91.5620     9.7218     0.1305     2.5927  -999.2500  -999.2500
 2518.5000    93.0788     9.7663     0.1367     2.5881  -999.2500  -999.2500
 2519.0000    97.0273     9.8272     0.1442     2.5866  -999.2500  -999.2500
 2519.5000    98.2516     9.9143     0.1488     2.5927  -999.2500  -999.2500
 2520.0000    94.5891    10.0324     0.1549     2.5988  -999.2500  -999.2500
 2520.5000    91.5467    10.1063     0.1580     2.6018  -999.2500  -999.2500
 2521.0000    89.4162    10.0921     0.1610     2.5995  -999.2500  -999.2500
 2521.5000    88.8061     9.8867     0.1580     2.5880  -999.2500  -999.2500
 2522.0000    92.9139     9.9018     0.1413     2.5643  -999.2500  -999.2500
 2522.5000    93.5101     9.9317     0.1049     2.5681  -999.2500  -999.2500
 2523.0000    93.8111     9.9174     0.1125     2.5788  -999.2500  -999.2500
 2523.5000    93.9609     9.6948     0.1278     2.5865  -999.2500  -999.2500
 2524.0000    94.2620     9.9183     0.1232     2.5933  -999.2500  -999.2500
 2524.5000    94.5623     9.8746     0.1172     2.5795  -999.2500  -999.2500
 2525.0000    94.2547     9.8014     0.1127     2.5650  -999.2500  -999.2500
 2525.5000    93.3400     9.8166     0.1097     2.5481  -999.2500  -999.2500
 2526.0000    92.2732     9.8465     0.1098     2.5607  -999.2500  -999.2500
 2526.5000    91.8144     9.8764     0.1203     2.5840  -999.2500  -999.2500
 2527.0000    91.8115     9.9356     0.1538     2.6047  -999.2500  -999.2500
 2527.5000    92.1302     9.9655     0.1614     2.6138  -999.2500  -999.2500
 2528.0000    94.5405     9.9218     0.1614     2.6314  -999.2500  -999.2500
 2528.5000    97.7291     9.8194     0.1423     2.6269  -999.2500  -999.2500
 2529.0000    98.7908     9.8050     0.1190     2.6077  -999.2500  -999.2500
 2529.5000    96.5075     9.7907     0.1175     2.6069  -999.2500  -999.2500
 2530.0000    95.2785     9.7618     0.1175     2.6076  -999.2500  -999.2500
 2530.5000    94.6773     9.7034     0.1160     2.6061  -999.2500  -999.2500
 2531.0000    94.6744     9.7627     0.1145     2.6015  -999.2500  -999.2500
 2531.5000    94.8242     9.7926     0.1131     2.6022  -999.2500  -999.2500
 2532.0000    94.8205     9.7489     0.1116     2.6045  -999.2500  -999.2500
 2532.5000    94.8176     9.7052     0.1086     2.5969  -999.2500  -999.2500
 2533.0000    94.6620     9.6468     0.1010     2.5923  -999.2500  -999.2500
 2533.5000    94.5072     9.6178     0.0931     2.5876  -999.2500  -999.2500
 2534.0000    93.2885     9.6183     0.0798     2.5846  -999.2500  -999.2500
 2534.5000    92.8296     9.6187     0.0768     2.5968  -999.2500  -999.2500
 2535.0000    94.0425     9.6485     0.0738     2.5876  -999.2500  -999.2500
 2535.5000    96.7987     9.6805     0.0738     2.5891  -999.2500  -999.2500
 2536.0000    96.7716     9.7377     0.0770     2.5929  -999.2500  -999.2500
 2536.5000    96.3127     9.6205     0.0860     2.5860  -999.2500  -999.2500
 2537.0000    94.4861     9.5621     0.0906     2.5830  -999.2500  -999.2500
 2537.5000    91.2917     9.5478     0.0937     2.5814  -999.2500  -999.2500
 2538.0000    88.6405     9.5483     0.1013     2.5783  -999.2500  -999.2500
 2538.5000    86.8779     9.5339     0.1075     2.5808  -999.2500  -999.2500
 2539.0000    86.1151     9.5196     0.1150     2.5997  -999.2500  -999.2500
 2539.5000    85.3523     9.4760     0.1287     2.6150  -999.2500  -999.2500
 2540.0000    89.7567     9.4314     0.1379     2.6158  -999.2500  -999.2500
 2540.5000    92.0508     9.3740     0.1379     2.6020  -999.2500  -999.2500
 2541.0000    93.3976     9.3597     0.1257     2.5950  -999.2500  -999.2500
 2541.5000    94.1546     9.3602     0.1137     2.5920  -999.2500  -999.2500
 2542.0000    94.4564     9.3753     0.1091     2.5889  -999.2500  -999.2500
 2542.5000    94.4528     9.3777     0.1122     2.5859  -999.2500  -999.2500
 2543.0000    95.0587     9.3910     0.1138     2.5935  -999.2500  -999.2500
 2543.5000    96.7259     9.4061     0.1168     2.5982  -999.2500  -999.2500
 2544.0000    98.5467     9.3917     0.1153     2.6042  -999.2500  -999.2500
 2544.5000    99.1517     9.3775     0.1047     2.5973  -999.2500  -999.2500
 2545.0000   100.2126     9.3632     0.1002     2.5919  -999.2500  -999.2500
 2545.5000   101.4255     9.3637     0.0972     2.5988  -999.2500  -999.2500
 2546.0000   101.7266     9.3789     0.0941     2.5894  -999.2500  -999.2500
 2546.5000   101.1150     9.4234     0.0927     2.5957  -999.2500  -999.2500
 2547.0000   101.1121     9.4540     0.0958     2.6056  -999.2500  -999.2500
 2547.5000   100.0454     9.5051     0.0988     2.6002  -999.2500  -999.2500
 2548.0000    97.4589     9.5415     0.1080     2.5887  -999.2500  -999.2500
 2548.5000    94.8284     9.4601     0.1171     2.5872  -999.2500  -999.2500
 2549.0000    94.1089     9.4244     0.1020     2.5948  -999.2500  -999.2500
 2549.5000    94.4107     9.3887     0.1005     2.6009  -999.2500  -999.2500
 2550.0000    94.8821     9.4265     0.1054     2.6040  -999.2500  -999.2500
 2550.5000    95.1253     9.5362     0.1072     2.6098  -999.2500  -999.2500
 2551.0000    95.8493     9.6035     0.1081     2.6112  -999.2500  -999.2500
 2551.5000    96.2756     9.6134     0.1056     2.6023  -999.2500  -999.2500
 2552.0000    96.8325     9.4438     0.0966     2.5905  -999.2500  -999.2500
 2552.5000    97.2615     9.4081     0.0764     2.5823  -999.2500  -999.2500
 2553.0000    97.8245     9.4002     0.0728     2.5837  -999.2500  -999.2500
 2553.5000    97.7887     9.4102     0.0781     2.5805  -999.2500  -999.2500
 2554.0000    97.1359     9.4186     0.0862     2.5725  -999.2500  -999.2500
 2554.5000    96.7961     9.4270     0.0732     2.5673  -999.2500  -999.2500
 2555.0000    96.6082     9.4191     0.0768     2.5650  -999.2500  -999.2500
 2555.5000    96.7249     9.4112     0.0821     2.5672  -999.2500  -999.2500
 2556.0000    96.9835     9.4049     0.0874     2.5687  -999.2500  -999.2500
 2556.5000    97.5555     9.3986     0.0972     2.5781  -999.2500  -999.2500
 2557.0000    98.5835     9.3923     0.1025     2.6046  -999.2500  -999.2500
 2557.5000   101.8910     9.3860     0.1091     2.6260  -999.2500  -999.2500
 2558.0000   103.2401     9.4811     0.0840     2.5794  -999.2500  -999.2500
