~VERSION INFORMATION
 VERS.                2.0:   CWLS LOG ASCII STANDARD - VERSION 2.0
 WRAP.                 NO:   ONE LINE PER DEPTH STEP
~WELL INFORMATION
#MNEM.UNIT      DATA TYPE    INFORMATION
#----------   ------------   ------------------------------
 STRT.F          218.0000:   START DEPTH
 STOP.F         2860.0000:   STOP DEPTH
 STEP.F            0.5000:   STEP LENGTH
 NULL.          -999.2500:   NO VALUE
 COMP.    FENIX & SCISSON:   COMPANY
 WELL.  FENIX "AX" #76-20:   WELL
 FLD . TEAPOT DOME NPR -3:   FIELD
 LOC .      S20 T39N R78W:   LOCATION
 CNTY.            NATRONA:   COUNTY
 STAT.            WYOMING:   STATE
 CTRY. UNITED STATES OF AMERICA:   COUNTRY
 SRVC.           BIRDWELL:   SERVICE COMPANY
 DATE.        21-AUG-1978:   LOGDATE
 API .     49025106920000:   API NUMBER
~CURVE INFORMATION
#MNEM.UNIT       API CODE    CURVE DESCRIPTION
#----------   ------------   ------------------------------
 DEPT.F                  :   
 SPR .MV     05 010 01 00:   SPONTANEOUS POTENTIAL FROM RES.
 ILD .OHMM   05 120 46 00:   INDUCTION LOG DEEP
 SN  .OHMM   05 040 16 00:   SHORT NORMAL 16"
 RHOB.G/C3   45 350 01 00:   BULK DENSITY
 CALD.IN     45 280 60 00:   CALIPER FROM DENSITY LOG
 DCOR.G/C3   45 356 01 00:   DENSITY CORRECTION
 GRD .GAPI   45 310 01 00:   GAMMA RAY FROM DENSITY LOG
~PARAMETER INFORMATION
#MNEM.UNIT          VALUE    DESCRIPTION
#----------   ------------   ------------------------------
 EKB .F         5062.0000:   Kelly bushing
 EGL .F         5052.0000:   Ground level
 EDF .F            0.0000:   Drilling floor
 EPD .F            0.0000:   Permanent datum
 TD  .F         2854.0000:   Total depth
 DATE.        21-AUG-1978:   Date logged
 CLNT.            A2DTECH:   Client Code
 SL  . 1500' FNL & 1200' FEL:   Surface Location
 PD  .                 GL:   Permanent Datum
 DD  .F              2850:   Depth driller
 DL  .F              2854:   Depth logger
 BLI .F              2848:   Bottom log interval
 CS1 .IN            8.625:   Casing size
 CBD1.      8.625" @ 200':   Casing driller 1
 CBL1.F               235:   Casing logger 1
 BS1 .IN            7.875:   Bit size
 DFT .                KCL:   Type fluid in hole
 DFD .                9.2:   Density
 DFV .                 30:   Viscosity
 DFL .                8.4:   Fluid loss
 MSS .           FLOWLINE:   Source of sample
 RMS .OHMM            1.2:   Rm
 MST .F                86:   Rm Meas. temp.
 RMF .OHMM            0.8:   Rmf
 MFST.F                68:   Rmf Meas. temp.
 RMC .OHMM            1.6:   Rmc
 MCST.F                70:   Rmc Meas. temp.
 MFSS.              PRESS:   Source Rmf.
 BHT .F               102:   BHT.
 TCS .HRS               3:   Time Circ. stopped
 MRT .F               102:   Maximum recorded temp.
 LUN .               2968:   Logging unit number
 LUL .             CASPER:   Logging unit location
 ENGI.           REYNOLDS:   Recorded By
 ORIG.           5" PRINT:   Origin of data
 UWI .     49025106920000:   Unique Well ID
 DICO. A2D TECHNOLOGIES, INC.:   Digitizing Company
 DAPD.                 12:   Feet Above Permanent Datum
 BSD1.               2850:   Depth drilled with bit1
 MCSS.               MEAS:   Source Rmc.
 TLI .                230:   Top log interval
~OTHER INFORMATION
~A   DEPT      SPR        ILD         SN       RHOB       CALD       DCOR          GRD 
# ...
 2129.0000   -71.6890     4.3160     4.7110     2.5150     8.8510     0.1890   117.0800
 2129.5000   -71.7610     4.2680     4.6420     2.5290     8.8590     0.1750   109.5450
 2130.0000   -71.7870     4.2090     4.5720     2.5420     8.8670     0.1610   102.0800
 2130.5000   -71.7660     4.1500     4.5020     2.5440     8.8750     0.1580    95.6860
 2131.0000   -71.7420     4.0900     4.4320     2.5450     8.8820     0.1600    94.7010
 2131.5000   -71.7170     4.0310     4.3620     2.5460     8.8900     0.1610    97.2940
 2132.0000   -71.6920     4.0040     4.3160     2.5330     8.8980     0.1670   102.6100
 2132.5000   -71.6670     4.1480     4.4390     2.5180     8.9060     0.1780   107.7000
 2133.0000   -71.6420     4.2560     4.5320     2.5030     8.9090     0.1900   110.2540
 2133.5000   -71.6180     4.3640     4.6250     2.5000     8.8980     0.1830   113.1430
 2134.0000   -71.5920     4.4080     4.7170     2.5430     8.8790     0.1760   115.3330
 2134.5000   -71.5850     4.4240     4.7850     2.5330     8.8600     0.1680   111.8490
 2135.0000   -71.6390     4.4390     4.6960     2.5320     8.8410     0.1670   107.6980
 2135.5000   -71.7080     4.4550     4.7190     2.5330     8.8220     0.1710   105.6970
 2136.0000   -71.7780     4.4700     4.7410     2.5290     8.8030     0.1780   103.5170
 2136.5000   -71.8480     4.4860     4.7630     2.5130     8.7830     0.1940   101.4790
 2137.0000   -71.9180     4.5010     4.7850     2.4990     8.7640     0.2050   101.1100
 2137.5000   -71.9880     4.5170     4.8070     2.5050     8.7450     0.2050   100.4910
 2138.0000   -72.0580     4.5460     4.8300     2.5430     8.7280     0.2040    89.5910
 2138.5000   -72.1280     4.6040     4.9040     2.5500     8.7280     0.2030    93.3140
 2139.0000   -72.1980     4.6870     4.9680     2.5480     8.7270     0.2010    98.8510
 2139.5000   -72.2670     4.9000     5.1540     2.5460     8.7140     0.1860   104.6580
 2140.0000   -72.3330     5.1130     5.5480     2.5520     8.7010     0.1700   109.3070
 2140.5000   -72.3930     5.2550     5.9410     2.5570     8.6880     0.1580   106.9090
 2141.0000   -72.1690     5.2550     6.1060     2.5630     8.6760     0.1550   105.8170
 2141.5000   -72.1850     5.2550     6.1640     2.5690     8.6630     0.1510   105.3720
 2142.0000   -72.1890     5.2550     6.1750     2.5730     8.6500     0.1390   100.5630
 2142.5000   -72.1890     5.2660     6.1870     2.5600     8.6370     0.1530    99.8310
 2143.0000   -72.1890     5.3050     6.1990     2.5460     8.6270     0.1720    95.8730
 2143.5000   -72.1890     5.3440     6.2110     2.5400     8.6270     0.1740    89.2300
 2144.0000   -72.1890     5.3830     6.2240     2.5580     8.6280     0.1770    89.8130
 2144.5000   -72.1890     5.4220     6.2360     2.5860     8.6310     0.1800    89.2860
 2145.0000   -72.1890     5.4610     6.2480     2.5870     8.6340     0.1820    87.3020
 2145.5000   -72.1890     5.5000     6.2610     2.5860     8.6380     0.1850    89.5500
 2146.0000   -72.1890     5.5070     6.2730     2.5890     8.6410     0.1850    92.4000
 2146.5000   -72.1890     5.3110     6.2800     2.5940     8.6440     0.1810    93.9540
 2147.0000   -72.1900     5.1090     6.2800     2.5990     8.6470     0.1770    92.9110
 2147.5000   -72.1850     5.1570     6.2050     2.6040     8.6510     0.1730    91.9100
 2148.0000   -71.9850     5.1570     6.0730     2.6010     8.6540     0.1700    91.0720
 2148.5000   -71.9850     5.1570     5.9410     2.5980     8.6570     0.1730    90.9450
 2149.0000   -71.9680     5.0920     5.8090     2.5970     8.6610     0.1750    91.2340
 2149.5000   -72.1910     5.0230     5.7720     2.5960     8.6640     0.1770    91.6130
 2150.0000   -72.2180     4.9530     5.8260     2.5860     8.6670     0.1800    92.8610
 2150.5000   -72.2580     4.8840     5.8810     2.5760     8.6700     0.1850   101.7490
 2151.0000   -72.2950     4.8750     5.8810     2.5650     8.6740     0.1850   110.2570
 2151.5000   -72.3320     4.8750     5.8810     2.5630     8.6770     0.1810   116.4490
 2152.0000   -72.3670     4.9630     5.7380     2.5770     8.6800     0.1790   113.2330
 2152.5000   -72.3790     5.1090     5.6010     2.5840     8.6840     0.1760   110.2850
 2153.0000   -72.2280     5.1330     5.4050     2.5870     8.6870     0.1730   109.0100
 2153.5000   -72.0950     5.1570     5.5220     2.5980     8.6900     0.1700   112.4910
 2154.0000   -71.9450     5.4350     5.8400     2.6050     8.6930     0.1700   114.8470
 2154.5000   -71.7940     5.7250     6.1580     2.5870     8.6970     0.1690   119.4480
 2155.0000   -71.7990     6.0140     6.4760     2.5790     8.7000     0.1640   124.0560
 2155.5000   -71.8240     6.3040     6.7940     2.5800     8.7030     0.1550   127.7180
 2156.0000   -71.8480     6.2760     7.0130     2.5820     8.7070     0.1470   125.7760
 2156.5000   -71.8720     6.2700     7.0480     2.5840     8.7100     0.1380   115.9730
 2157.0000   -71.8960     6.2640     7.0710     2.5890     8.7130     0.1340   105.7850
 2157.5000   -71.9200     6.2570     7.0940     2.5970     8.7160     0.1300    97.0240
 2158.0000   -71.9440     6.2510     7.1170     2.6040     8.7200     0.1260    98.2780
 2158.5000   -71.9680     6.2450     7.1410     2.5880     8.7230     0.1230   100.2140
 2159.0000   -71.9890     6.2390     7.1640     2.5790     8.7260     0.1240   102.1300
 2159.5000   -71.9880     6.2330     7.1870     2.5790     8.7390     0.1260   103.3740
 2160.0000   -71.9880     6.2270     7.2100     2.5680     8.7520     0.1280   101.8630
 2160.5000   -71.9880     6.2200     7.2330     2.5520     8.7670     0.1510   100.2360
 2161.0000   -71.9880     6.2140     7.2560     2.5580     8.7920     0.1560    98.1840
 2161.5000   -71.9880     6.2080     7.2790     2.5650     8.8210     0.1590    93.3090
 2162.0000   -71.9880     6.2020     7.3220     2.5620     8.8340     0.1620    93.0500
 2162.5000   -71.9880     6.1960     7.3660     2.5570     8.8710     0.1690    93.1420
 2163.0000   -71.9880     6.1890     7.3350     2.5530     8.9100     0.1770    96.9510
 2163.5000   -71.9890     6.1830     7.3090     2.5490     8.9390     0.1850   101.5140
 2164.0000   -71.9840     6.1770     7.2840     2.5560     8.9490     0.1930   101.8260
 2164.5000   -71.9680     6.1710     7.2580     2.5710     8.9440     0.1900   102.0430
 2165.0000   -72.1910     6.1650     7.2320     2.5750     8.9390     0.1850   102.4800
 2165.5000   -72.1820     6.1590     7.2070     2.5730     8.9340     0.1930   104.3170
 2166.0000   -72.0110     6.1520     7.1810     2.5630     8.9290     0.1840    99.8510
 2166.5000   -71.8240     6.1460     7.1610     2.5540     8.9240     0.1970    94.5990
 2167.0000   -71.6380     6.1400     7.1610     2.5450     8.9190     0.1990    95.6550
 2167.5000   -71.4510     6.1340     7.3920     2.5420     8.9140     0.1950    96.7620
 2168.0000   -71.5430     6.1280     7.6470     2.5450     8.9090     0.1910    97.7210
 2168.5000   -71.7370     6.1210     7.6030     2.5500     8.9030     0.1900    97.5450
 2169.0000   -71.9050     6.1150     7.5250     2.5510     8.8980     0.1970    96.8900
 2169.5000   -72.0750     6.1060     7.4470     2.5340     8.8930     0.2040   101.3850
 2170.0000   -72.2450     6.1110     7.3690     2.5210     8.8920     0.2050    98.2180
 2170.5000   -72.3940     6.1220     7.2970     2.6080     8.9070     0.1740    92.7210
 2171.0000   -72.3900     6.1320     7.2970     2.5460     8.9220     0.1430    90.3280
 2171.5000   -72.3940     6.1430     7.4080     2.5990     8.9370     0.1400    97.1860
 2172.0000   -72.4290     6.1530     7.5370     2.5780     8.9520     0.1390   104.7540
 2172.5000   -72.4650     6.1640     7.6670     2.5450     8.9660     0.1380   101.9480
 2173.0000   -72.4990     6.1640     7.7190     2.5420     8.9810     0.1450    96.7460
 2173.5000   -72.5330     6.1000     7.6250     2.5390     8.9960     0.1520    91.4400
 2174.0000   -72.5750     6.0180     7.4610     2.5380     9.0110     0.1590    86.8930
