~VERSION INFORMATION
 VERS.                2.0:   CWLS LOG ASCII STANDARD - VERSION 2.0
 WRAP.                 NO:   ONE LINE PER DEPTH STEP
~WELL INFORMATION
#MNEM.UNIT      DATA TYPE    INFORMATION
#----------   ------------   ------------------------------
 STRT.F          640.0000:   START DEPTH
 STOP.F         2792.0000:   STOP DEPTH
 STEP.F            0.5000:   STEP LENGTH
 NULL.          -999.2500:   NO VALUE
 COMP.    FENIX & SCISSON:   COMPANY
 WELL.   FENIX SHX #41-11:   WELL
 FLD .        TEAPOT DOME:   FIELD
 LOC .      S11 T38N R78W:   LOCATION
 CNTY.            NATRONA:   COUNTY
 STAT.            WYOMING:   STATE
 CTRY. UNITED STATES OF AMERICA:   COUNTRY
 SRVC.           BIRDWELL:   SERVICE COMPANY
 DATE.        07-JUL-1979:   LOGDATE
 API .     49025107880000:   API NUMBER
~CURVE INFORMATION
#MNEM.UNIT       API CODE    CURVE DESCRIPTION
#----------   ------------   ------------------------------
 DEPT.F                  :   
 CALD.IN     45 280 60 00:   CALIPER FROM DENSITY LOG
 RHOB.G/C3   45 350 01 00:   BULK DENSITY
 CORR.G/C3   45 356 01 00:   DENSITY CORRECTION
 GRD .GAPI   45 310 01 00:   GAMMA RAY FROM DENSITY LOG
~PARAMETER INFORMATION
#MNEM.UNIT          VALUE    DESCRIPTION
#----------   ------------   ------------------------------
 EKB .F         5168.0000:   Kelly bushing
 EGL .F         5158.0000:   Ground level
 EDF .F            0.0000:   Drilling floor
 EPD .F            0.0000:   Permanent datum
 TD  .F         2801.0000:   Total depth
 DATE.        07-JUL-1979:   Date logged
 CLNT.            A2DTECH:   Client Code
 SL  . 95' FNL & 2414' FWL:   Surface Location
 PD  .                 GL:   Permanent Datum
 DAPD.F                10:   Feet Above Permanent Datum
 DD  .F              2801:   Depth driller
 DL  .F              2791:   Depth logger
 BLI .F              2790:   Bottom log interval
 TLI .F               640:   Top log interval
 CS1 .IN            9.625:   Casing size
 CBD1.      9.625" @ 909':   Casing driller 1
 CBL1.F               910:   Casing logger 1
 BS1 .IN             8.75:   Bit size
 BSD1.F              2801:   Depth drilled with bit1
 DFT .                AIR:   Type fluid in hole
 LUN .               2959:   Logging unit number
 LUL .             CASPER:   Logging unit location
 ENGI.         B. RULLINS:   Recorded By
 WITN.           GINSMORE:   Witnessed by
 ORIG.           5" PRINT:   Origin of data
 UWI .     49025107880000:   Unique Well ID
 DICO. A2D TECHNOLOGIES, INC.:   Digitizing Company
~OTHER INFORMATION
~A   DEPT     CALD       RHOB       CORR         GRD  
# ...
 1662.0000    10.3760     2.4960     0.0190   118.2990
 1662.5000    10.3380     2.5020     0.0220   116.7310
 1663.0000    10.3000     2.5080     0.0260   115.1700
 1663.5000    10.2620     2.5140     0.0270   115.1490
 1664.0000    10.2240     2.5190     0.0280   116.6170
 1664.5000    10.1860     2.5150     0.0280   119.8430
 1665.0000    10.1490     2.5100     0.0160   121.3150
 1665.5000    10.1100     2.5050     0.0100   121.2020
 1666.0000    10.0830     2.5000     0.0060   120.2760
 1666.5000    10.0580     2.4950     0.0020   119.3490
 1667.0000    10.0330     2.4910    -0.0020   118.4270
 1667.5000    10.0080     2.4900    -0.0020   117.5060
 1668.0000     9.9830     2.4960     0.0020   116.5840
 1668.5000     9.9640     2.5060     0.0050   115.6570
 1669.0000     9.9830     2.5070     0.0060   114.7210
 1669.5000    10.0010     2.5070     0.0050   114.2220
 1670.0000    10.0200     2.5060     0.0040   117.6930
 1670.5000    10.0380     2.5090     0.0020   119.7290
 1671.0000    10.0570     2.5160     0.0030   118.2150
 1671.5000    10.0750     2.5230     0.0070   115.9390
 1672.0000    10.0940     2.5300     0.0100   113.6280
 1672.5000    10.0970     2.5370     0.0140   113.8640
 1673.0000    10.0890     2.5410     0.0160   118.1540
 1673.5000    10.0800     2.5410     0.0120   122.5570
 1674.0000    10.0720     2.5240     0.0070   120.8740
 1674.5000    10.0630     2.5080     0.0020   119.2130
 1675.0000    10.0550     2.5120     0.0030   117.5520
 1675.5000    10.0460     2.5210     0.0030   115.9000
 1676.0000    10.0370     2.5210     0.0040   114.2260
 1676.5000    10.0290     2.5150     0.0060   113.4720
 1677.0000    10.0200     2.5090     0.0060   116.2870
 1677.5000    10.0120     2.5090     0.0060   119.7540
 1678.0000    10.0030     2.5090     0.0060   122.4930
 1678.5000     9.9950     2.5130     0.0060   122.5380
 1679.0000     9.9860     2.5160     0.0040   120.6960
 1679.5000     9.9770     2.5160     0.0010   119.0120
 1680.0000     9.9690     2.5130    -0.0010   122.0910
 1680.5000     9.9600     2.5090    -0.0030   124.1780
 1681.0000     9.9520     2.5050    -0.0040   124.0950
 1681.5000     9.9430     2.5030    -0.0040   122.2210
 1682.0000     9.9490     2.5030    -0.0040   120.3290
 1682.5000     9.9570     2.5050    -0.0010   118.3840
 1683.0000     9.9660     2.5090     0.0000   117.4270
 1683.5000     9.9740     2.5120    -0.0010   116.6580
 1684.0000     9.9830     2.5080    -0.0020   115.8990
 1684.5000     9.9910     2.5020    -0.0020   115.1350
 1685.0000     9.9990     2.4980    -0.0030   114.3700
 1685.5000    10.0460     2.4980    -0.0040   113.6120
 1686.0000    10.1100     2.4980    -0.0020   113.8830
 1686.5000    10.1760     2.5000     0.0020   114.6020
 1687.0000    10.2450     2.5100     0.0060   115.2990
 1687.5000    10.2680     2.5210     0.0110   115.3110
 1688.0000    10.2830     2.5310     0.0140   115.4640
 1688.5000    10.2980     2.5380     0.0160   119.0130
 1689.0000    10.3120     2.5360     0.0160   122.6930
 1689.5000    10.3230     2.5260     0.0130   123.7170
 1690.0000    10.3830     2.5150     0.0120   121.7060
 1690.5000    10.4490     2.5050     0.0100   119.4500
 1691.0000    10.5160     2.4950     0.0100   117.1970
 1691.5000    10.5820     2.4840     0.0140   114.9220
 1692.0000    10.6490     2.4770     0.0170   113.7990
 1692.5000    10.6790     2.4820     0.0180   118.6440
 1693.0000    10.5840     2.4970     0.0180   124.3070
 1693.5000    10.4900     2.4990     0.0150   124.2930
 1694.0000    10.3960     2.4990     0.0110   120.4730
 1694.5000    10.3030     2.4970     0.0080   116.6080
 1695.0000    10.2090     2.4960     0.0060   114.9970
 1695.5000    10.1160     2.4960     0.0060   114.8850
 1696.0000    10.0630     2.4950     0.0060   116.3180
 1696.5000    10.0150     2.4960     0.0060   117.9540
 1697.0000     9.9780     2.5000     0.0060   119.5960
 1697.5000     9.9550     2.5090     0.0060   120.3360
 1698.0000     9.9430     2.5170     0.0060   117.5680
 1698.5000     9.9320     2.5170     0.0060   116.6050
 1699.0000     9.9210     2.5100     0.0030   118.8370
 1699.5000     9.9110     2.4960     0.0010   120.7090
 1700.0000     9.9000     2.4810     0.0050   119.9300
 1700.5000     9.8890     2.4780     0.0090   118.2260
 1701.0000     9.8810     2.4850     0.0130   116.5120
 1701.5000     9.8830     2.5040     0.0160   116.7850
 1702.0000     9.9210     2.5220     0.0160   119.1210
 1702.5000     9.9620     2.5240     0.0150   121.3920
 1703.0000    10.0030     2.5230     0.0060   123.6550
 1703.5000    10.0440     2.5170    -0.0020   126.1320
 1704.0000    10.0850     2.5110    -0.0060   123.0880
 1704.5000    10.1220     2.5070    -0.0050   117.5720
 1705.0000    10.1220     2.5140    -0.0010   117.8460
 1705.5000    10.1220     2.5180     0.0040   121.2940
 1706.0000    10.1220     2.5170     0.0060   122.4380
 1706.5000    10.1220     2.5130     0.0060   119.0310
 1707.0000    10.1220     2.5130     0.0060   118.7060
 1707.5000    10.1220     2.5190     0.0060   119.6220
 1708.0000    10.1220     2.5240     0.0060   120.2870
 1708.5000    10.1220     2.5240     0.0060   120.3380
 1709.0000    10.1220     2.5210     0.0030   120.0240
 1709.5000    10.1220     2.5180    -0.0010   121.7360
 1710.0000    10.1300     2.5140    -0.0050   122.7570
 1710.5000    10.1450     2.5110    -0.0090   122.0750
 1711.0000    10.1600     2.5070    -0.0100   121.5860
 1711.5000    10.1750     2.5060    -0.0100   123.2250
 1712.0000    10.1900     2.5060    -0.0030   124.7440
 1712.5000    10.2060     2.5070     0.0050   124.4890
 1713.0000    10.2210     2.5150     0.0120   118.8040
 1713.5000    10.2430     2.5220     0.0120   113.3310
 1714.0000    10.2480     2.5220     0.0120   112.9350
 1714.5000    10.2550     2.5230     0.0130   115.3110
 1715.0000    10.2430     2.5270     0.0200   117.9920
 1715.5000    10.2300     2.5340     0.0220   118.5540
 1716.0000    10.2170     2.5270     0.0180   116.7110
 1716.5000    10.2040     2.5200     0.0130   113.6490
 1717.0000    10.2260     2.5220     0.0100   110.5670
 1717.5000    10.2540     2.5270     0.0110   107.4790
 1718.0000    10.2820     2.5310     0.0110   106.7150
 1718.5000    10.3100     2.5320     0.0110   111.6570
 1719.0000    10.3380     2.5290     0.0120   115.2700
 1719.5000    10.3660     2.5230     0.0120   115.9460
 1720.0000    10.3940     2.5170     0.0130   117.1510
 1720.5000    10.4220     2.5140     0.0130   118.3780
 1721.0000    10.4500     2.5150     0.0130   119.3220
 1721.5000    10.4780     2.5170     0.0140   122.0490
 1722.0000    10.5070     2.5160     0.0140   122.4180
 1722.5000    10.5350     2.5020     0.0140   119.3490
 1723.0000    10.5430     2.4890     0.0070   116.7990
 1723.5000    10.5330     2.4910     0.0010   114.2580
 1724.0000    10.4550     2.5050     0.0080   111.7380
 1724.5000    10.3770     2.5180     0.0100   110.0720
 1725.0000    10.2980     2.5250     0.0070   111.1490
 1725.5000    10.2200     2.5150     0.0030   112.4510
 1726.0000    10.1420     2.5050    -0.0020   113.7570
 1726.5000    10.0640     2.5040    -0.0020   114.7470
 1727.0000     9.9850     2.5210     0.0000   114.8210
 1727.5000     9.9460     2.5260     0.0040   117.0530
 1728.0000     9.9230     2.5280     0.0070   119.4510
 1728.5000     9.9000     2.5280     0.0080   120.2750
 1729.0000     9.8760     2.5340     0.0100   118.5570
 1729.5000     9.8530     2.5410     0.0140   116.8170
 1730.0000     9.8300     2.5410     0.0190   115.1740
 1730.5000     9.8220     2.5220     0.0140   115.1660
 1731.0000     9.8220     2.5040     0.0050   115.5610
 1731.5000     9.8290     2.4880    -0.0040   109.8730
 1732.0000     9.8360     2.4890    -0.0060   108.3640
 1732.5000     9.8420     2.4980    -0.0050   112.6520
 1733.0000     9.8490     2.5170     0.0000   116.5520
 1733.5000     9.8560     2.5350     0.0060   120.4220
 1734.0000     9.8620     2.5460     0.0060   124.2770
 1734.5000     9.8690     2.5380     0.0010   128.1750
