~VERSION INFORMATION
 VERS.                2.0:   CWLS LOG ASCII STANDARD - VERSION 2.0
 WRAP.                 NO:   ONE LINE PER DEPTH STEP
~WELL INFORMATION
#MNEM.UNIT      DATA TYPE    INFORMATION
#----------   ------------   ------------------------------
 STRT.F           35.5000:   START DEPTH
 STOP.F         6235.5000:   STOP DEPTH
 STEP.F            0.5000:   STEP LENGTH
 NULL.          -999.2500:   NO VALUE
 COMP. LAWRENCE-ALLISON ASSOCIATES:   COMPANY
 WELL. LAWRENCE-ALLISON "X" #62-11:   WELL
 FLD .                NPR:   FIELD
 LOC .      S11 T38N R78W:   LOCATION
 CNTY.            NATRONA:   COUNTY
 STAT.            WYOMING:   STATE
 CTRY. UNITED STATES OF AMERICA:   COUNTRY
 SRVC.      DRESSER ATLAS:   SERVICE COMPANY
 DATE.        18-DEC-1982:   LOGDATE
 API .     49025109020000:   API NUMBER
~CURVE INFORMATION
#MNEM.UNIT       API CODE    CURVE DESCRIPTION
#----------   ------------   ------------------------------
 DEPT.F                  :   
 ILM .OHMM   07 120 44 00:   INDUCTION LOG MEDIUM
 ILD .OHMM   07 120 46 00:   DEEP RESISTIVITY
 RFOC.OHMM   07 220 04 00:   RESISTIVITY FOCUSED LOG RES.
 DT  .US/F   60 520 00 00:   DELTA TIME
 TENS.LBS    60 635 01 00:   TENSION FROM SONIC LOG.
 RS  .OHMM   11 220 09 00:   RESISTIVITY SHALLOW
 RD  .OHMM   11 220 10 00:   RESISTIVITY DEEP
 RLL .OHMM   11 220 00 00:   LATEROLOG RESISTIVITY
 SPR .MV     07 010 01 00:   SPONTANEOUS POTENTIAL
 TENR.LBS    07 635 01 00:   TENSION FROM RES. LOG
 CALD.IN     45 280 60 00:   CALIPER FROM DENSITY LOG
 GRD .GAPI   45 310 01 00:   GAMMA RAY FROM DENSITY LOG
 DEN .G/C3   45 350 01 00:   FORMATION FACTOR DENSITY
 DRHO.G/C3   45 356 01 00:   DENSITY CORRECTION
 TEND.LBS    45 635 01 00:   TENSION FROM DENSITY LOG
 CN  .DEC    42 890 00 00:   NEUTRON POROSITY
~PARAMETER INFORMATION
#MNEM.UNIT          VALUE    DESCRIPTION
#----------   ------------   ------------------------------
 EKB .F         5218.0000:   Kelly bushing
 EGL .F         5208.0000:   Ground level
 EDF .F            0.0000:   Drilling floor
 TD  .F         6232.0000:   Total depth
 DATE.        18-DEC-1982:   Date logged
 CLNT.            A2DTECH:   Client Code
 SL  . 971' FNL & 1898' FEL:   Surface Location
 PD  .                 GL:   Permanent Datum
 EPD .F              5208:   Elevation Permanent Datum
 LMF .                 KB:   Log Measured From
 DMF .                 KB:   Drilling Measured From
 DAPD.F                10:   Feet Above Permanent Datum
 DD  .F              6222:   Depth driller
 DL  .F              6232:   Depth logger
 BLI .F              6230:   Bottom log interval
 CS1 .IN            9.625:   Casing size
 CBD1.     9.625" @ 1002':   Casing driller 1
 CBL1.F              1002:   Casing logger 1
 BS1 .IN             8.75:   Bit size
 BSD1.F              6222:   Depth drilled with bit1
 DFT .                KCL:   Type fluid in hole
 DFD .                  9:   Density
 DFV .                 37:   Viscosity
 DFPH.                  8:   pH
 DFL .                8.4:   Fluid loss
 MSS .           FLOWLINE:   Source of sample
 RMS .OHMM            .25:   Rm
 MST .F                60:   Rm Meas. temp.
 RMF .OHMM            .18:   Rmf
 MFST.F                62:   Rmf Meas. temp.
 RMC .OHMM            .32:   Rmc
 MCST.F                60:   Rmc Meas. temp.
 MFSS.               MEAS:   Source Rmf.
 MCSS.               CALC:   Source Rmc.
 RMB .OHMM            .09:   Rm. at BHT
 BHT .F               166:   BHT.
 TCS .HRS               6:   Time Circ. stopped
 MRT .F               166:   Maximum recorded temp.
 LUN .               6274:   Logging unit number
 LUL .               GLTE:   Logging unit location
 ENGI.             RAUTIO:   Recorded By
 WITN.           JENNINGS:   Witnessed by
 ORIG.           5" PRINT:   Origin of data
 UWI .     49025109020000:   Unique Well ID
 DICO. A2D TECHNOLOGIES, INC.:   Digitizing Company
~OTHER INFORMATION
~A  DEPTH      ILM        ILD       RFOC         DT       TENS         RS         RD        RLL        SPR       TENR       CALD        GRD        DEN       DRHO       TEND         CN
# ...
 3346.5000  -999.2500  -999.2500  -999.2500    89.3752   -22.8119     5.4102     5.3228     3.4667   -84.7951   -47.6021    11.1159   106.9734     2.5105    -0.0022   -19.0457     0.2701
 3347.0000  -999.2500  -999.2500  -999.2500    89.0768   -26.6294     5.2964     5.2470     3.3462   -84.8060   -52.8558    11.1154   107.5558     2.5073    -0.0054   -24.8438     0.2786
 3347.5000  -999.2500  -999.2500  -999.2500    88.5526   -30.4528     5.2207     5.2083     3.2296   -84.9699   -56.8330    11.1000   105.4107     2.5049    -0.0039   -24.6094     0.2861
 3348.0000  -999.2500  -999.2500  -999.2500    88.3287   -38.0484     5.2183     5.2063     3.1173   -84.9857   -57.0805    11.0795   102.9724     2.5041    -0.0025   -24.3418     0.2945
 3348.5000  -999.2500  -999.2500  -999.2500    88.3320   -41.8758     5.2159     5.2042     3.0510   -84.9984   -57.2926    11.0690   102.0381     2.5048     0.0020   -24.1066     0.2955
 3349.0000  -999.2500  -999.2500  -999.2500    88.4861   -45.6933     5.2860     5.2382     3.0067   -84.8586   -57.5400    11.0686   101.4097     2.5071     0.0050   -23.9062     0.2914
 3349.5000  -999.2500  -999.2500  -999.2500    88.7906   -45.7286     5.3574     5.2726     2.9428   -84.8756   -57.7521    11.0530   101.0830     2.5094     0.0033   -23.6718     0.2824
 3350.0000  -999.2500  -999.2500  -999.2500    89.3032   -38.1938     5.3550     5.2704     2.8206   -85.0376   -57.9643    11.0526   101.8027     2.5149     0.0008   -23.4194     0.2794
 3350.5000  -999.2500  -999.2500  -999.2500    89.7010   -38.7367     5.4253     5.4175     2.7615   -85.0511   -46.5023    11.0521   102.2422     2.5132    -0.0002   -34.9533     0.2880
 3351.0000  -999.2500  -999.2500  -999.2500    89.7783   -39.2377     5.3830     5.3971     2.7036   -85.0647   -39.7065    11.0505   102.6818     2.5115    -0.0035   -30.7812     0.2924
 3351.5000  -999.2500  -999.2500  -999.2500    89.7051   -39.7387     5.3788     5.3397     2.7215   -85.0804   -39.9126    11.0483   103.0885     2.5130    -0.0052   -30.5302     0.2927
 3352.0000  -999.2500  -999.2500  -999.2500    89.5567   -40.2397     5.3739     5.3381     2.7587   -84.9405   -40.1188    11.0462   102.4511     2.5145    -0.0023   -26.3657     0.2933
 3352.5000  -999.2500  -999.2500  -999.2500    89.2572   -40.7406     5.3949     5.3740     2.8453   -84.9572   -40.3250    11.0441   100.3139     2.5167     0.0007   -18.3316     0.2968
 3353.0000  -999.2500  -999.2500  -999.2500    88.8822   -41.2416     5.4783     5.3725     2.9346   -84.9684   -40.5312    11.0420    99.6850     2.5174     0.0052   -14.2040     0.2989
 3353.5000  -999.2500  -999.2500  -999.2500    88.7334   -41.4670     5.5115     5.4461     3.0797   -84.9823   -40.7374    11.0399    97.8497     2.5173     0.0104   -13.9457     0.3004
 3354.0000  -999.2500  -999.2500  -999.2500    88.8871   -37.5796     5.5841     5.4826     3.2321   -84.9969   -40.9435    11.0378    90.5776     2.5188     0.0189   -13.7241     0.3021
 3354.5000  -999.2500  -999.2500  -999.2500    89.2666   -37.5189     5.6179     5.5576     3.4633   -85.0090   -41.1497    11.0357    89.0480     2.5210     0.0219   -13.5156     0.2893
 3355.0000  -999.2500  -999.2500  -999.2500    89.7211   -37.4392     5.6722     5.5755     3.6346   -85.1729   -41.3559    11.0336    91.1297     2.5225     0.0201   -13.2812     0.2933
 3355.5000  -999.2500  -999.2500  -999.2500    89.9498   -37.3676     5.6875     5.5934     3.8143   -85.3374   -41.5621    11.0315    94.7198     2.5200     0.0152   -13.0229     0.2974
 3356.0000  -999.2500  -999.2500  -999.2500    90.0273   -37.2920     5.6823     5.5917     3.8798   -85.5024   -41.7683    11.0293    98.0124     2.5168     0.0087   -12.8125     0.2977
 3356.5000  -999.2500  -999.2500  -999.2500    89.8789   -37.2110     5.6772     5.5903     3.9192   -85.6653   -41.9744    11.0270    99.1977     2.5152     0.0055   -12.5782     0.2988
 3357.0000  -999.2500  -999.2500  -999.2500    89.6544   -37.1407     5.6728     5.5499     3.8637   -85.8304   -42.1806    11.0253    98.4029     2.5151     0.0023   -12.3216     0.3013
 3357.5000  -999.2500  -999.2500  -999.2500    89.5811   -37.0531     5.6292     5.5101     3.7304   -85.8429   -42.3868    11.0233    97.0243     2.5103     0.0099   -12.1002     0.3040
 3358.0000  -999.2500  -999.2500  -999.2500    90.0364   -36.9770     5.5852     5.3948     3.6523   -85.8575   -42.5930    11.0365    96.9987     2.4993    -0.0074   -11.8418     0.3078
 3358.5000  -999.2500  -999.2500  -999.2500    90.7930   -36.9138     5.5805     5.3190     3.6259   -85.8403   -42.7992    11.0341    98.7831     2.4937    -0.0185   -11.6406     0.3028
 3359.0000  -999.2500  -999.2500  -999.2500    91.0967   -36.8381     5.5373     5.2440     3.5745   -85.7301   -43.0053    11.0322    99.0588     2.4905    -0.0234    -7.4927     0.2975
 3359.5000  -999.2500  -999.2500  -999.2500    91.4008   -36.7625     5.4947     5.2427     3.4996   -85.7459   -43.2115    11.0345    98.4238     2.4896    -0.0188    -7.2656     0.2878
 3360.0000  -999.2500  -999.2500  -999.2500    91.5537   -36.6845     5.4518     5.2048     3.4025   -85.6069   -43.4177    11.0436    97.7949     2.4927    -0.0174    -7.0312     0.2747
 3360.5000  -999.2500  -999.2500  -999.2500    91.7070   -36.6085     5.4099     5.1674     3.2968   -85.4712   -43.6239    11.0417   100.4842     2.4950    -0.0160    -2.8481     0.2613
 3361.0000  -999.2500  -999.2500  -999.2500    91.7845   -36.5266     5.3312     5.0948     3.2163   -85.3334   -43.8301    11.0546   104.3760     2.4972    -0.0115    -2.6267     0.2674
 3361.5000  -999.2500  -999.2500  -999.2500    92.0132   -36.4564     5.2167     5.0580     3.1709   -85.3489   -44.0362    11.0525   105.2596     2.4994    -0.0040    -6.3282     0.2841
 3362.0000  -999.2500  -999.2500  -999.2500    92.1661   -36.3745     5.1053     5.0217     3.1918   -85.2122   -44.2424    11.0508   103.8553     2.5016    -0.0057   -10.0333     0.2933
 3362.5000  -999.2500  -999.2500  -999.2500    92.4702   -36.3042     5.0311     4.9509     3.2694   -85.2256   -44.4486    11.0488   100.9788     2.5016    -0.0058   -13.7180     0.3053
 3363.0000  -999.2500  -999.2500  -999.2500    92.7739   -36.2223     4.9573     4.9154     3.3718   -85.2415   -44.6548    11.0466    99.7423     2.5022    -0.0076   -17.3659     0.3096
 3363.5000  -999.2500  -999.2500  -999.2500    92.9272   -36.1521     4.8852     4.8801     3.3943   -85.2530   -44.8610    11.0450   102.1300     2.5014    -0.0187   -17.0706     0.3084
 3364.0000  -999.2500  -999.2500  -999.2500    92.7785   -27.2328     4.8470     4.8786     3.4168   -85.2666   -45.0671    11.0430   107.2326     2.4987    -0.0298   -16.8491     0.2991
 3364.5000  -999.2500  -999.2500  -999.2500    92.4035   -24.6596     4.8098     4.8436     3.4393   -85.2812   -45.2733    11.0565   110.8226     2.4980    -0.0393   -16.6277     0.2919
 3365.0000  -999.2500  -999.2500  -999.2500    92.1039   -24.5717     4.8395     4.8421     3.5104   -85.2958   -45.4795    11.0541   110.4954     2.4988    -0.0316   -12.4630     0.2894
 3365.5000  -999.2500  -999.2500  -999.2500    92.1067   -24.5015     4.8351     4.8409     3.6333   -85.3236   -45.6857    11.0675   108.3539     2.5010    -0.0178   -12.2656     0.2875
 3366.0000  -999.2500  -999.2500  -999.2500    92.1088   -24.4313     4.8307     4.8731     3.8663   -85.4713   -45.8919    11.0651   105.6134     2.5025    -0.0086    -8.1250     0.2897
 3366.5000  -999.2500  -999.2500  -999.2500    92.0351   -28.1392     4.8495     4.8719     4.0016   -85.6363   -46.0980    11.0632   102.2738     2.5039    -0.0072    -7.8906     0.2922
 3367.0000  -999.2500  -999.2500  -999.2500    91.8113   -31.8435     4.8568     4.8818     4.0845   -85.6481   -46.3042    11.0614   103.7565     2.5046    -0.0105    -3.7463     0.2934
 3367.5000  -999.2500  -999.2500  -999.2500    90.9845   -35.5437     4.9201     4.9372     4.1115   -85.6624   -46.5104    11.0592   104.6274     2.5053    -0.0109     0.4368     0.2938
