~VERSION INFORMATION
 VERS.                2.0:   CWLS LOG ASCII STANDARD - VERSION 2.0
 WRAP.                 NO:   ONE LINE PER DEPTH STEP
~WELL INFORMATION
#MNEM.UNIT      DATA TYPE    INFORMATION
#----------   ------------   ------------------------------
 STRT.F            6.0000:   START DEPTH
 STOP.F         3190.0000:   STOP DEPTH
 STEP.F            0.5000:   STEP LENGTH
 NULL.          -999.2500:   NO VALUE
 COMP. LAWRENCE ALLISON & ASSOCIATES:   COMPANY
 WELL. LAWRENCE N. P. R. 73AX #3-3:   WELL
 FLD .              N P R:   FIELD
 LOC .       S3 T38N R78W:   LOCATION
 CNTY.            NATRONA:   COUNTY
 STAT.            WYOMING:   STATE
 CTRY. UNITED STATES OF AMERICA:   COUNTRY
 SRVC.      DRESSER ATLAS:   SERVICE COMPANY
 DATE.        04-JUN-1986:   LOGDATE
 API .     49025110910000:   API NUMBER
~CURVE INFORMATION
#MNEM.UNIT       API CODE    CURVE DESCRIPTION
#----------   ------------   ------------------------------
 DEPT.F                  :   
 CALD.IN     45 280 60 00:   CALIPER FROM DENSITY LOG
 DEN .LBS    45 635 01 00:   BUCK DENSITY
 CORR.G/C3   45 356 01 00:   DENSITY CORRECTION
 TEND.LBS    45 635 01 00:   TENSION FROM DENSITY LOG
 SPR .MV     07 010 01 00:   SPONTANEOUS POTENTIAL
 GRR .GAPI   07 310 01 00:   GAMMA RAY FROM RESISTIVITY
 SFLU.OHMM   07 220 01 00:   SPHERICALLY FOCUSED LOG UNAVERAGED RESISTIVITY
 ILD .OHMM   07 120 46 00:   DEEP INDUCTION RESISTIVITY
 ILM .OHMM   07 120 44 00:   INDUCTION LOG MEDIUM RESISTIVITY
 TENR.LBS    07 635 01 00:   TENSION FROM RESISTIVITY
 CNC .DEC    42 890 01 00:   NEUTRON PORISITY LIMESTONE
~PARAMETER INFORMATION
#MNEM.UNIT          VALUE    DESCRIPTION
#----------   ------------   ------------------------------
 EKB .F         5173.0000:   Kelly bushing
 EGL .F         5161.0000:   Ground level
 TD  .F         3170.0000:   Total depth
 DATE.        04-JUN-1986:   Date logged
 CLNT.            A2DTECH:   Client Code
 PD  .                 GL:   Permanent Datum
 EPD .F              5161:   Elevation Permanent Datum
 LMF .                 KB:   Log Measured From
 DMF .                 KB:   Drilling Measured From
 DAPD.F                12:   Feet Above Permanent Datum
 DD  .F              3170:   Depth driller
 DL  .F              3168:   Depth logger
 BLI .F               8.9:   Bottom log interval
 TLI .F                38:   Top log interval
 CS1 .IN            8.625:   Casing size
 CBD1.      8.625" @ 603':   Casing driller 1
 CBL1.F               602:   Casing logger 1
 BS1 .IN            7.875:   Bit size
 BSD1.F              3170:   Depth drilled with bit1
 DFT .        KCL/POLYMER:   Type fluid in hole
 DFD .                8.9:   Density
 DFV .                 38:   Viscosity
 DFPH.                9.0:   pH
 DFL .               13.2:   Fluid loss
 MSS .           FLOWLINE:   Source of sample
 RMS .OHMM           .446:   Rm
 MST .F                64:   Rm Meas. temp.
 RMF .OHMM           .361:   Rmf
 MFST.F                64:   Rmf Meas. temp.
 RMC .OHMM            .56:   Rmc
 MCST.F                64:   Rmc Meas. temp.
 MFSS.               MEAS:   Source Rmf.
 MCSS.               CALC:   Source Rmc.
 RMB .OHMM           .242:   Rm. at BHT
 BHT .F               118:   BHT.
 TCS .HRS               3:   Time Circ. stopped
 MRT .F               118:   Maximum recorded temp.
 LUN .               6274:   Logging unit number
 LUL .           GILLETTE:   Logging unit location
 WITN.             STRONG:   Witnessed by
 ORIG.           5" PRINT:   Origin of data
 UWI .     49025110910000:   Unique Well ID
 DICO. A2D TECHNOLOGIES, INC.:   Digitizing Company
~OTHER INFORMATION
~A    DEPT    CALD        DEN       CORR       TEND        SPR         GRR      SFLU        ILD        ILM       TENR        CNC   
# ...
  951.5000  -999.2500  -999.2500  -999.2500  -999.2500   -56.7556    92.4341     7.8834     8.4902     7.0275   -83.5517  -999.2500
  952.0000  -999.2500  -999.2500  -999.2500  -999.2500   -56.5440    89.6133     7.8105     8.4898     6.9824   -73.4316  -999.2500
  952.5000  -999.2500  -999.2500  -999.2500  -999.2500   -56.4032    87.5964     7.6668     8.4893     6.9375   -73.3820  -999.2500
  953.0000  -999.2500  -999.2500  -999.2500  -999.2500   -56.4038    84.3712     7.5957     8.4889     6.8929   -73.3324  -999.2500
  953.5000  -999.2500  -999.2500  -999.2500  -999.2500   -56.5738    79.5348     7.5253     8.4676     6.8486   -73.2828  -999.2500
  954.0000  -999.2500  -999.2500  -999.2500  -999.2500   -56.7439    79.5320     7.5950     8.4463     6.8046   -73.2232  -999.2500
  954.5000  -999.2500  -999.2500  -999.2500  -999.2500   -56.9139    79.9321     7.6653     8.4251     6.7609   -83.2441  -999.2500
  955.0000  -999.2500  -999.2500  -999.2500  -999.2500   -57.0840    79.9293     7.7363     8.4039     6.7175   -83.1945  -999.2500
  955.5000  -999.2500  -999.2500  -999.2500  -999.2500   -57.2540    79.5237     7.5239     8.3828     6.6683   -83.1449  -999.2500
  956.0000  -999.2500  -999.2500  -999.2500  -999.2500   -57.4204    79.9231     7.1167     8.3617     6.7301   -83.0953  -999.2500
  956.5000  -999.2500  -999.2500  -999.2500  -999.2500   -57.2204    79.5165     7.0508     8.3407     6.7301   -83.0457  -999.2500
  957.0000  -999.2500  -999.2500  -999.2500  -999.2500   -56.8191    77.0982     6.8572     8.3300     6.7908   -72.9256  -999.2500
  957.5000  -999.2500  -999.2500  -999.2500  -999.2500   -56.8205    75.8872     6.9207     8.3928     6.8521   -72.8760  -999.2500
  958.0000  -999.2500  -999.2500  -999.2500  -999.2500   -56.6197    76.2872     6.9204     8.4561     6.9139   -62.7558  -999.2500
  958.5000  -999.2500  -999.2500  -999.2500  -999.2500   -56.6223    80.3120     6.9200     8.5199     6.9763   -72.7767  -999.2500
  959.0000  -999.2500  -999.2500  -999.2500  -999.2500   -56.8242    85.5450     7.0492     8.5842     7.0393   -72.7271  -999.2500
  959.5000  -999.2500  -999.2500  -999.2500  -999.2500   -57.0276    86.7504     7.3150     8.6489     7.1028   -72.6477  -999.2500
  960.0000  -999.2500  -999.2500  -999.2500  -999.2500   -57.1239    85.5387     7.5908     8.7142     7.1669   -72.6279  -999.2500
  960.5000  -999.2500  -999.2500  -999.2500  -999.2500   -57.2202    87.1474     7.7324     8.7799     7.2448   -82.6389  -999.2500
  961.0000  -999.2500  -999.2500  -999.2500  -999.2500   -57.3166    89.5610     7.8766     8.8461     7.2447   -82.6190  -999.2500
  961.5000  -999.2500  -999.2500  -999.2500  -999.2500   -57.4129    89.5581     7.8036     8.8025     7.2104   -72.4691  -999.2500
  962.0000  -999.2500  -999.2500  -999.2500  -999.2500   -57.5092    88.7498     7.8033     8.6405     7.1763   -72.4195  -999.2500
  962.5000  -999.2500  -999.2500  -999.2500  -999.2500   -57.6056    87.9415     7.8029     8.5604     7.1424   -72.3699  -999.2500
  963.0000  -999.2500  -999.2500  -999.2500  -999.2500   -57.7019    89.1462     7.8026     8.4811     7.1086   -72.3203  -999.2500
  963.5000  -999.2500  -999.2500  -999.2500  -999.2500   -57.7982    91.5596     7.8748     8.7197     7.0749   -72.2707  -999.2500
  964.0000  -999.2500  -999.2500  -999.2500  -999.2500   -57.8946    92.3621     7.8018     8.7193     7.0414   -72.2211  -999.2500
  964.5000  -999.2500  -999.2500  -999.2500  -999.2500   -57.9909    91.5538     7.8015     8.5589     7.0081   -72.1715  -999.2500
  965.0000  -999.2500  -999.2500  -999.2500  -999.2500   -58.0872    92.7590     7.7292     8.4795     6.9750   -82.1924  -999.2500
  965.5000  -999.2500  -999.2500  -999.2500  -999.2500   -58.1836    91.9507     7.7288     8.3235     6.9420   -72.0723  -999.2500
  966.0000  -999.2500  -999.2500  -999.2500  -999.2500   -58.2541    89.1289     7.7285     8.4006     6.9091   -72.0226  -999.2500
  966.5000  -999.2500  -999.2500  -999.2500  -999.2500   -58.2556    82.6830     7.7281     8.3229     6.8764   -61.9025  -999.2500
  967.0000  -999.2500  -999.2500  -999.2500  -999.2500   -58.2570    82.2776     7.7997     8.3998     6.8491   -71.9135  -999.2500
  967.5000  -999.2500  -999.2500  -999.2500  -999.2500   -58.2585    83.8855     7.7993     8.3219     6.8488   -71.8639  -999.2500
  968.0000  -999.2500  -999.2500  -999.2500  -999.2500   -58.2599    85.8960     7.8716     8.2448     6.8665   -71.8143  -999.2500
  968.5000  -999.2500  -999.2500  -999.2500  -999.2500   -58.2614    87.9066     7.7986     8.3211     6.8843   -71.7647  -999.2500
  969.0000  -999.2500  -999.2500  -999.2500  -999.2500   -58.2628    88.7091     7.7982     8.3207     6.9022   -71.7150  -999.2500
  969.5000  -999.2500  -999.2500  -999.2500  -999.2500   -58.2643    87.0955     7.7980     8.3202     6.9200   -71.6654  -999.2500
  970.0000  -999.2500  -999.2500  -999.2500  -999.2500   -58.2657    85.0794     7.7256     8.3974     6.9379   -71.6158  -999.2500
  970.5000  -999.2500  -999.2500  -999.2500  -999.2500   -58.2672    84.6739     7.7252     8.2429     6.9559   -71.5662  -999.2500
  971.0000  -999.2500  -999.2500  -999.2500  -999.2500   -58.2686    88.2944     7.7249     8.1665     6.9739   -71.5166  -999.2500
  971.5000  -999.2500  -999.2500  -999.2500  -999.2500   -58.2701    89.4995     7.5827     8.0908     6.8462   -71.4670  -999.2500
  972.0000  -999.2500  -999.2500  -999.2500  -999.2500   -58.2716    89.0940     7.5124     8.0158     6.8459   -71.4174  -999.2500
  972.5000  -999.2500  -999.2500  -999.2500  -999.2500   -58.2724    86.6752     7.5820     8.0154     6.8456   -71.3678  -999.2500
  973.0000  -999.2500  -999.2500  -999.2500  -999.2500   -58.0855    85.4645     7.5817     8.2374     7.0464   -71.3182  -999.2500
  973.5000  -999.2500  -999.2500  -999.2500  -999.2500   -57.8734    84.2538     7.5813     8.1930     7.0647   -71.2685  -999.2500
  974.0000  -999.2500  -999.2500  -999.2500  -999.2500   -57.6724    85.0562     7.6515     8.1642     7.0830   -71.2090  -999.2500
  974.5000  -999.2500  -999.2500  -999.2500  -999.2500   -58.0206    87.8717     7.7943     8.3165     7.1013   -71.1594  -999.2500
  975.0000  -999.2500  -999.2500  -999.2500  -999.2500   -58.4813    87.8689     8.0136     8.3162     7.1197   -71.1098  -999.2500
  975.5000  -999.2500  -999.2500  -999.2500  -999.2500   -58.8853    87.0608     8.0132     8.3932     7.1382   -71.0602  -999.2500
  976.0000  -999.2500  -999.2500  -999.2500  -999.2500   -59.0875    87.8631     8.0874     8.3927     7.1566   -91.1516  -999.2500
  976.5000  -999.2500  -999.2500  -999.2500  -999.2500   -58.9461    87.8620     8.0124     8.3149     7.1676   -91.1020  -999.2500
  977.0000  -999.2500  -999.2500  -999.2500  -999.2500   -58.8047    89.4667     8.0121     8.3146     7.0755   -80.9819  -999.2500
  977.5000  -999.2500  -999.2500  -999.2500  -999.2500   -58.6633    87.4520     7.8905     8.2375     6.9061   -80.9323  -999.2500
  978.0000  -999.2500  -999.2500  -999.2500  -999.2500   -58.4903    84.6309     7.7451     8.4693     7.1023   -90.9532  -999.2500
  978.5000  -999.2500  -999.2500  -999.2500  -999.2500   -58.4906    83.4203     7.7447     8.5477     7.3040   -70.7625  -999.2500
  979.0000  -999.2500  -999.2500  -999.2500  -999.2500   -58.4534    81.4046     7.8894     8.8701     7.5114   -90.8539  -999.2500
  979.5000  -999.2500  -999.2500  -999.2500  -999.2500   -58.4162    78.5837     8.1116     9.2046     7.7248   -70.6633  -999.2500
  980.0000  -999.2500  -999.2500  -999.2500  -999.2500   -58.3790    76.5664     8.4179     9.3763     8.0077   -70.6137  -999.2500
  980.5000  -999.2500  -999.2500  -999.2500  -999.2500   -58.3418    76.5647     8.7356    10.0041     8.0075   -80.6247  -999.2500
  981.0000  -999.2500  -999.2500  -999.2500  -999.2500   -58.3046    78.1723     8.7867    10.0968     8.1173   -80.5750  -999.2500
  981.5000  -999.2500  -999.2500  -999.2500  -999.2500   -58.2674    83.4029     9.0339    10.3809     8.2286   -80.5254  -999.2500
