~VERSION INFORMATION
 VERS.                2.0:   CWLS LOG ASCII STANDARD - VERSION 2.0
 WRAP.                 NO:   ONE LINE PER DEPTH STEP
~WELL INFORMATION
#MNEM.UNIT      DATA TYPE    INFORMATION
#----------   ------------   ------------------------------
 STRT.F          164.0000:   START DEPTH
 STOP.F         3223.5000:   STOP DEPTH
 STEP.F            0.5000:   STEP LENGTH
 NULL.          -999.2500:   NO VALUE
 COMP.    FENIX & SCISSON:   COMPANY
 WELL. FENIX & SCISSON "AX" #64-34:   WELL
 FLD . NAVAL PETROLEUM RESERVE #3:   FIELD
 LOC .      S34 T39N R78W:   LOCATION
 CNTY.            NATRONA:   COUNTY
 STAT.            WYOMING:   STATE
 CTRY. UNITED STATES OF AMERICA:   COUNTRY
 SRVC.       SCHLUMBERGER:   SERVICE COMPANY
 DATE.        30-DEC-1980:   LOGDATE
 API .     49025108660000:   API NUMBER
~CURVE INFORMATION
#MNEM.UNIT       API CODE    CURVE DESCRIPTION
#----------   ------------   ------------------------------
 DEPT.F                  :   
 GRD .GAPI   45 310 01 00:   GAMMA RAY FROM DENSITY LOG
 RHOB.G/C3   45 350 01 00:   BULK DENSITY
 CALD.IN     45 280 60 00:   CALIPER FROM DENSITY LOG
 CORR.G/C3   45 356 01 00:   DENSITY CORRECTION
 SPR .MV     07 010 01 00:   SPONTANEOUS POTENTIAL
 TENR.LBS    06 635 01 00:   TENSION FROM RESISTIVITY
 ILD .OHMM   07 120 46 00:   DEEP INDUCTION RESISTIVITY
 ILM .OHMM   07 120 44 00:   INDUCTION LOG MEDIUM RESISTIVITY
 SFL .OHMM   07 220 01 00:   SHALLOW FOCUSED LOG RESISTIVITY
~PARAMETER INFORMATION
#MNEM.UNIT          VALUE    DESCRIPTION
#----------   ------------   ------------------------------
 EKB .F         5088.0000:   Kelly bushing
 EGL .F         5078.0000:   Ground level
 TD  .F         3225.0000:   Total depth
 CLNT.            A2DTECH:   Client Code
 SL  . 3107' FSL & 3680' FWL:   Surface Location
 PD  .                 GL:   Permanent Datum
 EPD .F              5078:   Elevation Permanent Datum
 LMF .                 KB:   Log Measured From
 DMF .                 KB:   Drilling Measured From
 DAPD.F                10:   Feet Above Permanent Datum
 DATE.        30-DEC-1980:   Date Logged [DD-MMM-YYYY]
 DD  .F              3225:   Depth driller
 DL  .F              3225:   Depth logger
 BLI .F              3219:   Bottom log interval
 TLI .F               190:   Top log interval
 CS1 .IN            8.625:   Casing size
 CBD1.      8.625" @ 205':   Casing driller 1
 CBL1.F               190:   Casing logger 1
 BS1 .IN            7.875:   Bit size
 BSD1.F              3225:   Depth drilled with bit1
 DFT .              FRESH:   Type fluid in hole
 DFD .                  9:   Density
 DFV .                 46:   Viscosity
 MSS .           MUD TANK:   Source of sample
 RMS .OHMM           2.47:   Rm
 MST .F                57:   Rm Meas. temp.
 RMF .OHMM           1.45:   Rmf
 MFST.F                57:   Rmf Meas. temp.
 MFSS.               MEAS:   Source Rmf.
 RMB .OHMM            1.2:   Rm. at BHT
 BHT .F               124:   BHT.
 TCS .HRS            0400:   Time Circ. stopped
 MRT .F               124:   Maximum recorded temp.
 LUN .               8034:   Logging unit number
 LUL .               CSPR:   Logging unit location
 ENGI.             LARSON:   Recorded By
 WITN.              FIVAS:   Witnessed by
 ORIG.        2" 5" PRINT:   Origin of data
 UWI .     49025108660000:   Unique Well ID
 DICO. A2D TECHNOLOGIES, INC:   Digitizing Company
 TLAB.HRS            2030:   Time logger at bottom
~OTHER INFORMATION
~A   DEPT       GRD      RHOB       CALD       CORR        SPR       TENR        ILD        ILM        SFL   
# ...
 1587.5000    93.6778     2.5473     8.8678     0.0622   -50.6580  1142.5576     7.4703     7.4847     7.6680
 1588.0000    94.2689     2.5558     8.8048     0.0597   -50.7034  1142.5576     7.4646     7.4781     7.7187
 1588.5000    94.8735     2.5573     8.7098     0.0548   -50.7492  1142.5576     7.4577     7.4714     7.8793
 1589.0000    92.6646     2.5456     8.6491     0.0457   -50.7949  1142.5576     7.5059     7.4648     7.9871
 1589.5000    90.5755     2.5433     8.6169     0.0413   -50.9880  1142.5576     7.5002     7.5665     8.3360
 1590.0000    89.5014     2.5495     8.5999     0.0387   -51.3296  1142.5576     7.5488     7.5581     8.5682
 1590.5000    93.4269     2.5773     8.5828     0.0504   -51.6711  1142.5576     7.5430     7.5514     8.8134
 1591.0000    96.4459     2.5765     8.5809     0.0432   -52.0130  1142.5576     7.4819     7.5451     8.6160
 1591.5000   100.3160     2.5618     8.5789     0.0410   -52.3546  1142.5576     7.4504     7.4838     8.4248
 1592.0000   101.4218     2.5416     8.5767     0.0433   -52.6963  1142.5576     7.3638     7.4755     8.2972
 1592.5000    99.8845     2.5586     8.5749     0.0508   -53.0380  1142.5576     7.3055     7.4152     8.1704
 1593.0000    97.4407     2.5748     8.5730     0.0573   -53.3950  1142.5576     7.2998     7.3802     8.1050
 1593.5000    95.3004     2.5818     8.5711     0.0542   -53.4107  1142.5576     7.2941     7.3266     8.0402
 1594.0000    92.5491     2.5725     8.5536     0.0485   -53.3211  1142.5576     7.2876     7.2859     8.0918
 1594.5000    92.2298     2.5662     8.5366     0.0299   -53.2294  1121.5933     7.2821     7.1771     8.2025
 1595.0000    93.4279     2.5677     8.5348     0.0314   -53.1370  1121.5933     7.2767     7.1707     8.1353
 1595.5000    97.5091     2.5708     8.5328     0.0338   -52.9830  1121.5933     7.2710     7.1643     8.0702
 1596.0000   101.6045     2.5723     8.5309     0.0393   -52.5786  1121.5933     7.2643     7.1580     8.0057
 1596.5000   102.6367     2.5692     8.5286     0.0402   -52.1841  1121.5933     7.2589     7.2034     7.9992
 1597.0000   101.8581     2.5630     8.5421     0.0397   -51.7899  1121.5933     7.2178     7.2491     8.2842
 1597.5000   100.1730     2.5630     8.5446     0.0376   -51.3952  1121.5933     7.1959     7.2410     8.5811
 1598.0000    97.8810     2.5660     8.5533     0.0313   -50.9990  1121.5933     7.1903     7.2346     8.6378
 1598.5000    94.8086     2.5637     8.5514     0.0211   -50.6229  1121.5933     7.1846     7.2281     8.3833
 1599.0000    93.2969     2.5535     8.5491     0.0172   -50.6110  1121.5933     7.1783     7.2201     8.1961
 1599.5000    94.4910     2.5403     8.5472     0.0219   -50.6131  1121.5933     7.2248     7.2137     8.1894
 1600.0000    98.7240     2.5589     8.5455     0.0527   -50.6137  1121.5933     7.2193     7.2073     8.2418
 1600.5000    99.7900     2.5876     8.5434     0.0547   -50.6141  1121.5933     7.1679     7.2553     8.1204
 1601.0000    98.9714     2.5930     8.5415     0.0554   -50.6198  1121.5933     7.1095     7.1467     8.1746
 1601.5000    96.2445     2.5860     8.5404     0.0501   -50.3248  1121.5933     7.0556     7.0900     8.1104
 1602.0000    95.4699     2.5813     8.5388     0.0348   -49.9379  1121.5933     7.0527     7.0856     8.0466
 1602.5000    95.2928     2.5603     8.5371     0.0249   -50.0398  1127.0964     7.0456     7.0304     7.9271
 1603.0000    95.2754     2.5436     8.5508     0.0058   -50.4242  1140.5137     6.9957     7.0261     7.8094
 1603.5000    95.4141     2.5378     8.5640     0.0004   -50.8153  1142.5576     6.9928     7.0206     7.7491
 1604.0000    97.0616     2.5470     8.5624    -0.0002   -51.2063  1142.5576     6.9901     7.0163     7.8573
 1604.5000    99.3332     2.5679     8.5526     0.0003   -51.5966  1142.5576     6.9871     7.0120     8.0235
 1605.0000   100.2135     2.5826     8.5436     0.0016   -51.9872  1142.5576     7.0347     7.0077     8.1944
 1605.5000   100.0400     2.5794     8.5269     0.0037   -52.3790  1142.5576     7.0826     7.0540     8.3088
 1606.0000    99.2639     2.5600     8.5253     0.0057   -52.7680  1142.5576     7.0790     7.1007     8.3645
 1606.5000    97.8808     2.5390     8.5302     0.0070   -53.0274  1142.5576     7.1280     7.1477     8.3558
 1607.0000    94.9802     2.5398     8.5373     0.0068   -52.7813  1142.5576     7.1243     7.1950     8.2345
 1607.5000    94.2041     2.5413     8.5509     0.0039   -52.5474  1142.5576     7.2240     7.2417     8.2299
 1608.0000    99.7970     2.5335     8.5489     0.0000   -52.3140  1142.5576     7.1692     7.2370     8.3460
 1608.5000   100.5427     2.5365     8.5474    -0.0035   -52.0809  1143.7855     7.1663     7.1795     8.4614
 1609.0000   100.5209     2.5412     8.5458    -0.0043   -51.8478  1155.8159     7.1119     7.1751     8.3891
 1609.5000    99.4413     2.5442     8.5441  -999.2500   -51.6146  1163.4609     7.0579     7.1192     8.2108
 1610.0000    97.0664     2.5519     8.5577    -0.0023   -51.3815  1163.5576     7.0038     7.1148     8.0889
 1610.5000    96.0638     2.5581     8.5712     0.0235   -51.1483  1163.5316     7.0009     7.0591     8.0264
 1611.0000    97.4121     2.5565     8.5844  -999.2500   -50.9152  1163.5220     6.9478     7.0032     8.0801
 1611.5000    99.5192     2.5518     8.5980  -999.2500   -50.6710  1163.5220     6.8951     6.9485     8.0745
 1612.0000    99.5018     2.5400     8.6115  -999.2500   -50.6587  1163.5220     6.8422     6.9443     8.0701
 1612.5000    97.8023     2.5409     8.6095  -999.2500   -50.7210  1163.5220     6.8394     6.9400     8.0656
 1613.0000    96.8874     2.5455     8.5928  -999.2500   -50.7854  1163.5220     6.8366     6.8859     8.0612
 1613.5000    98.8383     2.5509     8.5912  -999.2500   -50.8491  1163.5220     6.7847     6.9314     8.0568
 1614.0000    99.4323     2.5532     8.5896  -999.2500   -50.9123  1163.5220     6.8309     6.9261     7.9935
 1614.5000    99.2588     2.5548     8.5880  -999.2500   -50.9732  1163.5220     6.9272     6.9721     7.9891
 1615.0000    99.2413     2.5632     8.5864  -999.2500   -51.0398  1163.5220     7.0248     7.0181     8.0425
 1615.5000    99.6749     2.5802     8.5844  -999.2500   -51.3967  1163.5220     6.9708     7.0127     8.0381
 1616.0000   100.8715     2.5840     8.5827  -999.2500   -51.7486  1163.5220     6.8683     6.9080     8.0336
 1616.5000   102.8268     2.5731     8.5848  -999.2500   -52.0999  1163.5220     6.8088     6.8541     8.0282
 1617.0000   104.3269     2.5607     8.5948  -999.2500   -52.3044  1163.5220     6.7154     6.8007     8.0238
 1617.5000   104.0060     2.5467     8.5931  -999.2500   -52.4070  1163.5220     6.6644     6.7475     7.9618
 1618.0000   102.0116     2.5482     8.6067  -999.2500   -52.5068  1163.5220     6.6617     6.7424     7.9003
 1618.5000    99.8698     2.5559     8.6050  -999.2500   -52.6037  1163.5220     6.6112     6.6899     7.8392
 1619.0000    98.7902     2.5590     8.6032  -999.2500   -52.5288  1163.5220     6.6562     6.7341     7.8339
 1619.5000    97.8623     2.5559     8.6016  -999.2500   -52.2542  1163.5220     6.7016     6.7787     7.8296
 1620.0000    96.6310     2.5600     8.5697  -999.2500   -51.9814  1163.5220     6.7960     6.8730     7.8830
 1620.5000    95.5508     2.5674     8.5680  -999.2500   -51.7077  1163.5220     6.8911     6.9184     7.8777
 1621.0000    95.2305     2.5666     8.5813  -999.2500   -51.4306  1163.5220     6.9881     7.0643     7.8731
 1621.5000    97.1814     2.5658     8.5798  -999.2500   -51.0849  1163.5220     6.9846     7.0600     7.9832
 1622.0000    99.2885     2.5603     8.5933  -999.2500   -50.7346  1163.5220     7.0322     7.1067     8.1521
 1622.5000    99.4234     2.5492     8.5914  -999.2500   -50.3833  1163.5220     7.0293     7.1012     8.3269
 1623.0000    99.4052     2.5416     8.5900  -999.2500   -50.0368  1163.5220     7.0265     7.0458     8.3814
 1623.5000    99.2320     2.5439     8.5883  -999.2500   -50.0357  1163.5220     7.0229     7.0415     8.3155
