~VERSION INFORMATION
 VERS.                2.0:   CWLS LOG ASCII STANDARD - VERSION 2.0
 WRAP.                 NO:   ONE LINE PER DEPTH STEP
~WELL INFORMATION
#MNEM.UNIT      DATA TYPE    INFORMATION
#----------   ------------   ------------------------------
 STRT.F          196.5000:   START DEPTH
 STOP.F         3202.0000:   STOP DEPTH
 STEP.F            0.5000:   STEP LENGTH
 NULL.          -999.2500:   NO VALUE
 COMP.    FENIX & SCISSON:   COMPANY
 WELL.   FENIX "AX" #26-3:   WELL
 FLD .              NPR-3:   FIELD
 LOC .       S3 T38N R78W:   LOCATION
 CNTY.            NATRONA:   COUNTY
 STAT.            WYOMING:   STATE
 CTRY. UNITED STATES OF AMERICA:   COUNTRY
 SRVC.              WELEX:   SERVICE COMPANY
 DATE.        19-JUN-1977:   LOGDATE
 API .     49025103800000:   API NUMBER
~CURVE INFORMATION
#MNEM.UNIT       API CODE    CURVE DESCRIPTION
#----------   ------------   ------------------------------
 DEPT.F                  :   
 CALD.IN     45 280 60 00:   CALIPER FROM DENSITY LOG
 GRD .GAPI   45 310 01 00:   GAMMA RAY FROM DENSITY LOG
 RHOB.G/C3   45 350 01 00:   BULK DENSITY
 CORR.G/C3   45 356 01 00:   DENSITY CORRECTION
 SPR .MV     07 010 01 00:   SPONTANEOUS POTENTIAL
 ILD .OHMM   07 120 46 00:   DEEP INDUCTION RESISTIVITY
 ILM .OHMM   07 120 44 00:   INDUCTION LOG MEDIUM RESISTIVITY
 SGRD.OHMM   07 220 05 00:   SHALLOW SHORT GUARD RESISTIVITY
~PARAMETER INFORMATION
#MNEM.UNIT          VALUE    DESCRIPTION
#----------   ------------   ------------------------------
 EKB .F         5231.0000:   Kelly bushing
 EGL .F         5221.0000:   Ground level
 EDF .F            0.0000:   Drilling floor
 TD  .F         3204.0000:   Total depth
 CLNT.            A2DTECH:   Client Code
 SL  . 1320' FSL & 740' FWL:   Surface Location
 PD  .                 GL:   Permanent Datum
 EPD .F              5221:   Elevation Permanent Datum
 LMF .                 KB:   Log Measured From
 DMF .                 KB:   Drilling Measured From
 DAPD.F                10:   Feet Above Permanent Datum
 DATE.        19-JUN-1977:   Date Logged [DD-MMM-YYYY]
 DD  .F              3200:   Depth driller
 DL  .F              3204:   Depth logger
 BLI .F              3202:   Bottom log interval
 TLI .F               220:   Top log interval
 CS1 .IN            8.625:   Casing size
 CBD1.      8.625" @ 220':   Casing driller 1
 CBL1.F               220:   Casing logger 1
 BS1 .IN            7.875:   Bit size
 BSD1.F              3200:   Depth drilled with bit1
 DFT .                KCL:   Type fluid in hole
 DFD .                9.1:   Density
 RMS .OHMM           1.19:   Rm
 MST .F                65:   Rm Meas. temp.
 TCS .HRS               4:   Time Circ. stopped
 MRT .F               115:   Maximum recorded temp.
 LUN .               8766:   Logging unit number
 ENGI.          T. JOYNER:   Recorded By
 WITN.         PETTINGILL:   Witnessed by
 ORIG.           5" PRINT:   Origin of data
 UWI .     49025103800000:   Unique Well ID
 DICO. A2D TECHNOLOGIES, INC.:   Digitizing Company
 DFPH.                7.5:   pH
 DFL .                4.2:   Fluid loss
 MSS .            MUD PIT:   Source of sample
 RMF .OHMM           1.19:   Rmf
 MFST.F                65:   Rmf Meas. temp.
 MFSS.               MEAS:   Source Rmf.
 RMC .OHMM           2.01:   Rmc
 MCST.F                65:   Rmc Meas. temp.
 MCSS.               MEAS:   Source Rmc.
 RMB .OHMM            .67:   Rm. at BHT
 BHT .F               115:   BHT.
~OTHER INFORMATION
~A   DEPT     CALD         GRD      RHOB       CORR        SPR        ILD        ILM       SGRD   
# ...
 2950.5000     8.9876   123.4424     2.4836     0.0094   -53.5414     5.1346     5.4970     7.4141
 2951.0000     8.8895   121.0989     2.4892     0.0095   -53.5325     5.1739     5.5380     7.5195
 2951.5000     8.8026   122.6303     2.4959     0.0127   -53.5237     5.1778     5.5792     7.5221
 2952.0000     8.7455   123.2675     2.5020     0.0158   -53.5148     5.1816     5.5820     7.5767
 2952.5000     8.7176   122.4143     2.5088     0.0173   -53.5047     5.1855     5.5849     7.6317
 2953.0000     8.6761   120.9255     2.5142     0.0189   -53.3491     5.1894     5.5878     7.5818
 2953.5000     8.6786   119.7756     2.5196     0.0198   -53.3394     5.1941     5.5912     7.6369
 2954.0000     8.6364   118.6729     2.5182     0.0199   -53.4809     5.1980     5.5166     7.7997
 2954.5000     8.6092   118.1075     2.5183     0.0192   -53.4700     5.2019     5.5201     7.9654
 2955.0000     8.6267   116.7020     2.5184     0.0194   -53.6093     5.1690     5.4464     8.0232
 2955.5000     8.6293   115.5748     2.5193     0.0187   -53.6006     5.1637     5.3013     7.9707
 2956.0000     8.6324   115.6324     2.5187     0.0173   -53.7398     5.1068     5.1594     7.8642
 2956.5000     8.6051   115.3690     2.5188     0.0159   -53.7308     5.0746     5.0207     7.6529
 2957.0000     8.5778   115.1170     2.5181     0.0138   -53.7203     5.0306     4.8869     7.2948
 2957.5000     8.5953   113.9824     2.5145     0.0139   -53.7116     4.9448     4.8894     7.0500
 2958.0000     8.6425   111.3443     2.5072     0.0132   -53.7029     4.8809     4.8919     6.8606
 2958.5000     8.6295   113.7766     2.4998     0.0134   -53.6953     4.8510     4.8944     6.7689
 2959.0000     8.6327   115.6872     2.4984     0.0142   -53.6864     4.8213     4.9026     6.9171
 2959.5000     8.6502   117.1590     2.4993     0.0143   -53.6769     4.7917     5.0026     7.0112
 2960.0000     8.6070   116.6090     2.5031     0.0144   -53.6682     4.7962     5.1100     6.9652
 2960.5000     8.5932   116.6551     2.5064     0.0153   -53.6595     4.8329     5.1837     7.0164
 2961.0000     8.5988   116.9993     2.5124     0.0146   -53.6508     4.8699     5.3317     7.2150
 2961.5000     8.6014   118.2376     2.5170     0.0148   -53.6414     4.9412     5.4461     7.6794
 2962.0000     8.6039   119.4760     2.5223     0.0134   -53.6331     4.9209     5.6016     8.0064
 2962.5000     8.6064   120.7153     2.5195     0.0119   -53.6243     4.9240     5.7218     8.3474
 2963.0000     8.6090   121.0586     2.5151     0.0113   -53.6154     4.9265     5.8851     8.3502
 2963.5000     8.6413   120.2105     2.5062     0.0092   -53.6065     4.9290     6.0531     8.2386
 2964.0000     8.6290   119.6720     2.5004     0.0078   -53.5976     4.9655     6.1405     8.0172
 2964.5000     8.5123   118.5259     2.5005     0.0071   -53.5888     4.9680     6.2328     7.9068
 2965.0000     8.2735   117.3797     2.5014     0.0080   -53.5792     4.9365     6.3191     7.9295
 2965.5000     8.1454   115.6375     2.5030     0.0089   -53.5710     4.9390     6.2794     8.3650
 2966.0000     8.0586   114.1697     2.5046     0.0112   -53.5619     4.9076     6.2394     8.4840
 2966.5000     8.0164   113.0471     2.5055     0.0135   -53.7011     4.8736     6.1569     8.3131
 2967.0000     7.9736   113.7009     2.5040     0.0159   -53.6923     4.8067     6.0754     8.0897
 2967.5000     7.9768   114.0451     2.4997     0.0160   -53.6834     4.7167     5.9538     7.8724
 2968.0000     7.9638   114.6873     2.4961     0.0138   -53.6627     4.6227     5.5977     7.5040
 2968.5000     7.9819   115.3296     2.4910     0.0132   -53.5170     4.4994     5.0492     7.0549
 2969.0000     7.9844   115.9718     2.4870     0.0133   -53.6584     4.3195     4.6177     6.7248
 2969.5000     8.1080   116.6141     2.4827     0.0134   -53.6479     3.9518     4.2525     6.4992
 2970.0000     8.3681   117.5956     2.4783     0.0135   -53.6391     3.4216     4.0258     5.6212
 2970.5000     7.9330   116.1217     2.4740     0.0136   -53.6302     3.1737     3.8643     5.0927
 2971.0000     7.8164   114.3794     2.4713     0.0130   -53.6208     3.1535     3.8396     4.0714
 2971.5000     7.8189   111.1468     2.4715     0.0123   -53.6121     3.1989     3.9498     3.2438
 2972.0000     7.8215   112.0872     2.4746     0.0117   -53.6035     3.2898     4.1476     4.0461
 2972.5000     7.8538   114.8158     2.4785     0.0111   -53.5947     3.4343     4.2956     5.2586
 2973.0000     7.8712   117.2464     2.4838     0.0112   -53.5858     3.6348     4.4488     7.0772
 2973.5000     7.8738   120.6518     2.4937     0.0105   -53.5752     3.8872     4.5758     7.6902
 2974.0000     7.8912   127.4843     2.5043     0.0099   -53.5666     4.1663     4.7391     7.2300
 2974.5000     7.8789   129.3188     2.5044     0.0100   -53.5592     4.4044     4.9081     7.3328
 2975.0000     7.8516   130.2591     2.5030     0.0101   -53.5256     4.5924     5.0832     7.8048
 2975.5000     7.8392   131.4975     2.5024     0.0102   -53.3919     4.7885     5.2283     8.1935
 2976.0000     7.8722   133.3320     2.5010     0.0095   -53.3846     4.8574     5.4149     8.3100
 2976.5000     7.9046   135.1665     2.4989     0.0089   -53.3752     4.8598     5.5758     8.0866
 2977.0000     7.9071   136.7173     2.4982     0.0090   -53.3666     4.8623     5.7419     7.8694
 2977.5000     7.8941   132.8857     2.5013     0.0091   -53.6537     4.8647     5.8521     7.5518
 2978.0000     7.8526   130.8454     2.5037     0.0092   -53.6450     4.8672     5.8551     7.2383
 2978.5000     7.8402   119.8632     2.5009     0.0086   -53.6361     4.8697     5.8581     6.9587
 2979.0000     7.8428   116.6205     2.4972     0.0087   -53.6272     4.8666     5.8207     6.8651
 2979.5000     7.8603   113.9980     2.4951     0.0088   -53.6183     4.8079     5.7835     6.8677
 2980.0000     7.9230   110.4674     2.4892     0.0089   -53.6770     4.7446     5.6678     6.9657
 2980.5000     7.8808   108.1175     2.4826     0.0094   -53.7485     4.6821     5.5154     7.2623
 2981.0000     7.8387   109.6654     2.4812     0.0099   -53.7380     4.5578     5.3224     7.5196
 2981.5000     7.8108   111.7980     2.4836     0.0100   -53.7308     4.4363     5.1530     7.5735
 2982.0000     7.8140   113.6569     2.4860     0.0116   -53.6568     4.3174     4.7454     7.2197
 2982.5000     7.8010   115.1804     2.4861     0.0117   -53.5648     4.1453     4.4259     6.7877
 2983.0000     7.7737   116.4188     2.4840     0.0110   -53.5561     3.9796     4.2314     6.4256
 2983.5000     7.7619   118.5513     2.4833     0.0104   -53.5473     3.8469     4.0829     6.0688
 2984.0000     7.7343   120.3858     2.4834     0.0105   -53.5385     3.7444     3.9732     5.4112
 2984.5000     7.7522   119.5378     2.4836     0.0099   -53.5279     3.6175     3.8673     4.8488
 2985.0000     7.7702   118.6885     2.4797     0.0099   -53.5192     3.5230     3.8693     4.5902
 2985.5000     7.7870   118.7362     2.4741     0.0100   -53.3626     3.4766     3.8710     4.3454
 2986.0000     7.7455   119.7293     2.4742     0.0101   -53.3539     3.4788     3.8732     3.9195
 2986.5000     7.7630   121.2241     2.4743     0.0103   -53.1973     3.5683     3.9121     4.6266
 2987.0000     7.7804   123.0585     2.4760     0.0104   -53.1886     3.7304     3.9858     5.4610
 2987.5000     7.7978   125.7872     2.4873     0.0112   -53.1799     3.8254     4.0996     6.3575
 2988.0000     7.8004   130.6023     2.5001     0.0113   -53.1716     3.9729     4.2753     7.2998
 2988.5000     7.7731   134.5052     2.5017     0.0107   -53.1626     4.1141     4.5887     7.7163
 2989.0000     7.7459   138.6924     2.5011     0.0093   -53.1538     4.2897     4.8578     7.8261
 2989.5000     7.7335   142.8795     2.4990     0.0086   -53.1287     4.4422     5.1964     7.9689
 2990.0000     7.7516   146.5957     2.4969     0.0087   -52.9216     4.6001     5.5326     8.1628
 2990.5000     7.7988   146.6418     2.4902     0.0096   -52.8313     4.7844     5.8097     8.2220
