~VERSION INFORMATION
 VERS.                2.0:   CWLS LOG ASCII STANDARD - VERSION 2.0
 WRAP.                 NO:   ONE LINE PER DEPTH STEP
~WELL INFORMATION
#MNEM.UNIT      DATA TYPE    INFORMATION
#----------   ------------   ------------------------------
 STRT.F          197.0000:   START DEPTH
 STOP.F         3074.5000:   STOP DEPTH
 STEP.F            0.5000:   STEP LENGTH
 NULL.          -999.2500:   NO VALUE
 COMP.    FENIX & SCISSON:   COMPANY
 WELL.   FENIX "A" #36-21:   WELL
 FLD .             NPR #3:   FIELD
 LOC .      S21 T39N R78W:   LOCATION
 CNTY.            NATRONA:   COUNTY
 STAT.            WYOMING:   STATE
 CTRY. UNITED STATES OF AMERICA:   COUNTRY
 SRVC.              WELEX:   SERVICE COMPANY
 DATE.        06-JUL-1977:   LOGDATE
 API .     49025103920000:   API NUMBER
~CURVE INFORMATION
#MNEM.UNIT       API CODE    CURVE DESCRIPTION
#----------   ------------   ------------------------------
 DEPT.F                  :   
 CALD.IN     45 280 60 00:   CALIPER FROM DENSITY LOG
 GRD .GAPI   45 310 01 00:   GAMMA RAY FROM DENSITY LOG
 CORR.G/C3   45 356 01 00:   DENSITY CORRECTION
 RHOB.G/C3   45 350 01 00:   BULK DENSITY
 SPR .MV     11 010 01 00:   SPONTANEOUS POTENTIAL FROM RES.
 FORX.OHMM   11 000 00 00:   FORMATION FACTOR
 GURD.OHMM   11 220 05 00:   GUARD LOG RESISTIVITY
 NPHI.DEC    42 890 03 00:   NEUTRON POROSITY SANDSTONE
~PARAMETER INFORMATION
#MNEM.UNIT          VALUE    DESCRIPTION
#----------   ------------   ------------------------------
 EKB .F         4960.0000:   Kelly bushing
 EGL .F         4950.0000:   Ground level
 EDF .F            0.0000:   Drilling floor
 EPD .F         4950.0000:   Permanent datum
 TD  .F         3078.0000:   Total depth
 CLNT.            A2DTECH:   Client Code
 SL  . 1650' FSL & 1650' FWL:   Surface Location
 PD  .                 GL:   Permanent Datum
 DAPD.F                10:   Feet Above Permanent Datum
 DATE.        06-JUL-1977:   Date Logged [DD-MMM-YYYY]
 DD  .F              3066:   Depth driller
 DL  .F              3078:   Depth logger
 BLI .F              3076:   Bottom log interval
 TLI .F               200:   Top log interval
 CS1 .IN            8.625:   Casing size
 BS1 .IN            7.875:   Bit size
 BSD1.F              3066:   Depth drilled with bit1
 DFT .            KCL MUD:   Type fluid in hole
 DFD .                9.2:   Density
 DFV .                 35:   Viscosity
 DFPH.                7.5:   pH
 DFL .                 18:   Fluid loss
 MSS .           FLOWLINE:   Source of sample
 RMS .OHMM            0.9:   Rm
 MST .F                80:   Rm Meas. temp.
 RMF .OHMM           0.81:   Rmf
 MFST.F                80:   Rmf Meas. temp.
 MFSS.               FANN:   Source Rmf.
 RMC .OHMM           1.06:   Rmc
 MCST.F                80:   Rmc Meas. temp.
 MCSS.                KIT:   Source Rmc.
 RMB .OHMM           0.60:   Rm. at BHT
 BHT .F               119:   BHT.
 TCS .HRS               3:   Time Circ. stopped
 MRT .F               119:   Maximum recorded temp.
 LUN .               8611:   Logging unit number
 LUL .             CASPER:   Logging unit location
 ENGI.             C DOAK:   Recorded By
 WITN.         HARRINGTON:   Witnessed by
 ORIG.           5" PRINT:   Origin of data
 UWI .     49025103920000:   Unique Well ID
 DICO. A2D TECHNOLOGIES,INC.:   Digitizing Company
~OTHER INFORMATION
~A   DEPT     CALD         GRD      CORR       RHOB        SPR       FORX       GURD       NPHI   
# ...
 2262.5000     7.8069   121.9747     0.0687     2.5344   -67.5509    10.7355     8.1233     0.3023
 2263.0000     7.8238   123.7947     0.0719     2.5278   -67.6929    10.9621     7.9031     0.2996
 2263.5000     7.8407   125.0146     0.0764     2.5234   -67.8324    10.7958     7.1759     0.2915
 2264.0000     7.8428   125.0547     0.0766     2.5220   -68.1216     9.8217     6.9812     0.2823
 2264.5000     7.8301   124.7897     0.0768     2.5206   -68.2610     9.5564     7.1849     0.2697
 2265.0000     7.8322   123.6598     0.0769     2.5222   -68.3982     9.5584     6.9833     0.2570
 2265.5000     7.8343   122.5199     0.0771     2.5275   -68.3877     9.5603     7.1913     0.2501
 2266.0000     7.8364   121.9700     0.0773     2.5201   -68.0778    10.6773     7.6943     0.2549
 2266.5000     7.8237   122.9049     0.0745     2.5142   -67.7659    10.8272     7.6424     0.2666
 2267.0000     7.8259   124.4199     0.0731     2.5203   -67.6060     9.3059     6.6118     0.2739
 2267.5000     7.8284   125.9349     0.0703     2.5077   -67.4460     8.8693     5.4503     0.2788
 2268.0000     7.8601   126.8598     0.0675     2.5003   -67.2861     7.9416     5.0872     0.2800
 2268.5000     7.8622   126.8999     0.0647     2.4893   -67.2759     9.1209     6.0050     0.2776
 2269.0000     7.8791   126.6349     0.0634     2.4745   -67.0704     8.9360     6.5246     0.2764
 2269.5000     7.8812   125.5050     0.0635     2.4627   -66.8134    10.1192     7.3890     0.2761
 2270.0000     7.8833   123.7366     0.0637     2.4553   -66.9461     9.3821     7.3833     0.2769
 2270.5000     7.8701   120.5804     0.0639     2.4604   -66.9280     7.7902     5.5993     0.2808
 2271.0000     7.8727   118.5555     0.0656     2.4808   -67.0601     7.5274     5.3806     0.2820
 2271.5000     7.8452   117.4056     0.0687     2.5017   -67.0419     8.1225     8.0319     0.2807
 2272.0000     7.8474   118.9305     0.0719     2.5315   -67.0207     9.5859     8.1444     0.2773
 2272.5000     7.8347   120.7405     0.0750     2.5375   -67.0031     9.8559     7.2938     0.2726
 2273.0000     7.8368   122.5504     0.0767     2.5279   -67.1397     9.7114     7.3962     0.2708
 2273.5000     7.8390   124.0654     0.0768     2.5228   -67.1178     9.4603     7.8715     0.2693
 2274.0000     7.8415   125.6049     0.0740     2.5184   -67.1002     9.4627     7.2968     0.2681
 2274.5000     7.8436   127.1053     0.0697     2.5147   -67.2368     9.5960     6.9989     0.2665
 2275.0000     7.8457   127.7253     0.0669     2.5134   -67.2148     9.5315     7.1081     0.2638
 2275.5000     7.8478   126.5954     0.0655     2.5098   -67.1973     9.4680     7.2997     0.2635
 2276.0000     7.8346   124.8655     0.0642     2.5009   -67.1796     9.4703     6.7670     0.2653
 2276.5000     7.8372   123.1356     0.0629     2.4891   -67.3299     9.4723     6.6750     0.2694
 2277.0000     7.8393   121.4057     0.0631     2.4817   -67.4441     9.4742     6.5389     0.2763
 2277.5000     7.8113   121.1504     0.0633     2.4945   -67.7259     9.4761     6.2744     0.2814
 2278.0000     7.7991   122.1046     0.0640     2.5057   -67.7040     9.7004     7.1059     0.2865
 2278.5000     7.8013   122.7158     0.0666     2.5073   -67.6865    10.4410     7.4074     0.2913
 2279.0000     7.8034   121.5759     0.0682     2.5051   -67.5192    10.3001     7.2520     0.2961
 2279.5000     7.8055   119.8460     0.0684     2.5037   -67.5017     9.4842     6.9151     0.3009
 2280.0000     7.8081   118.7061     0.0700     2.5030   -67.4842     8.4370     6.4996     0.2996
 2280.5000     7.8250   118.4411     0.0702     2.5083   -67.3169     8.3803     6.3234     0.2996
 2281.0000     7.8271   119.0811     0.0689     2.5121   -67.2994     8.9803     6.3242     0.3011
 2281.5000     7.8292   120.0061     0.0675     2.5174   -67.4315     8.7381     6.6843     0.2996
 2282.0000     7.8313   121.2271     0.0662     2.5182   -67.5637     9.1721     6.7315     0.2993
 2282.5000     7.8334   122.1534     0.0649     2.5122   -67.6959     9.6275     6.5488     0.3007
 2283.0000     7.8503   122.7911     0.0636     2.5036   -67.8280     8.7251     5.9876     0.2950
 2283.5000     7.8672   123.1261     0.0623     2.4940   -67.9602     8.0513     5.3224     0.2899
 2284.0000     7.8693   123.5478     0.0624     2.4896   -67.9382     7.9423     5.5299     0.2911
 2284.5000     7.8566   123.7961     0.0611     2.4904   -67.9207     7.8897     5.9081     0.2982
 2285.0000     7.8439   123.8361     0.0613     2.5046   -67.9032     7.9459     6.2015     0.3024
 2285.5000     7.8461   123.8762     0.0630     2.5121   -67.7359     8.1697     6.5545     0.3039
 2286.0000     7.8334   123.3262     0.0646     2.5011   -67.7184     8.9375     6.8800     0.3105
 2286.5000     7.8360   122.7863     0.0663     2.5034   -67.5509     9.3974     6.8336     0.3246
 2287.0000     7.8381   121.9414     0.0694     2.5124   -67.3832     9.2546     6.9775     0.3288
 2287.5000     7.8402   121.0964     0.0696     2.5117   -67.3620    10.0548     6.6035     0.3295
 2288.0000     7.8423   120.2515     0.0698     2.5140   -67.3444     8.4070     6.0374     0.3245
 2288.5000     7.8444   119.6916     0.0699     2.5163   -67.3269     8.4669     6.1338     0.3182
 2289.0000     7.8613   119.1505     0.0671     2.5179   -67.3094     8.7656     6.5609     0.3053
 2289.5000     7.8634   119.1953     0.0658     2.5150   -67.4459     9.2008     6.6070     0.3004
 2290.0000     7.8655   122.5956     0.0630     2.5099   -67.5737     9.0143     6.2100     0.3004
 2290.5000     7.8676   126.3614     0.0602     2.5040   -67.5561     8.7106     6.0417     0.3004
 2291.0000     7.8697   128.1713     0.0588     2.4951   -67.6886     8.4754     6.0425     0.3007
 2291.5000     7.8570   129.3913     0.0575     2.4784   -67.8205     8.4188     6.0852     0.3013
 2292.0000     7.8443   129.7163     0.0562     2.4671   -67.7689     8.4206     6.0860     0.3018
 2292.5000     7.8169   128.8814     0.0564     2.4627   -67.6282     8.4223     6.1297     0.3024
 2293.0000     7.8195   128.9214     0.0580     2.4784   -67.4641     8.4827     6.2150     0.3027
 2293.5000     7.8216   129.2566     0.0597     2.4897   -67.6006     8.5431     6.1308     0.3039
 2294.0000     7.8533   129.9312     0.0613     2.4987   -67.8781     8.5448     6.0473     0.3069
 2294.5000     7.8554   131.4114     0.0630     2.5069   -68.1643     8.3141     5.8836     0.3095
 2295.0000     7.8575   133.8113     0.0632     2.5003   -68.2965     7.9240     5.7239     0.3122
 2295.5000     7.8744   136.8012     0.0618     2.4706   -67.9752     7.8166     5.7249     0.3146
 2296.0000     7.8925   138.3162     0.0605     2.4632   -67.6582     7.8186     5.6863     0.3177
 2296.5000     7.8944   136.5863     0.0577     2.4626   -67.6407     7.7664     5.4187     0.3224
 2297.0000     7.8964   134.8564     0.0549     2.4642   -67.4731     7.2460     4.8518     0.3272
 2297.5000     7.8984   131.9278     0.0535     2.4673   -67.4515     6.9298     4.2759     0.3329
 2298.0000     7.9003   129.2859     0.0522     2.4696   -67.4340     5.8986     4.4069     0.3401
 2298.5000     7.8727   127.3169     0.0524     2.4659   -67.4164     7.9904     5.8901     0.3455
 2299.0000     7.8450   126.4719     0.0526     2.4630   -67.5530     8.3296     5.8101     0.3458
 2299.5000     7.8623   126.2070     0.0528     2.4624   -67.5311     8.3313     5.7707     0.3434
 2300.0000     7.8790   125.6663     0.0529     2.4647   -67.5135     8.2186     5.7058     0.3358
 2300.5000     7.9106   132.1875     0.0546     2.4804   -67.4960     7.9408     5.6147     0.3271
 2301.0000     7.9125   136.9388     0.0562     2.4849   -67.4784     7.8326     5.6541     0.3232
 2301.5000     7.9145   139.6408     0.0579     2.4850   -67.4609     7.7792     5.7331     0.3213
 2302.0000     7.9164   140.8378     0.0610     2.4881   -67.4431     7.7799     5.7732     0.3201
 2302.5000     7.9184   139.1061     0.0627     2.4993   -67.4027     7.9430     5.7339     0.3192
