~VERSION INFORMATION
 VERS.                2.0:   CWLS LOG ASCII STANDARD - VERSION 2.0
 WRAP.                 NO:   ONE LINE PER DEPTH STEP
~WELL INFORMATION
#MNEM.UNIT      DATA TYPE    INFORMATION
#----------   ------------   ------------------------------
 STRT.F          290.0000:   START DEPTH
 STOP.F         2884.0000:   STOP DEPTH
 STEP.F            0.5000:   STEP LENGTH
 NULL.          -999.2500:   NO VALUE
 COMP.   FENNIX & SCISSON:   COMPANY
 WELL. FENIX & SCISSON AX #22-28:   WELL
 FLD .             NPR #3:   FIELD
 LOC .      S28 T39N R78W:   LOCATION
 CNTY.            NATRONA:   COUNTY
 STAT.            WYOMING:   STATE
 CTRY. UNITED STATES OF AMERICA:   COUNTRY
 SRVC.              WELEX:   SERVICE COMPANY
 DATE.        29-DEC-1979:   LOGDATE
 API .     49025107930000:   API NUMBER
~CURVE INFORMATION
#MNEM.UNIT       API CODE    CURVE DESCRIPTION
#----------   ------------   ------------------------------
 DEPT.F                  :   
 GRD .GAPI   45 310 01 00:   GAMMA RAY FROM DENSITY LOG
 CALD.IN     45 280 60 00:   CALIPER FROM DENSITY LOG
 CORR.G/C3   45 356 01 00:   DENSITY CORRECTION
 RHOB.G/C3   45 350 01 00:   BULK DENSITY
 NPHI.DEC    42 890 03 00:   NEUTRON POROSITY SANDSTONE
 SPR .MV     07 010 01 00:   SPONTANEOUS POTENTIAL
 TENR.LBS    07 635 01 00:   TENSION FROM RESISTIVITY
 ILD .OHMM   07 120 46 00:   DEEP INDUCTION RESISTIVITY
 ILM .OHMM   07 120 44 00:   INDUCTION LOG MEDIUM RESISTIVITY
 SGRD.OHMM   07 220 08 00:   LATEROLOG-8 RES.
~PARAMETER INFORMATION
#MNEM.UNIT          VALUE    DESCRIPTION
#----------   ------------   ------------------------------
 EKB .F         4988.0000:   Kelly bushing
 EGL .F         4978.0000:   Ground level
 EPD .F         4978.0000:   Permanent datum
 TD  .F         2872.0000:   Total depth
 CLNT.            A2DTECH:   Client Code
 SL  . 803' FNL & 938' FWL:   Surface Location
 DATE.        29-DEC-1979:   Date Logged [DD-MMM-YYYY]
 DD  .F              2868:   Depth driller
 DL  .F              2872:   Depth logger
 BLI .F              2870:   Bottom log interval
 TLI .F               300:   Top log interval
 CS1 .              8.625:   Casing size
 CBD1.      8.625" @ 318':   Casing driller 1
 CBL1.IN              318:   Casing logger 1
 BS1 .IN            7.875:   Bit size
 BSD1.F              2868:   Depth drilled with bit1
 DFT .          GEL-BENEX:   Type fluid in hole
 DFD .                8.8:   Density
 TCS .HRS              10:   Time Circ. stopped
 MRT .F               109:   Maximum recorded temp.
 ENGI.               REIN:   Recorded By
 WITN.          MR. AMEND:   Witnessed by
 ORIG.      2.5" 5" PRINT:   Origin of data
 UWI .     49025107930000:   Unique Well ID
 DICO. A2D TECHNOLOGIES, INC.:   Digitizing Company
 PD  .                 GL:   Permanent Datum
 LMF .                 KB:   Log Measured From
 DMF .                 KB:   Drilling Measured From
~OTHER INFORMATION
~A   DEPT       GRD        CALD     CORR         RHOB       NPHI      SPR       TENR        ILD        ILM       SGRD   
# ...
 1127.5000   107.9937     9.3037     0.0353     2.5749     0.2746   -68.7196  1290.0197     8.2368     8.2223     9.8766
 1128.0000   105.5534     9.2908     0.0275     2.5697     0.2711   -68.7137  1289.1318     8.2526     8.2235     9.8786
 1128.5000   105.3657     9.2764     0.0198     2.5533     0.2637   -68.7083  1288.2441     8.6005     8.2246    10.0178
 1129.0000   107.4751     9.2778     0.0058     2.5391     0.2609   -68.7018  1287.3567     8.7391     8.3513     9.7474
 1129.5000   109.5786     9.2631    -0.0066     2.5204     0.2580   -68.6959  1286.4689     9.1939     8.5858    10.3022
 1130.0000   110.4935     9.2644    -0.0128     2.5122     0.2561   -68.3924  1285.5812     9.3214     8.8270    10.3043
 1130.5000   108.4365     9.2655    -0.0158     2.5063     0.2539   -68.3864  1284.6935     9.1951     9.0748    10.1653
 1131.0000   106.6768     9.2665    -0.0160     2.5042     0.2526   -68.3810  1283.8058     8.9248     9.3503    10.0279
 1131.5000   105.5055     9.2676    -0.0173     2.5155     0.2523   -68.3746  1282.9182     8.7058     9.7004    10.0302
 1132.0000   108.5064     9.2532    -0.0188     2.5209     0.2532   -68.6667  1284.4708     8.5878     9.1617    10.1716
 1132.5000   108.2326     9.2388    -0.0234     2.5126     0.2534   -68.6603  1286.2588     8.4715     8.7928    10.4581
 1133.0000   106.7700     9.2244    -0.0296     2.5038     0.2537   -68.6544  1288.0466     8.4722     8.5798    10.4603
 1133.5000   105.6046     9.2100    -0.0342     2.4897     0.2530   -68.6485  1289.8346     8.4728     8.5546    10.1777
 1134.0000   106.5200     9.2268    -0.0295     2.4860     0.2527   -68.6426  1291.6224     8.4733     8.4654     9.9031
 1134.5000   107.4401     9.2588    -0.0217     2.4929     0.2545   -68.3390  1293.4104     8.4739     8.4668    10.3234
 1135.0000   108.3549     9.2907    -0.0134     2.5005     0.2579   -68.0355  1295.1982     8.4745     8.4679    10.1842
 1135.5000   107.4867     9.3072    -0.0263     2.4983     0.2600   -68.0297  1296.9862     8.5920     8.5858     9.9090
 1136.0000   105.4298     9.3083    -0.0293     2.4954     0.2627   -68.0236  1298.7740     8.5926     8.6217     9.6417
 1136.5000   102.4813     9.3248    -0.0165     2.5165     0.2591   -68.0177  1300.5620     8.7118     8.7065     9.5116
 1137.0000   100.4244     9.3102    -0.0054     2.5324     0.2543   -68.0117  1302.3499     8.7124     8.8276    10.0530
 1137.5000    99.8475     9.3424     0.0020     2.5415     0.2530   -68.0058  1304.1378     8.8332     8.9916    10.0551
 1138.0000   100.7682     9.3435     0.0051     2.5469     0.2526   -67.9999  1305.9258     8.8338     9.0751    10.1968
 1138.5000   101.9802     9.3136     0.0098     2.5507     0.2538   -67.9940  1307.7136     8.8344     9.0763    10.1989
 1139.0000   102.0308     9.2978     0.0130     2.5531     0.2547   -67.9880  1309.5016     8.8350     9.0775    10.2010
 1139.5000   101.4325     9.2666     0.0162     2.5494     0.2568   -67.9821  1311.2894     8.8356     9.0788    10.2031
 1140.0000    99.3362     9.2550     0.0178     2.5525     0.2633   -67.9762  1313.0774     8.9582     9.0800    10.3469
 1140.5000    97.9130     9.2406     0.0209     2.5556     0.2704   -67.9703  1314.8652     8.9588     8.9578    10.3490
 1141.0000    98.8336     9.2573     0.0225     2.5535     0.2753   -67.9643  1316.6532     8.9594     8.8373    10.3511
 1141.5000    99.4513     9.2584     0.0241     2.5513     0.2787   -67.9583  1318.4410     9.0044     8.7856    10.3533
 1142.0000   100.9605     9.2595     0.0257     2.5568     0.2808   -67.9524  1320.2290     9.0843     8.7196    10.3554
 1142.5000   101.8753     9.2296     0.0258     2.5614     0.2761   -67.9464  1322.0168     9.0849     8.7208    10.3575
 1143.0000   102.7902     9.1997     0.0258     2.5605     0.2749   -67.9405  1324.7670     9.0855     8.7220    10.3597
 1143.5000   104.0022     9.1544     0.0274     2.5615     0.2788   -67.9345  1328.0032     8.9624     8.7232    10.3618
 1144.0000   105.2142     9.1246     0.0259     2.5653     0.2797   -67.9286  1331.2395     8.9631     8.6058    10.3639
 1144.5000   106.7234     9.0786     0.0244     2.5669     0.2778   -67.9226  1334.4757     8.6027     8.4900    10.3661
 1145.0000   107.0439     9.0320     0.0229     2.5685     0.2750   -67.9166  1337.7120     8.3707     8.3150    10.5122
 1145.5000   105.8785     8.9889     0.0229     2.5701     0.2749   -67.9107  1340.9484     8.2573     8.2630    10.6603
 1146.0000   104.4083     8.9436     0.0214     2.5665     0.2746   -67.9048  1344.1846     8.1454     8.2641    10.6703
 1146.5000   103.8138     8.8980     0.0184     2.5546     0.2730   -67.8988  1347.4209     7.9257     8.0894    10.0924
 1147.0000   104.4683     8.8994     0.0153     2.5494     0.2723   -67.8929  1350.6571     7.8183     7.8706     9.9563
 1147.5000   106.2747     8.9159     0.0107     2.5435     0.2726   -67.8869  1353.8934     7.7125     7.8271     9.9583
 1148.0000   107.1895     8.8706     0.0138     2.5368     0.2741   -67.8809  1357.1296     7.6080     7.7218    10.2389
 1148.5000   106.3213     8.7944     0.0233     2.5324     0.2756   -67.8750  1360.3660     7.4028     7.6178    10.2410
 1149.0000   105.7503     8.7954     0.0298     2.5355     0.2774   -67.8690  1363.6022     7.4033     7.5153    10.1028
 1149.5000   106.0708     8.8274     0.0280     2.5401     0.2777   -67.6907  1366.8385     7.4038     7.4142     9.8301
 1150.0000   106.0941     8.8439     0.0171     2.5372     0.2761   -67.5595  1369.0476     7.4043     7.4154     9.6975
 1150.5000   104.3343     8.8295     0.0109     2.5253     0.2779   -67.5536  1368.1549     7.3040     7.4164     9.6995
 1151.0000   103.1689     8.8306     0.0094     2.5314     0.2795   -67.5477  1367.2620     7.3045     7.3863     9.5686
 1151.5000   102.5974     8.8473     0.0235     2.5367     0.2791   -67.5416  1366.3691     7.3050     7.4184     9.7035
 1152.0000   102.6212     8.8793     0.0189     2.5406     0.2791   -67.5357  1365.4762     7.3055     7.4194     9.5726
 1152.5000   102.9417     8.9113     0.0049     2.5289     0.2819   -67.5918  1364.5834     7.3060     7.4204     9.5702
 1153.0000   102.3279     8.9432     0.0096     2.5160     0.2803   -67.8221  1363.6906     7.3065     7.4214     9.4454
 1153.5000   102.6969     8.9443     0.0098     2.5145     0.2747   -67.8154  1362.7976     7.3070     7.5247     9.4473
 1154.0000   103.3146     8.9608    -0.0074     2.4997     0.2691   -67.8095  1361.9048     7.4084     7.6294     9.4494
 1154.5000   103.9264     8.9619    -0.0199     2.4930     0.2687   -67.8036  1361.0120     7.4089     7.7356     9.4513
 1155.0000   102.7669     8.9629    -0.0245     2.4976     0.2693   -67.7977  1360.1190     7.4094     7.7367     9.4533
 1155.5000   102.7902     8.9640    -0.0182     2.5022     0.2677   -67.7914  1359.2262     7.5121     7.7377     9.4648
 1156.0000   103.1106     8.9496    -0.0135     2.5061     0.2665   -67.4881  1358.3333     7.6163     7.7388     9.4571
 1156.5000   102.8310     8.9507    -0.0087     2.5107     0.2667   -67.5641  1357.4404     7.7220     7.8465     9.6020
 1157.0000   102.5571     8.9520    -0.0071     2.5078     0.2684   -67.7746  1356.5463     7.8291     7.8476     9.9975
 1157.5000   102.2882     8.9530    -0.0031     2.5124     0.2676   -67.7679  1355.6549     7.9376     7.9568     9.9996
 1158.0000   102.9067     8.9541     0.0009     2.5230     0.2651   -67.7619  1354.7620     8.0477     7.9579    10.0016
 1158.5000   103.2351     8.9552     0.0049     2.5268     0.2685   -68.0545  1353.8691     8.0483     8.1798    10.0037
 1159.0000   104.1426     8.9562     0.0089     2.5329     0.2713   -68.0477  1352.9762     8.0488     8.1809    10.0058
 1159.5000   105.3599     8.9580     0.0152     2.5436     0.2728   -68.0416  1352.0835     8.1605     8.2948    10.0255
 1160.0000   106.5719     8.9597     0.0168     2.5466     0.2724   -68.0357  1351.1904     8.1610     8.2959    10.1489
 1160.5000   107.1895     8.9614     0.0151     2.5362     0.2727   -68.0298  1350.2977     8.1616     8.2970    10.1510
