~VERSION INFORMATION
 VERS.                2.0:   CWLS LOG ASCII STANDARD - VERSION 2.0
 WRAP.                 NO:   ONE LINE PER DEPTH STEP
~WELL INFORMATION
#MNEM.UNIT      DATA TYPE    INFORMATION
#----------   ------------   ------------------------------
 STRT.F          199.0000:   START DEPTH
 STOP.F         2951.0000:   STOP DEPTH
 STEP.F            0.5000:   STEP LENGTH
 NULL.          -999.2500:   NO VALUE
 COMP.    FENIX & SCISSON:   COMPANY
 WELL. FENIX & SCISSON "A" #3-21:   WELL
 FLD .              XPR-3:   FIELD
 LOC .      S21 T39N R78W:   LOCATION
 CNTY.            NATRONA:   COUNTY
 STAT.            WYOMING:   STATE
 CTRY. UNITED STATES OF AMERICA:   COUNTRY
 SRVC.              WELEX:   SERVICE COMPANY
 DATE.        27-JUN-1977:   LOGDATE
 API .     49025103880000:   API NUMBER
~CURVE INFORMATION
#MNEM.UNIT       API CODE    CURVE DESCRIPTION
#----------   ------------   ------------------------------
 DEPT.F                  :   
 CALD.IN     45 280 60 00:   CALIPER FROM DENSITY LOG
 GRD .GAPI   45 310 01 00:   GAMMA RAY FROM DENSITY LOG
 CORR.G/C3   45 356 01 00:   DENSITY CORRECTION
 RHOB.G/C3   45 350 01 00:   BULK DENSITY
 SPR .MV     07 010 01 00:   SPONTANEOUS POTENTIAL
 ILD .OHMM   07 120 46 00:   DEEP INDUCTION RESISTIVITY
 ILM .OHMM   07 120 44 00:   INDUCTION LOG MEDIUM RESISTIVITY
 SGRD.OHMM   07 220 05 00:   SHALLOW SHORT GUARD RESISTIVITY
~PARAMETER INFORMATION
#MNEM.UNIT          VALUE    DESCRIPTION
#----------   ------------   ------------------------------
 EKB .F         4981.0000:   Kelly bushing
 EGL .F         4971.0000:   Ground level
 TD  .F         2953.0000:   Total depth
 CLNT.            A2DTECH:   Client Code
 SL  . 330' FSL & 1650' FWL:   Surface Location
 DATE.        27-JUN-1977:   Date Logged [DD-MMM-YYYY]
 DD  .F              2930:   Depth driller
 DL  .F              2953:   Depth logger
 BLI .F              2951:   Bottom log interval
 TLI .F               200:   Top log interval
 CS1 .              8.625:   Casing size
 CBD1.      8.625" @ 217':   Casing driller 1
 BS1 .IN            7.875:   Bit size
 BSD1.F              2930:   Depth drilled with bit1
 DFT .            KCL MUD:   Type fluid in hole
 DFD .                9.4:   Density
 DFV .                 37:   Viscosity
 DFPH.                9.0:   pH
 DFL .               16.0:   Fluid loss
 MSS .           FLOWLINE:   Source of sample
 RMS .OHMM           1.10:   Rm
 MST .F                92:   Rm Meas. temp.
 RMF .OHMM           0.85:   Rmf
 MFST.F                92:   Rmf Meas. temp.
 MFSS.           FANN KIT:   Source Rmf.
 RMC .OHMM           1.44:   Rmc
 MCST.F                92:   Rmc Meas. temp.
 MCSS.           FANN KIT:   Source Rmc.
 RMB .OHMM           0.93:   Rm. at BHT
 BHT .F               109:   BHT.
 TCS .HRS            0230:   Time Circ. stopped
 MRT .F               109:   Maximum recorded temp.
 LUN .               8611:   Logging unit number
 LUL .             CASPER:   Logging unit location
 ENGI.         G. BENTSEN:   Recorded By
 WITN.  MR. W. PETTINGILL:   Witnessed by
 ORIG.      2.5" 5" PRINT:   Origin of data
 UWI .     49025103880000:   Unique Well ID
 DICO. A2D TECHNOLOGIES, INC.:   Digitizing Company
 PD  .                 GL:   Permanent Datum
 EPD .               4971:   Elevation Permanent Datum
 LMF .                 KB:   Log Measured From
 DMF .                 KB:   Drilling Measured From
 DAPD.                 10:   Feet Above Permanent Datum
~OTHER INFORMATION
~A   DEPT       CALD       GRD       CORR        RHOB      SPR        ILD        ILM       SGRD   
  199.0000     8.5000    35.3003    -0.4720     1.9381  -999.2500  -999.2500  -999.2500  -999.2500
  199.5000     8.4996    32.8140    -0.4720     1.9422  -999.2500  -999.2500  -999.2500  -999.2500
  200.0000     8.4993    30.9598    -0.4721     1.9474  -999.2500  -999.2500  -999.2500  -999.2500
  200.5000     8.4989    32.5046    -0.4721     1.9392  -999.2500  -999.2500  -999.2500  -999.2500
  201.0000     8.4986    34.3591    -0.4721     1.9258  -999.2500  -999.2500  -999.2500  -999.2500
  201.5000     8.4983    35.5944    -0.4721     1.9107  -999.2500  -999.2500  -999.2500  -999.2500
  202.0000     8.4979    36.8297    -0.4690     1.9025  -999.2500  -999.2500  -999.2500  -999.2500
  202.5000     8.4976    37.7554    -0.4690     1.8932  -999.2500  -999.2500  -999.2500  -999.2500
  203.0000     8.4972    38.0619    -0.4690     1.8860  -999.2500  -999.2500  -999.2500  -999.2500
  203.5000     8.4968    38.0588    -0.4659     1.8793  -999.2500  -999.2500  -999.2500  -999.2500
  204.0000     8.4963    38.0557    -0.4629     1.8685  -999.2500  -999.2500  -999.2500  -999.2500
  204.5000     8.4958    38.0526    -0.4629     1.8597  -999.2500  -999.2500  -999.2500  -999.2500
  205.0000     8.4954    38.0495    -0.4598     1.8515  -999.2500  -999.2500  -999.2500  -999.2500
  205.5000     8.4949    38.0458    -0.4536     1.8402  -999.2500  -999.2500  -999.2500  -999.2500
  206.0000     8.4945    38.0433    -0.4412     1.8267  -999.2500  -999.2500  -999.2500  -999.2500
  206.5000     8.4940    38.0401    -0.4257     1.8154  -999.2500  -999.2500  -999.2500  -999.2500
  207.0000     8.4935    37.7274    -0.4071     1.8046  -999.2500  -999.2500  -999.2500  -999.2500
  207.5000     8.4931    37.7243    -0.3822     1.7874  -999.2500  -999.2500  -999.2500  -999.2500
  208.0000     8.4926    37.7212    -0.3636     1.7939  -999.2500  -999.2500  -999.2500  -999.2500
  208.5000     8.4921    37.7181    -0.3388     1.8248  -999.2500  -999.2500  -999.2500  -999.2500
  209.0000     8.4917    37.7150    -0.3046     1.8791  -999.2500  -999.2500  -999.2500  -999.2500
  209.5000     8.4912    37.7119    -0.2674     1.9615  -999.2500  -999.2500  -999.2500  -999.2500
  210.0000     8.4908    37.3992    -0.2363     2.0398  -999.2500  -999.2500  -999.2500  -999.2500
  210.5000     8.4903    36.7769    -0.2115     2.0852  -999.2500  -999.2500  -999.2500  -999.2500
  211.0000     8.4898    36.4642    -0.1712     2.1439  -999.2500  -999.2500  -999.2500  -999.2500
  211.5000     8.4893    37.6995    -0.1184     2.2035  -999.2500  -999.2500  -999.2500  -999.2500
  212.0000     8.4889    40.1732    -0.0252     2.2647  -999.2500  -999.2500  -999.2500  -999.2500
  212.5000     8.4884    43.2661     0.0307     2.3358  -999.2500  -999.2500  -999.2500  -999.2500
  213.0000     8.4880    45.4301     0.0803     2.3655  -999.2500  -999.2500  -999.2500  -999.2500
  213.5000     9.1048    48.2134     0.1083     2.3926  -999.2500  -999.2500  -999.2500  -999.2500
  214.0000     9.5673    50.0679     0.1020     2.4180  -999.2500  -999.2500  -999.2500  -999.2500
  214.5000     9.9680    51.9224     0.0958     2.4394  -999.2500  -999.2500  -999.2500  -999.2500
  215.0000    10.2762    53.7769     0.0834     2.4529  -999.2500     0.6244     8.2930    10.2463
  215.5000    10.5844    55.6313     0.0741     2.4578  -999.2500     0.5520     9.3291    11.1355
  216.0000    10.8926    55.0090     0.0585     2.4459  -999.2500     0.3835     9.2694    10.8388
  216.5000    11.1082    54.0771     0.0461     2.4312  -999.2500     0.2574     9.2766    10.4042
  217.0000    11.3546    53.4548     0.0367     2.4362    -0.7804     0.2339     9.0286    10.4834
  217.5000    11.7863    52.8325     0.0305     2.4584    -2.6203     0.2473     9.2881    11.0835
  218.0000    12.0944    52.2102     0.0243     2.4769    -4.4601     0.3215     9.6195    11.7989
  218.5000    12.3100    51.2784     0.0212     2.4948    -6.6459     0.6170    10.1709    12.1352
  219.0000    12.4639    50.6561     0.0211     2.5020    -8.9991     1.7248    10.9030    12.3954
  219.5000    12.5251    50.0338     0.0211     2.4933   -11.0555     3.8818    11.2921    12.4880
  220.0000    12.5864    49.4115     0.0242     2.4873   -11.7766     7.1324    11.6148    12.4949
  220.5000    12.6477    48.7892     0.0242     2.4935   -13.2396     9.0181    11.7023    12.6752
  221.0000    12.7089    48.1669     0.0273     2.4997   -14.4058     9.6661    11.0817    12.8581
  221.5000    12.7702    47.8542     0.0304     2.5051   -15.4236     9.9414    11.0886    12.8652
  222.0000    12.8623    48.1606     0.0335     2.5097   -17.3316    10.0155    11.0955    12.5224
  222.5000    12.8927    48.7767     0.0459     2.5136   -18.4979    10.0211    10.8006    12.4416
  223.0000    12.9540    50.3216     0.0521     2.5175   -18.9274    10.0958    10.8820    12.4502
  223.5000    12.9844    51.2473     0.0552     2.5221   -20.3852    10.1014    10.6644    12.4571
  224.0000    13.0457    48.7674     0.0583     2.5252   -22.1448    10.1069    10.7465    12.3784
  224.5000    13.0761    47.2163     0.0582     2.5267   -23.4594     9.9742    10.6043    12.3852
  225.0000    13.1065    46.2844     0.0551     2.5282   -24.7740     9.9797    10.6859    12.4777
  225.5000    13.1369    46.2813     0.0520     2.5306   -25.4951     9.9852    10.7665    12.6577
  226.0000    13.1829    46.1981     0.0520     2.5306   -26.5129     9.9907    10.4787    12.5778
  226.5000    13.2167    46.5847     0.0489     2.5321   -27.6791     9.9961    10.5594    12.5847
  227.0000    13.2505    46.5816     0.0488     2.5252   -29.4388    10.0016    10.7125    12.4194
  227.5000    13.2843    47.5073     0.0488     2.5159   -30.3083    10.0763    10.4278    12.1720
  228.0000    13.3197    49.9810     0.0488     2.5074   -31.6229    10.0818    10.0810    11.9296
  228.5000    13.3501    51.5259     0.0488     2.5004   -32.3440    10.1570    10.0873    11.9362
  229.0000    13.3805    49.9748     0.0488     2.4996   -33.0651    10.1626    10.2335    11.9428
  229.5000    13.4109    48.7333     0.0550     2.5055   -33.6378    10.0970    10.5260    11.9494
  230.0000    13.4105    47.4918     0.0612     2.5179   -34.2157    10.0333    10.6053    12.0386
  230.5000    13.4409    46.5599     0.0705     2.5295   -34.6401    10.0402    10.8335    12.1285
  231.0000    13.4404    45.3184     0.0767     2.5396   -34.7677    10.0457    10.8402    12.1352
  231.5000    13.4399    47.1729     0.0829     2.5474   -34.8954    10.0512    10.9219    12.1419
  232.0000    13.4703    49.3370     0.0922     2.5452   -34.2760     9.9864    11.0043    11.9001
  232.5000    13.4699    51.5010     0.0984     2.5414   -33.2166     9.9233    10.9338    11.8233
  233.0000    13.4694    51.1883     0.1046     2.5359   -32.3057     9.9301    10.6449    11.8314
  233.5000    13.4690    50.2564     0.1077     2.5306   -31.8399     9.9356    10.5784    11.8379
  234.0000    13.4685    49.0149     0.1107     2.5228   -31.6708     9.9410    10.5849    11.6824
  234.5000    13.4680    48.0831     0.1169     2.5166   -32.6886     9.9465    10.6647    11.3696
  235.0000    13.4984    47.1512     0.1200     2.5091   -34.4483     9.9520    10.7451    11.3774
  235.5000    13.5288    46.2193     0.1262     2.4933   -34.4275     9.9574    11.1286    11.3040
  236.0000    13.5592    45.5970     0.1138     2.4738   -35.0003     9.9629    11.5257    11.3118
  236.5000    13.5896    44.9747     0.0951     2.4537   -36.1665    10.0372    11.5328    11.3180
  237.0000    13.5168    45.9004     0.0765     2.4339   -36.5908    10.1121    11.6198    11.4025
  237.5000    13.1824    47.4452     0.0641     2.4085   -36.8720    10.2579    11.7074    11.5671
  238.0000    12.9827    48.9901     0.0485     2.4259   -37.2964    10.3345    11.9592    11.5735
  238.5000    12.8138    50.2254     0.0392     2.4512   -37.2705    10.4116    12.3010    11.5798
  239.0000    12.6734    51.1511     0.0329     2.4716   -37.4033    10.4173    12.6525    11.5862
