~VERSION INFORMATION
 VERS.                2.0:   CWLS LOG ASCII STANDARD - VERSION 2.0
 WRAP.                 NO:   ONE LINE PER DEPTH STEP
~WELL INFORMATION
#MNEM.UNIT      DATA TYPE    INFORMATION
#----------   ------------   ------------------------------
 STRT.F          290.0000:   START DEPTH
 STOP.F         2884.0000:   STOP DEPTH
 STEP.F            0.5000:   STEP LENGTH
 NULL.          -999.2500:   NO VALUE
 COMP.   FENNIX & SCISSON:   COMPANY
 WELL. FENIX & SCISSON AX #22-28:   WELL
 FLD .             NPR #3:   FIELD
 LOC .      S28 T39N R78W:   LOCATION
 CNTY.            NATRONA:   COUNTY
 STAT.            WYOMING:   STATE
 CTRY. UNITED STATES OF AMERICA:   COUNTRY
 SRVC.              WELEX:   SERVICE COMPANY
 DATE.        29-DEC-1979:   LOGDATE
 API .     49025107930000:   API NUMBER
~CURVE INFORMATION
#MNEM.UNIT       API CODE    CURVE DESCRIPTION
#----------   ------------   ------------------------------
 DEPT.F                  :   
 GRD .GAPI   45 310 01 00:   GAMMA RAY FROM DENSITY LOG
 CALD.IN     45 280 60 00:   CALIPER FROM DENSITY LOG
 CORR.G/C3   45 356 01 00:   DENSITY CORRECTION
 RHOB.G/C3   45 350 01 00:   BULK DENSITY
 NPHI.DEC    42 890 03 00:   NEUTRON POROSITY SANDSTONE
 SPR .MV     07 010 01 00:   SPONTANEOUS POTENTIAL
 TENR.LBS    07 635 01 00:   TENSION FROM RESISTIVITY
 ILD .OHMM   07 120 46 00:   DEEP INDUCTION RESISTIVITY
 ILM .OHMM   07 120 44 00:   INDUCTION LOG MEDIUM RESISTIVITY
 SGRD.OHMM   07 220 08 00:   LATEROLOG-8 RES.
~PARAMETER INFORMATION
#MNEM.UNIT          VALUE    DESCRIPTION
#----------   ------------   ------------------------------
 EKB .F         4988.0000:   Kelly bushing
 EGL .F         4978.0000:   Ground level
 EPD .F         4978.0000:   Permanent datum
 TD  .F         2872.0000:   Total depth
 CLNT.            A2DTECH:   Client Code
 SL  . 803' FNL & 938' FWL:   Surface Location
 DATE.        29-DEC-1979:   Date Logged [DD-MMM-YYYY]
 DD  .F              2868:   Depth driller
 DL  .F              2872:   Depth logger
 BLI .F              2870:   Bottom log interval
 TLI .F               300:   Top log interval
 CS1 .              8.625:   Casing size
 CBD1.      8.625" @ 318':   Casing driller 1
 CBL1.IN              318:   Casing logger 1
 BS1 .IN            7.875:   Bit size
 BSD1.F              2868:   Depth drilled with bit1
 DFT .          GEL-BENEX:   Type fluid in hole
 DFD .                8.8:   Density
 TCS .HRS              10:   Time Circ. stopped
 MRT .F               109:   Maximum recorded temp.
 ENGI.               REIN:   Recorded By
 WITN.          MR. AMEND:   Witnessed by
 ORIG.      2.5" 5" PRINT:   Origin of data
 UWI .     49025107930000:   Unique Well ID
 DICO. A2D TECHNOLOGIES, INC.:   Digitizing Company
 PD  .                 GL:   Permanent Datum
 LMF .                 KB:   Log Measured From
 DMF .                 KB:   Drilling Measured From
~OTHER INFORMATION
~A   DEPT       GRD        CALD     CORR         RHOB       NPHI      SPR       TENR        ILD        ILM       SGRD   
# ...
  792.5000   108.0676     9.1920    -0.0146     2.5334     0.2801   -70.9227  1213.4757     9.6043     9.9205    10.1071
  793.0000   106.6143     9.1472    -0.0113     2.5222     0.2773   -70.9167  1213.8638     9.7415     9.9820    10.1105
  793.5000   108.4234     9.1165    -0.0080     2.5215     0.2763   -70.9107  1214.2518     9.8806    10.1223    10.3946
  794.0000   110.5297     9.1035    -0.0017     2.5261     0.2763   -70.9048  1214.6398    10.0218    10.2646    10.3982
  794.5000   113.2304     9.1203     0.0062     2.5269     0.2747   -70.8988  1215.0278    10.3053    10.2674    10.5450
  795.0000   112.6621     9.1369    -0.0030     2.5157     0.2728   -70.8929  1215.4159    10.1699    10.2708    10.4046
  795.5000   110.6080     9.1224    -0.0091     2.5188     0.2718   -70.9771  1215.8040    10.1747    10.2736    10.1278
  796.0000   108.2566     9.1700    -0.0023     2.5294     0.2684   -71.1795  1216.1919    10.1796    10.1367     9.9935
  796.5000   107.0940     9.2173     0.0131     2.5423     0.2627   -71.1726  1216.5800    10.1845    10.1395     9.7270
  797.0000   107.1341     9.2185     0.0241     2.5582     0.2593   -71.1667  1216.9680     9.9139    10.0039     9.5981
  797.5000   107.7859     9.2043     0.0367     2.5658     0.2589   -71.1608  1217.3560     9.6504     9.7369     9.6014
  798.0000   109.2590     9.1748     0.0431     2.5726     0.2598   -71.2499  1217.7440     9.5229     9.4761     9.4741
  798.5000   111.3653     9.1453     0.0370     2.5719     0.2607   -71.4474  1218.1321     9.3985     9.3499     9.4774
  799.0000   112.8772     9.1465     0.0293     2.5592     0.2600   -71.4405  1218.5201     9.4030     9.2258     9.4806
  799.5000   112.0118     9.1480     0.0170     2.5465     0.2566   -71.4345  1218.9081     9.4075     9.3555     9.6145
  800.0000   110.8491     9.1492     0.0047     2.5346     0.2522   -71.5278  1219.2961     9.5419     9.4870     9.6179
  800.5000   109.0921     9.1504    -0.0095     2.5286     0.2502   -71.7212  1219.9652     9.8320     9.6212     9.6232
  801.0000   107.3351     9.1670    -0.0215     2.5182     0.2476   -71.7143  1222.0260    10.0844     9.6725     9.6751
  801.5000   107.0639     9.1835    -0.0276     2.5175     0.2450   -71.7084  1224.0869    10.1384     9.9466     9.9506
  802.0000   106.4484     9.2001    -0.0337     2.5222     0.2418   -71.7024  1226.1477    10.4798    10.2824    10.2340
  802.5000   102.6651     9.2166    -0.0367     2.5155     0.2387   -71.6964  1228.2086    10.8670    10.6059    10.6705
  803.0000   101.1496     9.2178    -0.0365     2.5133     0.2361   -71.6905  1230.2694    11.4844    10.6102    11.2789
  803.5000   100.8655     9.2037    -0.0348     2.5134     0.2327   -71.7906  1232.3302    11.9716    10.1556    11.5641
  804.0000   100.8874     9.1895    -0.0269     2.5143     0.2315   -71.9773  1234.3911    12.5537     9.4626    12.0947
  804.5000   100.3106     9.1757    -0.0237     2.5181     0.2327   -71.9702  1236.4519    13.0883     9.2645    12.6105
  805.0000    98.8422     9.1922    -0.0235     2.5121     0.2320   -72.1557  1238.5128    13.5609     9.3258    13.1483
  805.5000    96.4823     9.1934    -0.0265     2.5108     0.2298   -72.1557  1240.5736    13.9438     9.4000    13.5228
  806.0000    93.8252     9.1946    -0.0154     2.5307     0.2340   -72.4551  1241.7125    14.2445     9.5334    13.8290
  806.5000    92.0594     9.1802    -0.0044     2.5456     0.2375   -72.7545  1242.1189    14.5418     9.5373    13.3112
  807.0000    93.5791     9.1660     0.0067     2.5479     0.2399   -73.0539  1242.5253    14.6485     9.5412    12.7546
  807.5000    95.7209     9.1518     0.0130     2.5397     0.2412   -73.0539  1242.9316    14.8547     9.4154    12.7624
  808.0000    97.8624     9.1533     0.0194     2.5458     0.2393   -73.0539  1243.3380    14.8587     9.4193    12.8478
  808.5000    98.6676     9.1545     0.0180     2.5527     0.2398   -73.0539  1243.7444    14.8629     9.2279    12.9542
  809.0000    98.0907     9.1557     0.0119     2.5415     0.2379   -73.0539  1244.1508    14.8669     9.1047    12.9622
  809.5000   101.6787     9.1623     0.0041     2.5288     0.2367   -73.0539  1244.5571    14.8710     9.0515    12.8891
  810.0000   104.0737     9.1735    -0.0065     2.5161     0.2351   -73.0539  1244.9635    14.8750     9.0552    12.5477
  810.5000   104.9783     9.1848    -0.0117     2.5139     0.2347   -73.0539  1245.3698    14.8792     9.0589    12.2944
  811.0000   102.9200     9.1961    -0.0054     2.5230     0.2359   -73.0539  1245.7761    14.8832     9.0627    12.2217
  811.5000   100.5601     9.2073    -0.0037     2.5299     0.2350   -73.0539  1246.1825    14.6846     9.0671    12.3095
  812.0000    98.2002     9.2135    -0.0020     2.5368     0.2315   -73.0539  1246.5889    14.4895     9.1958    12.4009
  812.5000    95.2459     9.2160     0.0027     2.5466     0.2303   -73.0539  1246.9952    14.2961     9.4548    12.7540
  813.0000    98.2352     9.2185     0.0122     2.5430     0.2367   -72.7545  1247.4016    14.0465     9.4587    13.2094
  813.5000   102.4132     9.2210     0.0076     2.5340     0.2404   -72.7545  1247.8080    13.9159     9.4626    13.5806
  814.0000   103.0250     9.2235     0.0031     2.5236     0.2410   -72.7545  1248.2144    13.9203     9.4664    13.5889
  814.5000    99.0663     9.2260    -0.0077     2.5139     0.2400   -73.0539  1248.6207    13.9241     9.3410    13.2217
  815.0000    94.4463     9.2285    -0.0123     2.5072     0.2385   -73.0539  1249.0271    13.9280     9.2178    12.7875
  815.5000    93.2707     9.2310    -0.0091     2.5103     0.2381   -73.0539  1249.4335    13.9318     9.2221    12.6203
  816.0000    94.4813     9.2335    -0.0012     2.5164     0.2412   -72.7545  1249.8398    13.9356     9.0999    12.6430
  816.5000    95.6875     9.2360     0.0036     2.5226     0.2443   -72.7545  1250.2462    13.9394     9.1042    12.7293
  817.0000    97.1909     9.2385     0.0037     2.5224     0.2417   -72.6846  1250.6526    13.9433     8.9836    12.9126
  817.5000    98.6943     9.2410     0.0007     2.5173     0.2398   -72.3802  1251.0588    13.9471     8.9878    12.8211
  818.0000    99.6034     9.2435    -0.0008     2.5123     0.2407   -72.0758  1251.4652    13.9509     8.9915    12.7528
  818.5000   100.5124     9.2465     0.0009     2.5109     0.2441   -71.7714  1251.8716    13.7917     8.9951    12.4880
  819.0000   101.7186     9.2325     0.0010     2.5117     0.2441   -71.4670  1252.2780    13.5811     8.9988    12.3248
  819.5000   102.6277     9.2338     0.0012     2.5178     0.2441   -71.2575  1252.6843    13.5848     9.0025    12.2625
  820.0000   101.4565     9.2352     0.0028     2.5262     0.2477   -71.2575  1253.0907    13.5885     9.0062    12.2033
  820.5000    99.6887     9.2209     0.0029     2.5300     0.2536   -71.2575  1253.4971    13.5923     9.0098    12.6198
  821.0000    98.4963     9.2072     0.0046     2.5271     0.2551   -71.2575  1253.9034    13.5960     9.0135    12.9780
  821.5000    97.6008     9.2086     0.0078     2.5272     0.2529   -71.2575  1254.3098    13.5997     9.0172    13.1649
  822.0000    96.4789     9.2406     0.0095     2.5303     0.2541   -71.2575  1254.7162    13.6035     9.1452    12.9939
  822.5000    95.3077     9.2574     0.0065     2.5356     0.2570   -71.2575  1255.1226    13.6072     9.1489    12.3093
  823.0000    93.8393     9.2587     0.0003     2.5365     0.2600   -71.2575  1255.5289    13.6109     9.4066    11.8214
  823.5000    93.2581     9.2447    -0.0120     2.5276     0.2590   -71.2575  1255.9353    13.4293     9.6716    11.6666
  824.0000    94.7658     9.2154    -0.0306     2.5021     0.2583   -71.2575  1256.3417    13.2296     9.6755    11.9990
  824.5000    97.1608     9.1999    -0.0383     2.4886     0.2589   -71.2575  1256.7480    12.9716     9.6795    12.3395
  825.0000    99.5557     9.1720    -0.0397     2.4827     0.2601   -71.2575  1257.1543    12.8990     9.6834    12.5172
  825.5000   101.6534     9.1580    -0.0364     2.4760     0.2604   -71.4122  1257.5607    12.9025     9.5557    12.3547
