~VERSION INFORMATION
 VERS.                2.0:   CWLS LOG ASCII STANDARD - VERSION 2.0
 WRAP.                 NO:   ONE LINE PER DEPTH STEP
~WELL INFORMATION
#MNEM.UNIT      DATA TYPE    INFORMATION
#----------   ------------   ------------------------------
 STRT.F          748.0000:   START DEPTH
 STOP.F         2734.0000:   STOP DEPTH
 STEP.F            0.5000:   STEP LENGTH
 NULL.          -999.2500:   NO VALUE
 COMP.    FENIX & SCISSON:   COMPANY
 WELL. FENIX NPR 3 "SHX" #84-4:   WELL
 FLD .             TEAPOT:   FIELD
 LOC .       S4 T38N R78W:   LOCATION
 CNTY.            NATRONA:   COUNTY
 STAT.            WYOMING:   STATE
 CTRY. UNITED STATES OF AMERICA:   COUNTRY
 SRVC.              WELEX:   SERVICE COMPANY
 DATE.        08-MAY-1980:   LOGDATE
 API .     49025108050000:   API NUMBER
~CURVE INFORMATION
#MNEM.UNIT       API CODE    CURVE DESCRIPTION
#----------   ------------   ------------------------------
 DEPT.F                  :   
 CALD.IN     45 280 60 00:   CALIPER FROM DENSITY LOG
 GRD .GAPI   45 310 01 00:   GAMMA RAY FROM DENSITY LOG
 RHOB.G/C3   45 350 01 00:   BULK DENSITY
 CORR.G/C3   45 356 01 00:   DENSITY CORRECTION
~PARAMETER INFORMATION
#MNEM.UNIT          VALUE    DESCRIPTION
#----------   ------------   ------------------------------
 EKB .F         5244.0000:   Kelly bushing
 EGL .F         5234.0000:   Ground level
 EDF .F            0.0000:   Drilling floor
 TD  .F         2733.0000:   Total depth
 DATE.        08-MAY-1980:   Date logged
 CLNT.            A2DTECH:   Client Code
 SL  . 7461' FNL & 383' FEL:   Surface Location
 PD  .                 GL:   Permanent Datum
 EPD .F              5234:   Elevation Permanent Datum
 LMF .                 KB:   Log Measured From
 DMF .                 KB:   Drilling Measured From
 DAPD.F                10:   Feet Above Permanent Datum
 DD  .F              2700:   Depth driller
 DL  .F              2733:   Depth logger
 BLI .F              2731:   Bottom log interval
 TLI .F               752:   Top log interval
 CS1 .IN            9.625:   Casing size
 CBD1.      9.625" @ 260':   Casing driller 1
 BS1 .IN              8.5:   Bit size
 BSD1.F              2700:   Depth drilled with bit1
 DFT .                AIR:   Type fluid in hole
 MRT .F               118:   Maximum recorded temp.
 LUN .                  2:   Logging unit number
 ENGI.           TORTILLE:   Recorded By
 WITN.              AMEND:   Witnessed by
 ORIG.           5" PRINT:   Origin of data
 UWI .     49025108050000:   Unique Well ID
 DICO. A2D TECHNOLOGIES, INC.:   Digitizing Company
~OTHER INFORMATION
~A   DEPT       CALD       GRD        RHOB       CORR 
# ...
  894.0000     9.0080    85.6850     2.4600     0.0670
  894.5000     9.0100    85.7220     2.4760     0.0740
  895.0000     9.0120    85.7570     2.4970     0.0820
  895.5000     9.0140    85.7940     2.4910     0.0890
  896.0000     9.0150    85.8300     2.4790     0.0960
  896.5000     9.0170    85.8670     2.4860     0.0970
  897.0000     9.0190    85.9030     2.5010     0.0970
  897.5000     9.0210    85.9410     2.4940     0.0960
  898.0000     9.0250    85.9760     2.4670     0.0810
  898.5000     9.0280    86.0120     2.4510     0.0660
  899.0000     9.0310    86.0540     2.4290     0.0500
  899.5000     9.0350    86.0720     2.4360     0.0510
  900.0000     9.0380    86.2570     2.4480     0.0730
  900.5000     9.0410    86.5650     2.4610     0.0960
  901.0000     9.0450    86.8490     2.4680     0.0970
  901.5000     9.0480    87.1340     2.4650     0.0950
  902.0000     9.0510    87.4280     2.4580     0.0870
  902.5000     9.0550    87.7070     2.4640     0.0810
  903.0000     9.0590    87.9980     2.4710     0.0740
  903.5000     9.0560    88.3060     2.4600     0.0670
  904.0000     9.0440    88.3900     2.4710     0.0650
  904.5000     9.0340    88.1660     2.4680     0.0720
  905.0000     9.0230    87.4230     2.4780     0.0770
  905.5000     9.0130    87.3000     2.4700     0.0720
  906.0000     9.0020    87.2840     2.4530     0.0660
  906.5000     8.9920    87.3220     2.4380     0.0600
  907.0000     8.9810    87.2790     2.4250     0.0540
  907.5000     8.9800    87.3190     2.4070     0.0480
  908.0000     8.9800    87.3690     2.3970     0.0420
  908.5000     8.9800    88.6930     2.4000     0.0440
  909.0000     8.9800    90.2410     2.4040     0.0470
  909.5000     8.9800    91.0950     2.4020     0.0490
  910.0000     8.9800    91.2980     2.4100     0.0530
  910.5000     8.9790    91.5800     2.4280     0.0560
  911.0000     8.9830    91.8460     2.4370     0.0600
  911.5000     9.0190    92.1160     2.4460     0.0630
  912.0000     9.0500    92.3710     2.4530     0.0660
  912.5000     9.0140    92.6690     2.4550     0.0700
  913.0000     9.0160    92.4960     2.4600     0.0730
  913.5000     9.0090    92.2580     2.4710     0.0760
  914.0000     9.0060    91.9800     2.4710     0.0800
  914.5000     9.0020    91.7520     2.4690     0.0810
  915.0000     8.9980    91.5690     2.4660     0.0800
  915.5000     8.9940    92.3870     2.4690     0.0780
  916.0000     8.9910    93.1930     2.4760     0.0760
  916.5000     8.9870    94.0920     2.4630     0.0600
  917.0000     8.9830    94.6330     2.4450     0.0450
  917.5000     8.9820    94.8350     2.4280     0.0270
  918.0000     8.9880    95.0730     2.4330     0.0210
  918.5000     8.9940    95.3000     2.4400     0.0290
  919.0000     9.0010    95.5720     2.4480     0.0450
  919.5000     9.0070    95.4570     2.4370     0.0500
  920.0000     9.0130    94.5360     2.4280     0.0520
  920.5000     9.0200    93.7410     2.4370     0.0540
  921.0000     9.0260    92.7860     2.4370     0.0560
  921.5000     9.0320    92.7730     2.4360     0.0580
  922.0000     9.0380    92.8540     2.4460     0.0600
  922.5000     9.0450    92.9680     2.4500     0.0630
  923.0000     9.0510    93.0500     2.4450     0.0680
  923.5000     9.0580    93.1490     2.4610     0.0730
  924.0000     9.0560    93.2430     2.4670     0.0770
  924.5000     9.0460    93.3370     2.4610     0.0810
  925.0000     9.0370    93.4310     2.4720     0.0860
  925.5000     9.0290    93.5250     2.4870     0.0910
  926.0000     9.0200    93.6230     2.4930     0.0930
  926.5000     9.0110    93.7110     2.4930     0.0930
  927.0000     9.0020    93.8120     2.4810     0.0860
  927.5000     8.9940    93.9260     2.4680     0.0790
  928.0000     8.9840    94.3900     2.4710     0.0730
  928.5000     8.9800    94.8360     2.4760     0.0790
  929.0000     8.9860    95.3300     2.4710     0.0890
  929.5000     8.9910    95.7620     2.4600     0.0830
  930.0000     8.9960    96.2320     2.4550     0.0780
  930.5000     9.0020    95.6370     2.4670     0.0900
  931.0000     9.0070    94.8860     2.4780     0.0910
  931.5000     9.0120    94.1000     2.4730     0.0890
  932.0000     9.0180    93.4200     2.4650     0.0940
  932.5000     9.0200    92.8310     2.4630     0.0990
  933.0000     9.0170    92.6660     2.4840     0.1010
  933.5000     9.0140    92.9390     2.4770     0.1000
  934.0000     9.0110    93.4860     2.4640     0.0860
  934.5000     9.0090    93.9760     2.4510     0.0730
  935.0000     9.0060    94.4690     2.4370     0.0590
  935.5000     9.0030    94.9870     2.4300     0.0520
  936.0000     9.0010    95.1000     2.4330     0.0580
  936.5000     8.9980    95.0430     2.4570     0.0710
  937.0000     8.9950    94.3660     2.4830     0.0830
  937.5000     8.9920    93.7910     2.4860     0.0930
  938.0000     8.9900    93.1710     2.4800     0.0890
  938.5000     8.9870    92.5720     2.4710     0.0750
  939.0000     8.9840    91.9580     2.4630     0.0680
  939.5000     8.9810    91.5070     2.4550     0.0660
  940.0000     8.9800    91.5080     2.4470     0.0620
  940.5000     8.9840    91.4970     2.4390     0.0590
  941.0000     8.9890    91.5010     2.4390     0.0560
  941.5000     8.9930    91.5030     2.4530     0.0540
  942.0000     8.9970    91.4960     2.4660     0.0660
  942.5000     9.0010    91.5030     2.4810     0.0810
  943.0000     9.0050    91.5260     2.4830     0.0840
  943.5000     9.0100    91.8870     2.4690     0.0700
  944.0000     9.0140    92.2180     2.4550     0.0540
  944.5000     9.0180    92.5880     2.4400     0.0430
  945.0000     9.0160    92.9150     2.4330     0.0420
  945.5000     9.0080    93.2580     2.4360     0.0490
  946.0000     9.0000    92.9120     2.4440     0.0520
  946.5000     8.9930    92.5100     2.4570     0.0630
  947.0000     8.9850    92.0940     2.4720     0.0770
  947.5000     8.9770    91.6670     2.4920     0.0900
  948.0000     8.9690    91.4890     2.4850     0.1010
  948.5000     8.9620    91.5230     2.4660     0.0840
  949.0000     8.9540    91.8440     2.4480     0.0650
  949.5000     8.9460    92.1800     2.4310     0.0560
  950.0000     8.9400    92.5450     2.4250     0.0510
  950.5000     8.9450    92.8730     2.4210     0.0490
  951.0000     8.9510    93.2600     2.4230     0.0460
  951.5000     8.9580    93.3730     2.4270     0.0430
  952.0000     8.9640    93.5850     2.4410     0.0520
  952.5000     8.9700    93.7780     2.4630     0.0760
  953.0000     8.9770    93.9790     2.4650     0.0770
  953.5000     8.9800    94.1700     2.4540     0.0730
  954.0000     8.9800    94.4150     2.4610     0.0690
  954.5000     8.9800    94.2240     2.4760     0.0750
  955.0000     8.9800    93.4370     2.4850     0.0900
  955.5000     8.9800    92.7080     2.4880     0.0930
  956.0000     8.9800    91.9340     2.4800     0.0860
  956.5000     8.9800    91.2400     2.4760     0.0810
  957.0000     8.9800    90.3910     2.4830     0.0750
  957.5000     8.9800    90.0870     2.4800     0.0700
  958.0000     8.9800    89.7990     2.4730     0.0640
  958.5000     8.9800    89.5450     2.4580     0.0480
  959.0000     8.9840    89.2610     2.4440     0.0340
  959.5000     8.9880    88.9910     2.4380     0.0290
  960.0000     8.9930    88.7210     2.4480     0.0380
  960.5000     8.9970    88.4420     2.4580     0.0480
  961.0000     9.0010    88.1760     2.4680     0.0570
  961.5000     9.0050    87.9160     2.4800     0.0570
  962.0000     9.0090    87.9030     2.4800     0.0540
  962.5000     9.0130    87.8970     2.4720     0.0490
  963.0000     9.0180    87.9020     2.4650     0.0490
  963.5000     9.0190    87.9000     2.4620     0.0520
  964.0000     9.0160    87.8980     2.4700     0.0620
  964.5000     9.0130    87.9060     2.4780     0.0690
  965.0000     9.0100    87.8920     2.4750     0.0670
  965.5000     9.0070    87.9040     2.4620     0.0630
  966.0000     9.0050    87.9580     2.4660     0.0620
  966.5000     9.0020    88.6420     2.4740     0.0720
