~VERSION INFORMATION
 VERS.                2.0:   CWLS LOG ASCII STANDARD - VERSION 2.0
 WRAP.                 NO:   ONE LINE PER DEPTH STEP
~WELL INFORMATION
#MNEM.UNIT      DATA TYPE    INFORMATION
#----------   ------------   ------------------------------
 STRT.F            0.0000:   START DEPTH
 STOP.F         1064.0000:   STOP DEPTH
 STEP.F            0.5000:   STEP LENGTH
 NULL.          -999.2500:   NO VALUE
 COMP.  JOHN BROWN E. & C:   COMPANY
 WELL. JOHN BROWN NPR 3-1 "X" #68-2:   WELL
 FLD .                NPR:   FIELD
 LOC .       S2 T38N R78W:   LOCATION
 CNTY.            NATRONA:   COUNTY
 STAT.            WYOMING:   STATE
 CTRY. UNITED STATES OF AMERICA:   COUNTRY
 SRVC.     ATLAS WIRELINE:   SERVICE COMPANY
 DATE.        25-JAN-1992:   LOGDATE
 API .     49025224850000:   API NUMBER
~CURVE INFORMATION
#MNEM.UNIT       API CODE    CURVE DESCRIPTION
#----------   ------------   ------------------------------
 DEPT.F                  :   
 GRR .GAPI   07 310 01 00:   GAMMA RAY FROM RESISTIVITY
 TENR.LBS    07 635 01 00:   TENSION
 RILD.OHMM   07 120 46 00:   INDUCTION LOG DEEP RESISTIVITY
 RILM.OHMM   07 120 44 00:   INDUCTION LOG MEDIUM RESISTIVITY
~PARAMETER INFORMATION
#MNEM.UNIT          VALUE    DESCRIPTION
#----------   ------------   ------------------------------
 EKB .F         5197.0000:   Kelly bushing
 EGL .F         5187.0000:   Ground level
 TD  .F         1060.0000:   Total depth
 DATE.        25-JAN-1992:   Date logged
 CLNT.            A2DTECH:   Client Code
 PD  .                 GL:   Permanent Datum
 EPD .F               518:   Elevation Permanent Datum
 LMF .                 KB:   Log Measured From
 DMF .                 KB:   Drilling Measured From
 DAPD.F                10:   Feet Above Permanent Datum
 DD  .F              1060:   Depth driller
 DL  .F              1057:   Depth logger
 BLI .F              1055:   Bottom log interval
 CS1 .IN            10.75:   Casing size
 CBD1.       10.75" @ 50':   Casing driller 1
 CBL1.F                50:   Casing logger 1
 BS1 .IN             8.75:   Bit size
 BSD1.F              1060:   Depth drilled with bit1
 DFT .                AIR:   Type fluid in hole
 LUN .            HL-6307:   Logging unit number
 LUL .             CASPER:   Logging unit location
 ENGI.             ZIEGER:   Recorded By
 WITN.             STRONG:   Witnessed by
 ORIG.           5" PRINT:   Origin of data
 UWI .     49025224850000:   Unique Well ID
 DICO. A2D TECHNOLOGIES, INC.:   Digitizing Company
~OTHER INFORMATION
~A    DEPT      GRR      TENR       RILD       RILM   
# ...
  584.0000   135.2020   -37.4190     8.9280     8.4560
  584.5000   141.0190   -37.6150     8.6930     8.4350
  585.0000   141.2200   -37.8110     8.3930     8.4150
  585.5000   138.5970   -38.0080     8.4220     8.3930
  586.0000   135.1670   -38.2040     8.4710     8.2040
  586.5000   134.9530   -38.4000     8.2140     8.0010
  587.0000   136.2410   -38.5970     8.0880     7.8670
  587.5000   138.9330   -38.7930     8.3930     7.9330
  588.0000   141.6970   -38.9890     8.3440     7.9820
  588.5000   142.2830   -39.1860     8.2730     8.0090
  589.0000   142.1500   -39.3820     8.1540     7.9580
  589.5000   141.9880   -39.5780     8.0350     7.8270
  590.0000   141.8250   -39.7750     7.9170     7.6300
  590.5000   141.6600   -39.9710     7.7430     7.4330
  591.0000   141.5240   -40.1670     7.5300     7.2350
  591.5000   142.1780   -40.3640     7.3160     7.0380
  592.0000   143.2260   -40.5600     7.1030     6.8410
  592.5000   145.8040   -40.7560     6.9010     6.6880
  593.0000   148.3620   -40.9530     6.8450     6.6000
  593.5000   150.9100   -41.1490     6.7890     6.5130
  594.0000   151.9560   -41.3450     6.7240     6.4800
  594.5000   150.1240   -41.5420     6.7730     6.6080
  595.0000   145.2490   -41.7380     6.8490     6.7640
  595.5000   140.4200   -41.9340     6.9940     6.9190
  596.0000   135.7860   -42.1310     7.1320     7.0740
  596.5000   132.2030   -42.3270     7.2710     7.2290
  597.0000   128.9560   -42.5230     7.4100     7.3740
  597.5000   127.5840   -42.7200     7.5210     7.3910
  598.0000   127.0770   -42.9160     7.5560     7.4430
  598.5000   126.7520   -43.1120     7.5820     7.4020
  599.0000   126.9600   -43.3090     7.4930     7.3160
  599.5000   128.7370   -43.5050     7.4250     7.2290
  600.0000   130.5000   -43.7010     7.3560     7.1430
  600.5000   131.6800   -43.8980     7.2870     7.0570
  601.0000   133.0450   -44.0940     7.2380     6.9710
  601.5000   134.1650   -44.2900     7.2240     6.9130
  602.0000   133.8230   -44.3830     7.2100     6.9680
  602.5000   135.5600   -44.3830     7.1960     7.0270
  603.0000   137.9630   -44.3830     7.1820     7.0870
  603.5000   139.0050   -44.3830     7.1730     7.1470
  604.0000   136.7430   -44.3830     7.2280     7.2510
  604.5000   134.3340   -44.3830     7.3620     7.3910
  605.0000   135.5240   -44.3830     7.5230     7.5310
  605.5000   138.5430   -44.3830     7.6830     7.6710
  606.0000   141.4890   -44.3830     7.8440     7.8670
  606.5000   140.9810   -44.3830     7.9400     7.8380
  607.0000   138.6410   -44.3830     7.9400     7.7900
  607.5000   131.9960   -44.3830     7.9400     7.7420
  608.0000   125.7690   -44.3830     7.9400     7.6950
  608.5000   124.1010   -44.3830     7.9400     7.6470
  609.0000   127.5290   -44.3830     7.9400     7.5820
  609.5000   134.5680   -44.3830     7.9400     7.5910
  610.0000   138.1770   -44.3830     7.9400     7.6040
  610.5000   136.1060   -44.3830     7.9050     7.6180
  611.0000   132.0790   -44.3830     7.8650     7.6310
  611.5000   129.9930   -44.3830     7.8250     7.6520
  612.0000   130.5550   -44.3830     7.7840     7.6190
  612.5000   131.4730   -44.3830     7.7440     7.5500
  613.0000   133.0950   -44.3830     7.7040     7.4820
  613.5000   135.1460   -44.3830     7.6630     7.4140
  614.0000   139.1340   -44.3830     7.5980     7.3450
  614.5000   143.1660   -44.3830     7.5220     7.2770
  615.0000   144.6000   -44.3830     7.4460     7.2080
  615.5000   142.5660   -44.3830     7.3710     7.1400
  616.0000   141.0570   -44.2360     7.3040     7.0720
  616.5000   140.5740   -43.8180     7.2860     7.0420
  617.0000   138.0510   -43.4000     7.2680     7.0420
  617.5000   135.5510   -42.9820     7.2500     7.0420
  618.0000   135.8820   -42.5640     7.2390     7.0420
  618.5000   139.6850   -42.1470     7.2390     7.0420
  619.0000   144.1990   -41.7290     7.2390     7.0420
  619.5000   142.1410   -41.3110     7.2390     7.0420
  620.0000   138.0940   -40.8930     7.2390     7.0420
  620.5000   134.6060   -40.4760     7.2390     7.0410
  621.0000   135.1620   -40.0580     7.2390     7.0410
  621.5000   135.8950   -39.6400     7.2400     7.0310
  622.0000   136.6550   -39.2220     7.2250     7.0080
  622.5000   138.2090   -38.8040     7.1930     6.9840
  623.0000   141.9500   -38.3870     7.1610     6.9600
  623.5000   146.1470   -37.9690     7.1290     6.9370
  624.0000   149.3180   -37.5510     7.0960     6.9130
  624.5000   146.8250   -37.1330     7.0640     6.8890
  625.0000   144.0280   -36.7160     7.0420     6.8660
  625.5000   144.4200   -36.2980     7.0630     6.8490
  626.0000   144.9480   -35.8800     7.0790     6.9510
  626.5000   144.9600   -35.4620     7.0960     7.0290
  627.0000   144.7210   -35.0440     7.1340     7.1060
  627.5000   144.7200   -34.6270     7.2180     7.1840
  628.0000   144.0270   -34.1610     7.3010     7.2620
  628.5000   141.3360   -33.6060     7.3840     7.3400
  629.0000   137.2680   -33.0500     7.4670     7.4180
  629.5000   133.7820   -32.4950     7.5510     7.4950
  630.0000   135.5690   -31.9390     7.6340     7.5730
  630.5000   138.2290   -31.3840     7.6520     7.6520
  631.0000   140.6460   -30.8280     7.6520     7.6210
  631.5000   140.6630   -30.2730     7.6520     7.5820
  632.0000   141.8400   -29.7170     7.6520     7.5430
  632.5000   142.7250   -29.1620     7.6040     7.4920
  633.0000   141.5640   -28.6060     7.5560     7.3990
  633.5000   139.9530   -28.0510     7.5080     7.3060
  634.0000   138.3210   -27.4950     7.4600     7.2130
  634.5000   135.9030   -26.9400     7.3770     7.1200
  635.0000   133.1140   -26.3840     7.2760     7.0270
  635.5000   132.3540   -25.8290     7.1750     6.9610
  636.0000   131.4540   -25.2730     7.0740     6.9270
  636.5000   129.0760   -24.7180     6.8740     6.8930
  637.0000   130.3890   -24.6640     6.6270     6.8590
  637.5000   134.6150   -25.8390     6.5930     6.8490
  638.0000   138.5450   -27.0150     6.5770     6.7780
  638.5000   139.4450   -28.1900     6.5600     6.6360
  639.0000   140.6450   -29.3660     6.5400     6.5400
  639.5000   141.6700   -30.5420     6.6260     6.5980
  640.0000   142.3490   -31.7170     6.7040     6.6500
  640.5000   141.0490   -32.8930     6.7820     6.7020
  641.0000   139.5050   -34.0680     6.8600     6.7540
  641.5000   138.7940   -35.2440     6.9380     6.8060
  642.0000   137.9790   -36.4200     7.0160     6.8580
  642.5000   136.6940   -37.5950     7.0940     6.9100
  643.0000   136.9990   -38.7710     7.1720     6.9620
  643.5000   139.3760   -39.9470     7.2500     7.0140
  644.0000   141.6960   -41.1220     7.3280     7.0660
  644.5000   143.5810   -42.2980     7.3780     7.1140
  645.0000   142.2190   -43.4730     7.3880     7.1500
  645.5000   140.1020   -44.2800     7.3980     7.1860
  646.0000   137.2320   -43.8260     7.4080     7.2220
  646.5000   131.2000   -43.3720     7.4180     7.2580
  647.0000   130.2720   -42.9170     7.4280     7.3070
  647.5000   133.2980   -42.4630     7.4420     7.2660
  648.0000   138.5910   -42.0090     7.4280     7.1770
  648.5000   141.7330   -41.5540     7.3980     7.0880
  649.0000   141.4710   -41.1000     7.3340     7.0420
  649.5000   140.9460   -40.6450     7.1880     7.0420
  650.0000   138.5010   -40.1910     7.1640     7.0420
  650.5000   134.8010   -39.7370     7.1500     7.0420
  651.0000   134.0390   -39.2820     7.1370     7.0610
  651.5000   136.1680   -38.8280     7.1240     7.0830
  652.0000   137.3750   -38.3740     7.1070     7.1050
  652.5000   137.2550   -37.9190     7.1470     7.1270
  653.0000   137.1380   -37.4650     7.2020     7.1490
  653.5000   136.7990   -37.0100     7.2800     7.1730
  654.0000   135.0210   -36.5560     7.4020     7.3130
  654.5000   131.7510   -36.1020     7.5250     7.4630
  655.0000   128.3200   -35.6470     7.6790     7.6140
  655.5000   125.5420   -35.1930     7.8600     7.7650
  656.0000   124.0280   -34.7390     8.0420     7.9150
  656.5000   122.5530   -34.3530     8.2230     8.0660
