~VERSION INFORMATION
 VERS.                2.0:   CWLS LOG ASCII STANDARD - VERSION 2.0
 WRAP.                 NO:   ONE LINE PER DEPTH STEP
~WELL INFORMATION
#MNEM.UNIT      DATA TYPE    INFORMATION
#----------   ------------   ------------------------------
 STRT.F          220.0000:   START DEPTH
 STOP.F         3284.5000:   STOP DEPTH
 STEP.F            0.5000:   STEP LENGTH
 NULL.          -999.2500:   NO VALUE
 COMP.    FENIX & SCISSON:   COMPANY
 WELL. FENIX HARPEL "A" #85-28:   WELL
 FLD .              NPR-3:   FIELD
 LOC .      S28 T39N R78W:   LOCATION
 CNTY.            NATRONA:   COUNTY
 STAT.            WYOMING:   STATE
 CTRY. UNITED STATES OF AMERICA:   COUNTRY
 SRVC.      DRESSER ATLAS:   SERVICE COMPANY
 DATE.        07-AUG-1977:   LOGDATE
 API .     49025104040000:   API NUMBER
~CURVE INFORMATION
#MNEM.UNIT       API CODE    CURVE DESCRIPTION
#----------   ------------   ------------------------------
 DEPT.F                  :   
 GRD .GAPI   45 310 01 00:   GAMMA RAY FROM DENSITY LOG
 CALD.IN     45 280 60 00:   CALIPER FROM DENSITY LOG
 CORR.G/C3   45 356 01 00:   DENSITY CORRECTION
 RHOB.G/C3   45 350 01 00:   BULK DENSITY
 TEND.LBS    45 635 01 00:   TENSION FORM DENSITY LOG
 NPHI.DEC    42 890 03 00:   NEUTRON POROSITY SANDSTONE
 SPR .MV     11 010 01 00:   SPONTANEOUS POTENTIAL FROM RES.
 TENR.LBS    11 635 01 00:   TENSION FROM RES.
 LLD .OHMM   11 220 10 00:   LATEROLOG LOG DEEP
 LLS .OHMM   11 220 09 00:   LATEROLOG SHALLOW
 RXO .OHMM   11 270 04 00:   FLUSHED ZONE RESISTIVITY
~PARAMETER INFORMATION
#MNEM.UNIT          VALUE    DESCRIPTION
#----------   ------------   ------------------------------
 EKB .F         5059.0000:   Kelly bushing
 EGL .F         5049.0000:   Ground level
 EDF .F            0.0000:   Drilling floor
 EPD .F            0.0000:   Permanent datum
 TD  .F         3240.0000:   Total depth
 CLNT.            A2DTECH:   Client Code
 SL  . 2310' FSL & 330' FEL:   Surface Location
 PD  .                 GL:   Permanent Datum
 DAPD.F                10:   Feet Above Permanent Datum
 DATE.        07-AUG-1977:   Date Logged [DD-MMM-YYYY]
 DD  .F              3240:   Depth driller
 DL  .F              3267:   Depth logger
 BLI .F              3265:   Bottom log interval
 TLI .F               224:   Top log interval
 CS1 .IN            8.625:   Casing size
 CBD1.      8.625" @ 254':   Casing driller 1
 CBL1.F               224:   Casing logger 1
 BS1 .IN            7.875:   Bit size
 BSD1.F              3240:   Depth drilled with bit1
 DFT .                KCL:   Type fluid in hole
 DFD .                8.8:   Density
 DFV .                 36:   Viscosity
 DFPH.               10.5:   pH
 DFL .                9.6:   Fluid loss
 MSS .         CIRCULATED:   Source of sample
 RMS .OHMM           0.22:   Rm
 MST .F                78:   Rm Meas. temp.
 RMF .OHMM           0.16:   Rmf
 MFST.F                78:   Rmf Meas. temp.
 MFSS.               MEAS:   Source Rmf.
 RMC .OHMM           0.28:   Rmc
 MCST.F                78:   Rmc Meas. temp.
 MCSS.               MEAS:   Source Rmc.
 RMB .OHMM           0.14:   Rm. at BHT
 BHT .F               125:   BHT.
 TCS .HRS               7:   Time Circ. stopped
 MRT .F               125:   Maximum recorded temp.
 LUN .               6134:   Logging unit number
 LUL .              GLTTE:   Logging unit location
 ENGI.              GOULD:   Recorded By
 WITN.         HARRINGTON:   Witnessed by
 ORIG.      2.5" 5" PRINT:   Origin of data
 UWI .     49025104040000:   Unique Well ID
 DICO. A2D TECHNOLOGIES, INC.:   Digitizing Company
~OTHER INFORMATION
~A   DEPT      GRD       CALD       CORR       RHOB       TEND         NPHI      SPR       TENR        LLD        LLS        RXO   
  220.0000  -999.2500  -999.2500  -999.2500  -999.2500  -999.2500     0.4414  -999.2500  -999.2500  -999.2500  -999.2500  -999.2500
  220.5000  -999.2500  -999.2500  -999.2500  -999.2500  -999.2500     0.3526  -999.2500  -999.2500  -999.2500  -999.2500  -999.2500
  221.0000  -999.2500  -999.2500  -999.2500  -999.2500  -999.2500     0.3042  -999.2500  -999.2500  -999.2500  -999.2500  -999.2500
  221.5000     1.0719  -999.2500  -999.2500  -999.2500  -999.2500     0.3025  -999.2500  -999.2500  -999.2500  -999.2500  -999.2500
  222.0000    20.3416  -999.2500  -999.2500  -999.2500  -999.2500     0.3009  -999.2500  -999.2500  -999.2500  -999.2500  -999.2500
  222.5000    36.7726  -999.2500  -999.2500  -999.2500  -999.2500     0.3824  -999.2500  -999.2500  -999.2500  -999.2500  -999.2500
  223.0000    33.9601  -999.2500  -999.2500  -999.2500  -999.2500     0.4681  -999.2500  -999.2500  -999.2500  -999.2500  -999.2500
  223.5000    32.4850  -999.2500  -999.2500  -999.2500  -999.2500     0.5022  -999.2500  -999.2500  -999.2500  -999.2500  -999.2500
  224.0000    32.3488  -999.2500  -999.2500  -999.2500  -999.2500     0.5061   -42.1506   663.8713    94.4827    15.6992     0.7200
  224.5000    37.8930     9.9134     0.1029  -999.2500  1082.2639     0.4985   -42.4577   728.6426    66.8676    12.9124     5.4465
  225.0000    41.7910    10.3056     0.1258     2.0784  1095.1661     0.4820   -43.0643   748.5030    15.8971    82.1716     5.5971
  225.5000    43.0507    10.6077     0.1197     2.1416  1108.0685     0.4589   -44.9130   749.2014    12.3925    99.3260     5.3548
  226.0000    44.5169    10.9549     0.1338     2.1941  1105.3142     0.4327   -48.1260   749.7602    82.6067    18.2483     4.1897
  226.5000    44.9052    10.4486     0.1561     2.2957  1118.7673     0.4267   -51.5452   750.3190     9.7400     5.2088     5.8967
  227.0000    44.2518    10.2460     0.1563     2.3316  1131.6697     0.4236   -53.1127   750.8983     5.3817     8.7674     6.0259
  227.5000    43.6722    10.4201     0.1504     2.3396  1128.9153     0.4278   -52.6879   751.4970     5.1138    20.0479     5.0551
  228.0000    43.0927    10.5581     0.1400     2.3269  1142.3684     0.4393   -51.7974   752.0958    14.1895    18.9684     6.1531
  228.5000    41.2716    10.6839     0.1341     2.3458  1155.2709     0.4469   -50.6076   752.6946    19.7553    13.8109     6.1515
  229.0000    40.9513    10.8011     0.1448     2.3820  1167.6737     0.4507   -49.1096   753.3922    18.9445     6.6492     5.7829
  229.5000    43.2957    10.9534     0.1510     2.3746  1180.5245     0.4489   -47.3969   753.9509     8.1609     7.5671     5.2653
  230.0000    44.5373    11.4057     0.1181     2.3529  1178.2477     0.4404   -44.1117   754.5096     5.6147     7.8425     5.7408
  230.5000    45.6219    11.7077     0.0896     2.3409  1160.4612     0.4356   -40.8355   755.0898     6.6137     7.3382     6.2119
  231.0000    46.7852    11.8297     0.0597     2.3756  1143.1520     0.4337   -38.3749   755.6886     6.9961     6.4199     6.5805
  231.5000    45.9072    12.0567     0.0373     2.4321  1096.1823     0.4283   -36.5863   756.2874     5.2110     5.1822     7.0477
  232.0000    44.5813    12.1937     0.0269     2.4374  1048.1107     0.4304   -36.8934   756.8862     3.7537     5.4750     7.2426
  232.5000    43.5511    12.2719     0.0302     2.4285   986.0352     0.4342   -36.9012   757.5828     3.8040     5.3250     6.7983
  233.0000    46.4087    12.3475     0.0378     2.4226  1029.1489     0.4420   -36.6096   758.0838     4.3053     5.2461     6.1162
  233.5000    44.9336    12.2748     0.0484     2.4240  1026.3947     0.4536   -36.3179   758.7003     5.0091     5.4718     5.9370
  234.0000    45.3988    12.2611     0.0636     2.4363  1024.1691     0.4434   -35.9015   759.2814     4.1264     5.4706     5.8886
  234.5000    46.9088    12.3535     0.0818     2.4189  1037.0935     0.4369   -35.5683   759.8802     4.3998     5.4695     7.0359
  235.0000    45.7322    12.6407     0.0865     2.3989  1019.2335     0.4328   -34.2493   760.4791     5.0611     5.4421     7.2306
  235.5000    43.3616    13.0029     0.0806     2.3142  1032.1359     0.4300   -33.0595   761.0778     5.1681     5.2527     7.2286
  236.0000    44.5731    13.3196     0.0928     2.1723  1029.9324     0.4375   -31.5702   761.7735     4.5985     4.8141     6.7757
  236.5000    44.2920    13.0816     0.0989     2.2159  1027.7290     0.4508   -30.3804   762.3323     3.2545     3.4671     5.4648
  237.0000    44.6080    12.7681     0.0675     2.3002  1025.5255     0.4650   -34.0619   762.8910     1.9787     2.8885     4.0823
  237.5000    44.0328    12.6344     0.0872     2.3138  1023.3221     0.4763   -34.7111   763.4730     1.8205     3.3715     3.4336
  238.0000    41.6621    12.3814     0.0784     2.2763  1006.0129     0.4643   -35.1963   764.0718     2.3010     3.6615     3.3988
  238.5000    41.0797    12.6385     0.0875     2.2982  1003.7764     0.4720   -35.5052   764.6707     2.1763     4.7801     3.7268
  239.0000    42.8925    12.6404     0.0967     2.3577  1001.5106     0.4678   -35.5130   765.2695     4.2217     5.3109     4.0466
  239.5000    43.5070    12.3706     0.0412     2.4006  1014.5084     0.4732   -35.5207   765.9642     7.6370     5.3097     4.4819
  240.0000    46.2066    12.3137     0.0218     2.4090  1042.5165     0.4887   -35.4957   736.5270     7.1241     5.3086     5.0692
  240.5000    44.7315    12.2860     0.0295     2.4083  1054.8679     0.5009   -35.2369   737.1416     4.7055     5.3075     5.1806
  241.0000    43.8535    12.2578     0.0312     2.4164  1052.6644     0.4970   -34.9452   737.7245     4.1536     5.6849     4.7432
  241.5000    43.4275    12.1996     0.0331     2.4400  1050.4609     0.4741   -34.6557   738.3234     4.4057     7.1852     5.7011
  242.0000    44.4897    12.1710     0.0344     2.4530  1048.3384     0.4621   -34.3646   768.8623     8.8595     8.0215     5.7187
  242.5000    43.0146    12.1428     0.0361     2.4598  1038.7714     0.4650   -34.0735   769.4611     9.7634     7.8018     5.6981
  243.0000    44.1035    12.1751     0.0347     2.4644  1028.7009     0.4698   -33.4832   740.2148     9.9653     7.3817     5.9435
  243.5000    44.2479    12.2370     0.0289     2.4547  1025.9907     0.4745   -33.1631   740.7735    10.3053     7.8583     6.2869
  244.0000    43.6640    12.4340     0.0245     2.4398  1023.7872     0.4829   -32.8299   741.3173    10.4436     8.5263     6.3567
  244.5000    44.5813    12.4556     0.0292     2.4339  1036.6896     0.4894   -32.6083   741.9161    10.4514     8.2731     5.9473
  245.0000    45.4899    12.3926     0.0368     2.4430  1034.4862     0.4930   -32.7733   742.5150     9.1835     6.7305     6.0122
  245.5000    44.0192    12.3795     0.0430     2.4491  1032.2827     0.4995   -32.9271   743.1138     8.2464     6.3466     6.4390
  246.0000    45.2307    12.3203     0.0432     2.4290  1045.1849     0.5106   -33.2343   743.7126     8.4732     6.6026     6.7088
  246.5000    45.0989    12.2760     0.0433     2.4088  1073.2629     0.5156   -33.5415   744.4055     8.5187     6.6010     6.7071
  247.0000    43.7730    12.2199     0.0540     2.4164  1086.1028     0.4988   -33.8490   744.9642     8.5158     5.7497     6.7983
  247.5000    44.1294    12.1917     0.0782     2.4285  1068.7312     0.4837   -34.1567   775.4631     8.1155     5.3656     6.7033
  248.0000    44.7078    12.1640     0.0799     2.4414  1066.0320     0.4902   -34.1650   776.0479     7.1636     6.6506     6.5309
  248.5000    45.0237    12.1508     0.0966     2.4491  1033.6169     0.5172   -34.1733   776.6467     7.2597     7.4863     6.0006
  249.0000    45.9367    12.1371     0.1388     2.4506  1076.7308     0.5388   -34.1830   777.2455     7.9164     7.5695     5.7564
  249.5000    45.6557    12.1090     0.1991     2.4324  1074.7734     0.5501   -34.4902   777.8443     8.5597     7.2440     5.6762
  250.0000    45.3746    12.0511     0.2384     2.4177  1072.3240     0.5243   -34.7974   778.5363     7.7390     6.5916     5.2970
