~VERSION INFORMATION
 VERS.                2.0:   CWLS LOG ASCII STANDARD - VERSION 2.0
 WRAP.                 NO:   ONE LINE PER DEPTH STEP
~WELL INFORMATION
#MNEM.UNIT      DATA TYPE    INFORMATION
#----------   ------------   ------------------------------
 STRT.F           60.0000:   START DEPTH
 STOP.F         5768.0000:   STOP DEPTH
 STEP.F            0.5000:   STEP LENGTH
 NULL.          -999.2500:   NO VALUE
 COMP.              RMOTC:   COMPANY
 WELL. RMOTC NPR-3 61 "X" #2-15:   WELL
 FLD .            N P R-3:   FIELD
 LOC .      S15 T38N R78W:   LOCATION
 CNTY.            NATRONA:   COUNTY
 STAT.            WYOMING:   STATE
 CTRY. UNITED STATES OF AMERICA:   COUNTRY
 SRVC.       SCHLUMBERGER:   SERVICE COMPANY
 DATE.        07-JAN-2002:   LOGDATE
 API .     49025230310000:   API NUMBER
~CURVE INFORMATION
#MNEM.UNIT       API CODE    CURVE DESCRIPTION
#----------   ------------   ------------------------------
 DEPT.F                  :   
 CALD.IN     45 280 60 00:   CALIPER FROM DENSITY LOG
 TEND.LBS    45 635 01 00:   TENSION FROM DENSITY LOG
 PEFZ.B/E    45 358 01 00:   HILT PHOTOELECTRIC FACTOR
 RHOZ.G/C3   45 350 01 00:   HILT BULK DENSITY
 NPOR.DEC    42 890 03 00:   ALPHA PROCESSED NEUTRON POROSITY
 HDRA.G/C3   45 356 01 00:   DELTA RHO HIP TOOL
 GRS .GAPI   60 310 01 00:   GAMMA RAY FROM SONIC LOG
 DTSM.US/F   61 523 00 00:   SHEAR-WAVE INTERVAL TRANSIT TIME DELTA-T
 GRR .GAPI   07 310 01 00:   GAMMA RAY FROM RESISTIVITY
 TENR.LBS    01 635 01 00:   TENSION FROM RES.
 SPR .MV     07 010 01 00:   SPONTANEOUS POTENTIAL
 HLLD.OHMM   11 220 10 00:   LATEROLOG DEEP RES.
 HLLS.OHMM   11 220 09 00:   LATEROLOG SHALLOW RES.
 HRLD.OHMM   11 220 10 00:   HIGH RESOLUTION DEEP RESISTIVITY
~PARAMETER INFORMATION
#MNEM.UNIT          VALUE    DESCRIPTION
#----------   ------------   ------------------------------
 EKB .F         5244.0000:   Kelly bushing
 EGL .F         5227.0000:   Ground level
 EDF .F         5243.0000:   Drilling floor
 EPD .F            0.0000:   Permanent datum
 TD  .F         5756.0000:   Total depth
 DATE.        07-JAN-2002:   Date logged
 CLNT.            A2DTECH:   Client Code
 SL  . 189' FNL & 1895' FEL:   Surface Location
 PD  .                 GL:   Permanent Datum
 DD  .F              5750:   Depth driller
 DL  .F              5756:   Depth logger
 BLI .F              5748:   Bottom log interval
 CS1 .IN             3054:   Casing size
 CBD1.     9.625" @ 3052':   Casing driller 1
 CBL1.F              3054:   Casing logger 1
 BS1 .IN            8.750:   Bit size
 DFT .             3% KCL:   Type fluid in hole
 DFD .                9.3:   Density
 DFV .                 42:   Viscosity
 DFPH.                  8:   pH
 DFL .                 28:   Fluid loss
 MSS .           FLOWLINE:   Source of sample
 RMS .OHMM          0.413:   Rm
 MST .F                74:   Rm Meas. temp.
 RMF .OHMM          0.305:   Rmf
 MFST.F                74:   Rmf Meas. temp.
 RMC .OHMM          0.637:   Rmc
 MCST.F                74:   Rmc Meas. temp.
 MFSS.               CALC:   Source Rmf.
 RMB .OHMM          0.187:   Rm. at BHT
 BHT .F               172:   BHT.
 TCS .HRS            0800:   Time Circ. stopped
 MRT .F               172:   Maximum recorded temp.
 LUN .               2211:   Logging unit number
 LUL .             CASPER:   Logging unit location
 ENGI.        J.L. FLORES:   Recorded By
 WITN.      MARK MILLIKEN:   Witnessed by
 ORIG.           5" PRINT:   Origin of data
 UWI .     49025230310000:   Unique Well ID
 DICO. A2D TECHNOLOGIES, INC.:   Digitizing Company
 DAPD.                 17:   Feet Above Permanent Datum
 BSD1.               5750:   Depth drilled with bit1
 MCSS.               CALC:   Source Rmc.
 LMF .                 KB:   Log Measured From
 DMF .                 KB:   Drilling Measured From
 TLI .               3054:   Top log interval
~OTHER INFORMATION
~A   DEPT     CALD       TEND       PEFZ       RHOZ       NPOR       HDRA        GRS       DTSM         GRR      TENR        SPR       HLLD       HLLS       HRLD   
# ...
 5180.5000    12.2530  2719.0701     4.6020     2.8050     0.1090     0.0080    45.1240   105.8110    52.8060  2810.3279     2.2290    39.3530    58.4760    45.5220
 5181.0000    12.2590  2742.0090     4.6310     2.8230     0.1160     0.0140    45.2510   106.2340    52.9320  2799.8010    32.7270    37.4460    49.0120    38.2870
 5181.5000    12.2590  2753.4790     4.6630     2.8270     0.1230     0.0120    43.5280   106.6560    53.2130  2774.9260    31.2450    60.8390    47.6860    76.3860
 5182.0000    12.2370  2723.6580     4.3840     2.8050     0.1360     0.0080    42.5340   105.4890    57.5030  2750.0500    23.7150    60.6320    42.2500    53.3160
 5182.5000    12.2140  2693.8369     4.0180     2.7690     0.1590     0.0050    42.4750   103.2860    63.2580  2711.0229   -13.4340    20.3690    34.5160    21.5180
 5183.0000    12.1910  2681.4121     3.6790     2.7340     0.1830     0.0010    42.6970   101.0840    63.9930  2726.3440   -19.8590    21.5340    28.3120    20.5560
 5183.5000    12.1690  2706.2620     3.7170     2.7480     0.1950    -0.0030    41.5030    98.8810    57.6750  2761.8811   -20.0600    24.6830    29.3670    23.7960
 5184.0000    12.1460  2731.1130     3.9860     2.8020     0.1850    -0.0030    33.3490    96.5990    46.9330  2797.4180   -20.0600    40.0790    36.2430    27.2950
 5184.5000    12.1230  2753.4790     4.4620     2.8570     0.1350    -0.0020    25.1660    96.1910    33.6300  2830.1890   -19.8590  1140.9650   213.7120    95.4830
 5185.0000    12.1010  2767.3960     4.9460     2.9070     0.0790    -0.0010    17.2230    95.0650    26.7990  2807.1001   -19.0560 60903.8438  1023.0050   159.4840
 5185.5000    12.0810  2751.6150     5.1420     2.9550     0.0180     0.0000    15.2130    94.5690    20.5150  2788.4431   -12.2290 60903.8438  1493.3540  1881.2240
 5186.0000    12.0410  2720.5520     5.2370     2.9800     0.0160     0.0010    16.1060    94.2870    18.7030  2770.6060    23.9160 27238.3848  1583.9410  1850.4030
 5186.5000    11.9990  2689.4880     5.1890     2.9610     0.0240     0.0010    19.0280    94.5850    18.9790  2753.8030    46.4060 62598.1172  1583.9410  1175.2540
 5187.0000    11.9540  2688.5740     5.1380     2.9230     0.0320     0.0020    21.9100    94.8830    18.9850  2730.8840    32.1490  1461.5480   863.7340   528.5060
 5187.5000    11.9220  2717.8110     5.2080     2.8950     0.0320     0.0010    21.3670    95.2330    18.4660  2730.8840     0.4220    46.8210    55.2010    43.1220
 5188.0000    11.8880  2747.0471     5.3080     2.9050     0.0220    -0.0090    19.0020    96.2760    17.1060  2770.6060    -9.4180   599.7050    54.2000   890.8020
 5188.5000    11.8550  2773.3601     5.3690     2.9330     0.0140    -0.0300    18.2760    97.3190    16.3830  2692.1050   -19.2570  1343.5060   191.4970  1833.5560
 5189.0000    11.8210  2759.4431     5.3190     2.9450     0.0130    -0.0410    19.9630    98.3620    16.6150  2631.5791   -14.6390  1115.4520   380.6600  1160.6050
 5189.5000    11.7780  2739.5630     5.2260     2.9490     0.0290    -0.0260    24.9340   101.2190    19.7970  2649.3999   -16.1680   504.3270   206.0340   615.2310
 5190.0000    11.7190  2719.6819     4.8910     2.9550     0.0380    -0.0050    28.2200   104.7020    25.0490  2676.5371   -18.0500    51.3060    70.1440    26.5560
 5190.5000    11.6600  2713.7180     4.5710     2.9370     0.0400     0.0060    30.2400   108.1850    31.2180  2730.8840   -20.2610    29.4250    30.3200    30.9810
 5191.0000    11.6010  2726.4980     4.2750     2.8750     0.0480     0.0040    33.5230   111.1570    38.3000  2770.6060   -19.4730    37.9390    31.6910    37.2510
 5191.5000    11.5450  2740.6990     4.0530     2.8130     0.0770     0.0020    38.2260   113.6900    44.0800  2797.0710   -17.6250    16.9640    25.2870    16.8100
 5192.0000    11.4770  2753.4790     3.8140     2.7850     0.1340     0.0020    45.3650   116.2230    56.5190  2810.3279   -15.8430    15.8720    21.0900    15.7690
 5192.5000    11.4230  2737.1069     3.6390     2.7680     0.2240     0.0030    52.5240   116.9040    62.7490  2783.3291   -16.9530    15.3400    17.5960    15.1170
 5193.0000    11.3750  2713.7180     3.4550     2.7560     0.2360     0.0040    59.7030   116.9040    68.3280  2752.2339   -18.0240    14.5470    16.6620    14.6620
 5193.5000    11.3230  2690.3291     3.2820     2.7420     0.2110     0.0030    64.1000   113.7860    68.9190  2721.1399   -19.2570    13.1590    15.5490    12.4300
 5194.0000    11.2830  2673.9561     3.1340     2.7220     0.2120     0.0020    64.4940   110.1970    66.7390  2723.6279   -19.0560    12.3170    14.5210    12.2150
 5194.5000    11.2000  2710.4041     3.2920     2.7210     0.2140     0.0010    59.6360   106.6090    62.9000  2750.1621   -16.6470    13.6130    15.2610    13.5070
 5195.0000    11.1180  2731.4680     3.5460     2.7560     0.2050     0.0060    50.5890   103.0200    55.3090  2776.6960   -18.2010    18.6050    19.5900    18.9960
 5195.5000    11.0370  2724.3679     3.9130     2.7940     0.1870     0.0190    40.9160    99.1370    48.3940  2770.6060   -20.2610    25.3920    41.9540    29.6670
 5196.0000    11.0130  2717.2681     4.6020     2.8560     0.1040     0.0220    31.3070    99.3660    41.2310  2751.6089   -20.0370    41.0250    43.1220    44.9910
 5196.5000    10.9810  2713.7180     4.8770     2.9100     0.0500     0.0110    23.9390   100.0900    34.7830  2734.0500   -19.7010   147.4110   694.3700   515.9300
 5197.0000    10.9480  2713.7180     4.7140     2.9110     0.0610    -0.0110    29.1920   100.8140    39.9300  2716.4900   -19.4580   667.4140   984.4300   771.3530
 5197.5000    10.9270  2721.1731     4.4810     2.8420     0.0810    -0.0250    39.8730   101.3770    48.4180  2730.0559   -20.1810   259.4330   705.8360   469.1050
 5198.0000    10.8760  2729.4570     4.2100     2.7910     0.1010    -0.0110    47.1290   102.0530    57.2100  2757.6960   -20.8530    34.2760   345.3910   166.8560
 5198.5000    10.8250  2736.9121     3.8970     2.7750     0.1420     0.0020    43.5840   102.7280    58.8310  2785.3359   -20.4620    15.9120    18.7600    15.0360
 5199.0000    10.7820  2743.5391     3.6060     2.7990     0.1370     0.0060    36.2060   104.0060    48.9280  2810.3279   -21.2600    15.2010    17.6490    14.6550
 5199.5000    10.7470  2750.1660     3.3620     2.8260     0.1220     0.0110    28.6500   106.8870    39.7540  2797.6721   -21.9320    15.3410    18.3710    14.7080
 5200.0000    10.7120  2736.8589     3.1710     2.7890     0.0880     0.0160    26.0790   109.7690    33.9580  2755.1189   -21.8200    20.7880    21.8310    19.7820
 5200.5000    10.6770  2703.6201     3.1850     2.6620     0.1070     0.0340    29.6770   112.6500    33.5490  2712.5659   -20.3190    30.8510    26.4720    33.1930
 5201.0000    10.6670  2677.5349     3.2020     2.5760     0.1430     0.0600    34.7160   115.5320    38.6540  2703.7590   -18.8030    25.5070    31.5970    30.0730
 5201.5000    10.6950  2710.8020     3.1460     2.6010     0.1690     0.1210    40.5940   116.2150    46.1690  2746.2339   -18.2630     8.5440    18.3380     5.8180
 5202.0000    10.7050  2744.0691     2.9640     2.6410     0.1600     0.1060    47.2400   115.8880    53.1440  2788.7080   -18.6170     6.5830     7.8160     6.1610
 5202.5000    10.5810  2773.3601     2.7590     2.6210     0.1610     0.0620    52.2740   112.7470    58.8120  2810.3279   -19.0350     7.0490     7.6400     6.5000
 5203.0000    10.5590  2752.9490     2.5530     2.5770     0.1630     0.0190    53.0370   110.4310    57.9460  2787.5229   -19.4430     7.5150     8.4630     7.4000
 5203.5000    10.5430  2728.9719     2.4360     2.5980     0.1610     0.0070    53.9410   108.6550    56.4610  2740.8840   -20.1590     7.9400     8.9580     8.8850
 5204.0000    10.5250  2692.6799     2.4320     2.6340     0.1690     0.0060    56.2450   107.3350    56.8730  2694.2461   -20.9160     8.3400     9.3210    10.3700
 5204.5000    10.5080  2654.0759     2.5490     2.6710     0.1730     0.0050    57.4550   107.5890    61.3010  2651.4399   -21.6730     8.7750     9.6840     9.2110
