~VERSION INFORMATION
 VERS.                2.0:   CWLS LOG ASCII STANDARD - VERSION 2.0
 WRAP.                 NO:   ONE LINE PER DEPTH STEP
~WELL INFORMATION
#MNEM.UNIT      DATA TYPE    INFORMATION
#----------   ------------   ------------------------------
 STRT.F          196.5000:   START DEPTH
 STOP.F         3219.0000:   STOP DEPTH
 STEP.F            0.5000:   STEP LENGTH
 NULL.          -999.2500:   NO VALUE
 COMP.    FENIX & SCISSON:   COMPANY
 WELL.  FENIX "AX" #73-15:   WELL
 FLD .              NPR 3:   FIELD
 LOC .      S15 T38N R78W:   LOCATION
 CNTY.            NATRONA:   COUNTY
 STAT.            WYOMING:   STATE
 CTRY. UNITED STATES OF AMERICA:   COUNTRY
 SRVC.       SCHLUMBERGER:   SERVICE COMPANY
 DATE.        30-AUG-1977:   LOGDATE
 API .     49025104270000:   API NUMBER
~CURVE INFORMATION
#MNEM.UNIT       API CODE    CURVE DESCRIPTION
#----------   ------------   ------------------------------
 DEPT.F                  :   
 NPHI.DEC    42 890 03 00:   NEUTRON POROSITY SANDSTONE
 CALD.IN     45 280 60 00:   CALIPER FROM DENSITY LOG
 GRD .GAPI   45 310 01 00:   GAMMA RAY FROM DENSITY LOG
 CORR.G/C3   45 356 01 00:   DENSITY CORRECTION
 RHOB.G/C3   45 350 01 00:   BULK DENSITY
 SPR .MV     07 010 01 00:   SPONTANEOUS POTENTIAL
 RILD.OHMM   07 120 46 00:   DEEP INDUCTION RESISTIVITY
 RILM.OHMM   07 120 44 00:   INDUCTION LOG MEDIUM RESISTIVITY
 LL8 .OHMM   07 220 08 00:   LATEROLOG-8 RES.
~PARAMETER INFORMATION
#MNEM.UNIT          VALUE    DESCRIPTION
#----------   ------------   ------------------------------
 EKB .F         5263.0000:   Kelly bushing
 EGL .F         5253.0000:   Ground level
 TD  .F         3220.0000:   Total depth
 CLNT.            A2DTECH:   Client Code
 SL  . 1650' FNL & 875' FEL:   Surface Location
 PD  .                 GL:   Permanent Datum
 EPD .F              5253:   Elevation Permanent Datum
 LMF .                 KB:   Log Measured From
 DMF .                 KB:   Drilling Measured From
 DAPD.F                10:   Feet Above Permanent Datum
 DATE.        30-AUG-1977:   Date Logged [DD-MMM-YYYY]
 DD  .F              3220:   Depth driller
 DL  .F              3219:   Depth logger
 BLI .F              3209:   Bottom log interval
 TLI .F               216:   Top log interval
 CS1 .IN            8.625:   Casing size
 CBL1.F               216:   Casing logger 1
 BS1 .IN            7.875:   Bit size
 BSD1.F              3220:   Depth drilled with bit1
 DFT .                FGM:   Type fluid in hole
 DFD .                8.9:   Density
 DFPH.                 11:   pH
 MSS .            MUDTANK:   Source of sample
 RMS .OHMM           0.40:   Rm
 MST .F                82:   Rm Meas. temp.
 RMF .OHMM           0.25:   Rmf
 MFST.F                72:   Rmf Meas. temp.
 MFSS.               MEAS:   Source Rmf.
 RMC .OHMM           0.60:   Rmc
 MCST.F                82:   Rmc Meas. temp.
 MCSS.               CALC:   Source Rmc.
 RMB .OHMM           0.27:   Rm. at BHT
 BHT .F               120:   BHT.
 MRT .F               120:   Maximum recorded temp.
 LUN .               5642:   Logging unit number
 LUL .               CSPR:   Logging unit location
 ENGI.                FIX:   Recorded By
 WITN.         RETTINGILL:   Witnessed by
 ORIG.           5" PRINT:   Origin of data
 UWI .     49025104270000:   Unique Well ID
 DICO. A2D TECHNOLOGIES, INC.:   Digitizing Company
 DFV .                 35:   Viscosity
 DFL .                8.4:   Fluid loss
 CBD1.      8.625" @ 216':   Casing driller 1
~OTHER INFORMATION
~A   DEPT       NPHI     CALD        GRD       CORR       RHOB        SPR       RILD       RILM        LL8   
# ...
 2788.0000     0.2086     9.1955    51.1438     0.0086     2.3872   -32.0485    16.1996    16.3386    23.0426
 2788.5000     0.2155     9.1671    49.7166     0.0177     2.3940   -32.1741    15.4378    15.8995    22.1104
 2789.0000     0.2196     9.1242    51.8668     0.0269     2.3844   -32.4568    14.0162    14.6378    21.3317
 2789.5000     0.2229     9.0817    53.2327     0.0157     2.3650   -32.4366    12.4641    13.7592    20.2325
 2790.0000     0.2247     9.0681    54.1522     0.0196     2.3666   -32.4130    11.7147    13.0234    19.1465
 2790.5000     0.2204     9.0553    53.9557     0.0272     2.3764   -32.3936    11.4771    12.4043    17.2609
 2791.0000     0.2207     9.0569    53.5359     0.0290     2.3817   -32.5301    11.3224    11.9048    17.0268
 2791.5000     0.2222     9.0585    53.1161     0.0177     2.3668   -32.9589    11.3256    11.5808    17.3904
 2792.0000     0.2189     9.0601    52.6963     0.0193     2.3639   -33.2465    11.7275    11.3596    18.0085
 2792.5000     0.2218     9.0618    55.4092     0.0269     2.3888   -33.5291    12.6806    12.0143    18.9088
 2793.0000     0.2233     9.0481    55.1817     0.0218     2.3851   -33.6607    14.4870    12.9722    19.7171
 2793.5000     0.2212     9.0353    53.6534     0.0204     2.3825   -33.7924    16.0448    14.3008    20.7028
 2794.0000     0.2130     9.0368    53.4726     0.0222     2.3928   -33.7681    16.4803    15.3344    21.8890
 2794.5000     0.2036     9.0386    54.3921     0.0251     2.3989   -33.7486    15.1712    16.4427    23.3042
 2795.0000     0.1876     9.0249    51.8155     0.0132     2.4004   -33.8851    13.1948    14.9294    25.5082
 2795.5000     0.1700     9.0117    46.7887     0.0126     2.3908   -34.0167    11.1173    13.0034    26.4148
 2796.0000     0.1524     9.0136    43.6432     0.0074     2.4403   -34.4456    12.5508    11.7237    27.1647
 2796.5000     0.1610     9.0153    41.3291     0.0060     2.4825   -34.8842    13.7857    13.0158    27.3611
 2797.0000     0.1766     9.0170    48.9517     0.0234     2.5077   -34.8599    13.8843    14.2497    27.1796
 2797.5000     0.1908     9.0186    54.5587     0.0318     2.4954   -34.8404    12.9604    15.7091    26.0437
 2798.0000     0.2032     9.0202    58.3800     0.0176     2.4355   -34.8210    12.0972    13.9699    22.9344
 2798.5000     0.2160     9.0218    59.7459     0.0140     2.3961   -34.8015    11.8511    12.0836    20.6611
 2799.0000     0.2197     9.0235    59.5494     0.0179     2.3857   -34.6310    12.8816    12.0642    18.8464
 2799.5000     0.2157     9.0399    58.0135     0.0082     2.3805   -34.4605    14.6956    13.0533    18.4624
 2800.0000     0.2118     9.0415    55.8080     0.0234     2.3754   -34.5164    15.1111    13.7087    18.3399
 2800.5000     0.2162     9.0432    54.9107     0.0355     2.4032   -34.8008    13.3460    14.4021    18.3462
 2801.0000     0.2195     9.0591    55.8036     0.0266     2.3906   -35.3213    12.3712    14.7066    18.6074
 2801.5000     0.2168     9.0314    57.1647     0.0236     2.3749   -35.5826    11.7894    13.2205    18.7419
 2802.0000     0.2191     9.0339    59.7521     0.0284     2.3908   -36.0079    12.7253    12.3789    18.9624
 2802.5000     0.2239     9.0360    61.5590     0.0449     2.4126   -37.1941    13.9269    12.7345    19.6029
 2803.0000     0.2233     9.0078    63.1433     0.0375     2.4097   -38.0781    14.7335    13.2815    20.2434
 2803.5000     0.2202     8.9805    64.2826     0.0391     2.4038   -38.5146    15.0366    13.8521    20.5406
 2804.0000     0.2178     8.9677    65.4218     0.0475     2.4166   -38.7888    13.8890    14.2483    19.0168
 2804.5000     0.2235     8.9698    69.2317     0.0438     2.4242   -39.5218    12.3956    13.4863    19.5830
 2805.0000     0.2258     8.9867    70.5935     0.0386     2.4121   -39.6561    12.1614    12.6769    20.2804
 2805.5000     0.2282     8.9888    70.1527     0.0139     2.4019   -39.6282    12.4216    12.7113    20.8575
 2806.0000     0.2254     8.9759    66.9967     0.0095     2.3969   -39.6059    12.9535    13.4750    21.1558
 2806.5000     0.2275     8.9630    61.6837     0.0088     2.3818   -39.2815    14.2770    14.1835    21.4584
 2807.0000     0.2296     8.9353    61.2203     0.0098     2.3806   -38.9571    15.0959    14.5892    21.0241
 2807.5000     0.2313     8.9374    63.1635     0.0074     2.3692   -38.7837    15.3125    14.7999    20.5968
 2808.0000     0.2307     8.9395    64.5254     0.0151     2.3828   -38.6103    15.0040    15.0136    19.9038
 2808.5000     0.2322     8.9267    68.1127     0.0130     2.3649   -38.5876    14.4997    15.0208    19.3662
 2809.0000     0.2390     8.9138    72.1451     0.0070     2.3590   -38.9096    13.8198    14.1770    18.9742
 2809.5000     0.2444     8.9010    74.3971     0.0117     2.3741   -39.4498    13.5400    13.2724    18.8493
 2810.0000     0.2504     8.8882    75.3138     0.0178     2.4027   -39.5785    13.6410    12.8264    18.8560
 2810.5000     0.2542     8.8903    74.2275     0.0194     2.4306   -39.7073    13.8367    12.5685    18.7321
 2811.0000     0.2512     8.8928    69.1353     0.0142     2.4074   -39.6794    14.0353    12.5798    18.8690
 2811.5000     0.2494     8.8795    64.9333     0.0151     2.3910   -39.6571    14.0411    12.8560    19.1389
 2812.0000     0.2463     8.8820    63.1794     0.0197     2.3745   -39.6348    14.0469    13.3216    19.1456
 2812.5000     0.2451     8.8990    66.7700     0.0153     2.3874   -39.7691    13.8594    13.7814    18.8898
 2813.0000     0.2460     8.9011    70.5798     0.0123     2.3912   -39.8923    13.6745    13.8822    18.4270
 2813.5000     0.2384     8.9031    71.2739     0.0019     2.3958   -39.8700    13.2162    13.5107    17.6370
 2814.0000     0.2321     8.8898    66.4042     0.0020     2.4019   -40.3008    12.8607    13.1476    17.7657
 2814.5000     0.2272     8.8626    55.9707     0.0081     2.3930   -40.7317    12.5147    12.7943    19.0471
 2815.0000     0.2287     8.8492    52.8814     0.0044     2.3758   -41.4647    12.2613    12.5370    19.3196
 2815.5000     0.2308     8.8518    53.3530     0.0083     2.3804   -42.0466    12.1818    12.3688    18.9285
 2816.0000     0.2352     8.8837    55.8275     0.0024     2.3815   -42.3305    12.2726    12.3762    18.5453
 2816.5000     0.2324     8.9006    59.8599     0.0062     2.3798   -42.4552    12.5352    12.4683    18.0429
 2817.0000     0.2316     8.8729    61.6667     0.0056     2.3859   -42.4320    13.2541    12.6483    18.1761
 2817.5000     0.2396     8.8595    62.8059     0.0065     2.3680   -42.2539    14.2096    13.3758    18.8234
 2818.0000     0.2567     8.8621    63.0483     0.0126     2.4124   -42.2316    15.4462    14.6438    20.1811
 2818.5000     0.2503     8.8642    59.2980     0.0217     2.3990   -42.2093    16.5597    15.3816    21.7926
 2819.0000     0.2386     8.8683    55.0959     0.0112     2.4066   -42.3437    16.3387    15.3633    23.3948
 2819.5000     0.2207     8.8683    50.8939     0.0137     2.4164   -42.6235    14.9329    14.2372    25.4662
 2820.0000     0.1998     8.8554    47.5820     0.0167     2.4293   -43.1998    13.2748    13.4093    27.4160
 2820.5000     0.1748     8.8575    45.1604     0.0047     2.4534   -43.7817    12.8290    13.0474    27.8058
 2821.0000     0.1643     8.8745    47.4230     0.0019     2.4865   -44.3692    12.5814    12.9635    26.5004
 2821.5000     0.1739     8.8766    51.9732     0.0050     2.5024   -44.6490    12.5878    12.9712    25.2541
 2822.0000     0.1903     8.8637    57.8686     0.0074     2.5100   -44.9289    12.7685    13.3422    26.1534
 2822.5000     0.2062     8.8659    67.1232     0.0073     2.5070   -45.2031    13.4077    14.3065    27.4628
 2823.0000     0.2344     8.8705    74.1575     0.0068     2.4794   -45.3323    14.5745    15.0248    25.2799
 2823.5000     0.2422     8.8865    78.2634     0.0132     2.4637   -45.4607    15.6252    15.5620    23.1099
 2824.0000     0.2433     8.9019    79.1734     0.0175     2.4360   -45.1359    16.4074    16.0070    21.4209
