~VERSION INFORMATION
 VERS.                2.0:   CWLS LOG ASCII STANDARD - VERSION 2.0
 WRAP.                 NO:   ONE LINE PER DEPTH STEP
~WELL INFORMATION
#MNEM.UNIT      DATA TYPE    INFORMATION
#----------   ------------   ------------------------------
 STRT.F           40.0000:   START DEPTH
 STOP.F         3032.5000:   STOP DEPTH
 STEP.F            0.5000:   STEP LENGTH
 NULL.          -999.2500:   NO VALUE
 COMP.   TESORO PETROLEUM:   COMPANY
 WELL. TESORO NPR 3 "AX" #51-15:   WELL
 FLD .        TEAPOT DOME:   FIELD
 LOC .      S15 T38N R78W:   LOCATION
 CNTY.            NATRONA:   COUNTY
 STAT.            WYOMING:   STATE
 CTRY. UNITED STATES OF AMERICA:   COUNTRY
 SRVC.       SCHLUMBERGER:   SERVICE COMPANY
 DATE.        21-JUL-1969:   LOGDATE
 API .     49025100240000:   API NUMBER
~CURVE INFORMATION
#MNEM.UNIT       API CODE    CURVE DESCRIPTION
#----------   ------------   ------------------------------
 DEPT.F                  :   
 CALD.IN     45 280 60 00:   CALIPER FROM DENSITY LOG
 GRD .GAPI   45 310 01 00:   GAMMA RAY FROM DENSITY LOG
 RHOB.G/C3   45 350 01 00:   BULK DENSITY
 CORR.G/C3   45 356 01 00:   DENSITY CORRECTION
 GR  .GAPI   35 310 01 00:   GAMMA RAY FROM GAMMA RAY LOG
 SPR .MV     05 010 01 00:   SPONTANEOUS POTENTIAL
 ASN .OHMM   05 041 16 00:   AMPLIFIED SHORT NORMAL 16"
 ILD .OHMM   05 120 46 00:   DEEP INDUCTION RESISTIVITY
~PARAMETER INFORMATION
#MNEM.UNIT          VALUE    DESCRIPTION
#----------   ------------   ------------------------------
 EKB .F         5235.0000:   Kelly bushing
 EGL .F         5222.0000:   Ground level
 EDF .F            0.0000:   Drilling floor
 TD  .F         3027.0000:   Total depth
 DATE.        21-JUL-1969:   Date logged
 CLNT.            A2DTECH:   Client Code
 SL  . 2000' FEL & 660' FNL:   Surface Location
 PD  .                 GL:   Permanent Datum
 EPD .F              5222:   Elevation Permanent Datum
 LMF .                 KB:   Log Measured From
 DMF .                 KB:   Drilling Measured From
 DAPD.F                13:   Feet Above Permanent Datum
 DD  .F              3027:   Depth driller
 DL  .F              3025:   Depth logger
 BLI .F              3024:   Bottom log interval
 TLI .F              2604:   Top log interval
 CS1 .IN            10.75:   Casing size
 CBD1.      10.75" @ 622':   Casing driller 1
 BS1 .IN                9:   Bit size
 BSD1.F              3027:   Depth drilled with bit1
 DFT .          FRESH/GEL:   Type fluid in hole
 DFD .                9.7:   Density
 DFV .                 65:   Viscosity
 DFPH.                9.5:   pH
 DFL .                  7:   Fluid loss
 MSS .           FLOWLINE:   Source of sample
 RMS .OHMM           2.48:   Rm
 MST .F                80:   Rm Meas. temp.
 RMF .OHMM           2.80:   Rmf
 MFST.F                80:   Rmf Meas. temp.
 MFSS.               MEAS:   Source Rmf.
 RMB .OHMM           2.20:   Rm. at BHT
 BHT .F               106:   BHT.
 TCS .HRS               1:   Time Circ. stopped
 MRT .F               106:   Maximum recorded temp.
 LUN .               4507:   Logging unit number
 LUL .               CSPR:   Logging unit location
 ENGI.           CHAMPLIN:   Recorded By
 WITN.                MAY:   Witnessed by
 ORIG.           5" PRINT:   Origin of data
 UWI .     49025100240000:   Unique Well ID
 DICO. A2D TECHNOLOGIES, INC.:   Digitizing Company
~OTHER INFORMATION
~A   DEPT     CALD        GRD       RHOB       CORR         GR        SPR        ASN          ILD 
# ...
 2186.5000     9.3570   111.5910     2.5060     0.0110  -999.2500   -22.9360    10.3410     7.4770
 2187.0000     9.3590   110.8090     2.5180     0.0170  -999.2500   -22.6150    10.4220     7.6940
 2187.5000     9.3620   108.7450     2.5320     0.0090  -999.2500   -22.2910    10.4190     7.9350
 2188.0000     9.3640   106.6980     2.5090     0.0090  -999.2500   -22.5830    10.3770     8.0300
 2188.5000     9.3660   104.7470     2.5160     0.0220  -999.2500   -22.9520    10.1770     7.9880
 2189.0000     9.3690   104.5510     2.5200     0.0460  -999.2500   -23.3330    10.4220     7.9650
 2189.5000     9.3710   108.4400     2.5120     0.0320  -999.2500   -23.3290    10.6310     7.9350
 2190.0000     9.3730   114.3460     2.5050     0.0230  -999.2500   -23.1870    10.6050     7.9080
 2190.5000     9.3750   115.9450     2.5060     0.0270  -999.2500   -23.0560    10.6180     7.8780
 2191.0000     9.3780   112.9410     2.5040     0.0300  -999.2500   -22.9190    10.6070     7.8560
 2191.5000     9.3800   109.8410     2.5100     0.0140  -999.2500   -22.7880    10.6270     7.7740
 2192.0000     9.3820   106.5660     2.5200     0.0070  -999.2500   -22.6550    10.4400     7.6220
 2192.5000     9.3840   105.6780     2.5470     0.0180  -999.2500   -22.7240     9.9330     7.4770
 2193.0000     9.3870   105.7810     2.5350     0.0380  -999.2500   -22.8280     9.3760     7.3300
 2193.5000     9.3890   106.4790     2.5230     0.0460  -999.2500   -22.9270     9.0090     7.1830
 2194.0000     9.3910   107.1510     2.5070     0.0350  -999.2500   -23.0160     8.9630     7.0370
 2194.5000     9.3930   107.5440     2.4880     0.0250  -999.2500   -22.8820     9.0220     6.8900
 2195.0000     9.3850   107.8570     2.4880     0.0180  -999.2500   -22.7340     9.0210     6.7440
 2195.5000     9.3760   108.5250     2.4960     0.0140  -999.2500   -22.5680     8.8750     6.5960
 2196.0000     9.3660   109.1420     2.4980     0.0080  -999.2500   -22.4270     8.6530     6.4500
 2196.5000     9.3570   107.6340     2.4750     0.0150  -999.2500   -22.2660     8.3800     6.3060
 2197.0000     9.3480   105.7440     2.4540     0.0240  -999.2500   -22.4890     8.0920     6.1450
 2197.5000     9.3390   105.8260     2.4710     0.0150  -999.2500   -22.7760     7.8430     6.0500
 2198.0000     9.3300   107.3950     2.4650     0.0100  -999.2500   -23.0180     7.8120     6.1730
 2198.5000     9.3210   107.5050     2.4880     0.0180  -999.2500   -23.0330     7.8350     6.2960
 2199.0000     9.3110   104.8470     2.5000     0.0130  -999.2500   -23.0130     8.0350     6.4280
 2199.5000     9.3020   106.3380     2.5010     0.0060  -999.2500   -23.0740     8.2400     6.5560
 2200.0000     9.2930   112.8330     2.4990     0.0080  -999.2500   -22.5130     8.7340     6.6850
 2200.5000     9.2840   111.5440     2.5050     0.0120  -999.2500   -21.4370     9.0120     6.8130
 2201.0000     9.2740   110.3840     2.5120     0.0200  -999.2500   -20.7710     8.9790     6.9420
 2201.5000     9.2760   108.8930     2.5010     0.0270  -999.2500   -20.3080     8.9920     7.0710
 2202.0000     9.2800   111.6240     2.4890     0.0350  -999.2500   -20.2540     8.9850     7.2000
 2202.5000     9.2850   112.3700     2.4940     0.0440  -999.2500   -20.2280     9.0220     7.3290
 2203.0000     9.2880   110.1080     2.5020     0.0420  -999.2500   -20.2100     9.1530     7.4570
 2203.5000     9.2930   111.5990     2.5110     0.0300  -999.2500   -20.1820     9.4480     7.5870
 2204.0000     9.2970   113.6540     2.5140     0.0240  -999.2500   -20.1600     9.8990     7.6710
 2204.5000     9.3010   114.9690     2.5020     0.0290  -999.2500   -20.1350  -999.2500     7.7270
 2205.0000     9.3050   113.2000     2.4960     0.0330  -999.2500   -20.1110  -999.2500     7.7810
 2205.5000     9.3090   107.7660     2.4930     0.0320  -999.2500   -20.0870  -999.2500     7.8280
 2206.0000     9.3130   104.8220     2.4870     0.0190  -999.2500   -20.0640  -999.2500     7.7470
 2206.5000     9.3150   105.8580     2.4860     0.0090  -999.2500   -20.0400  -999.2500     7.6560
 2207.0000     9.3170   107.2280     2.4860     0.0090  -999.2500   -20.0170  -999.2500     7.5720
 2207.5000     9.3190   109.8700     2.4830     0.0100  -999.2500   -19.9930  -999.2500     7.4660
 2208.0000     9.3210   113.6150     2.4840     0.0130  -999.2500   -19.9700  -999.2500     7.5430
 2208.5000     9.3220   116.8650     2.4880     0.0170  -999.2500   -19.9470  -999.2500     7.7570
 2209.0000     9.3240   114.2950     2.4810     0.0200  -999.2500   -19.9230  -999.2500     7.9450
 2209.5000     9.3260   114.2610     2.4710     0.0220  -999.2500   -19.9020  -999.2500     8.1400
 2210.0000     9.3280   115.7120     2.4980     0.0130  -999.2500   -19.8810  -999.2500     8.3330
 2210.5000     9.3300   119.6610     2.4930     0.0060  -999.2500   -19.8860    11.0910     8.5260
 2211.0000     9.3320   120.8480     2.4900     0.0150  -999.2500   -19.8970    11.3480     8.7210
 2211.5000     9.3340   120.5030     2.4890     0.0230  -999.2500   -20.1730    11.5140     8.9080
 2212.0000     9.3360   119.2820     2.4970     0.0230  -999.2500   -20.5080    11.6550     9.1200
 2212.5000     9.3380   116.9000     2.4950     0.0180  -999.2500   -20.7980    11.7110     9.2090
 2213.0000     9.3400   113.8690     2.4730     0.0090  -999.2500   -21.0380    11.7850     9.1110
 2213.5000     9.3410   110.7540     2.4660     0.0000  -999.2500   -21.2880    11.5190     9.0760
 2214.0000     9.3430   111.1870     2.4700    -0.0040  -999.2500   -21.5340    11.1550     8.7630
 2214.5000     9.3450   116.0980     2.4790     0.0020  -999.2500   -21.7790    10.7870     8.2160
 2215.0000     9.3470   117.8830     2.4880     0.0140  -999.2500   -22.0310    10.4460     7.8010
 2215.5000     9.3490   117.4250     2.4970     0.0090  -999.2500   -22.2680    10.1000     7.2340
 2216.0000     9.3510   113.6170     2.5030     0.0040  -999.2500   -22.5290    10.1590     6.9600
 2216.5000     9.3530   110.6260     2.4870     0.0090  -999.2500   -22.6750     9.0410     6.8320
 2217.0000     9.3540   110.5070     2.4870     0.0120  -999.2500   -22.9700     8.5920     6.6940
 2217.5000     9.3560   111.4950     2.5020     0.0170  -999.2500   -23.2660     8.6380     6.5550
 2218.0000     9.3570   111.0980     2.5240     0.0240  -999.2500   -23.5690     8.5830     6.4740
 2218.5000     9.3580   110.4770     2.5450     0.0310  -999.2500   -23.7890     9.7970     6.6670
 2219.0000     9.3590   115.9280     2.5220     0.0310  -999.2500   -23.6230    10.0350     6.8470
 2219.5000     9.3610   119.1820     2.5060     0.0240  -999.2500   -23.4690    10.1810     7.0190
 2220.0000     9.3620   116.6730     2.5120     0.0310  -999.2500   -23.2950    10.2580     7.2120
 2220.5000     9.3630   114.2630     2.5210     0.0390  -999.2500   -23.1400    10.0790     6.9580
 2221.0000     9.3640   115.9820     2.5330     0.0230  -999.2500   -22.9670     9.7260     6.5910
 2221.5000     9.3660   118.3300     2.5380     0.0210  -999.2500   -22.8090     9.3990     6.2340
 2222.0000     9.3670   117.4600     2.5340     0.0320  -999.2500   -22.6570     8.3770     5.8550
 2222.5000     9.3680   116.6180     2.5520     0.0420  -999.2500   -22.8020     7.9310     5.5730
 2223.0000     9.3690   116.3640     2.5480     0.0520  -999.2500   -22.9560     7.4170     5.4310
 2223.5000     9.3710   114.2820     2.5740     0.0530  -999.2500   -23.1340     7.2100     5.2550
 2224.0000     9.3720   116.3710     2.5590     0.0500  -999.2500   -23.2930     6.9130     5.1010
 2224.5000     9.3730   112.0940     2.5090     0.0460  -999.2500   -23.3640     6.8850     4.9180
 2225.0000     9.3740   109.6440     2.5180     0.0440  -999.2500   -22.7490     6.9050     4.9450
 2225.5000     9.3760   110.1160     2.5480     0.0260  -999.2500   -22.2420     7.0670     5.1330
 2226.0000     9.3770   111.5770     2.5720     0.0190  -999.2500   -21.6450     7.2220     5.2640
 2226.5000     9.3780   109.8940     2.6050     0.0290  -999.2500   -21.5580     7.2360     5.3560
