~VERSION INFORMATION
 VERS.                2.0:   CWLS LOG ASCII STANDARD - VERSION 2.0
 WRAP.                 NO:   ONE LINE PER DEPTH STEP
~WELL INFORMATION
#MNEM.UNIT      DATA TYPE    INFORMATION
#----------   ------------   ------------------------------
 STRT.F            0.0000:   START DEPTH
 STOP.F         1077.0000:   STOP DEPTH
 STEP.F            0.5000:   STEP LENGTH
 NULL.          -999.2500:   NO VALUE
 COMP.         JOHN BROWN:   COMPANY
 WELL.       JOHN X #66-2:   WELL
 FLD .                NPR:   FIELD
 LOC .       S2 T38N R78W:   LOCATION
 CNTY.            NATRONA:   COUNTY
 STAT.            WYOMING:   STATE
 CTRY. UNITED STATES OF AMERICA:   COUNTRY
 SRVC.     ATLAS WIRELINE:   SERVICE COMPANY
 DATE.        04-DEC-1991:   LOGDATE
 API .     49025224820000:   API NUMBER
~CURVE INFORMATION
#MNEM.UNIT       API CODE    CURVE DESCRIPTION
#----------   ------------   ------------------------------
 DEPT.F                  :   
 TENR.LBS    07 635 01 00:   TENSION
 RILD.OHMM   07 120 46 00:   INDUCTION LOG DEEP RESISTIVITY
 RILM.OHMM   07 120 44 00:   INDUCTION LOG MEDIUM RESISTIVITY
 GRR .GAPI   07 310 01 00:   GAMMA RAY FROM RESISTIVITY
~PARAMETER INFORMATION
#MNEM.UNIT          VALUE    DESCRIPTION
#----------   ------------   ------------------------------
 EKB .F         5189.0000:   Kelly bushing
 EGL .F         5179.0000:   Ground level
 EDF .F         5188.0000:   Drilling floor
 EPD .F         5179.0000:   Permanent datum
 TD  .F         1072.0000:   Total depth
 DATE.        04-DEC-1991:   Date logged
 CLNT.            A2DTECH:   Client Code
 SL  . 1893' FSL & 1937' FEL:   Surface Location
 PD  .                 GL:   Permanent Datum
 LMF .                 KB:   Log Measured From
 DMF .                 KB:   Drilling Measured From
 DAPD.F                10:   Feet Above Permanent Datum
 DD  .F              1072:   Depth driller
 DL  .F              1073:   Depth logger
 BLI .F              1071:   Bottom log interval
 CS1 .IN            9.625:   Casing size
 CBD1.       9.625" @ 40':   Casing driller 1
 CBL1.F                50:   Casing logger 1
 BS1 .IN            7.875:   Bit size
 BSD1.F              1072:   Depth drilled with bit1
 DFT .                AIR:   Type fluid in hole
 LUN .            HL 6387:   Logging unit number
 LUL .             CASPER:   Logging unit location
 WITN.        GARY STRONG:   Witnessed by
 ORIG.         2.5" PRINT:   Origin of data
 UWI .     49025224820000:   Unique Well ID
 DICO. A2D TECHNOLOGIES, INC.:   Digitizing Company
~OTHER INFORMATION
~A    DEPT    TENR       RILD       RILM         GRR  
# ...
  949.0000    67.0850     9.2640     9.8310   111.6380
  949.5000    67.6850     9.2800     9.8190   115.5370
  950.0000    68.2840     9.3120     9.8100   120.2350
  950.5000    68.8840     9.3440     9.7980   121.3760
  951.0000    69.4840     9.3760     9.7790   120.1040
  951.5000    70.0830     9.4080     9.7850   117.3820
  952.0000    70.6830     9.4400     9.7730   114.8450
  952.5000    71.2830     9.4720     9.9510   116.9740
  953.0000    71.8830     9.5040     9.9510   120.3560
  953.5000    72.4820     9.5360     9.9510   119.9140
  954.0000    73.0820     9.5680     9.9510   118.1220
  954.5000    73.6820     9.5970     9.9510   114.5670
  955.0000    74.2820     9.7990    10.1330   114.5160
  955.5000    74.8030     9.9820    10.3190   114.3870
  956.0000    74.8030    10.1640    10.5080   114.4930
  956.5000    74.8030    10.3190    10.7000   114.3810
  957.0000    74.8030    11.1320    11.2980   114.4510
  957.5000    74.8030    11.8370    11.7150   113.2250
  958.0000    74.8030    12.5430    12.9760   111.7080
  958.5000    74.8030    13.3250    14.0440   103.7740
  959.0000    74.8030    14.1590    15.5260    94.5930
  959.5000    74.8030    14.9930    16.7600    90.0240
  960.0000    74.8030    15.8270    18.4330    85.5340
  960.5000    74.8030    16.6610    18.3520    84.5750
  961.0000    74.8030    17.4950    18.0250    90.0270
  961.5000    74.8030    17.9800    17.6980    92.9280
  962.0000    74.8030    17.5330    17.3720    96.3760
  962.5000    74.8030    17.0870    17.0450    97.1400
  963.0000    74.8030    16.6400    16.7180    97.7280
  963.5000    74.8030    16.1930    16.3910    98.4210
  964.0000    74.8030    15.7460    16.0650    98.9090
  964.5000    74.8030    15.3000    15.7380   102.4350
  965.0000    74.8030    15.0090    15.4110   101.8800
  965.5000    74.8030    14.8430    15.0850   100.9130
  966.0000    74.8030    14.6780    14.7580   100.7100
  966.5000    74.8030    14.5120    14.4310   101.8560
  967.0000    75.5910    14.3460    14.3010   102.8280
  967.5000    76.3820    14.1810    14.3010   103.2650
  968.0000    77.1730    14.0150    14.3010   102.3990
  968.5000    77.9630    13.8500    14.5620   101.5600
  969.0000    78.7540    13.7920    14.5620   100.7020
  969.5000    79.5450    13.7920    14.5620    99.8100
  970.0000    80.3360    13.7920    14.5620    99.0120
  970.5000    81.1270    13.7920    14.5620    98.1980
  971.0000    81.9180    13.7920    14.5620   101.0320
  971.5000    82.7080    13.7920    14.5620   102.8590
  972.0000    83.4990    13.7320    14.5620   102.7130
  972.5000    84.2900    13.6490    14.4610   102.8390
  973.0000    85.0810    13.5660    14.2710   104.6420
  973.5000    85.8720    13.4830    14.0810   106.5430
  974.0000    86.6630    13.4010    13.8910   108.6640
  974.5000    87.4540    13.3180    13.7020   110.1420
  975.0000    88.2440    13.0740    13.5120   110.4110
  975.5000    89.0350    12.7870    13.3220   109.5660
  976.0000    89.8260    12.5010    13.1320   106.5270
  976.5000    90.6170    12.2140    12.8270   103.0180
  977.0000    91.4080    11.9280    12.5960   103.2220
  977.5000    92.1990    11.7580    12.5960   105.9800
  978.0000    92.9900    11.9230    12.5960   108.5730
  978.5000    93.7800    12.0880    12.5960   109.5010
  979.0000    94.5710    12.2540    12.5960   108.6670
  979.5000    95.3620    12.4190    13.0610   106.8910
  980.0000    96.1530    12.5850    13.3840   103.8360
  980.5000    96.9440    12.7500    13.7390   101.1480
  981.0000    97.7350    12.8270    14.0440    99.0030
  981.5000    98.5250    12.7530    13.6580    97.3590
  982.0000    99.3160    12.6880    13.3200    97.4820
  982.5000   100.1070    12.6230    12.9810   100.8130
  983.0000   100.8980    12.3940    12.6430   104.7760
  983.5000   101.6890    12.0490    12.3050   104.7780
  984.0000   102.4800    11.7040    11.9670   101.4550
  984.5000   103.2710    11.3580    11.6290    98.9990
  985.0000   104.0610    11.0790    11.2980    99.3840
  985.5000   104.8520    11.0120    11.2980   100.1880
  986.0000   105.6430    10.9460    11.0950   101.4240
  986.5000   106.4340    10.8790    11.0950   102.5680
  987.0000   107.2250    10.8130    10.8960   103.6760
  987.5000   108.0160    10.7460    10.8960   104.9780
  988.0000   108.8060    10.7000    10.8960   105.5100
  988.5000   109.5970    10.5080    10.8960   106.1090
  989.0000   110.3880    10.4890    10.8960   106.6370
  989.5000   111.1790    10.4730    10.8960   107.7410
  990.0000   111.9700    10.4560    10.8960   107.8420
  990.5000   112.7610    10.4400    10.8960   106.7640
  991.0000   113.5520    10.4240    10.8960   105.8060
  991.5000   114.3420    10.4070    10.8960   104.9880
  992.0000   115.1330    10.3910    10.8850   104.6910
  992.5000   115.9240    10.3740    10.8580   104.3510
  993.0000   116.7150    10.3580    10.8320   105.1940
  993.5000   117.5060    10.3420    10.8050   106.8910
  994.0000   118.2970    10.3250    10.7790   110.3260
  994.5000   119.0870    10.3090    10.7520   111.4940
  995.0000   119.8780    10.2930    10.7260   111.6300
  995.5000   120.6690    10.2760    10.6990   111.7950
  996.0000   121.4600    10.2600    10.6730   112.0290
  996.5000   122.2510    10.2430    10.6460   111.7990
  997.0000   123.0420    10.2270    10.6200   110.7570
  997.5000   123.8330    10.2110    10.5930   109.8230
  998.0000   124.6230    10.1940    10.5670   109.0550
  998.5000   125.4140    10.1780    10.5400   110.4390
  999.0000   126.2050    10.1610    10.5130   112.4670
  999.5000   126.9960    10.1450    10.4870   111.7770
 1000.0000   127.7870    10.1290    10.4610   112.3460
 1000.5000   128.5780    10.1120    10.4340   114.5240
 1001.0000   129.3680    10.0960    10.4080   116.4510
 1001.5000   130.1590    10.0800    10.3810   118.4910
 1002.0000   130.9500    10.0630    10.3550   118.9300
 1002.5000   131.7410    10.0470    10.3290   118.5730
 1003.0000   132.5320    10.0300    10.3020   116.9640
 1003.5000   133.3230    10.0140    10.2760   114.3140
 1004.0000   133.2130     9.9970    10.2500   115.4130
 1004.5000   131.2130     9.9810    10.2230   118.0770
 1005.0000   129.2130     9.9640    10.1970   120.5210
 1005.5000   127.2130     9.9500    10.1710   121.2940
 1006.0000   125.2130     9.8960    10.1350   119.4600
 1006.5000   123.2130     9.8500    10.1430   118.1900
 1007.0000   121.2130     9.8050    10.1620   118.9240
 1007.5000   119.2130     9.7590    10.1810   120.2450
 1008.0000   117.2130     9.7130    10.1980   121.2290
 1008.5000   115.2130     9.6660    10.2160   119.9920
 1009.0000   114.9200     9.6200    10.2350   120.7460
 1009.5000   116.4740     9.5740    10.2530   119.2990
 1010.0000   118.0290     9.5280    10.2710   116.9860
 1010.5000   119.5830     9.4820    10.2890   114.4580
 1011.0000   121.1370     9.4360    10.3190   115.3860
 1011.5000   122.6920     9.3690    10.2600   119.3650
 1012.0000   124.2460     9.2970    10.0980   122.4640
 1012.5000   125.8010     9.2240     9.9360   124.9380
 1013.0000   127.3550     9.1510     9.7730   127.4370
 1013.5000   128.9090     9.0780     9.6110   127.4060
 1014.0000   130.4640     9.0050     9.4250   124.1520
 1014.5000   132.0180     8.9330     9.3140   119.3080
 1015.0000   133.5730     8.8600     9.1840   119.5830
 1015.5000   135.1270     8.7870     9.0540   119.8360
 1016.0000   136.6810     8.6530     8.9240   120.3340
 1016.5000   138.2360     8.4920     8.7950   120.5580
 1017.0000   139.7900     8.3310     8.6650   124.6960
 1017.5000   141.3450     8.1700     8.5350   126.9740
 1018.0000   142.8990     8.0060     8.3440   126.4090
 1018.5000   144.4540     7.6070     8.0500   126.3700
 1019.0000   146.0080     7.1980     7.7570   128.6370
 1019.5000   147.5620     6.7900     7.4630   130.4370
 1020.0000   149.1170     6.3320     7.1800   133.6110
 1020.5000   150.6710     5.8100     6.4470   138.3190
 1021.0000   152.2260     5.2890     5.7410   142.7940
 1021.5000   153.7800     4.7670     5.0350   149.4810
