~VERSION INFORMATION
 VERS.                2.0:   CWLS LOG ASCII STANDARD - VERSION 2.0
 WRAP.                 NO:   ONE LINE PER DEPTH STEP
~WELL INFORMATION
#MNEM.UNIT      DATA TYPE    INFORMATION
#----------   ------------   ------------------------------
 STRT.F          200.0000:   START DEPTH
 STOP.F         3000.0000:   STOP DEPTH
 STEP.F            0.5000:   STEP LENGTH
 NULL.          -999.2500:   NO VALUE
 COMP.    FENIX & SCISSON:   COMPANY
 WELL.   FENIX "A" #65-28:   WELL
 FLD .              NPR 3:   FIELD
 LOC .      S28 T39N R78W:   LOCATION
 CNTY.            NATRONA:   COUNTY
 STAT.            WYOMING:   STATE
 CTRY. UNITED STATES OF AMERICA:   COUNTRY
 SRVC.              WELEX:   SERVICE COMPANY
 DATE.        25-JUL-1977:   LOGDATE
 API .     49025104010000:   API NUMBER
~CURVE INFORMATION
#MNEM.UNIT       API CODE    CURVE DESCRIPTION
#----------   ------------   ------------------------------
 DEPT.F                  :   
 GRD .GAPI   45 310 01 00:   GAMMA RAY FROM DENSITY LOG
 CALD.IN     45 280 60 00:   CALIPER FROM DENSITY LOG
 RHOB.G/C3   45 350 01 00:   BULK DENSITY
 DCOR.G/C3   45 356 01 00:   DENSITY CORRECTION
 SPR .MV     07 010 01 00:   SPONTANEOUS POTENTIAL
 RILM.OHMM   07 120 44 00:   INDUCTION LOG MEDIUM RESISTIVITY
 RILD.OHMM   07 120 46 00:   DEEP INDUCTION RESISTIVITY
 SGRD.OHMM   07 220 05 00:   SHALLOW GUARD
~PARAMETER INFORMATION
#MNEM.UNIT          VALUE    DESCRIPTION
#----------   ------------   ------------------------------
 EKB .F         5069.0000:   Kelly bushing
 EGL .F         5059.0000:   Ground level
 EDF .F            0.0000:   Drilling floor
 TD  .F         3006.0000:   Total depth
 DATE.        25-JUL-1977:   Date logged
 CLNT.            A2DTECH:   Client Code
 SL  . 2310' FSL & 1650' FEL:   Surface Location
 PD  .                 GL:   Permanent Datum
 EPD .F              5059:   Elevation Permanent Datum
 LMF .                 KB:   Log Measured From
 DMF .                 KB:   Drilling Measured From
 DAPD.F                10:   Feet Above Permanent Datum
 DD  .F              3006:   Depth driller
 DL  .F              3006:   Depth logger
 BLI .F              3004:   Bottom log interval
 TLI .F               200:   Top log interval
 CS1 .IN            8.625:   Casing size
 CBD1.      8.625" @ 205':   Casing driller 1
 CBL1.F               220:   Casing logger 1
 BS1 .IN            7.875:   Bit size
 BSD1.F              3006:   Depth drilled with bit1
 DFT .            KCL MUD:   Type fluid in hole
 DFD .                8.9:   Density
 DFV .                 39:   Viscosity
 DFPH.                7.5:   pH
 DFL .                7.2:   Fluid loss
 MSS .           FLOWLINE:   Source of sample
 RMS .OHMM           0.29:   Rm
 MST .F                78:   Rm Meas. temp.
 RMF .OHMM           0.19:   Rmf
 MFST.F                78:   Rmf Meas. temp.
 RMC .OHMM           0.80:   Rmc
 MCST.F                78:   Rmc Meas. temp.
 MFSS.               FANN:   Source Rmf.
 MCSS.                KIT:   Source Rmc.
 RMB .OHMM           0.20:   Rm. at BHT
 BHT .F               113:   BHT.
 TCS .HRS               3:   Time Circ. stopped
 MRT .F               113:   Maximum recorded temp.
 LUN .               8766:   Logging unit number
 LUL .             CASPER:   Logging unit location
 ENGI.         G. BENTSEN:   Recorded By
 WITN.      B. HARRINGTON:   Witnessed by
 ORIG.           5" PRINT:   Origin of data
 UWI .     49025104010000:   Unique Well ID
 DICO. A2D TECHNOLOGIES, INC.:   Digitizing Company
~OTHER INFORMATION
~A   DEPT       GRD        CALD       RHOB      DCOR       SPR       RILM         RILD       SGRD 
# ...
 2387.0000    84.7630     9.0920     2.5350     0.0500   -39.2820     6.4490     5.9580     7.8630
 2387.5000    83.9210     9.0860     2.5320     0.0460   -39.2200     6.3970     5.8910     7.6030
 2388.0000    83.0790     9.0790     2.5330     0.0460   -39.1590     6.4740     5.9360     7.4070
 2388.5000    82.2370     9.0730     2.5370     0.0460   -39.0970     6.5930     6.0040     8.0540
 2389.0000    81.3940     9.0660     2.5410     0.0460   -39.0300     6.9400     6.0720     8.8960
 2389.5000    80.5440     9.0600     2.5450     0.0500   -38.8250     7.4070     6.1830     9.7370
 2390.0000    79.6590     9.0520     2.5520     0.0540   -38.6570     7.0730     6.3510    10.3930
 2390.5000    81.0910     9.0440     2.5590     0.0580   -38.8490     6.8840     6.5190     9.8390
 2391.0000    82.9290     9.0350     2.5580     0.0530   -39.0390     7.1960     6.6870     9.4840
 2391.5000    83.9840     9.0260     2.5530     0.0480   -39.2280     7.4170     6.8210    10.0190
 2392.0000    81.9040     9.0170     2.5470     0.0430   -39.4220     7.6380     6.8800     9.0590
 2392.5000    80.7470     9.0230     2.5420     0.0390   -39.2270     7.6830     6.9390     9.2280
 2393.0000    82.8580     9.0310     2.5420     0.0390   -38.9520     7.7160     7.0750     9.4410
 2393.5000    84.9160     9.0400     2.5430     0.0390   -38.6780     7.8250     6.9850     9.6590
 2394.0000    83.8870     9.0470     2.5470     0.0410   -38.4590     7.4530     6.8290     9.2820
 2394.5000    82.4960     9.0550     2.5520     0.0450   -38.6810     7.1830     6.6730     8.8970
 2395.0000    82.0910     9.0630     2.5560     0.0480   -38.8240     6.9920     6.6090     8.4190
 2395.5000    84.5530     9.0700     2.5530     0.0450   -38.7780     6.9400     6.5740     8.7110
 2396.0000    85.6170     9.0750     2.5490     0.0420   -38.7370     6.8870     6.5400     9.0960
 2396.5000    81.8930     9.0680     2.5450     0.0390   -38.6950     6.8350     6.5050     9.4810
 2397.0000    85.0010     9.0620     2.5430     0.0370   -38.6530     6.7830     6.4700     9.6590
 2397.5000    85.9990     9.0560     2.5410     0.0340   -38.6110     6.7590     6.4350     9.2960
 2398.0000    84.2350     9.0490     2.5420     0.0330   -38.5690     6.8560     6.3970     8.9770
 2398.5000    82.5840     9.0430     2.5450     0.0360   -38.5270     7.0400     6.4890     8.8950
 2399.0000    81.2520     9.0370     2.5480     0.0390   -38.4840     7.2250     6.5890     9.6840
 2399.5000    80.0430     9.0310     2.5500     0.0420   -38.4410     7.4100     6.6890     9.8370
 2400.0000    80.2650     9.0240     2.5460     0.0430   -38.4380     7.5940     6.7890     9.9280
 2400.5000    82.3290     9.0180     2.5430     0.0420   -38.4390     7.6540     6.8880    10.3930
 2401.0000    80.4750     9.0120     2.5410     0.0440   -38.4380     7.6990     6.9880    10.2280
 2401.5000    82.5230     9.0050     2.5430     0.0470   -38.4390     7.7450     7.0880    10.1010
 2402.0000    84.9760     8.9990     2.5450     0.0500   -38.4610     7.7900     7.1400     9.9730
 2402.5000    82.7660     9.0010     2.5470     0.0510   -38.5580     7.8350     7.1150     9.8460
 2403.0000    80.7430     9.0120     2.5460     0.0480   -38.6520     7.8970     7.0940     9.7180
 2403.5000    82.5680     9.0220     2.5410     0.0440   -38.7450     7.7700     7.0750     9.5710
 2404.0000    84.2740     9.0330     2.5350     0.0410   -38.8340     7.5430     6.9280     9.9510
 2404.5000    84.7490     9.0390     2.5300     0.0380   -38.8790     7.5800     6.7870    10.2980
 2405.0000    83.8220     9.0440     2.5300     0.0360   -38.9220     7.6230     6.6470     9.7480
 2405.5000    84.4840     9.0490     2.5300     0.0380   -38.9640     7.6660     6.5060    10.1270
 2406.0000    84.7710     9.0540     2.5330     0.0400   -39.0070     7.7540     6.3650    10.6820
 2406.5000    83.9250     9.0560     2.5380     0.0420   -39.0500     7.6060     6.2240    10.2630
 2407.0000    83.2220     9.0560     2.5420     0.0430   -39.0920     7.5000     6.1130     9.7400
 2407.5000    84.1580     9.0560     2.5440     0.0420   -39.1350     7.3950     6.0000     9.2740
 2408.0000    85.1080     9.0560     2.5400     0.0400   -39.1780     7.2900     6.1410     9.0590
 2408.5000    85.9260     9.0560     2.5350     0.0380   -39.2220     7.1850     6.2850     9.1700
 2409.0000    85.2190     9.0560     2.5350     0.0390   -39.1810     7.0750     6.4290     9.3120
 2409.5000    84.5000     9.0560     2.5370     0.0450   -39.1010     7.0050     6.5730     9.2230
 2410.0000    84.0480     9.0560     2.5380     0.0460   -39.0210     6.9320     6.6970     9.1050
 2410.5000    84.4680     9.0560     2.5340     0.0420   -38.9410     6.8840     6.5900     8.9880
 2411.0000    84.6830     9.0690     2.5290     0.0370   -38.8610     6.9810     6.4970     8.8140
 2411.5000    84.2710     9.0850     2.5250     0.0330   -38.7810     7.0530     6.4030     8.9100
 2412.0000    84.2450     9.0950     2.5230     0.0310   -38.7000     7.1260     6.3390     9.0950
 2412.5000    85.5870     9.0910     2.5280     0.0310   -38.6200     7.1990     6.4810     9.2810
 2413.0000    86.8930     9.0860     2.5330     0.0350   -38.5400     7.4180     6.5900     9.4660
 2413.5000    88.2260     9.0820     2.5390     0.0370   -38.4560     7.6540     6.6990     9.6510
 2414.0000    86.8630     9.0780     2.5350     0.0360   -38.4960     7.8250     6.8070     9.7480
 2414.5000    85.2420     9.0790     2.5300     0.0350   -38.5740     7.6760     6.8600     9.5070
 2415.0000    85.9510     9.0830     2.5290     0.0330   -38.6520     7.5600     6.9050     9.3440
 2415.5000    87.2380     9.0870     2.5280     0.0310   -38.7300     7.2720     6.9500     9.1820
 2416.0000    89.2920     9.0910     2.5230     0.0300   -38.8080     8.0430     6.9950     9.0590
 2416.5000    89.5560     9.0960     2.5180     0.0280   -38.8860     7.5440     7.0400     9.5320
 2417.0000    86.1730     9.0920     2.5140     0.0270   -38.9640     7.2720     7.0750     9.8370
 2417.5000    88.7890     9.0870     2.5180     0.0260   -39.0420     8.3430     6.9640     9.3920
 2418.0000    89.4980     9.0830     2.5220     0.0250   -39.1200     7.5820     6.8740     9.1430
 2418.5000    85.9360     9.0780     2.5260     0.0250   -39.1980     7.1260     6.7840     9.1230
 2419.0000    87.6010     9.0920     2.5260     0.0230   -39.2760     7.0920     6.6940     9.0910
 2419.5000    89.6340     9.0960     2.5260     0.0200   -39.3540     7.0580     6.6040     9.0590
 2420.0000    90.3930     9.0960     2.5270     0.0210   -39.4250     7.0230     6.5140     8.4190
 2420.5000    91.1380     9.0960     2.5330     0.0280   -39.4080     6.9890     6.4240     8.5670
 2421.0000    92.9440     9.0960     2.5410     0.0350   -39.3890     6.9550     6.3340     8.7170
 2421.5000    91.2670     9.0960     2.5470     0.0440   -39.3700     6.7590     6.2440     8.8140
 2422.0000    88.1600     9.0960     2.5510     0.0490   -39.3520     6.8090     6.1640     8.1170
 2422.5000    90.0850     9.0960     2.5470     0.0520   -39.3330     6.8760     6.1410     8.1170
 2423.0000    93.4930     9.0960     2.5440     0.0500   -39.3150     6.9470     6.1170     8.5750
 2423.5000    94.2170     9.0960     2.5410     0.0490   -39.2960     6.7020     6.0880     8.3550
 2424.0000    89.7130     9.0930     2.5380     0.0480   -39.2780     6.4530     6.0570     7.8970
 2424.5000    92.3340     9.0880     2.5350     0.0470   -39.2590     6.2810     6.0250     8.0430
 2425.0000    93.2490     9.0830     2.5390     0.0470   -39.2400     6.2810     5.9930     7.7110
 2425.5000    90.1110     9.0780     2.5440     0.0490   -39.2120     6.2810     5.9620     7.4750
 2426.0000    88.7670     9.0670     2.5490     0.0510   -39.1670     6.2810     5.9300     7.7810
 2426.5000    88.7860     9.0510     2.5450     0.0510   -39.1220     6.2810     5.8990     7.9860
 2427.0000    88.7460     9.0350     2.5370     0.0460   -39.0770     6.2820     5.8670     8.1910
