~VERSION INFORMATION
 VERS.                2.0:   CWLS LOG ASCII STANDARD - VERSION 2.0
 WRAP.                 NO:   ONE LINE PER DEPTH STEP
~WELL INFORMATION
#MNEM.UNIT      DATA TYPE    INFORMATION
#----------   ------------   ------------------------------
 STRT.F         3288.0000:   START DEPTH
 STOP.F         4421.0000:   STOP DEPTH
 STEP.F            0.5000:   STEP LENGTH
 NULL.          -999.2500:   NO VALUE
 COMP.       FLUOR DANIEL:   COMPANY
 WELL. FLUOR 22 "X" #2-10:   WELL
 FLD . TEA POT DOME NAVAL PETROLEUM DO:   FIELD
 LOC .      S10 T38N R78W:   LOCATION
 CNTY.            NATRONA:   COUNTY
 STAT.            WYOMING:   STATE
 CTRY. UNITED STATES OF AMERICA:   COUNTRY
 SRVC.        HALLIBURTON:   SERVICE COMPANY
 DATE.        13-DEC-1996:   LOGDATE
 API .     49025228330000:   API NUMBER
~CURVE INFORMATION
#MNEM.UNIT       API CODE    CURVE DESCRIPTION
#----------   ------------   ------------------------------
 DEPT.F                  :   
 NPHI.DEC    42 890 03 00:   NEUTRON POROSITY SANDSTONE
 GRD .GAPI   45 310 01 00:   GAMMA RAY FROM DENSITY LOG
 CALD.IN     45 280 60 00:   CALIPER FROM DENSITY LOG
 PE  .B/E    45 358 01 00:   PHOTOELECTRIC FACTOR
 CORR.G/C3   45 356 01 00:   DENSITY CORRECTION
 TEND.LBS    45 635 01 00:   TENSION FORM DENSITY LOG
 RHOB.G/C3   45 350 01 00:   BULK DENSITY
 TENR.LBS    07 635 01 00:   TENSION FROM RESISTIVITY
 ILD .OHMM   07 120 46 00:   DEEP INDUCTION RESISTIVITY
 ILM .OHMM   07 120 44 00:   INDUCTION LOG MEDIUM RESISTIVITY
 SFL .OHMM   07 220 01 00:   SHALLOW FOCUSED LOG RESISTIVITY
~PARAMETER INFORMATION
#MNEM.UNIT          VALUE    DESCRIPTION
#----------   ------------   ------------------------------
 EKB .F         5268.0000:   Kelly bushing
 EGL .F         5258.0000:   Ground level
 EDF .F         5267.0000:   Drilling floor
 TD  .F         4435.0000:   Total depth
 CLNT.            A2DTECH:   Client Code
 SL  . 569' FNL & 1440' FWL:   Surface Location
 PD  .                 GL:   Permanent Datum
 EPD .F              5258:   Elevation Permanent Datum
 LMF .                 KB:   Log Measured From
 DMF .                 KB:   Drilling Measured From
 DAPD.F                10:   Feet Above Permanent Datum
 DATE.        13-DEC-1996:   Date Logged [DD-MMM-YYYY]
 DD  .F              4435:   Depth driller
 DL  .F              4412:   Depth logger
 BLI .F              4403:   Bottom log interval
 TLI .F              3308:   Top log interval
 CS1 .IN            9.625:   Casing size
 CBD1.     9.625" @ 3307':   Casing driller 1
 CBL1.F              3308:   Casing logger 1
 BS1 .IN              8.5:   Bit size
 BSD1.F              4435:   Depth drilled with bit1
 DFT .           POLY-KCL:   Type fluid in hole
 DFD .                  9:   Density
 DFV .                 50:   Viscosity
 DFPH.                  9:   pH
 DFL .                  7:   Fluid loss
 MSS .           MUD TANK:   Source of sample
 RMS .OHMM           0.47:   Rm
 MST .F                56:   Rm Meas. temp.
 RMF .OHMM           0.36:   Rmf
 MFST.F                61:   Rmf Meas. temp.
 MFSS.               MEAS:   Source Rmf.
 RMC .OHMM           0.48:   Rmc
 MCST.F                68:   Rmc Meas. temp.
 MCSS.               MEAS:   Source Rmc.
 RMB .OHMM           0.20:   Rm. at BHT
 BHT .F               138:   BHT.
 TCS .HRS              20:   Time Circ. stopped
 TLAB.HRS            0108:   Time logger at bottom
 MRT .F               138:   Maximum recorded temp.
 LUN .              52546:   Logging unit number
 LUL .              VERNI:   Logging unit location
 ENGI.        JOHN SAVAGE:   Recorded By
 WITN.          STEBBINGS:   Witnessed by
 ORIG.         2.5" PRINT:   Origin of data
 UWI .     49025228330000:   Unique Well ID
 DICO. A2D TECHNOLOGIES, INC.:   Digitizing Company
~OTHER INFORMATION
~A  DEPT        NPHI       GRD      CALD         PE       CORR       TEND       RHOB       TENR        ILD        ILM        SFL   
# ...
 3867.5000     0.2534   152.0544     9.0936     2.7297     0.0293  3101.2434     2.3913  3069.7134     9.9117     9.8624    13.0344
 3868.0000     0.2575   152.0483     9.0930     2.7299     0.0308  3021.1604     2.3943  3011.7644    10.1700    10.0015    13.2085
 3868.5000     0.2633   152.9508     9.0924     2.7302     0.0339  2979.7581     2.3989  3012.6350    10.1273     9.6524    12.8530
 3869.0000     0.2640   154.5500     9.0918     2.7305     0.0369  3024.0527     2.4035  3072.1567     9.8393     9.1748    11.6821
 3869.5000     0.2613   157.4673     9.0610     2.7308     0.0386  3039.5771     2.4096  3102.2664     9.9529     9.3388    11.5308
 3870.0000     0.2522   159.8784     9.0302     2.7311     0.0400  3009.0103     2.4130  3073.5525    11.1598     9.7237    12.6381
 3870.5000     0.2449   161.6852     9.0200     2.7314     0.0400  2978.5078     2.4156  3043.6731    11.3194    10.1244    13.3944
 3871.0000     0.2407   159.8667     8.9866     2.7317     0.0380  3038.6401     2.4156  2986.7136    11.8171    11.4599    14.1020
 3871.5000     0.2377   156.2355     8.9680     2.7320     0.0370  3068.5801     2.4162  3164.3337    12.2520    12.0643    15.9265
 3872.0000     0.2365   152.5797     8.9372     2.7323     0.0393  2977.6357     2.4201  3252.8154    11.6475    11.8205    17.2664
 3872.5000     0.2380   150.7150     8.9365     2.7326     0.0424  3039.9729     2.4287  3151.7178    10.9986    11.3201    16.3542
 3873.0000     0.2469   150.1752     8.9057     2.7329     0.0462  3158.3232     2.4338  3044.1978     9.6768    10.2489    13.5334
 3873.5000     0.2642   151.7037     8.9051     2.7333     0.0492  3122.3098     2.4323  2961.1411     8.2674     8.7529    12.1317
 3874.0000     0.2851   154.6260     8.9045     2.7336     0.0538  3029.0061     2.4278  2991.2510     7.0278     6.3048     8.8833
 3874.5000     0.2997   159.8958     8.9039     2.7339     0.0583  2965.8989     2.4218  2991.9492     5.4352     4.8773     6.5263
 3875.0000     0.2958   162.8399     8.9033     2.7342     0.0583  2988.4062     2.4203  3022.0588     5.3602     4.8550     5.5445
 3875.5000     0.2637   161.5327     8.9027     2.7345     0.0568  3035.9517     2.4234  3022.7939     6.2066     5.4323     6.4044
 3876.0000     0.2425   153.7634     8.9021     2.7347     0.0553  3035.6494     2.4309  3023.5295     8.9862     7.2127     7.9580
 3876.5000     0.2377   148.3195     8.9015     2.7350     0.0536  2974.8738     2.4310  3053.6765    10.1948     8.5180    15.4604
 3877.0000     0.2352   147.7094     8.9009     2.7311     0.0486  2974.5830     2.4291  3083.8235    10.7180    10.7479    16.0960
 3877.5000     0.2359   150.1205     8.9003     2.6752     0.0424  2974.2922     2.4256  3100.2329    10.9434    10.8112    15.2452
 3878.0000     0.2384   151.9274     8.9149     2.6365     0.0402  3034.4248     2.4209  3114.8315    11.0877    10.8096    14.8352
 3878.5000     0.2402   151.8773     8.9342     2.5740     0.0409  3034.1338     2.4124  3115.5298    10.9340    10.8313    15.2703
 3879.0000     0.2407   150.0341     8.9535     2.5418     0.0410  3096.8948     2.4008  3116.2275    10.6386    10.8068    16.0790
 3879.5000     0.2363   148.8882     8.9583     2.5096     0.0373  3154.3984     2.3918  3116.9258     9.6752    10.5020    14.0152
 3880.0000     0.2246   148.8822     8.9576     2.4955     0.0373  3141.9939     2.3949  3115.6802     9.4138     9.0772    11.8242
 3880.5000     0.2144   148.0644     8.9570     2.4958     0.0388  3054.7380     2.4100  3088.9102    10.9277     8.3578    11.0831
 3881.0000     0.2080   146.0426     8.9564     2.4961     0.0418  2961.4397     2.4236  3089.7058    12.6843     9.9840    13.8434
 3881.5000     0.2079   139.8043     8.9861     2.5266     0.0419  2911.4805     2.4282  3060.8943    14.0568    11.4788    16.7203
 3882.0000     0.2074   137.2894     8.9855     2.5873     0.0404  2956.8938     2.4297  3047.2554    14.6745    12.1151    17.4071
 3882.5000     0.2014   134.9537     8.9849     2.6178     0.0388  3061.8743     2.4312  3033.0881    15.2764    12.5255    17.4027
 3883.0000     0.1905   132.5309     8.9843     2.6786     0.0374  3091.8428     2.4345  3033.9258    16.1169    12.8667    17.6841
 3883.5000     0.1813   128.2955     8.9896     2.7132     0.0404  3031.0813     2.4409  3034.6240    16.7768    16.4053    20.4166
 3884.0000     0.1818   125.2685     9.0134     2.7396     0.0439  3000.5791     2.4472  3035.3220    16.9986    17.3137    24.5412
 3884.5000     0.1927   123.4500     9.0430     2.7399     0.0506  2970.0769     2.4515  3036.0293    16.0756    16.6220    30.6928
 3885.0000     0.2106   123.5048     9.0861     2.7704     0.0584  3030.2090     2.4555  3036.7646    13.7259    14.7664    30.4868
 3885.5000     0.2354   128.1310     9.1021     2.7707     0.0647  3090.3413     2.4533  3037.4998    11.3354    11.7766    19.9740
 3886.0000     0.2433   137.0229     9.1317     2.7710     0.0695  3085.8018     2.4502  3038.2351     7.4298     7.8885     8.1533
 3886.5000     0.1989   145.1790     9.1310     2.7411     0.0723  3029.3052     2.4480  3038.9707     5.8302     5.8735     6.4791
 3887.0000     0.1905   138.6799     9.0700     2.7414     0.0708  2989.8140     2.4647  3056.1667     7.9318     8.0207     8.3723
 3887.5000     0.1862   125.3767     9.0090     2.7417     0.0678  2968.3323     2.4707  3099.3811    13.1135    12.6786    18.0735
 3888.0000     0.1862   118.5740     9.0387     2.7420     0.0648  3028.3989     2.4677  3129.4910    13.8360    13.5625    24.0373
 3888.5000     0.2062   121.4984     9.0683     2.7423     0.0618  3028.0967     2.4647  3100.7351    13.4621    13.7454    26.7243
 3889.0000     0.2378   131.8540     9.0677     2.7426     0.0587  2997.5266     2.4587  3042.6516    12.2431    13.1977    24.0352
 3889.5000     0.2407   137.2862     9.0369     2.7429     0.0557  2967.0239     2.4571  3040.6287     9.2414     9.9375    15.6672
 3890.0000     0.2413   141.5100     9.0453     2.7432     0.0542  2936.5220     2.4540  2985.2244     7.4441     7.9507     9.7416
 3890.5000     0.2425   143.9211     9.0660     2.7435     0.0527  2966.4426     2.4452  2986.0295     7.0290     6.9930     8.6106
 3891.0000     0.2470   146.9364     9.0955     2.7352     0.0512  3026.5750     2.4272  2986.7646     7.2591     7.0417     9.8237
 3891.5000     0.2600   151.2491     9.1418     2.7029     0.0497  3086.7681     2.4060  3032.2073     6.8773     7.1827    11.0905
 3892.0000     0.3073   159.5882     9.1547     2.6405     0.0491  3084.0125     2.3926  3106.0125     5.2865     6.3889    11.2384
 3892.5000     0.3224   169.3332     9.1843     2.6083     0.0467  3025.6799     2.3801  3165.5342     3.5241     4.6103     5.7354
 3893.0000     0.3062   174.4174     9.1836     2.6242     0.0452  3069.9143     2.3713  3195.6440     3.2050     3.1078     4.3441
 3893.5000     0.2889   175.3061     9.1528     2.6245     0.0437  3145.9673     2.3774  3166.9307     3.2038     2.9440     4.1282
 3894.0000     0.2714   173.8406     9.1523     2.6550     0.0438  3121.8423     2.3910  3166.1023     3.3526     3.1493     3.7600
 3894.5000     0.2608   173.4804     9.1517     2.6855     0.0407  3040.4351     2.4076  3109.5027     4.1203     3.9084     4.8254
 3895.0000     0.2530   173.4743     9.1208     2.6858     0.0392  2977.3337     2.4152  3080.7893     5.3651     4.4901     5.4844
 3895.5000     0.2504   173.4682     9.1202     2.6861     0.0377  3023.8132     2.4167  3092.6016     6.3696     6.4985    11.3693
 3896.0000     0.2619   173.4622     9.1196     2.6562     0.0331  3144.3684     2.4167  3170.5884     6.2811     6.8891    10.7687
 3896.5000     0.2613   173.4562     9.1190     2.6565     0.0317  3023.2317     2.4185  3230.2915     6.3635     6.5296     9.6634
 3897.0000     0.2582   171.9917     9.1184     2.6630     0.0354  2962.5178     2.4235  3230.9895     6.6240     6.3873     9.4035
 3897.5000     0.2564   166.2050     9.1178     2.6873     0.0417  2992.4387     2.4302  3143.4524     6.9890     6.6592     9.8810
