~VERSION INFORMATION
 VERS.                2.0:   CWLS LOG ASCII STANDARD - VERSION 2.0
 WRAP.                 NO:   ONE LINE PER DEPTH STEP
~WELL INFORMATION
#MNEM.UNIT      DATA TYPE    INFORMATION
#----------   ------------   ------------------------------
 STRT.F          218.0000:   START DEPTH
 STOP.F         3062.0000:   STOP DEPTH
 STEP.F            0.5000:   STEP LENGTH
 NULL.          -999.2500:   NO VALUE
 COMP.    FEXIN & SCISSON:   COMPANY
 WELL. FEXIN 32 "A" #3-34:   WELL
 FLD .              N P R:   FIELD
 LOC .      S34 T39N R78W:   LOCATION
 CNTY.            NATRONA:   COUNTY
 STAT.            WYOMING:   STATE
 CTRY. UNITED STATES OF AMERICA:   COUNTRY
 SRVC.              WELEX:   SERVICE COMPANY
 DATE.        18-JUL-1977:   LOGDATE
 API .     49025103960000:   API NUMBER
~CURVE INFORMATION
#MNEM.UNIT       API CODE    CURVE DESCRIPTION
#----------   ------------   ------------------------------
 DEPT.F                  :   
 CALD.IN     45 280 60 00:   CALIPER FROM DENSITY LOG
 RHOB.G/C3   45 350 01 00:   BULK DENSITY
 GRD .GAPI   45 310 01 00:   GAMMA RAY FROM DENSITY LOG
 CORR.G/C3   45 356 01 00:   DENSITY CORRECTION
 SPR .MV     07 010 01 00:   SPONTANEOUS POTENTIAL
 SGRD.OHMM   07 220 05 00:   SHALLOW SHORT GUARD RESISTIVITY
 ILM .OHMM   07 120 44 00:   INDUCTION LOG MEDIUM RESISTIVITY
 ILD .OHMM   07 120 46 00:   DEEP INDUCTION RESISTIVITY
~PARAMETER INFORMATION
#MNEM.UNIT          VALUE    DESCRIPTION
#----------   ------------   ------------------------------
 EKB .F         5080.0000:   Kelly bushing
 EGL .F         5070.0000:   Ground level
 TD  .F         3070.0000:   Total depth
 DATE.        18-JUL-1977:   Date logged
 CLNT.            A2DTECH:   Client Code
 SL  . 900' FNL & 1650'FWL:   Surface Location
 PD  .                 GL:   Permanent Datum
 DD  .F              3070:   Depth driller
 DL  .F              3063:   Depth logger
 BLI .F              3061:   Bottom log interval
 CS1 .IN            8.625:   Casing size
 CBD1.      8.625" @ 212':   Casing driller 1
 CBL1.F               222:   Casing logger 1
 BS1 .IN            7.875:   Bit size
 DFT .           CEHM-GEL:   Type fluid in hole
 DFD .                8.8:   Density
 DFV .                 42:   Viscosity
 DFPH.                7.5:   pH
 DFL .                  8:   Fluid loss
 MSS .           FLOWLINE:   Source of sample
 RMS .OHMM            .89:   Rm
 MST .F                94:   Rm Meas. temp.
 RMF .OHMM            .54:   Rmf
 MFST.F                94:   Rmf Meas. temp.
 RMC .OHMM           1.24:   Rmc
 MCST.F                94:   Rmc Meas. temp.
 MFSS.               FANN:   Source Rmf.
 RMB .OHMM            .67:   Rm. at BHT
 BHT .F               122:   BHT.
 TCS .HRS               4:   Time Circ. stopped
 MRT .F               122:   Maximum recorded temp.
 LUN .               8611:   Logging unit number
 LUL .             CASPER:   Logging unit location
 ENGI.          C.A. DOAK:   Recorded By
 WITN.         PETTINGILL:   Witnessed by
 ORIG.           5" PRINT:   Origin of data
 UWI .     49025103960000:   Unique Well ID
 DICO. A2D TECHNOLOGIES, INC.:   Digitizing Company
 DAPD.                 12:   Feet Above Permanent Datum
 BSD1.F              3950:   Depth drilled with bit1
 MCSS.                KIT:   Source Rmc.
 EPD .F              5070:   Elevation Permanent Datum
 LMF .                 KB:   Log Measured From
 DMF .                 KB:   Drilling Measured From
 TLI .F               200:   Top log interval
~OTHER INFORMATION
~A   DEPT     CALD       RHOB        GRD       CORR        SPR       SGRD        ILM        ILD   
  218.0000  -999.2500  -999.2500  -999.2500  -999.2500   -21.5670  -999.2500  -999.2500  -999.2500
  218.5000  -999.2500  -999.2500  -999.2500  -999.2500   -25.2040  -999.2500  -999.2500  -999.2500
  219.0000  -999.2500  -999.2500  -999.2500  -999.2500   -28.6450  -999.2500  -999.2500  -999.2500
  219.5000  -999.2500  -999.2500  -999.2500  -999.2500   -31.4130  -999.2500  -999.2500  -999.2500
  220.0000  -999.2500  -999.2500  -999.2500  -999.2500   -33.4960     6.8020  -999.2500    19.4520
  220.5000  -999.2500  -999.2500  -999.2500  -999.2500   -36.2440    11.1050  -999.2500     9.0360
  221.0000  -999.2500  -999.2500  -999.2500  -999.2500   -38.8240    14.0280    41.9160     4.3170
  221.5000  -999.2500  -999.2500  -999.2500  -999.2500   -40.0840    16.2510    18.3940     2.9390
  222.0000     8.4750  -999.2500  -999.2500  -999.2500   -41.5520    17.3620    25.0170     2.9550
  222.5000     8.4750  -999.2500    71.4990  -999.2500   -43.2630    18.8350    25.0010     2.2560
  223.0000     8.4730  -999.2500    71.4990    -0.4080   -44.9270    20.3080    25.4460     2.4720
  223.5000     8.4720  -999.2500    71.0690    -0.4080   -46.1440    21.7820    25.6650     3.5000
  224.0000     8.4710  -999.2500    71.1490    -0.4080   -47.3930    23.1600    25.8840     5.7460
  224.5000     8.4700  -999.2500    71.4770    -0.4080   -48.6470    23.8900    26.0040     9.1170
  225.0000     8.4690  -999.2500    71.9010    -0.4080   -49.9070    24.3080    26.0850    15.4640
  225.5000     8.4680  -999.2500    72.3290    -0.4080   -50.8380    24.7690    26.5590    21.6910
  226.0000     8.4660  -999.2500    72.7580    -0.4070   -51.5630    25.2300    27.4320    23.1200
  226.5000     8.4650  -999.2500    73.1800    -0.4020   -52.2880    25.6910    28.3060    23.7450
  227.0000     8.4640  -999.2500    73.3480    -0.3960   -53.0760    26.1520    28.7670    24.3140
  227.5000     8.4630  -999.2500    72.8920    -0.3860   -53.9030    26.7330    27.8920    24.8840
  228.0000     8.4620  -999.2500    72.4600    -0.3630   -54.7310    27.3740    29.4020    25.4540
  228.5000     8.4600  -999.2500    72.0260    -0.3350   -55.5360    27.9860    31.8950    25.7880
  229.0000     8.4590  -999.2500    71.5930    -0.3020   -55.9300    28.0770    31.2180    25.8320
  229.5000     8.4580     2.0770    71.1830    -0.2370   -56.3070    28.1840    30.1630    25.8770
  230.0000     8.4570     2.1720    70.7560    -0.1360   -56.6830    28.2910    29.7740    25.9210
  230.5000     8.4590     2.2790    74.3140    -0.0270   -57.0390    28.3980    30.4760    25.9570
  231.0000     8.4890     2.3300    80.5990     0.0930   -57.8630    28.5060    31.3340    26.0060
  231.5000     8.5240     2.2810    86.9330     0.1020   -58.7450    28.5700    31.6760    26.0560
  232.0000     8.9360     2.2610    90.2200     0.0660   -59.6360    28.4230    30.3560    26.1050
  232.5000    10.0600     2.3190    90.8390     0.0470   -60.4820    28.2380    29.2400    26.1260
  233.0000    10.9060     2.3850    91.4670     0.0410   -60.6970    28.0530    28.7010    26.1260
  233.5000    11.3790     2.4080    92.0890     0.0350   -60.9300    27.8680    28.5240    26.0100
  234.0000    11.7790     2.4140    92.7110     0.0340   -62.1030    27.6830    28.3740    25.3100
  234.5000    11.7950     2.4190    93.3370     0.0380   -62.0790    27.4980    27.9490    24.6100
  235.0000    11.8230     2.4170    93.6550     0.0340   -62.0750    27.3120    26.7370    23.9100
  235.5000    11.8480     2.4150    93.8130     0.0320   -62.2460    26.3370    25.5260    23.2100
  236.0000    11.8550     2.4170    95.0540     0.0340   -62.5020    24.6770    24.2210    22.4560
  236.5000    11.8610     2.4190    95.2500     0.0350   -62.7600    23.0170    23.4880    21.5830
  237.0000    11.8670     2.4120    94.7660     0.0310   -63.0180    21.3580    22.9310    20.6370
  237.5000    11.8740     2.4170    94.2740     0.0280   -63.2760    20.2540    22.3020    19.9770
  238.0000    11.8800     2.4250    93.7900     0.0340   -63.5340    24.8510    23.1570    22.3020
  238.5000    11.8860     2.4320    92.3640     0.0340   -63.7920    26.1260    23.9340    22.4560
  239.0000    11.8930     2.4280    90.3960     0.0250   -64.0500    25.4160    24.7110    22.3580
  239.5000    11.8990     2.4190    88.4080     0.0140   -64.3080    26.0190    25.4880    22.1490
  240.0000    11.9060     2.4110    87.3280     0.0140   -64.5750    27.0400    25.7690    22.1110
  240.5000    11.9120     2.4020    87.3380     0.0150   -64.7110    26.0980    25.7690    22.0750
  241.0000    11.9180     2.4000    87.3950     0.0160   -64.8020    24.6640    24.8240    22.0390
  241.5000    11.9250     2.4080    87.4440     0.0160   -64.7940    23.2300    23.9260    22.0030
  242.0000    11.9310     2.4150    88.1760     0.0170   -64.6700    21.4000    23.0280    21.3890
  242.5000    11.9370     2.4150    89.2560     0.0180   -64.5450    21.9360    22.1490    20.6760
  243.0000    11.9440     2.4100    90.3410     0.0190   -64.3870    23.2020    22.8870    20.6760
  243.5000    11.9500     2.4130    91.4280     0.0210   -64.1110    24.4690    23.7890    21.5220
  244.0000    11.9570     2.4180    92.5090     0.0230   -63.8410    25.7350    24.6910    22.2180
  244.5000    11.9630     2.4240    93.5890     0.0250   -63.5700    27.0020    25.5930    22.9150
  245.0000    11.9650     2.4310    94.1760     0.0270   -63.3000    28.2680    26.4950    23.6120
  245.5000    11.9620     2.4380    94.1600     0.0310   -63.0300    29.5700    27.3970    24.3080
  246.0000    11.9590     2.4440    94.1470     0.0370   -62.7490    28.7670    27.9860    25.0050
  246.5000    11.9550     2.4380    94.1300     0.0430   -62.7100    28.9830    28.3740    25.5920
  247.0000    11.9520     2.4400    94.1120     0.0490   -62.7560    29.5840    28.7050    25.4700
  247.5000    11.9490     2.4440    94.0950     0.0550   -62.8060    29.9800    28.9660    25.1240
  248.0000    11.9460     2.4220    94.0780     0.0540   -62.8620    29.7630    28.8620    24.7770
  248.5000    11.9430     2.3950    94.0610     0.0480   -62.6770    29.5730    28.7220    24.4310
  249.0000    11.9400     2.3710    94.0440     0.0410   -62.4010    29.3670    28.5700    24.0550
  249.5000    11.9360     2.3750    94.0270     0.0340   -62.1220    28.5270    27.9030    23.3900
  250.0000    11.9330     2.3840    94.0100     0.0400   -61.8440    26.8870    25.7550    22.6640
  250.5000    11.9300     2.3920    93.9930     0.0490   -61.5660    25.4160    23.4020    21.9970
  251.0000    11.9270     2.4010    93.9730     0.0590   -61.2870    26.0330    23.2420    21.8460
  251.5000    11.9210     2.4090    93.9270     0.0690   -61.0090    27.2520    23.8710    22.4740
  252.0000    11.9150     2.4130    93.8800     0.0760   -60.7310    28.4710    25.1060    23.1650
  252.5000    11.9090     2.3780    93.8420     0.0810   -60.4530    29.6890    26.4310    23.8560
  253.0000    11.9030     2.3480    93.8630     0.0820   -60.1750    30.9080    27.9510    24.5480
  253.5000    11.8970     2.3180    91.7830     0.0820   -59.8960    31.4700    29.4720    25.2390
  254.0000    11.8910     2.2890    89.3900     0.0810   -59.6180    31.7830    30.1870    25.9300
  254.5000    11.8850     2.2590    86.9640     0.0660   -59.3400    32.0960    29.7740    26.6210
  255.0000    11.8790     2.2530    84.5430     0.0520   -59.0630    32.4090    30.4560    27.3120
  255.5000    11.8730     2.3080    85.8370     0.0400   -58.8310    32.7230    30.9670    28.0030
  256.0000    11.8590     2.3830    89.5800     0.0280   -58.6540    33.0360    31.4780    28.1800
  256.5000    11.8000     2.4250    91.5900     0.0300   -58.4770    33.2490    31.9890    28.0900
  257.0000    11.7420     2.4240    91.3990     0.0310   -58.3000    33.3130    32.1390    28.0230
  257.5000    11.6830     2.4220    91.0980     0.0330   -58.1240    33.3770    32.2070    27.9560
  258.0000    11.6250     2.4390    91.2560     0.0370   -57.9470    33.4410    32.2740    27.8900
