~VERSION INFORMATION
 VERS.                2.0:   CWLS LOG ASCII STANDARD - VERSION 2.0
 WRAP.                 NO:   ONE LINE PER DEPTH STEP
~WELL INFORMATION
#MNEM.UNIT      DATA TYPE    INFORMATION
#----------   ------------   ------------------------------
 STRT.F          200.0000:   START DEPTH
 STOP.F         3014.0000:   STOP DEPTH
 STEP.F            0.5000:   STEP LENGTH
 NULL.          -999.2500:   NO VALUE
 COMP.    FENIX & SCISSON:   COMPANY
 WELL. FENIX NPR 3 "AX" #45-28:   WELL
 FLD .                NPR:   FIELD
 LOC .      S28 T39N R78W:   LOCATION
 CNTY.            NATRONA:   COUNTY
 STAT.            WYOMING:   STATE
 CTRY. UNITED STATES OF AMERICA:   COUNTRY
 SRVC.              WELEX:   SERVICE COMPANY
 DATE.        30-SEP-1977:   LOGDATE
 API .     49025104230000:   API NUMBER
~CURVE INFORMATION
#MNEM.UNIT       API CODE    CURVE DESCRIPTION
#----------   ------------   ------------------------------
 DEPT.F                  :   
 SPR .MV     07 010 01 00:   SPONTANEOUS POTENTIAL
 TENR.LBS    07 635 01 00:   TENSION
 SFL .OHMM   07 220 01 00:   SHALLOW FOCUSED LOG RESISTIVITY
 ILD .OHMM   07 120 46 00:   INDUCTION LOG DEEP RESISTIVITY
 ILM .OHMM   07 120 44 00:   INDUCTION LOG MEDIUM RESISTIVITY
 TEND.LBS    45 635 01 00:   TENSION FROM DENSITY LOG
 CALD.IN     45 280 60 00:   CALIPER FROM DENSITY LOG
 RHOB.G/C3   45 350 01 00:   BULK DENSITY
 CORR.G/C3   45 356 01 00:   DENSITY CORRECTION
 GRD .GAPI   45 310 01 00:   GAMMA RAY FROM DENSITY LOG
~PARAMETER INFORMATION
#MNEM.UNIT          VALUE    DESCRIPTION
#----------   ------------   ------------------------------
 EKB .F         5075.0000:   Kelly bushing
 EGL .F         5065.0000:   Ground level
 EDF .F            0.0000:   Drilling floor
 E TD.F         3008.0000:   Total depth
 DATE.        30-SEP-1977:   Date logged
 CLNT.            A2DTECH:   Client Code
 SL  . 2210' FSL & 2310' FWL:   Surface Location
 PD  .                 GL:   Permanent Datum
 EPD .F              5065:   Elevation Permanent Datum
 LMF .                 KB:   Log Measured From
 DMF .                 KB:   Drilling Measured From
 DAPD.F                10:   Feet Above Permanent Datum
 DD  .F              3005:   Depth driller
 DL  .F              3008:   Depth logger
 BLI .F              3006:   Bottom log interval
 TLI .F               200:   Top log interval
 CS1 .IN            8.625:   Casing size
 CBD1.      8.625" @ 205':   Casing driller 1
 CBL1.F               220:   Casing logger 1
 BS1 .IN            7.875:   Bit size
 BSD1.F              3005:   Depth drilled with bit1
 DFT .            KCL/MUD:   Type fluid in hole
 DFD .                9.1:   Density
 DFV .                 38:   Viscosity
 DFPH.                 11:   pH
 DFL .                6.8:   Fluid loss
 MSS .           FLOWLINE:   Source of sample
 RMS .OHMM            .31:   Rm
 MST .F                78:   Rm Meas. temp.
 RMF .OHMM            .15:   Rmf
 MFST.F                78:   Rmf Meas. temp.
 RMC .OHMM           1.02:   Rmc
 MCST.F                78:   Rmc Meas. temp.
 MFSS.               FANN:   Source Rmf.
 MCSS.                KIT:   Source Rmc.
 RMB .OHMM            .20:   Rm. at BHT
 BHT .F               117:   BHT.
 TCS .HRS               3:   Time Circ. stopped
 MRT .F               117:   Maximum recorded temp.
 LUN .               8611:   Logging unit number
 LUL .             CASPER:   Logging unit location
 ENGI.         G. BENTSEN:   Recorded By
 WITN.         HARRINGTON:   Witnessed by
 ORIG.           5" PRINT:   Origin of data
 UWI .     49025104230000:   Unique Well ID
 DICO. A2D TECHNOLOGIES, INC.:   Digitizing Company
~OTHER INFORMATION
~A   DEPT      SPR        TENR       SFL        ILD        ILM       TEND       CALD       RHOB       CORR        GRD   
# ...
 2042.5000   -69.6160   705.4130    13.8950     7.3250     8.3290   885.1060     8.9920     2.4790     0.0070    87.7430
 2043.0000   -69.5740   705.6550    12.7390     7.5540     8.2120   885.2440     8.9870     2.4750     0.0050    85.1790
 2043.5000   -69.5320   705.8980    11.5090     7.5140     8.1330   885.3820     8.9820     2.4710     0.0040    82.6120
 2044.0000   -69.4900   706.1410    10.2780     7.4590     8.3030   885.5200     8.9770     2.4730     0.0020    80.0270
 2044.5000   -69.4490   706.3840     9.3400     7.4050     8.4320   885.6590     8.9720     2.4790     0.0000    77.4400
 2045.0000   -69.4070   706.6270     9.0020     7.3500     8.5960   885.7970     8.9750     2.4760    -0.0020    77.4560
 2045.5000   -69.3650   706.8690     9.0020     7.2950     8.5490   885.9350     8.9770     2.4700    -0.0030    77.6050
 2046.0000   -69.3230   707.1120     9.2690     7.2400     8.4600   886.0730     8.9790     2.4640    -0.0040    77.2970
 2046.5000   -69.2820   707.3550     9.8510     7.2130     8.3700   886.2110     8.9810     2.4570    -0.0030    74.0850
 2047.0000   -69.2400   707.5980    10.4320     7.3270     8.2800   886.3490     8.9830     2.4610    -0.0030    70.8430
 2047.5000   -69.1980   707.8400    11.0130     7.4130     8.1900   886.4870     8.9850     2.4690    -0.0030    67.5910
 2048.0000   -69.1560   708.0830    11.7640     7.4990     8.1000   886.6250     8.9870     2.4760    -0.0030    64.7270
 2048.5000   -69.1150   708.3260    11.2160     7.5850     7.9840   886.7630     8.9890     2.4830    -0.0030    64.1170
 2049.0000   -69.1000   708.5690    10.0560     7.6720     8.0500   886.9010     8.9910     2.4890    -0.0030    66.1240
 2049.5000   -69.1570   708.8120    10.7000     7.7660     8.1440   887.0390     8.9890     2.4850    -0.0030    68.7940
 2050.0000   -69.2120   709.0540    11.3380     7.8380     8.2840   887.1770     8.9820     2.4800    -0.0020    71.4690
 2050.5000   -69.2690   709.2970    10.2730     7.9110     8.2190   887.3150     8.9750     2.4800    -0.0020    74.1450
 2051.0000   -69.2840   709.5400     9.6920     7.6880     8.0860   887.4530     8.9680     2.4820    -0.0020    76.8160
 2051.5000   -69.2840   709.7830    11.7730     7.5160     7.9530   887.5910     8.9610     2.4840    -0.0020    79.3530
 2052.0000   -69.2840   710.0250    13.2640     7.3440     7.8200   887.7290     8.9550     2.4820    -0.0020    81.1630
 2052.5000   -69.2840   710.2680    12.7910     7.1720     7.6880   887.8680     8.9480     2.4750    -0.0020    82.8960
 2053.0000   -69.2840   710.5110    11.7920     7.0000     7.5550   888.0060     8.9410     2.4680    -0.0020    84.6270
 2053.5000   -69.2840   710.7540    10.7930     6.8280     7.4220   888.1440     8.9340     2.4610    -0.0010    86.3580
 2054.0000   -69.2840   710.9970     9.7940     6.6560     7.2890   888.2820     8.9280     2.4550    -0.0010    88.0890
 2054.5000   -69.2840   711.2390     8.7950     6.4840     7.1570   888.4200     8.9210     2.4540    -0.0010    89.8170
 2055.0000   -69.2840   711.4820     8.2690     6.4150     7.0240   888.5580     8.9140     2.4540    -0.0010    91.5330
 2055.5000   -69.2840   711.7250     8.0050     6.3650     6.8910   888.6960     8.9230     2.4510    -0.0010    93.9070
 2056.0000   -69.2840   711.9680     7.6950     6.3150     6.7620   888.8340     8.9400     2.4440    -0.0010    92.6020
 2056.5000   -69.2840   712.2100     7.9110     6.2650     6.6840   888.9720     8.9580     2.4370    -0.0010    90.1490
 2057.0000   -69.2840   712.4530     9.9470     6.2150     6.6080   889.1100     8.9750     2.4300    -0.0010    87.6880
 2057.5000   -69.2840   712.6960    12.3200     6.1660     6.5170   889.2480     8.9930     2.4260    -0.0010    84.5050
 2058.0000   -69.2840   712.9390    11.3060     6.2370     6.5920   889.3860     9.0110     2.4390    -0.0010    85.6810
 2058.5000   -69.2840   713.1820    10.0530     6.3060     6.6840   889.5240     9.0160     2.4500    -0.0010    87.8980
 2059.0000   -69.2840   713.4240     8.2840     6.3760     6.7760   889.6620     9.0250     2.4610    -0.0010    90.1380
 2059.5000   -69.3150   713.6670     8.5240     6.4460     6.8680   889.8000     9.0330     2.4580    -0.0010    92.3660
 2060.0000   -69.3630   713.9100     8.9290     6.5170     6.9710   889.9380     9.0410     2.4530    -0.0010    94.0190
 2060.5000   -69.4120   714.1530     9.4270     6.6140     7.0770   890.0760     9.0500     2.4490    -0.0010    93.7240
 2061.0000   -69.4610   714.3950     9.0050     6.7380     7.1830   890.2150     9.0580     2.4480    -0.0010    93.4720
 2061.5000   -69.5090   714.6380     8.4390     6.8620     7.2890   890.3530     9.0660     2.4520    -0.0010    93.2690
 2062.0000   -69.5580   714.8810     9.3970     6.9860     7.3950   890.4910     9.0750     2.4550    -0.0010    93.9450
 2062.5000   -69.6060   715.1240    10.5320     7.0160     7.4850   890.6290     9.0830     2.4580    -0.0010    94.6370
 2063.0000   -69.6550   715.3670    12.5490     6.9250     7.3860   890.7670     9.0910     2.4560    -0.0010    95.3350
 2063.5000   -69.7030   715.6090    11.3060     6.8290     7.2990   890.9050     9.0840     2.4530    -0.0020    95.0760
 2064.0000   -69.7520   715.8520     9.9880     6.7330     7.2130   891.0430     9.0760     2.4510    -0.0010    94.1700
 2064.5000   -69.8010   716.0950     8.8010     6.6370     7.1270   891.1810     9.0690     2.4550     0.0000    93.2590
 2065.0000   -69.8490   716.3380     8.4390     6.5410     7.0410   891.3190     9.0610     2.4650     0.0010    92.3420
 2065.5000   -69.8980   716.5800     9.0020     6.4450     6.9270   891.4570     9.0540     2.4740     0.0020    91.4330
 2066.0000   -69.9460   716.8230     7.9110     6.3390     6.8010   891.5950     9.0510     2.4820     0.0030    90.5200
 2066.5000   -69.9950   717.0660     8.6340     6.3200     6.6760   891.7330     9.0490     2.4870     0.0040    90.8020
 2067.0000   -70.0440   717.3090     9.4540     6.2830     6.6290   891.8710     9.0480     2.4930     0.0050    92.2250
 2067.5000   -70.0920   717.5520     9.1410     6.2450     6.5950   892.0090     9.0460     2.4980     0.0060    93.6470
 2068.0000   -70.1410   717.7940     8.7240     6.2080     6.5620   892.1470     9.0450     2.4950     0.0070    95.0770
 2068.5000   -70.1890   717.9130     9.0440     6.1710     6.5170   892.2850     9.0430     2.4810     0.0080    96.3960
 2069.0000   -70.2380   717.9740     9.4780     6.2100     6.5650   892.4240     9.0420     2.4750     0.0080    96.4320
 2069.5000   -70.2870   718.0350     9.2550     6.2600     6.6360   892.5620     9.0410     2.4720     0.0080    96.4340
 2070.0000   -70.3350   718.0960     8.9570     6.3100     6.7070   892.7000     9.0390     2.4700     0.0070    97.3900
 2070.5000   -70.3840   718.1570     8.6760     6.3600     6.7780   892.8380     9.0380     2.4720     0.0070    99.6960
 2071.0000   -70.4320   718.2180     8.7610     6.4090     6.8880   892.9760     9.0360     2.4740     0.0060   101.9800
 2071.5000   -70.4810   718.2790     8.8410     6.4570     6.8350   893.1140     9.0350     2.4760     0.0060   104.2150
 2072.0000   -70.5300   718.3400     8.9190     6.3440     6.7170   893.2520     9.0330     2.4730     0.0050   107.6620
 2072.5000   -70.5780   718.4000     8.4090     6.2360     6.5980   893.3900     9.0320     2.4700     0.0050   111.3590
 2073.0000   -70.6270   718.4610     8.5940     6.1270     6.4800   893.5280     9.0310     2.4680     0.0050   115.0610
 2073.5000   -70.6750   718.5220     8.9640     6.0190     6.3610   893.6660     9.0290     2.4700     0.0040   122.2060
 2074.0000   -70.7240   718.5830     9.2550     5.9100     6.2430   893.8040     9.0280     2.4730     0.0040   132.0960
 2074.5000   -70.7720   718.6440     8.5540     5.8020     6.0530   893.9420     9.0260     2.4750     0.0040   141.3270
 2075.0000   -70.8210   718.7050     7.9770     5.7800     6.1220   894.0800     9.0250     2.4750     0.0040   142.7850
 2075.5000   -70.8700   718.7660     7.2800     5.9190     6.2940   894.2180     9.0230     2.4620     0.0030   130.8830
