~VERSION INFORMATION
 VERS.                2.0:   CWLS LOG ASCII STANDARD - VERSION 2.0
 WRAP.                 NO:   ONE LINE PER DEPTH STEP
~WELL INFORMATION
#MNEM.UNIT      DATA TYPE    INFORMATION
#----------   ------------   ------------------------------
 STRT.F          200.5000:   START DEPTH
 STOP.F         3164.0000:   STOP DEPTH
 STEP.F            0.5000:   STEP LENGTH
 NULL.          -999.2500:   NO VALUE
 COMP. FENIX & SCISSON U.S NAVY:   COMPANY
 WELL. FENIX & SCISSON "A" #83-4:   WELL
 FLD .              NPR-3:   FIELD
 LOC .       S4 T38N R78W:   LOCATION
 CNTY.            NATRONA:   COUNTY
 STAT.            WYOMING:   STATE
 CTRY. UNITED STATES OF AMERICA:   COUNTRY
 SRVC.       SCHLUMBERGER:   SERVICE COMPANY
 DATE.        25-MAY-1977:   LOGDATE
 API .     49025103660000:   API NUMBER
~CURVE INFORMATION
#MNEM.UNIT       API CODE    CURVE DESCRIPTION
#----------   ------------   ------------------------------
 DEPT.F                  :   
 CALD.IN     45 280 60 00:   CALIPER FROM DENSITY LOG
 GRD .GAPI   45 310 01 00:   GAMMA RAY FROM DENSITY LOG
 RHOB.G/C3   45 350 01 00:   BULK DENSITY
 CORR.G/C3   45 356 01 00:   DENSITY CORRECTION
 SPR .MV     07 010 01 00:   SPONTANEOUS POTENTIAL
 SFLU.OHMM   07 220 01 00:   SPHERICALLY FOCUSED LOG UNAVERAGED RESISTIVITY
 ILD .OHMM   07 120 46 00:   DEEP INDUCTION RESISTIVITY
 ILM .OHMM   07 120 44 00:   INDUCTION LOG MEDIUM RESISTIVITY
~PARAMETER INFORMATION
#MNEM.UNIT          VALUE    DESCRIPTION
#----------   ------------   ------------------------------
 EKB .F         5163.0000:   Kelly bushing
 EGL .F         5149.0000:   Ground level
 EDF .F            0.0000:   Drilling floor
 EPD .F            0.0000:   Permanent datum
 TD  .F         3173.0000:   Total depth
 DATE.        25-MAY-1977:   Date logged
 CLNT.            A2DTECH:   Client Code
 SL  . 1650' FNL & 330 ' FEL:   Surface Location
 PD  .                 GL:   Permanent Datum
 DAPD.F                14:   Feet Above Permanent Datum
 DD  .F              3173:   Depth driller
 DL  .F              3157:   Depth logger
 BLI .F              3165:   Bottom log interval
 TLI .F               200:   Top log interval
 CS1 .IN            8.625:   Casing size
 CBD1.      8.625" @ 204':   Casing driller 1
 CBL1.F               220:   Casing logger 1
 BS1 .IN            7.875:   Bit size
 BSD1.F              3173:   Depth drilled with bit1
 DFT .            KCL MUD:   Type fluid in hole
 DFD .                8.8:   Density
 DFV .                 37:   Viscosity
 DFPH.                7.5:   pH
 DFL .                4.4:   Fluid loss
 MSS .           FLOWLINE:   Source of sample
 RMS .OHMM            .39:   Rm
 MST .F                79:   Rm Meas. temp.
 RMF .OHMM            .31:   Rmf
 MFST.F                79:   Rmf Meas. temp.
 RMC .OHMM            .63:   Rmc
 MCST.F                79:   Rmc Meas. temp.
 MFSS.           FANN KIT:   Source Rmf.
 MCSS.           FANN KIT:   Source Rmc.
 RMB .OHMM            .27:   Rm. at BHT
 BHT .F               112:   BHT.
 TCS .HRS             2.5:   Time Circ. stopped
 MRT .F               112:   Maximum recorded temp.
 LUN .               8611:   Logging unit number
 LUL .             CASPER:   Logging unit location
 ENGI.            C. DOAK:   Recorded By
 WITN.      B. HARRINGTON:   Witnessed by
 ORIG.       2.5"5" PRINT:   Origin of data
 UWI .     49025103660000:   Unique Well ID
 DICO. A2D TECHNOLOGIES, INC.:   Digitizing Company
~OTHER INFORMATION
~A   DEPT     CALD        GRD         RHOB     CORR        SPR       SFLU        ILD        ILM   
# ...
 1739.5000     9.0371   107.1058     2.4973     0.0200   -38.0597    11.5729     7.9107     7.0973
 1740.0000     9.0369   107.8860     2.5051     0.0239   -38.0597    11.5725     7.9105     6.8445
 1740.5000     8.9977   108.6671     2.5051     0.0161   -38.0597    11.1602     7.9101     7.4932
 1741.0000     8.9975   108.6649     2.4992     0.0160   -38.0597    11.5716     8.2017     7.2263
 1741.5000     9.0365   108.6635     2.4992     0.0121   -38.0597    11.5710     8.5040     7.0963
 1742.0000     9.0363   110.2264     2.4992     0.0121   -38.0597    11.9976     8.8175     6.9687
 1742.5000     9.0362   111.0075     2.4992     0.0121   -38.0597    11.1584     9.4798     7.0958
 1743.0000     9.0361   111.0054     2.5012     0.0199   -38.0597    10.7610     8.5031     6.9682
 1743.5000     9.0360   111.0040     2.5011     0.0159   -38.0597    10.1913     8.2002     6.9679
 1744.0000     9.0358   112.5671     2.5149     0.0198   -38.4473    11.1568     8.8180     6.9677
 1744.5000     9.0357   113.3483     2.5188     0.0198   -38.4473    11.1566     9.1429     6.9674
 1745.0000     9.0355   113.3462     2.5207     0.0159   -38.4473    11.5679     9.3096     6.9672
 1745.5000     9.0354   112.5622     2.5168     0.0130   -38.4473    10.9555     9.3094     6.9669
 1746.0000     8.9570   110.2122     2.5227     0.0080   -39.2225     9.8269     9.3091     6.9667
 1746.5000     8.9569   108.6454     2.5207     0.0041   -38.4473    11.3586     9.3088     7.0938
 1747.0000     8.9958   106.0772     2.5266     0.0040   -38.4473    11.5660     9.8282     7.0936
 1747.5000     8.9566   105.3008     2.5305     0.0119   -39.2225    11.9922     9.8278     7.0933
 1748.0000     8.9564   104.5088     2.5422     0.0197   -39.2225    11.5651    10.1879     7.0931
 1748.5000     8.9955   102.9419     2.5461     0.0275   -38.4473    11.7759     9.4752     7.2224
 1749.0000     8.9562   103.7223     2.5540     0.0314   -38.4473    11.9908     9.3050     7.2222
 1749.5000     8.9943   104.5036     2.5540     0.0314   -38.4473    12.4326    10.0038     7.2219
 1750.0000     8.9159   104.5014     2.5461     0.0314   -38.4473    12.8908    10.3725     7.3536
 1750.5000     8.8765   101.5851     2.5500     0.0235   -39.2225    13.1257    11.1514     7.4878
 1751.0000     8.8765   101.5836     2.5481     0.0217   -39.2225    13.8582    11.1510     7.6245
 1751.5000     8.8763   100.7984     2.5500     0.0216   -39.2225    13.3645    10.5608     7.6241
 1752.0000     8.8762   100.7969     2.5520     0.0177   -39.2225    12.4301    10.1847     7.6239
 1752.5000     8.8760   100.7945     2.5520     0.0098   -39.2225    12.6567    10.3725     7.6236
 1753.0000     8.8759   100.7930     2.5480     0.0098   -39.2225    12.6563    10.5619     8.0490
 1753.5000     8.8757   100.7906     2.5480     0.0059   -39.2225    13.1225    10.7544     8.0489
 1754.0000     8.8756   101.5719     2.5382     0.0058   -39.2225    14.1080    11.3542     8.0486
 1754.5000     8.8363   102.3525     2.5362     0.0058   -39.2225    11.5590    11.5616     8.0484
 1755.0000     8.8362   103.1339     2.5284     0.0019   -39.2225    14.1066    11.3537     8.0480
 1755.5000     8.7969   104.6975     2.5244     0.0019   -39.2225    13.6043    11.1494     8.0477
 1756.0000     8.7968   105.4790     2.5244     0.0018   -39.2225    13.6039    11.1490     8.0473
 1756.5000     8.9149   106.0427     2.5166    -0.0021   -39.2225    13.3590    11.1485     8.0471
 1757.0000     8.9148   106.8242     2.5146    -0.0021   -39.2225    13.3586    10.3691     8.0467
 1757.5000     8.9538   108.3880     2.5087    -0.0021   -39.2225    13.1182    10.1823     7.9020
 1758.0000     8.8745   109.1696     2.5107     0.0036   -39.2225    12.6511    10.5578     7.9019
 1758.5000     8.8743   109.9505     2.5244     0.0063   -39.2225    13.1171    11.5577     7.9015
 1759.0000     8.8742   109.3830     2.5361     0.0075   -39.2225    13.3564    11.5575     7.9013
 1759.5000     8.8741   110.1639     2.5381     0.0075   -39.2225    12.8807    11.1459     7.9008
 1760.0000     8.8348   110.1625     2.5420     0.0114   -39.2225    13.3553    10.9455     7.9005
 1760.5000     8.7563   110.9435     2.5381     0.0114   -39.2225    13.1150    10.5556     7.9004
 1761.0000     8.7562   111.7252     2.5381     0.0192   -39.2225    13.1145    10.3659     7.7580
 1761.5000     8.7560   115.6388     2.5322     0.0155   -39.2225    13.3535     9.8173     7.5417
 1762.0000     8.7568   116.4206     2.5302     0.0113   -39.6101    13.3531    10.5520     7.3475
 1762.5000     8.7567   117.2017     2.5282     0.0113   -39.2225    12.1966     9.6383     7.2153
 1763.0000     8.7786   117.2004     2.5361     0.0073   -39.2225    11.5513     9.1284     6.8336
 1763.5000     8.8006   115.6321     2.5459     0.0073   -39.2225    10.9400     8.6454     6.7107
 1764.0000     8.8225   116.4140     2.5478     0.0269   -39.2225    10.5506     8.4900     6.5901
 1764.5000     8.8343   114.8455     2.5498     0.0269   -39.2225     9.9923     8.3372     6.5898
 1765.0000     8.7559   116.4107     2.5497     0.0229   -39.2225    11.5492     8.1874     6.3552
 1765.5000     8.7557   114.8422     2.5478     0.0190   -39.2225    10.7419     8.0417     6.3550
 1766.0000     8.7556   111.7078     2.5399     0.0151   -39.2225    10.3596     7.7555     6.3535
 1766.5000     8.7555   110.9224     2.5321     0.0111   -39.6101    10.9374     7.8969     6.3534
 1767.0000     8.7553   110.9210     2.5242     0.0111   -39.6101    10.7408     8.0409     6.3533
 1767.5000     8.7552   111.7022     2.5164     0.0111   -39.6101    11.1364     8.0406     6.3531
 1768.0000     8.7551   113.2674     2.5085     0.0092   -39.2225    11.1361     7.7544     6.3528
 1768.5000     8.7549   113.2654     2.5085     0.0053   -39.6101    10.9357     7.7540     6.3526
 1769.0000     8.7548   112.4806     2.5143     0.0092   -39.6101    10.5465     7.8955     6.3524
 1769.5000     8.7546   110.1284     2.5202     0.0092   -39.6101    11.1347     7.8952     6.3522
 1770.0000     8.8721   111.6938     2.5202     0.0052   -39.6101    11.7556     7.8949     6.3519
 1770.5000     8.7543   112.4751     2.5202     0.0052   -39.6101    10.3559     7.7529     6.3517
 1771.0000     8.7542   111.6903     2.5182     0.0013   -39.6101    11.1332     7.7527     6.3515
 1771.5000     8.7149   111.6882     2.4947     0.0012   -39.2225    10.7368     7.4767     6.3513
 1772.0000     8.7539   110.9034     2.5025     0.0012   -39.2225    10.5439     7.4764     6.3510
 1772.5000     8.7146   111.6847     2.5065     0.0051   -39.2225    10.1685     7.2102     6.3508
 1773.0000     8.7145   112.4668     2.5163     0.0090   -39.2225    10.1682     6.9536     6.3506
 1773.5000     8.7143   113.2482     2.5280     0.0129   -38.8349    10.1677     7.3400     6.3504
 1774.0000     8.7142   116.3809     2.5319     0.0187   -38.8349    10.7349     7.4739     6.3501
 1774.5000     8.6748   117.9460     2.5280     0.0187   -38.8349    11.3336     7.3395     6.3499
 1775.0000     8.6747   118.7282     2.5280     0.0147   -38.8349    11.1299     6.9513     6.3497
 1775.5000     8.6354   119.5098     2.5241     0.0147   -38.8349    10.5410     7.0780     6.3494
 1776.0000     8.6352   117.9414     2.5201     0.0147   -38.8349    10.3516     7.3387     6.3492
 1776.5000     8.6351   117.9395     2.5181     0.0107   -38.8349    10.1654     7.4725     6.3491
 1777.0000     8.6350   117.1546     2.5201     0.0068   -38.8349    10.3508     7.0787     6.3489
 1777.5000     8.6348   117.1526     2.5221     0.0028   -38.8349    10.7319     6.9514     6.3550
 1778.0000     8.5955   117.1513     2.5220    -0.0011   -38.8349    10.7316     6.9512     6.3611
 1778.5000     8.6345   117.9330     2.5260     0.0010   -39.1473    10.7311     7.0779     6.3673
 1779.0000     8.5952   118.7153     2.5357     0.0088   -39.1473    10.5382     7.2070     6.3734
 1779.5000     8.5950   120.2808     2.5495     0.0106   -39.1473    10.1630     7.2067     6.3795
