~VERSION INFORMATION
 VERS.                2.0:   CWLS LOG ASCII STANDARD - VERSION 2.0
 WRAP.                 NO:   ONE LINE PER DEPTH STEP
~WELL INFORMATION
#MNEM.UNIT      DATA TYPE    INFORMATION
#----------   ------------   ------------------------------
 STRT.F          212.0000:   START DEPTH
 STOP.F         2806.0000:   STOP DEPTH
 STEP.F            0.5000:   STEP LENGTH
 NULL.          -999.2500:   NO VALUE
 COMP.    FENIX & SCISSON:   COMPANY
 WELL.    FENIX AX #12-21:   WELL
 FLD .        TEAPOT DOME:   FIELD
 LOC .      S21 T39N R78W:   LOCATION
 CNTY.            NATRONA:   COUNTY
 STAT.            WYOMING:   STATE
 CTRY. UNITED STATES OF AMERICA:   COUNTRY
 SRVC.           BIRDWELL:   SERVICE COMPANY
 DATE.        14-AUG-1973:   LOGDATE
 API .     49025106930000:   API NUMBER
~CURVE INFORMATION
#MNEM.UNIT       API CODE    CURVE DESCRIPTION
#----------   ------------   ------------------------------
 DEPT.F                  :   
 SN  .OHMM   05 040 16 00:   SHORT NORMAL 16"
 ILD .OHMM   05 120 46 00:   INDUCTION LOG DEEP RESISTIVITY
 RHOB.G/C3   45 350 01 00:   BULK DENSITY
 CORR.G/C3   45 356 01 00:   DENSITY CORRECTION
 GRD .GAPI   45 310 01 00:   GAMMA RAY FROM DENSITY LOG
 CALD.IN     45 280 60 00:   CALIPER FROM DENSITY LOG
 SPR .MV     05 010 01 00:   SPONTANEOUS POTENTIAL
~PARAMETER INFORMATION
#MNEM.UNIT          VALUE    DESCRIPTION
#----------   ------------   ------------------------------
 EKB .F         4998.0000:   Kelly bushing
 EGL .F         4988.0000:   Ground level
 EDF .F            0.0000:   Drilling floor
 EPD .F         4988.0000:   Permanent datum
 TD  .F         2809.0000:   Total depth
 DATE.        14-AUG-1973:   Date logged
 CLNT.            A2DTECH:   Client Code
 SL  . 1300' FNL & 300' FWL:   Surface Location
 PD  .                 GL:   Permanent Datum
 DD  .F              2800:   Depth driller
 DL  .F              2809:   Depth logger
 BLI .F              2803:   Bottom log interval
 TLI .F               235:   Top log interval
 CS1 .IN            8.625:   Casing size
 BS1 .IN            7.875:   Bit size
 BSD1.F              2800:   Depth drilled with bit1
 DFT .                GEL:   Type fluid in hole
 DFD .                9.7:   Density
 DFV .                 34:   Viscosity
 DFPH.                 12:   pH
 MSS .           FLOWLINE:   Source of sample
 RMS .OHMM            .15:   Rm
 MST .F                57:   Rm Meas. temp.
 RMF .OHMM            .95:   Rmf
 MFST.F                69:   Rmf Meas. temp.
 RMC .OHMM            1.5:   Rmc
 MCST.F                78:   Rmc Meas. temp.
 MFSS.               MEAS:   Source Rmf.
 RMB .OHMM            .87:   Rm. at BHT
 BHT .F               115:   BHT.
 TCS .HRS               3:   Time Circ. stopped
 MRT .F               115:   Maximum recorded temp.
 LUN .               3006:   Logging unit number
 LUL .               CASP:   Logging unit location
 ENGI.             MILLER:   Recorded By
 WITN.           MCGINLEY:   Witnessed by
 UWI .     49025106930000:   Unique Well ID
 DICO. A2D TECHNOLOGIES, INC.:   Digitizing Company
 ORIG.           5" PRINT:   Origin of data
~OTHER INFORMATION
~A   DEPT       SN        ILD       RHOB       CORR         GRD      CALD        SPR   
# ...
 2760.0000     5.2310     4.3450     2.5130     0.0720    88.6670     7.8010    -8.6190
 2760.5000     5.2090     4.3320     2.5140     0.0760    79.5260     7.8100    -8.6270
 2761.0000     5.1880     4.3180     2.5190     0.0850    80.1650     7.7950    -8.6350
 2761.5000     5.1670     4.3040     2.5240     0.0920    80.8420     7.7790    -8.6430
 2762.0000     5.1450     4.2910     2.5290     0.0930    82.0820     7.7620    -8.6510
 2762.5000     5.1240     4.2770     2.5210     0.0870    82.3590     7.7460    -8.6600
 2763.0000     5.1030     4.2630     2.5070     0.0720    82.3720     7.7340    -8.6680
 2763.5000     5.0810     4.2500     2.4920     0.0570    82.5700     7.7510    -8.6770
 2764.0000     5.0610     4.2440     2.4870     0.0510    83.9520     7.7680    -8.6850
 2764.5000     5.0990     4.2380     2.4860     0.0490    85.8430     7.7690    -8.6930
 2765.0000     5.1360     4.2320     2.4840     0.0520    85.1370     7.7670    -8.7020
 2765.5000     5.1730     4.2260     2.4860     0.0560    85.0290     7.7650    -8.7100
 2766.0000     5.2100     4.2200     2.4910     0.0590    85.8040     7.7630    -8.7180
 2766.5000     5.2470     4.2150     2.4930     0.0550    84.5460     7.7610    -8.7270
 2767.0000     5.2140     4.2090     2.4910     0.0510    80.4640     7.7590    -8.7350
 2767.5000     5.1740     4.2030     2.4890     0.0560    79.1500     7.7570    -8.7430
 2768.0000     4.9620     4.1970     2.4920     0.0630    78.5460     7.7550    -8.7520
 2768.5000     4.5740     4.1910     2.4970     0.0650    81.2800     7.7530    -8.7600
 2769.0000     4.7020     4.1850     2.5010     0.0690    85.1860     7.7530    -8.7680
 2769.5000     5.0750     4.1790     2.5040     0.0770    88.9990     7.7930    -8.7770
 2770.0000     5.4640     4.1730     2.5070     0.0770    93.4190     7.8590    -8.7850
 2770.5000     5.7190     4.2520     2.5090     0.0730    85.3750     8.0100    -8.7930
 2771.0000     5.8020     4.3540     2.5070     0.0670    80.8750     7.8900    -8.7940
 2771.5000     5.8850     4.4570     2.5040     0.0670    77.4470     7.8120    -8.7940
 2772.0000     5.9340     4.6160     2.5060     0.0730    72.6260     7.8250    -8.7940
 2772.5000     5.9740     4.6090     2.5120     0.0800    74.0680     7.8360    -8.7940
 2773.0000     6.0130     4.5920     2.5220     0.0840    78.4500     7.8470    -8.7940
 2773.5000     6.0530     4.5740     2.5280     0.0830    82.5340     7.8580    -8.7940
 2774.0000     6.1210     4.5570     2.5270     0.0810    83.0820     7.8680    -8.7940
 2774.5000     6.2520     4.5400     2.5250     0.0720    76.4260     7.8430    -8.7940
 2775.0000     6.1670     4.5230     2.5260     0.0690    75.9460     7.8130    -8.7940
 2775.5000     6.0880     4.5060     2.5250     0.0680    78.2180     7.8660    -8.7940
 2776.0000     6.0090     4.4880     2.5230     0.0670    77.8750     7.8870    -8.7940
 2776.5000     5.9300     4.4710     2.5310     0.0790    77.2700     7.8390    -8.7940
 2777.0000     5.8710     4.4500     2.5370     0.0930    78.8350     7.8420    -8.7940
 2777.5000     6.0360     4.5690     2.5390     0.0980    78.5260     7.9050    -8.7940
 2778.0000     6.1870     4.7270     2.5430     0.0970    78.5000     7.8460    -8.7940
 2778.5000     6.3920     4.8860     2.5370     0.0900    79.4900     7.7940    -8.7940
 2779.0000     6.8460     5.0440     2.5320     0.0830    78.2580     7.8680    -8.7940
 2779.5000     7.2990     5.2050     2.5300     0.0760    76.6000     7.8830    -8.7940
 2780.0000     7.6540     5.3680     2.5310     0.0750    75.2270     7.8340    -8.7940
 2780.5000     7.6030     5.3970     2.5320     0.0800    76.6070     7.7990    -8.7940
 2781.0000     7.3840     5.3970     2.5270     0.0810    75.3590     7.8720    -8.7940
 2781.5000     7.1650     5.3970     2.5200     0.0810    72.2910     7.8710    -8.7940
 2782.0000     6.9460     5.3500     2.5190     0.0890    65.0360     7.8020    -8.7940
 2782.5000     6.6730     5.2480     2.5260     0.1050    65.2820     7.7720    -8.7940
 2783.0000     6.3910     5.1460     2.5330     0.1250    67.0320     7.7760    -8.7940
 2783.5000     6.1090     5.0440     2.5340     0.1280    76.9210     7.7790    -8.7940
 2784.0000     5.9710     4.9430     2.5380     0.1260    73.8170     7.7820    -8.7940
 2784.5000     5.9710     4.8340     2.5410     0.1230    76.4460     7.7850    -8.7940
 2785.0000     5.9710     4.8110     2.5270     0.1100  -999.2500     7.7890    -8.7940
 2785.5000     5.9710     4.7860     2.5220     0.1000  -999.2500     7.7820    -8.7940
 2786.0000     5.9220     4.7610     2.5200     0.0930  -999.2500     7.7620    -8.7940
 2786.5000     5.8700     4.7380     2.5180     0.0860  -999.2500     7.7410    -8.7940
 2787.0000     5.8180     4.6940     2.5090     0.0750  -999.2500     7.7210    -8.7940
 2787.5000     5.7660     4.6510     2.4880     0.0650  -999.2500     7.7010    -8.7940
 2788.0000     5.6690     4.6030     2.4840     0.0620  -999.2500     7.6790    -8.7940
 2788.5000     5.5600     4.5370     2.4800     0.0610  -999.2500     7.7100    -8.7940
 2789.0000     5.4520     4.4710     2.4730     0.0540  -999.2500     7.7640    -8.7940
 2789.5000     5.3430     4.4050     2.4450     0.0380  -999.2500     7.7280    -8.7940
 2790.0000     5.2350     4.3390     2.4140     0.0250  -999.2500     7.6780    -8.7940
 2790.5000     5.1260     4.2730     2.3440     0.0070  -999.2500     7.6270    -8.7940
 2791.0000     5.0180     4.2070     2.3350     0.0020  -999.2500  -999.2500    -8.7940
 2791.5000     4.9090     4.1410     2.3600     0.0330  -999.2500  -999.2500    -8.7940
 2792.0000     4.8110     4.1160     2.5330     0.0900  -999.2500  -999.2500    -8.7940
 2792.5000     4.7550     4.0960     2.5310     0.0950  -999.2500  -999.2500    -8.7940
 2793.0000     4.8600     4.0750     2.5270     0.0910  -999.2500  -999.2500    -8.7940
 2793.5000     4.9690     4.0550     2.5250     0.0880  -999.2500  -999.2500    -8.7940
 2794.0000     4.9930     4.0250     2.5220     0.0850  -999.2500  -999.2500    -8.7940
 2794.5000     5.0150     4.0340     2.5190     0.0820  -999.2500  -999.2500    -8.7940
 2795.0000     4.8820     4.0670     2.5230     0.0830  -999.2500  -999.2500    -8.7940
 2795.5000     4.7750     4.1010     2.5290     0.0870  -999.2500  -999.2500    -8.7940
 2796.0000     4.7030     4.1340     2.5340     0.1010  -999.2500  -999.2500    -8.7940
 2796.5000     4.6300     4.0360     2.5470     0.1100  -999.2500  -999.2500    -8.7940
 2797.0000     4.6160     3.9380     2.5480     0.1060  -999.2500  -999.2500    -8.7940
 2797.5000     4.5800     3.8390     2.5480     0.1010  -999.2500  -999.2500    -8.7940
 2798.0000     4.4250     3.7410     2.5480     0.1010  -999.2500  -999.2500    -8.7940
 2798.5000     4.2550     3.6690     2.5480     0.1010  -999.2500  -999.2500    -8.7940
 2799.0000     4.2890     3.5920     2.5480     0.1010  -999.2500  -999.2500    -8.7940
 2799.5000     4.3330     3.5690     2.5480     0.1010  -999.2500  -999.2500    -8.7940
 2800.0000     4.3780     3.5710     2.5480     0.1010  -999.2500  -999.2500    -8.7940
 2800.5000     4.4090     3.5740  -999.2500  -999.2500  -999.2500  -999.2500    -8.7940
 2801.0000     4.4090     3.5760  -999.2500  -999.2500  -999.2500  -999.2500    -8.7940
 2801.5000     4.4090     3.5790  -999.2500  -999.2500  -999.2500  -999.2500    -8.7940
 2802.0000     4.4090     3.5820  -999.2500  -999.2500  -999.2500  -999.2500    -8.7950
 2802.5000     4.4090     3.5840  -999.2500  -999.2500  -999.2500  -999.2500    -8.7950
 2803.0000     4.4090     3.5870  -999.2500  -999.2500  -999.2500  -999.2500    -8.7940
 2803.5000     4.4090     3.5900  -999.2500  -999.2500  -999.2500  -999.2500    -8.7840
 2804.0000     4.4090     3.5920  -999.2500  -999.2500  -999.2500  -999.2500    -8.7450
 2804.5000     4.4090     3.5950  -999.2500  -999.2500  -999.2500  -999.2500    -8.7090
 2805.0000     4.4090     3.5980  -999.2500  -999.2500  -999.2500  -999.2500    -8.6720
