~VERSION INFORMATION
 VERS.                2.0:   CWLS LOG ASCII STANDARD - VERSION 2.0
 WRAP.                 NO:   ONE LINE PER DEPTH STEP
~WELL INFORMATION
#MNEM.UNIT      DATA TYPE    INFORMATION
#----------   ------------   ------------------------------
 STRT.F            0.5000:   START DEPTH
 STOP.F         4256.0000:   STOP DEPTH
 STEP.F            0.5000:   STEP LENGTH
 NULL.          -999.2500:   NO VALUE
 COMP. LAWRENCE-ALLISON & ASSOC:   COMPANY
 WELL. LAWRENCE "X" #64-15:   WELL
 FLD .        N.P.R. NO.3:   FIELD
 LOC .      S15 T38N R78W:   LOCATION
 CNTY.            NATRONA:   COUNTY
 STAT.            WYOMING:   STATE
 CTRY. UNITED STATES OF AMERICA:   COUNTRY
 SRVC.      DRESSER ATLAS:   SERVICE COMPANY
 DATE.        13-SEP-1984:   LOGDATE
 API .     49025111610000:   API NUMBER
~CURVE INFORMATION
#MNEM.UNIT       API CODE    CURVE DESCRIPTION
#----------   ------------   ------------------------------
 DEPT.F                  :   
 TENR.LBS    07 635 01 00:   TENSION FROM RESISTIVITY
 GRR .GAPI   07 310 01 00:   GAMMA RAY FROM RESISTIVITY
 RFOC.OHMM   07 220 04 00:   RESISTIVITY FOCUSED LOG RES.
 RILD.OHMM   07 120 46 00:   DEEP INDUCTION RESISTIVITY
 RILM.OHMM   07 120 44 00:   INDUCTION LOG MEDIUM RESISTIVITY
 SPR .MV     07 010 01 00:   SPONTANEOUS POTENTIAL
 DT  .US/F   60 520 00 00:   DELTA TIME
 TENS.LBS    60 635 01 00:   TENSION FROM SONIC
 CALD.IN     45 280 60 00:   CALIPER FROM DENSITY LOG
 TEND.LBS    45 635 01 00:   TENSION FORM DENSITY LOG
 CORR.G/C3   45 356 01 00:   DENSITY CORRECTION
 DEN .G/C3   45 350 01 00:   BULK DENSITY
 CNC .DEC    42 890 03 00:   NEUTRON POROSITY SANDSTONE
~PARAMETER INFORMATION
#MNEM.UNIT          VALUE    DESCRIPTION
#----------   ------------   ------------------------------
 EKB .F         5294.0000:   Kelly bushing
 EGL .F         5282.0000:   Ground level
 TD  .F         4256.0000:   Total depth
 CLNT.            A2DTECH:   Client Code
 SL  . 2299' FNL & 1785' FEL:   Surface Location
 PD  .                 GL:   Permanent Datum
 EPD .F              5282:   Elevation Permanent Datum
 LMF .                 KB:   Log Measured From
 DMF .                 KB:   Drilling Measured From
 DAPD.F                12:   Feet Above Permanent Datum
 DATE.        13-SEP-1984:   Date Logged [DD-MMM-YYYY]
 DD  .F              4256:   Depth driller
 DL  .F              4248:   Depth logger
 BLI .F              4246:   Bottom log interval
 TLI .F                 0:   Top log interval
 CS1 .IN            8.625:   Casing size
 CBD1.      8.625" @ 817':   Casing driller 1
 CBL1.F               814:   Casing logger 1
 BS1 .IN            7.875:   Bit size
 BSD1.F              4256:   Depth drilled with bit1
 DFT .            KCL-GEL:   Type fluid in hole
 DFD .                  9:   Density
 DFV .                 40:   Viscosity
 DFPH.                8.6:   pH
 DFL .               11.8:   Fluid loss
 MSS .            MUDTANK:   Source of sample
 RMS .OHMM           0.38:   Rm
 MST .F                74:   Rm Meas. temp.
 RMF .OHMM           0.31:   Rmf
 MFST.F                72:   Rmf Meas. temp.
 MFSS.               MEAS:   Source Rmf.
 RMC .OHMM           0.48:   Rmc
 MCST.F                74:   Rmc Meas. temp.
 MCSS.               CALC:   Source Rmc.
 RMB .OHMM           0.22:   Rm. at BHT
 BHT .F               134:   BHT.
 TCS .HRS               4:   Time Circ. stopped
 MRT .F               134:   Maximum recorded temp.
 LUN .            HL-6274:   Logging unit number
 LUL .           GILLETTE:   Logging unit location
 ENGI.             RAUTIO:   Recorded By
 WITN.            JOHNSON:   Witnessed by
 ORIG.        2" 5" PRINT:   Origin of data
 UWI .     49025111610000:   Unique Well ID
 DICO. A2D TECHNOLOGIES, INC.:   Digitizing Company
~OTHER INFORMATION
~A    DEPT    TENR         GRR      RFOC       RILD       RILM        SPR         DT       TENS       CALD       TEND       CORR        DEN        CNC   
# ...
 4212.5000   245.0000    78.7218     5.2274     4.4687     4.4763   -37.4123    79.2627   319.9781     8.2110   213.1474     0.0779     2.6317     0.2302
 4213.0000   235.0000    82.1967     4.5848     4.4087     4.3545   -37.1129    81.8865   318.3717     8.2071   213.1474     0.0900     2.5940     0.2314
 4213.5000   205.0000    87.1888     4.3397     4.2892     4.2361   -37.1041    83.1600   316.7652     8.0980   213.1474     0.0990     2.5865     0.2388
 4214.0000   205.0000    91.4198     4.3119     4.1737     4.1208   -37.2481    83.5332   315.1587     8.0344   213.1474     0.0900     2.6001     0.2591
 4214.5000   225.0000    95.6508     4.1098     4.0330     4.0929   -37.2371    83.6069   313.5522     8.0290   213.1474     0.0359     2.6107     0.2654
 4215.0000   245.0000    94.7690     3.9972     3.8969     4.0092   -37.3811    83.4546   314.7410     8.0299   213.1474     0.0178     2.6153     0.2657
 4215.5000   245.0000    92.3834     4.3046     3.9007     3.9821   -37.3702    83.4527   318.7251     8.0314   213.1474     0.0179     2.6108     0.2663
 4216.0000   245.0000    92.1023     4.5676     4.0422     4.1232   -37.3614    83.8361   322.7092     8.0328   213.1474     0.0194     2.6017     0.2672
 4216.5000   245.0014    93.3265     4.4032     4.2102     4.3891   -37.2018    84.5239   326.6932     8.0343   213.1474     0.0209     2.5980     0.2728
 4217.0000   245.8741    92.9654     4.3251     4.3301     4.6079   -37.1910    85.0226   330.6773     8.0358   213.1474     0.0240     2.5942     0.2756
 4217.5000   247.4360    92.1678     4.2388     4.4843     4.8376   -37.1822    84.8703   332.6693     8.0372   213.1474     0.0270     2.5928     0.2699
 4218.0000   248.9937    91.2860     4.3300     4.7088     5.0089   -37.0228    83.7432   347.6096     8.0387   213.1474     0.0406     2.5913     0.2521
 4218.5000   250.5500    91.6072     4.7079     4.8764     5.1504   -37.0140    80.4405   352.5896     8.0401   213.1474     0.0559     2.5928     0.2332
 4219.0000   252.1062    91.9284     5.1188     5.0852     5.2958   -36.7040    77.6630   352.5896     8.0416   213.1474     0.0437     2.6200     0.2205
 4219.5000   253.6625    91.0284     5.5655     5.2663     5.4454   -35.9422    75.7857   357.5697     8.0431   213.1474     0.0332     2.6246     0.2061
 4220.0000   255.2188    82.7481     5.9267     5.4161     5.6046   -35.1804    74.5086   362.5498     8.0445   213.1474     0.0302     2.6276     0.1995
 4220.5000   256.7750    81.7641     6.2285     5.6090     5.7977   -35.0181    73.6815   362.5498     8.0460   216.2200     0.0242     2.6307     0.1916
 4221.0000   258.3312    87.2032     6.4474     5.8143     5.9614   -35.0121    73.2296   372.5099     8.0475   219.2295     0.0182     2.6338     0.1856
 4221.5000   259.8875    88.4267     6.5414     6.0222     6.0875   -34.8507    73.4617   377.4901     8.0491   222.2445     0.0182     2.6368     0.1832
 4222.0000   261.4438    80.3268     6.5447     6.1873     6.2162   -34.6913    74.2007   382.4701     8.0490   225.2575     0.0333     2.6398     0.1878
 4222.5000   263.0000    73.4299     6.5480     6.2324     6.3038   -34.3813    74.7240   392.4303     8.0237   228.2687     0.0484     2.6421     0.1910
 4223.0000   264.5562    72.8481     6.6428     6.3655     6.4371   -34.2219    74.1220   392.4303     7.9983   231.2809     0.0605     2.6437     0.1916
 4223.5000   266.1125    72.8693     6.8805     6.5015     6.5733   -33.7613    72.9949   387.4502     7.9731   233.0677     0.0575     2.6444     0.1871
 4224.0000   267.6688    70.1257     7.1267     6.6865     6.8060   -33.6019    72.3179   387.9029     7.9480   233.0677     0.0485     2.6436     0.1727
 4224.5000   269.2250    68.6997     7.2298     6.9246     7.1516   -32.9907    71.4909   393.9394     7.9294   233.0677     0.0425     2.6339     0.1646
 4225.0000   270.7812    69.3267     7.5406     7.2210     7.5625   -32.2289    70.5138   399.9759     7.9293   233.0677     0.0395     2.6264     0.1555
 4225.5000   272.3375    68.4449     7.9204     7.6884     8.1533   -31.4499    70.1369   406.0096     7.9412   233.0677     0.0365     2.6234     0.1507
 4226.0000   273.8937    67.2572     8.5692     8.2429     9.2378   -30.8537    68.4096   412.0404     8.0052   237.1335     0.0366     2.6219     0.1447
 4226.5000   275.0000    67.2828     9.5600     9.1582    11.0632   -30.2425    66.8834   418.0651     7.9918   242.2311     0.0366     2.6197     0.1351
 4227.0000   295.0000    69.1077    10.6127    11.5702    12.4482   -29.6313    65.9658   426.6834     7.9545   247.3286     0.0366     2.6167     0.1299
 4227.5000   295.0000    70.9327    11.7813    13.1285    13.7184   -28.8695    64.6527   441.3550     7.9303   252.4262     0.0276     2.6077     0.1254
 4228.0000   295.0000    71.2541    13.2611    14.7750    15.2233   -28.2583    63.9757   456.0793     7.8874   257.5237     0.0036     2.5957     0.1165
 4228.5000   294.9705    71.9286    14.8237    16.0617    17.3681   -27.7977    63.2987   470.6468     7.8866   262.6213    -0.0190     2.5874     0.1062
 4229.0000   297.3998    72.8036    18.6423    16.8658    18.8768   -27.4877    62.9968   462.1514     7.8835   267.7189    -0.0235     2.5904     0.1008
 4229.5000   300.1263    73.1197    24.4401    17.4664    19.1429   -27.1747    62.8449   462.1514     7.8801   272.9084    -0.0024     2.5965     0.0959
 4230.0000   302.8706    71.9422    26.0262    17.8394    16.9007   -26.8470    62.9181   472.1115     7.8767   272.9084     0.0187     2.5905     0.0947
 4230.5000   305.6129    71.0604    20.1498    17.0004    15.0244   -26.4050    63.8165   486.0558     7.8734   272.9087     0.0218     2.5452     0.1000
 4231.0000   308.3541    70.7750    14.9487    15.7579    13.7318   -26.2456    65.9152   492.0319     7.8701   272.8966     0.0248     2.5287     0.1107
 4231.5000   311.0954    70.4993    11.5859    14.8101    12.6377   -25.9356    68.3498   482.0717     7.8700   272.8318     0.0369     2.5204     0.1260
 4232.0000   313.8367    70.5202    10.9680    13.4365    11.6308   -25.7762    70.2829   482.0717     7.8700   278.6086     0.0490     2.5227     0.1381
 4232.5000   316.5780    70.2399    10.4539    12.3576    11.0050   -25.3156    70.7855   482.0717     7.8700   293.9013     0.0400     2.5272     0.1411
 4233.0000   319.3193    70.2655    10.3139    11.5527    10.6317   -25.1562    71.0091   482.0717     7.8700   309.1940     0.0310     2.5190     0.1438
 4233.5000   322.0605    70.2859    10.3923    11.0094    10.4867   -24.9968    70.7818   492.0319     7.8700   324.4867     0.0250     2.5107     0.1465
 4234.0000   324.8018    70.3063    10.5427    10.7120    10.3438   -24.9880    70.2548   492.0319     7.8700   339.7794     0.0340     2.5002     0.1453
 4234.5000   327.5431    70.3268    10.6952    10.4952    10.2737   -24.9559    70.7781   506.9721     7.8700   352.5896     0.0491     2.4927     0.1429
 4235.0000   330.2844    70.3472    10.7751    10.2818    10.3469   -24.6671    71.7516   526.8925     7.8700   352.5896     0.0612     2.4897     0.1420
 4235.5000   333.0257    70.3677    10.6322    10.1437    10.6392   -24.5077    72.7250   541.8326     7.8700   352.5896     0.0672     2.4881     0.1411
 4236.0000   335.7670    70.3881    10.4911    10.0771    10.6406   -24.4989    73.7734   560.0930     7.8700   353.8163     0.0582     2.4822     0.1398
 4236.5000   338.5083    70.4090    10.4240  -999.2500    10.5686   -24.3395    74.4467   571.9503     7.8700   361.6639     0.0397     2.4686     0.1360
 4237.0000   341.2495    70.4341    10.4294  -999.2500    10.3525   -24.0295    74.9769   583.8076     7.8700   369.5114     0.0252     2.4566     0.1327
 4237.5000   343.9908    70.4545    10.4359  -999.2500    10.2114   -24.0207    74.5927   595.6650     7.8700   377.3590     0.0147     2.4543     0.1275
 4238.0000   346.7321    70.4750    10.5138  -999.2500    10.4273   -24.0119    73.8406   563.3060     7.8700   382.4701     0.0177     2.4551     0.1244
