~VERSION INFORMATION
 VERS.                2.0:   CWLS LOG ASCII STANDARD - VERSION 2.0
 WRAP.                 NO:   ONE LINE PER DEPTH STEP
~WELL INFORMATION
#MNEM.UNIT      DATA TYPE    INFORMATION
#----------   ------------   ------------------------------
 STRT.F           20.0000:   START DEPTH
 STOP.F         4128.0000:   STOP DEPTH
 STEP.F            0.5000:   STEP LENGTH
 NULL.          -999.2500:   NO VALUE
 COMP. LAWRENCE-ALLISON & ASSOCIATES:   COMPANY
 WELL. LAWRENCE "X" #53-3:   WELL
 FLD .             NPR #3:   FIELD
 LOC .       S3 T38N R78W:   LOCATION
 CNTY.            NATRONA:   COUNTY
 STAT.            WYOMING:   STATE
 CTRY. UNITED STATES OF AMERICA:   COUNTRY
 SRVC.      DRESSER ATLAS:   SERVICE COMPANY
 DATE.        18-SEP-1983:   LOGDATE
 API .     49025109370000:   API NUMBER
~CURVE INFORMATION
#MNEM.UNIT       API CODE    CURVE DESCRIPTION
#----------   ------------   ------------------------------
 DEPT.F                  :   
 NPHI.DEC    42 890 03 00:   NEUTRON POROSITY SANDSTONE
 TEND.LBS    45 635 01 00:   TENSION FORM DENSITY LOG
 CORR.G/C3   45 356 01 00:   DENSITY CORRECTION
 RHOB.G/C3   45 350 01 00:   BULK DENSITY
 CALD.IN     45 280 60 00:   CALIPER FROM DENSITY LOG
 GRR .GAPI   07 310 01 00:   GAMMA RAY FROM RESISTIVITY
 TENR.LBS    06 635 01 00:   TENSION FROM RESISTIVITY
 SPR .MV     07 010 01 00:   SPONTANEOUS POTENTIAL
 RILD.OHMM   07 120 46 00:   DEEP INDUCTION RESISTIVITY
 RILM.OHMM   07 120 44 00:   INDUCTION LOG MEDIUM RESISTIVITY
 RSFL.OHMM   07 220 01 00:   SPHERICALLY FOCUSED RESISTIVITY
 TENS.LBS    60 635 01 00:   TENSION FROM SONIC
 DT  .US/F   60 520 00 00:   DELTA TIME
~PARAMETER INFORMATION
#MNEM.UNIT          VALUE    DESCRIPTION
#----------   ------------   ------------------------------
 EKB .F         5214.0000:   Kelly bushing
 EGL .F         5204.0000:   Ground level
 EDF .F            0.0000:   Drilling floor
 TD  .F         4117.0000:   Total depth
 CLNT.            A2DTECH:   Client Code
 PD  .                 GL:   Permanent Datum
 EPD .F              5204:   Elevation Permanent Datum
 LMF .                 KB:   Log Measured From
 DMF .                 KB:   Drilling Measured From
 DAPD.F                10:   Feet Above Permanent Datum
 DATE.        18-SEP-1983:   Date Logged [DD-MMM-YYYY]
 DD  .F              4117:   Depth driller
 DL  .F              4113:   Depth logger
 BLI .F              4110:   Bottom log interval
 TLI .F                 0:   Top log interval
 CS1 .IN            9.625:   Casing size
 CBD1.      9.625" @ 523':   Casing driller 1
 CBL1.F               523:   Casing logger 1
 BS1 .IN            7.875:   Bit size
 BSD1.F              4117:   Depth drilled with bit1
 DFT .            GEL KCL:   Type fluid in hole
 DFD .                9.0:   Density
 DFV .                 42:   Viscosity
 DFPH.                8.5:   pH
 DFL .                 10:   Fluid loss
 MSS .               TANK:   Source of sample
 RMS .OHMM           0.35:   Rm
 MST .F                68:   Rm Meas. temp.
 RMF .OHMM          0.266:   Rmf
 MFST.F                68:   Rmf Meas. temp.
 MFSS.               MEAS:   Source Rmf.
 RMC .OHMM          0.443:   Rmc
 MCST.F                68:   Rmc Meas. temp.
 MCSS.               CALC:   Source Rmc.
 RMB .OHMM          0.185:   Rm. at BHT
 BHT .F               130:   BHT.
 TCS .HRS               4:   Time Circ. stopped
 MRT .F               130:   Maximum recorded temp.
 LUN .               6270:   Logging unit number
 LUL .              WLSTN:   Logging unit location
 ENGI.             REEVES:   Recorded By
 WITN.             STRONG:   Witnessed by
 ORIG.           5" PRINT:   Origin of data
 UWI .     49025109370000:   Unique Well ID
 DICO. A2D TECHNOLOGIES, INC.:   Digitizing Company
~OTHER INFORMATION
~A   DEPT     NPHI       TEND       CORR       RHOB       CALD         GRR      TENR        SPR       RILD       RILM       RSFL       TENS         DT   
# ...
 3842.0000     0.2837   -64.6324     0.0766     2.5348     8.3042   160.4863   -47.5855   -76.1579     2.1183     2.5985     4.0018   -19.6970    92.7305
 3842.5000     0.2867   -64.6682     0.0662     2.5258     8.3033   160.8618   -47.8651   -75.8538     2.0185     2.4935     3.6979   -19.9000    92.6573
 3843.0000     0.2979   -64.7109     0.0587     2.5266     8.3023   164.1337   -48.1446   -75.5493     1.9100     2.4092     3.4665   -20.0758    93.4936
 3843.5000     0.3104   -64.7457     0.0543     2.5326     8.3013   171.1246   -48.4242   -74.9494     1.8062     2.2794     3.3445   -20.2652    94.8264
 3844.0000     0.3165   -64.7813     0.0513     2.5356     8.3003   180.2681   -48.7038   -74.4879     1.7105     2.1270     3.1988   -20.4546    96.1520
 3844.5000     0.3153   -64.8242     0.0499     2.5258     8.2994   178.4194   -48.9834   -74.0441     1.6642     1.9985     2.9818   -20.6752    97.8222
 3845.0000     0.3159   -64.8567     0.0484     2.5146     8.2984   173.8602   -49.2630   -73.7400     1.6195     1.9175     2.7552   -20.8333   100.6295
 3845.5000     0.3162   -64.8944     0.0409     2.5045     8.2974   170.8207   -49.5426   -73.5831     1.5983     1.9185     2.6014   -17.2066   101.8447
 3846.0000     0.3015   -61.1580     0.0350     2.4981     8.2965   169.6049   -49.8222   -73.7208     1.6104     1.9604     2.6782   -17.4346   102.2260
 3846.5000     0.2946   -64.9752     0.0305     2.4996     8.2955   172.3404   -50.1018   -74.1507     1.6454     2.0029     2.8376   -17.6322   101.2426
 3847.0000     0.2966   -61.2306     0.0321     2.5034     8.2945   174.1641   -50.3814   -74.4356     1.6932     2.0464     3.0501   -17.8030   100.0759
 3847.5000     0.3049   -57.5035     0.0397     2.5086     8.2936   174.1641   -50.6610   -75.0127     1.7180     2.0911     3.1176   -17.9924    98.8215
 3848.0000     0.3258   -53.7763     0.0443     2.5109     8.2926   171.1246   -50.9406   -75.3001     1.7190     2.1365     3.1634   -18.2098    98.5204
 3848.5000     0.3382   -53.8112     0.0428     2.5101     8.2916   168.3891   -51.2202   -75.4378     1.7201     2.1526     3.2565   -22.1801    98.4462
 3849.0000     0.3318   -53.8462     0.0444     2.5086     8.2907   165.5102   -51.4998   -75.4256     1.7213     2.1537     3.2808   -22.3485    98.4490
 3849.5000     0.3161   -57.6604     0.0475     2.5109     8.2882   162.0061   -51.7794   -75.4138     1.7223     2.0954     3.3051   -22.5379    98.6786
 3850.0000     0.3009   -61.4660     0.0551     2.5131     8.2797   160.7903   -52.0590   -75.2569     1.7233     2.0388     3.2330   -22.7273    99.2873
 3850.5000     0.2957   -60.0836     0.0657     2.5177     8.2714   161.3951   -52.2461   -74.8115     1.7409     2.0401     3.0531   -22.9167   100.3296
 3851.0000     0.3027   -58.0731     0.0824     2.5267     8.2632   163.2160   -52.2461   -74.3709     1.7603     2.1140     2.8814   -23.1377   101.4909
 3851.5000     0.3090   -56.0626     0.0915     2.5560     8.2549   159.5650   -51.9952   -74.0749     1.7853     2.2366     2.6802   -23.3201   101.7964
 3852.0000     0.3192   -54.0521     0.0596     2.6213     8.2466   148.9239   -51.7423   -74.0735     1.8360     2.3499     2.9214   -23.5025    99.8274
 3852.5000     0.2919   -52.0416     0.0027     2.7130     8.2384   131.9796   -51.4895   -74.2194     1.8883     2.4541     3.4469   -23.6849    93.3095
 3853.0000     0.2859   -51.0538    -0.0169     2.7258     8.2301   112.4433   -51.2367   -74.2177     1.9420     2.5405     4.0963   -23.8636    90.1274
 3853.5000     0.2822   -51.2274     0.0092     2.6822     8.2218   123.0788   -50.9838   -74.3640     2.0112     2.5776     4.3694   -20.2618    88.7650
 3854.0000     0.2840   -55.1370     0.0572     2.6292     8.2134   139.7932   -50.7310   -74.6571     2.0829     2.6155     3.5702   -20.4546    88.5397
 3854.5000     0.2946   -59.0498     0.0678     2.5741     8.2117   154.6833   -50.4781   -75.1070     2.1572     2.6724     3.3211   -24.4600    93.2430
 3855.0000     0.3003   -59.2203     0.0570     2.5560     8.2117   160.7595   -50.2253   -75.5377     2.2497     2.7114     3.5206   -24.6425    95.1406
 3855.5000     0.3093   -59.3592     0.0423     2.5470     8.2117   158.3250   -49.9724   -75.8308     2.3626     2.7620     3.7515   -24.8249    94.5362
 3856.0000     0.3162   -59.5023     0.0364     2.5425     8.2117   155.8906   -49.7196   -75.8291     2.6792     2.8861     3.8052   -25.0073    93.6287
 3856.5000     0.2894   -59.6717     0.0303     2.5478     8.2117   155.2791   -49.4668   -75.8277     3.1242     3.2905     3.5909   -25.1897    92.4178
 3857.0000     0.2561   -59.8039     0.0274     2.5591     8.2117   152.8447   -49.2139   -75.5315     3.5925     3.6550     3.8857   -25.3787    91.1293
 3857.5000     0.2191   -56.1788     0.0381     2.5699     8.2117   144.0273   -48.9611   -75.3828     4.2275     4.2040     4.7870   -25.5659    89.9167
 3858.0000     0.1909   -56.3525     0.0489     2.5749     8.2112   116.6688   -48.7082   -75.2341     5.3862     5.4076     7.7543   -25.7241    84.9193
 3858.5000     0.1697   -60.2621     0.0428     2.5666     8.2102   101.1637   -48.4554   -74.9379     7.1212     6.9554    16.2793   -25.8823    76.0511
 3859.0000     0.1674   -60.4357     0.0368     2.5621     8.2092    99.9458   -48.2025   -74.9365     9.0922     8.6391    20.7898   -26.0405    72.3384
 3859.5000     0.1710   -53.0332     0.0388     2.5689     8.2083   105.4134   -47.9497   -74.9351    11.3516    10.8367    18.9263   -26.1986    70.9001
 3860.0000     0.1761   -45.6306     0.0505     2.5802     8.2073   109.0579   -47.6969   -75.0810    13.7273    13.6110    14.7048   -26.3568    70.6646
 3860.5000     0.1700   -41.9987     0.0612     2.5814     8.2064   107.2307   -47.4440   -75.3742    16.0069    15.6557    14.1808   -26.5150    71.2077
 3861.0000     0.1559   -38.3669     0.0567     2.5694     8.2054   100.8449   -47.3633   -75.3724    17.0466    16.9103    17.3439   -26.6732    70.8835
 3861.5000     0.1412   -38.5405     0.0643     2.5544     8.2045    83.9097   -47.3633   -75.5187    17.2890    17.5170    23.9773   -26.8313    70.2271
 3862.0000     0.1265   -42.4849     0.0735     2.5574     8.2035    65.8841   -47.3633   -75.6642    16.9330    16.8025    36.4018   -26.9895    69.5469
 3862.5000     0.1208   -42.6238     0.0660     2.5687     8.2025    62.8424   -47.0428   -75.5152    16.1280    15.8935    42.0311   -27.1477    68.7152
 3863.0000     0.1226   -46.5334     0.0570     2.5838     8.2016    71.3495   -46.7236   -75.5139    14.9319    15.0268    30.6042   -27.3059    68.4136
 3863.5000     0.1391   -50.4779     0.0646     2.5929     8.2006    91.4067   -46.4044   -75.5125    13.2696    13.5428    17.0716   -27.4640    69.4715
 3864.0000     0.1602   -50.6168     0.0979     2.5914     8.1997   108.4252   -46.0852   -75.6584    12.2909    12.1989    13.7502   -27.5793    71.1387
 3864.5000     0.1857   -50.7557     0.0995     2.5839     8.1987   116.3251   -45.7660   -75.6566    11.4640    11.2997    12.1614   -27.6186    72.7301
 3865.0000     0.1953   -50.9293     0.0739     2.5779     8.1978   121.5097   -45.4468   -75.3607    10.4495    10.3223    12.4237   -27.6515    74.4731
 3865.5000     0.1986   -47.2975     0.0423     2.5749     8.1968   122.0945   -45.1276   -75.2121     9.6318     9.8323    13.3480   -27.6911    74.4722
 3866.0000     0.1992   -47.4364     0.0273     2.5757     8.1958   120.5712   -44.8083   -75.0631     9.1738     9.4973    14.0345   -27.7334    74.4715
 3866.5000     0.1956   -47.6100     0.0379     2.5788     8.1949   119.3525   -44.4891   -75.0617     8.7988     9.3028    13.0547   -27.7697    74.5467
 3867.0000     0.1932   -43.9434     0.0591     2.5833     8.1939   117.2213   -44.1699   -75.2079     8.1501     9.0495    12.3204   -27.8030    74.7735
 3867.5000     0.1941   -40.2829     0.0698     2.5863     8.1930   115.6987   -43.8507   -75.3535     7.3926     8.3241    12.0538   -27.8409    74.9242
