~VERSION INFORMATION
 VERS.                2.0:   CWLS LOG ASCII STANDARD - VERSION 2.0
 WRAP.                 NO:   ONE LINE PER DEPTH STEP
~WELL INFORMATION
#MNEM.UNIT      DATA TYPE    INFORMATION
#----------   ------------   ------------------------------
 STRT.F           53.0000:   START DEPTH
 STOP.F         3110.0000:   STOP DEPTH
 STEP.F            0.5000:   STEP LENGTH
 NULL.          -999.2500:   NO VALUE
 COMP. LAWRENCE ALLISON & ASSOCIATES W:   COMPANY
 WELL. LAWRENCE NPR 3 "AX" #31-34:   WELL
 FLD .      NPR - WILDCAT:   FIELD
 LOC .      S34 T39N R78W:   LOCATION
 CNTY.            NATRONA:   COUNTY
 STAT.            WYOMING:   STATE
 CTRY. UNITED STATES OF AMERICA:   COUNTRY
 SRVC.      DRESSER ATLAS:   SERVICE COMPANY
 DATE.        11-JUL-1986:   LOGDATE
 API .     49025111020000:   API NUMBER
~CURVE INFORMATION
#MNEM.UNIT       API CODE    CURVE DESCRIPTION
#----------   ------------   ------------------------------
 DEPT.F                  :   
 DEN .G/C3   45 350 01 00:   BULK DENSITY
 TEND.LBS    45 635 01 00:   TENSION FROM DENSITY LOG
 CORR.G/C3   45 356 01 00:   DENSITY CORRECTION
 NPHI.DEC    42 890 03 00:   NEUTRON POROSITY SANDSTONE
 SPR .MV     07 010 01 00:   SPONTANEOUS POTENTIAL
 RILM.OHMM   07 120 44 00:   INDUCTION LOG MEDIUM RESISTIVITY
 RILD.OHMM   07 120 46 00:   DEEP INDUCTION RESISTIVITY
 RFOC.OHMM   07 220 04 00:   RESISTIVITY FOCUSED LOG RES.
 TENR.LBS    07 635 01 00:   TENSION FROM RESISTIVITY
 GRR .GAPI   07 310 01 00:   GAMMA RAY FROM RESISTIVITY
 CALR.IN     07 280 01 00:   CALIPER FROM RESISTIVITY
~PARAMETER INFORMATION
#MNEM.UNIT          VALUE    DESCRIPTION
#----------   ------------   ------------------------------
 EKB .F          5074.800:   Kelly bushing
 EGL .F          5063.000:   Ground level
 EDF .F            0.0000:   Drilling floor
 EPD .F            0.0000:   Permanent datum
 TD  .F         3108.0000:   Total depth
 DATE.        11-JUL-1986:   Date logged
 CLNT.            A2DTECH:   Client Code
 SL  . 1796' FWL & 318' FNL:   Surface Location
 PD  .                 GL:   Permanent Datum
 DAPD.F                11:   Feet Above Permanent Datum
 DD  .F              3103:   Depth driller
 DL  .F              3108:   Depth logger
 BLI .F              3106:   Bottom log interval
 CS1 .IN            8.625:   Casing size
 CBD1.      8.625" @ 602':   Casing driller 1
 CBL1.F               596:   Casing logger 1
 BS1 .IN            7.875:   Bit size
 BSD1.F              3103:   Depth drilled with bit1
 DFT .            KCL/GEL:   Type fluid in hole
 DFD .                  9:   Density
 DFV .                 42:   Viscosity
 MSS .           MUD/TANK:   Source of sample
 RMS .OHMM           .352:   Rm
 MST .F                82:   Rm Meas. temp.
 RMF .OHMM           .264:   Rmf
 MFST.F                82:   Rmf Meas. temp.
 RMC .OHMM            .44:   Rmc
 MCST.F                82:   Rmc Meas. temp.
 MFSS.               CALC:   Source Rmf.
 MCSS.               CALC:   Source Rmc.
 RMB .OHMM            .23:   Rm. at BHT
 BHT .F               115:   BHT.
 TCS .HRS               3:   Time Circ. stopped
 MRT .F               115:   Maximum recorded temp.
 LUN .            HL-6264:   Logging unit number
 LUL .           GILLETTE:   Logging unit location
 ENGI.     P. M. FASHSING:   Recorded By
 WITN.             STRONG:   Witnessed by
 ORIG.           5" PRINT:   Origin of data
 UWI .     49025111020000:   Unique Well ID
 DICO. A2D TECHNOLOGIES, INC.:   Digitizing Company
~OTHER INFORMATION
~A   DEPT      DEN       TEND       CORR       NPHI        SPR       RILM       RILD       RFOC       TENR         GRR      CALR   
# ...
  602.0000  -999.2500  -999.2500  -999.2500  -999.2500   -79.5640     8.2100     7.2540     6.5610   -93.2460    84.6110    11.8260
  602.5000  -999.2500  -999.2500  -999.2500  -999.2500   -81.3450     8.2540     8.1840     6.5850   -92.7490    88.0680    11.9250
  603.0000  -999.2500  -999.2500  -999.2500  -999.2500   -81.4840     8.0030     9.4780     6.6100   -92.2530    87.2810    11.9350
  603.5000  -999.2500  -999.2500  -999.2500  -999.2500   -81.5200     7.7380     9.3550     6.7220   -91.7560    86.0120    11.9390
  604.0000  -999.2500  -999.2500  -999.2500  -999.2500   -81.5650     8.1930     9.1950     6.8150   -91.2600    86.0320    11.9430
  604.5000  -999.2500  -999.2500  -999.2500  -999.2500   -81.6140     9.1350     9.0510     6.8480   -90.7630    87.2930    11.9480
  605.0000  -999.2500  -999.2500  -999.2500  -999.2500   -81.8970     8.9560     9.3210     6.9130   -90.2670    91.9740    11.9340
  605.5000  -999.2500  -999.2500  -999.2500  -999.2500   -82.4320     8.7050     9.4780     7.0540   -89.7700    97.0370    11.6920
  606.0000  -999.2500  -999.2500  -999.2500  -999.2500   -83.1640     8.4540     8.6340     7.4100   -89.2740   100.2910    11.0800
  606.5000  -999.2500  -999.2500  -999.2500  -999.2500   -84.0250     8.2020     8.1780     7.8090   -88.7770    95.9040    11.0350
  607.0000  -999.2500  -999.2500  -999.2500  -999.2500   -84.9320     7.9510     8.6190     7.7990   -88.2800    92.1410    11.0890
  607.5000  -999.2500  -999.2500  -999.2500  -999.2500   -85.8430     7.7380     8.9700     7.7840   -87.7840    90.6110    11.1450
  608.0000  -999.2500  -999.2500  -999.2500  -999.2500   -86.7420     7.7790     9.3200     7.7690   -87.2870    91.3490    11.1930
  608.5000  -999.2500  -999.2500  -999.2500  -999.2500   -87.5350     7.8150     9.6540     7.7540   -86.7910    92.6380    11.2600
  609.0000  -999.2500  -999.2500  -999.2500  -999.2500   -89.2350     7.8510     9.4850     7.7390   -86.2940    93.7680    11.3320
  609.5000  -999.2500  -999.2500  -999.2500  -999.2500   -90.9560     7.9100     9.3230     7.9260   -85.7980    92.9910    11.3520
  610.0000  -999.2500  -999.2500  -999.2500  -999.2500   -92.5710     8.1220     9.1610     8.0920   -85.3010    89.8450    11.3540
  610.5000  -999.2500  -999.2500  -999.2500  -999.2500   -95.4100     8.3300     8.9990     8.2540   -84.8050    86.7190    11.3570
  611.0000  -999.2500  -999.2500  -999.2500  -999.2500   -95.6450     8.2930     8.8370     8.1800   -84.3080    87.4470    11.3590
  611.5000  -999.2500  -999.2500  -999.2500  -999.2500   -95.7740     8.2480     8.7230     8.1030   -83.8120    92.7180    11.3620
  612.0000  -999.2500  -999.2500  -999.2500  -999.2500   -95.9140     8.2040     8.8370     8.1280   -83.3150    97.5930    11.3640
  612.5000  -999.2500  -999.2500  -999.2500  -999.2500   -96.0600     8.1590     8.9390     8.1740   -82.8190    97.8670    11.3670
  613.0000  -999.2500  -999.2500  -999.2500  -999.2500   -96.0690     8.1150     9.0420     8.2210   -82.3220    92.8410    11.3690
  613.5000  -999.2500  -999.2500  -999.2500  -999.2500   -96.0430     8.0700     9.1440     8.2680   -81.8260    89.5430    11.3770
  614.0000  -999.2500  -999.2500  -999.2500  -999.2500   -96.0170     8.0260     9.2470     8.3150   -81.3290    88.7310    11.3880
  614.5000  -999.2500  -999.2500  -999.2500  -999.2500   -95.9920     7.9810     9.3910     8.3610   -80.8330    87.8940    11.3980
  615.0000  -999.2500  -999.2500  -999.2500  -999.2500   -95.9660     7.9370     9.3730     8.4070   -80.3360    86.8400    11.4090
  615.5000  -999.2500  -999.2500  -999.2500  -999.2500   -95.9410     7.8920     9.3440     8.5580   -79.8400    85.4430    11.4200
  616.0000  -999.2500  -999.2500  -999.2500  -999.2500   -95.9150     7.8480     9.3140     8.7060   -79.3430    84.0970    11.4300
  616.5000  -999.2500  -999.2500  -999.2500  -999.2500   -95.8820     7.7740     9.2840     8.8040   -71.0490    83.5240    11.4410
  617.0000  -999.2500  -999.2500  -999.2500  -999.2500   -96.1500     7.5330     9.2550     8.5300   -59.6850    83.1840    11.4520
  617.5000  -999.2500  -999.2500  -999.2500  -999.2500   -96.4990     7.2540     9.2250     8.3260   -76.6020    83.4200    11.4620
  618.0000  -999.2500  -999.2500  -999.2500  -999.2500   -96.8450     7.3240     9.1960     8.1210   -72.0520    85.3250    11.4700
  618.5000  -999.2500  -999.2500  -999.2500  -999.2500   -97.0100     7.4070     9.1660     7.9160   -61.1350    87.6780    11.4670
  619.0000  -999.2500  -999.2500  -999.2500  -999.2500   -97.1460     7.4900     9.1370     7.6670   -49.9250    88.2660    11.4640
  619.5000  -999.2500  -999.2500  -999.2500  -999.2500   -97.2820     7.5730     9.1070     7.9540   -54.9020    88.3660    11.4610
  620.0000  -999.2500  -999.2500  -999.2500  -999.2500   -97.4190     7.6560     9.0770     8.3220   -61.2710    88.4520    11.4580
  620.5000  -999.2500  -999.2500  -999.2500  -999.2500   -97.5300     7.6880     9.0510     8.7230   -67.6390    88.5370    11.4560
  621.0000  -999.2500  -999.2500  -999.2500  -999.2500   -97.6990     7.7130     9.3360     8.6600   -79.0340    88.3250    11.4530
  621.5000  -999.2500  -999.2500  -999.2500  -999.2500   -97.8640     7.7380     9.6510     8.5710   -78.5250    87.1540    11.4510
  622.0000  -999.2500  -999.2500  -999.2500  -999.2500   -97.8390     8.0530     9.9250     8.4850   -78.0150    85.8200    11.4680
  622.5000  -999.2500  -999.2500  -999.2500  -999.2500   -97.7740     8.4070     9.9250     8.6940   -77.5060    86.1210    11.4640
  623.0000  -999.2500  -999.2500  -999.2500  -999.2500   -97.7080     8.3210     9.9250     9.0150   -76.9970    86.3880    11.4600
  623.5000  -999.2500  -999.2500  -999.2500  -999.2500   -97.6430     8.1960     9.9250     9.3370   -76.4870    86.4890    11.4550
  624.0000  -999.2500  -999.2500  -999.2500  -999.2500   -97.5770     8.0710     9.9250     9.6540   -75.9780    83.0420    11.4500
  624.5000  -999.2500  -999.2500  -999.2500  -999.2500   -97.5110     7.9470     9.9250     9.3580   -75.4680    80.5180    11.4670
  625.0000  -999.2500  -999.2500  -999.2500  -999.2500   -97.5040     7.8820     9.9250     9.0640   -74.9590    82.2980    11.4880
  625.5000  -999.2500  -999.2500  -999.2500  -999.2500   -97.5320     7.8820     9.9250     8.7710   -74.4490    85.8680    11.5090
  626.0000  -999.2500  -999.2500  -999.2500  -999.2500   -97.5600     7.8820     9.9250     8.6380   -73.9400    88.5210    11.5290
  626.5000  -999.2500  -999.2500  -999.2500  -999.2500   -97.5890     7.8820     9.9240     8.6230   -73.4300    89.3110    11.5340
  627.0000  -999.2500  -999.2500  -999.2500  -999.2500   -97.6190     7.8820     9.9280     8.6090   -72.9210    90.1360    11.5380
  627.5000  -999.2500  -999.2500  -999.2500  -999.2500   -97.6500     7.8450     9.7380     8.5950   -72.4110    90.9640    11.5430
  628.0000  -999.2500  -999.2500  -999.2500  -999.2500   -97.6550     7.7240     9.3630     8.5810   -71.9020    91.0000    11.5470
  628.5000  -999.2500  -999.2500  -999.2500  -999.2500   -96.5370     7.6030     9.1280     8.5660   -71.3920    90.6000    11.5510
  629.0000  -999.2500  -999.2500  -999.2500  -999.2500   -93.6670     7.4820     9.1130     8.3630   -70.8830    89.5520    11.5560
  629.5000  -999.2500  -999.2500  -999.2500  -999.2500   -92.2930     7.3620     9.0970     8.1170   -70.3740    89.1610    11.5600
  630.0000  -999.2500  -999.2500  -999.2500  -999.2500   -90.9360     7.1880     9.0810     7.8090   -69.8640    89.4870    11.5640
  630.5000  -999.2500  -999.2500  -999.2500  -999.2500   -90.9750     7.2570     9.0650     7.8370   -70.0240    89.7500    11.5680
  631.0000  -999.2500  -999.2500  -999.2500  -999.2500   -91.3640     7.3820     9.0490     7.8730   -73.3110    89.7990    11.5700
  631.5000  -999.2500  -999.2500  -999.2500  -999.2500   -92.6310     7.5070     9.0330     7.9090   -76.5970    89.7870    11.5700
  632.0000  -999.2500  -999.2500  -999.2500  -999.2500   -94.0360     7.6320     9.0180     7.9450   -79.8840    90.5500    11.5700
