~VERSION INFORMATION
 VERS.                2.0:   CWLS LOG ASCII STANDARD - VERSION 2.0
 WRAP.                 NO:   ONE LINE PER DEPTH STEP
~WELL INFORMATION
#MNEM.UNIT      DATA TYPE    INFORMATION
#----------   ------------   ------------------------------
 STRT.F          212.0000:   START DEPTH
 STOP.F         2806.0000:   STOP DEPTH
 STEP.F            0.5000:   STEP LENGTH
 NULL.          -999.2500:   NO VALUE
 COMP.    FENIX & SCISSON:   COMPANY
 WELL.    FENIX AX #12-21:   WELL
 FLD .        TEAPOT DOME:   FIELD
 LOC .      S21 T39N R78W:   LOCATION
 CNTY.            NATRONA:   COUNTY
 STAT.            WYOMING:   STATE
 CTRY. UNITED STATES OF AMERICA:   COUNTRY
 SRVC.           BIRDWELL:   SERVICE COMPANY
 DATE.        14-AUG-1973:   LOGDATE
 API .     49025106930000:   API NUMBER
~CURVE INFORMATION
#MNEM.UNIT       API CODE    CURVE DESCRIPTION
#----------   ------------   ------------------------------
 DEPT.F                  :   
 SN  .OHMM   05 040 16 00:   SHORT NORMAL 16"
 ILD .OHMM   05 120 46 00:   INDUCTION LOG DEEP RESISTIVITY
 RHOB.G/C3   45 350 01 00:   BULK DENSITY
 CORR.G/C3   45 356 01 00:   DENSITY CORRECTION
 GRD .GAPI   45 310 01 00:   GAMMA RAY FROM DENSITY LOG
 CALD.IN     45 280 60 00:   CALIPER FROM DENSITY LOG
 SPR .MV     05 010 01 00:   SPONTANEOUS POTENTIAL
~PARAMETER INFORMATION
#MNEM.UNIT          VALUE    DESCRIPTION
#----------   ------------   ------------------------------
 EKB .F         4998.0000:   Kelly bushing
 EGL .F         4988.0000:   Ground level
 EDF .F            0.0000:   Drilling floor
 EPD .F         4988.0000:   Permanent datum
 TD  .F         2809.0000:   Total depth
 DATE.        14-AUG-1973:   Date logged
 CLNT.            A2DTECH:   Client Code
 SL  . 1300' FNL & 300' FWL:   Surface Location
 PD  .                 GL:   Permanent Datum
 DD  .F              2800:   Depth driller
 DL  .F              2809:   Depth logger
 BLI .F              2803:   Bottom log interval
 TLI .F               235:   Top log interval
 CS1 .IN            8.625:   Casing size
 BS1 .IN            7.875:   Bit size
 BSD1.F              2800:   Depth drilled with bit1
 DFT .                GEL:   Type fluid in hole
 DFD .                9.7:   Density
 DFV .                 34:   Viscosity
 DFPH.                 12:   pH
 MSS .           FLOWLINE:   Source of sample
 RMS .OHMM            .15:   Rm
 MST .F                57:   Rm Meas. temp.
 RMF .OHMM            .95:   Rmf
 MFST.F                69:   Rmf Meas. temp.
 RMC .OHMM            1.5:   Rmc
 MCST.F                78:   Rmc Meas. temp.
 MFSS.               MEAS:   Source Rmf.
 RMB .OHMM            .87:   Rm. at BHT
 BHT .F               115:   BHT.
 TCS .HRS               3:   Time Circ. stopped
 MRT .F               115:   Maximum recorded temp.
 LUN .               3006:   Logging unit number
 LUL .               CASP:   Logging unit location
 ENGI.             MILLER:   Recorded By
 WITN.           MCGINLEY:   Witnessed by
 UWI .     49025106930000:   Unique Well ID
 DICO. A2D TECHNOLOGIES, INC.:   Digitizing Company
 ORIG.           5" PRINT:   Origin of data
~OTHER INFORMATION
~A   DEPT       SN        ILD       RHOB       CORR         GRD      CALD        SPR   
# ...
 1076.5000     7.6220     6.1740     2.5710     0.1600    84.0060     9.0050    -9.4980
 1077.0000     7.6590     6.1690     2.5720     0.1570    82.8160     9.0080    -9.4930
 1077.5000     7.6960     6.1630     2.5720     0.1520    83.3160     9.0110    -9.4890
 1078.0000     7.7240     6.1580     2.5680     0.1440    83.9140     9.0130    -9.4850
 1078.5000     7.6940     6.1520     2.5640     0.1370    83.9420     9.0160    -9.4800
 1079.0000     7.6700     6.1470     2.5630     0.1300    83.9270     9.0190    -9.4760
 1079.5000     7.6460     6.1410     2.5660     0.1310    83.4120     9.0220    -9.4720
 1080.0000     7.6220     6.1360     2.5670     0.1310    80.6380     9.0230    -9.4670
 1080.5000     7.5970     6.1300     2.5670     0.1310    80.1780     9.0230    -9.4630
 1081.0000     7.5730     6.1250     2.5680     0.1320    81.4380     9.0230    -9.4580
 1081.5000     7.5490     6.1200     2.5680     0.1320    83.1450     9.0230    -9.4540
 1082.0000     7.5140     6.1140     2.5670     0.1320    82.0850     9.0230    -9.4500
 1082.5000     7.5210     6.1090     2.5600     0.1250    80.7530     9.0230    -9.4450
 1083.0000     7.5340     6.1030     2.5560     0.1160    82.3920     9.0230    -9.4410
 1083.5000     7.5470     6.0980     2.5510     0.1070    82.2140     9.0230    -9.4370
 1084.0000     7.5600     6.0920     2.5500     0.1060    81.7660     9.0240    -9.4320
 1084.5000     7.5730     6.0860     2.5510     0.1140    82.9690     9.0260    -9.4280
 1085.0000     7.5850     6.0830     2.5530     0.1200    83.4830     9.0280    -9.4240
 1085.5000     7.5880     6.1130     2.5540     0.1250    83.0430     9.0310    -9.4190
 1086.0000     7.5930     6.1390     2.5610     0.1300    82.2360     9.0330    -9.4150
 1086.5000     7.5970     6.1650     2.5780     0.1340    81.9900     9.0360    -9.4110
 1087.0000     7.6010     6.1910     2.5840     0.1280    82.6790     9.0380    -9.4060
 1087.5000     7.6050     6.1950     2.5770     0.1220    82.7650     9.0400    -9.4020
 1088.0000     7.6090     6.1950     2.5670     0.1070    82.4020     9.0430    -9.3980
 1088.5000     7.6130     6.1950     2.5620     0.1090    86.3800     9.0450    -9.3930
 1089.0000     7.6180     6.1950     2.5580     0.1110    87.6770     9.0470    -9.3890
 1089.5000     7.6220     6.1950     2.5630     0.1130    88.4950     9.0500    -9.3870
 1090.0000     7.6260     6.1950     2.5650     0.1140    88.3100     9.0520    -9.3870
 1090.5000     7.6300     6.1950     2.5670     0.1110    86.8820     9.0540    -9.3870
 1091.0000     7.6340     6.1950     2.5670     0.1090    85.9400     9.0570    -9.3870
 1091.5000     7.6380     6.1950     2.5560     0.1070    85.1250     9.0590    -9.3870
 1092.0000     7.6430     6.1950     2.5460     0.1050    85.2640     9.0610    -9.3870
 1092.5000     7.6470     6.1950     2.5440     0.1120    86.3340     9.0620    -9.3870
 1093.0000     7.6510     6.1950     2.5470     0.1190    87.4340     9.0580    -9.3870
 1093.5000     7.6540     6.1950     2.5510     0.1270    89.3950     9.0540    -9.3870
 1094.0000     7.6540     6.1950     2.5540     0.1350    86.8180     9.0510    -9.3870
 1094.5000     7.6540     6.1950     2.5540     0.1350    84.5100     9.0470    -9.3870
 1095.0000     7.6540     6.1950     2.5560     0.1340    84.4000     9.0430    -9.3870
 1095.5000     7.6540     6.1950     2.5630     0.1330    85.3780     9.0400    -9.3870
 1096.0000     7.6540     6.1950     2.5620     0.1320    86.7800     9.0360    -9.3870
 1096.5000     7.6540     6.1950     2.5590     0.1310    88.2120     9.0320    -9.3870
 1097.0000     7.6540     6.1950     2.5560     0.1300    87.8200     9.0290    -9.3870
 1097.5000     7.6540     6.1950     2.5530     0.1290    87.0130     9.0250    -9.3870
 1098.0000     7.6540     6.1950     2.5500     0.1280    85.9280     9.0220    -9.3870
 1098.5000     7.6540     6.1950     2.5490     0.1270    84.9060     9.0180    -9.3870
 1099.0000     7.6540     6.1950     2.5480     0.1270    85.2220     9.0140    -9.3870
 1099.5000     7.6540     6.1950     2.5500     0.1340    83.4380     9.0110    -9.3870
 1100.0000     7.6540     6.1950     2.5530     0.1420    81.6900     9.0070    -9.3870
 1100.5000     7.6540     6.1950     2.5570     0.1470    81.0160     9.0010    -9.3870
 1101.0000     7.6540     6.1950     2.5640     0.1480    83.5560     8.9810    -9.3870
 1101.5000     7.6540     6.1950     2.5640     0.1470    83.1790     8.9600    -9.3870
 1102.0000     7.6540     6.1950     2.5640     0.1460    83.2080     8.9390    -9.3870
 1102.5000     7.6540     6.1980     2.5700     0.1450    84.7400     8.9180    -9.3870
 1103.0000     7.6540     6.2020     2.5700     0.1410    86.2630     8.8970    -9.3870
 1103.5000     7.6540     6.2070     2.5670     0.1370    87.4830     8.8760    -9.3870
 1104.0000     7.6540     6.2110     2.5650     0.1330    86.9000     8.8540    -9.3870
 1104.5000     7.6540     6.2160     2.5630     0.1310    82.7400     8.8430    -9.3870
 1105.0000     7.6540     6.2200     2.5630     0.1330    84.2100     8.8360    -9.3870
 1105.5000     7.6540     6.2250     2.5630     0.1350    85.6260     8.8290    -9.3870
 1106.0000     7.6540     6.2290     2.5620     0.1370    86.4700     8.8220    -9.3870
 1106.5000     7.6540     6.2340     2.5720     0.1390    85.8160     8.8150    -9.3870
 1107.0000     7.6540     6.2380     2.5880     0.1400    84.2220     8.8080    -9.3870
 1107.5000     7.6540     6.2430     2.5870     0.1400    82.6110     8.8010    -9.3870
 1108.0000     7.6540     6.2470     2.6000     0.1400    81.0600     8.7940    -9.3870
 1108.5000     7.6540     6.2520     2.6000     0.1380    81.5970     8.7870    -9.3870
 1109.0000     7.6540     6.2560     2.5990     0.1340    83.2360     8.7800    -9.3870
 1109.5000     7.6540     6.2610     2.5790     0.1280    85.0220     8.7730    -9.3870
 1110.0000     7.6650     6.2650     2.5620     0.1200    86.8360     8.7660    -9.3870
 1110.5000     7.6780     6.2700     2.5620     0.1140    88.2470     8.7590    -9.3870
 1111.0000     7.6900     6.2740     2.5620     0.1150    85.0130     8.7520    -9.3870
 1111.5000     7.7030     6.2790     2.5620     0.1170    83.2230     8.7460    -9.3870
 1112.0000     7.7160     6.2830     2.5660     0.1200    83.6260     8.7390    -9.3870
 1112.5000     7.7280     6.2880     2.5770     0.1220    82.4480     8.7320    -9.3870
 1113.0000     7.7410     6.2920     2.5810     0.1170    81.1010     8.7300    -9.3870
 1113.5000     7.7540     6.2970     2.5780     0.1130    82.0820     8.7300    -9.3870
 1114.0000     7.7660     6.3010     2.5730     0.1080    83.0060     8.7300    -9.3870
 1114.5000     7.7790     6.3060     2.5740     0.1060    83.6480     8.7300    -9.3870
 1115.0000     7.7950     6.3100     2.5760     0.1060    83.0680     8.7300    -9.3880
 1115.5000     7.7930     6.3120     2.5770     0.1050    83.3920     8.7300    -9.3970
 1116.0000     7.7900     6.3140     2.5730     0.1040    85.6500     8.7300    -9.4380
 1116.5000     7.7860     6.3160     2.5660     0.1040    90.2340     8.7300    -9.4780
 1117.0000     7.7830     6.3170     2.5650     0.1030    87.7980     8.7300    -9.5180
 1117.5000     7.7800     6.3190     2.5630     0.1030    86.3090     8.7280    -9.5580
 1118.0000     7.7760     6.3210     2.5610     0.1050    87.2850     8.7270    -9.5980
 1118.5000     7.7730     6.3230     2.5630     0.1070    86.4390     8.7260    -9.6380
 1119.0000     7.7690     6.3250     2.5690     0.1090    85.1870     8.7240    -9.6780
 1119.5000     7.7660     6.3260     2.5740     0.1120    86.4630     8.7230    -9.7180
 1120.0000     7.7620     6.3280     2.5770     0.1120    88.0710     8.7220    -9.7580
 1120.5000     7.7590     6.3300     2.5770     0.1110    89.6710     8.7200    -9.7800
 1121.0000     7.7550     6.3320     2.5770     0.1100    90.5200     8.7190    -9.7740
 1121.5000     7.7520     6.3340     2.5770     0.1080    89.5310     8.7180    -9.7670
