~VERSION INFORMATION
 VERS.                2.0:   CWLS LOG ASCII STANDARD - VERSION 2.0
 WRAP.                 NO:   ONE LINE PER DEPTH STEP
~WELL INFORMATION
#MNEM.UNIT      DATA TYPE    INFORMATION
#----------   ------------   ------------------------------
 STRT.F          199.5000:   START DEPTH
 STOP.F         2983.0000:   STOP DEPTH
 STEP.F            0.5000:   STEP LENGTH
 NULL.          -999.2500:   NO VALUE
 COMP.    FENIX & SCISSON:   COMPANY
 WELL. FENIX (UE-49) "AX" #52-29:   WELL
 FLD . U.S. NAVAL PETROLEUM RESERVE #3:   FIELD
 LOC .      S29 T39N R78W:   LOCATION
 CNTY.            NATRONA:   COUNTY
 STAT.            WYOMING:   STATE
 CTRY. UNITED STATES OF AMERICA:   COUNTRY
 SRVC.           BIRDWELL:   SERVICE COMPANY
 DATE.        07-AUG-1977:   LOGDATE
 API .     49025104090000:   API NUMBER
~CURVE INFORMATION
#MNEM.UNIT       API CODE    CURVE DESCRIPTION
#----------   ------------   ------------------------------
 DEPT.F                  :   
 GRD .GAPI   45 310 01 00:   GAMMA RAY FROM DENSITY LOG
 CALD.IN     45 280 60 00:   CALIPER FROM DENSITY LOG
 DEN .G/C3   45 350 01 00:   BULK DENSITY
 DCOR.G/C3   45 356 01 00:   DENSITY CORRECTION
 SN  .OHMM   05 040 16 00:   SHORT NORMAL 16"
 ILD .OHMM   05 120 46 00:   INDUCTION LOG DEEP RESISTIVITY
~PARAMETER INFORMATION
#MNEM.UNIT          VALUE    DESCRIPTION
#----------   ------------   ------------------------------
 EKB .F         4995.0000:   Kelly bushing
 EGL .F         4985.0000:   Ground level
 EDF .F            0.0000:   Drilling floor
 TD  .F         2973.0000:   Total depth
 DATE.         7-AUG-1977:   Date logged
 CLNT.            A2DTECH:   Client Code
 SL  . 1400' FNL & 2380' FEL:   Surface Location
 PD  .                 GL:   Permanent Datum
 EPD .F              4985:   Elevation Permanent Datum
 LMF .                 KB:   Log Measured From
 DMF .                 KB:   Drilling Measured From
 DAPD.F                10:   Feet Above Permanent Datum
 DD  .F              2972:   Depth driller
 DL  .F              2973:   Depth logger
 BLI .F              2968:   Bottom log interval
 TLI .F               216:   Top log interval
 CS1 .IN            8.625:   Casing size
 CBD1.      8.625" @ 216':   Casing driller 1
 CBL1.F               216:   Casing logger 1
 BS1 .IN            7.875:   Bit size
 BSD1.F              2972:   Depth drilled with bit1
 DFT .            GEL-KCL:   Type fluid in hole
 DFD .                8.9:   Density
 DFV .                 33:   Viscosity
 DFL .                  9:   Fluid loss
 MSS .            MUD PIT:   Source of sample
 RMS .OHMM           0.26:   Rm
 MST .F                73:   Rm Meas. temp.
 RMF .OHMM           0.26:   Rmf
 MFST.F                72:   Rmf Meas. temp.
 RMC .OHMM           0.96:   Rmc
 MCST.F                72:   Rmc Meas. temp.
 MFSS.              PRESS:   Source Rmf.
 RMB .OHMM           0.14:   Rm. at BHT
 BHT .F               130:   BHT.
 TCS .HRS               5:   Time Circ. stopped
 MRT .F               130:   Maximum recorded temp.
 LUN .               2958:   Logging unit number
 LUL .             CASPER:   Logging unit location
 ENGI.                LAW:   Recorded By
 WITN.             RHODES:   Witnessed by
 ORIG.           5" PRINT:   Origin of data
 UWI .     49025104090000:   Unique Well ID
 DICO. A2D TECHNOLOGIES, INC.:   Digitizing Company
~OTHER INFORMATION
~A   DEPT       GRD      CALD        DEN       DCOR         SN        ILD   
# ...
  771.5000    58.7980     9.4160     2.5430     0.0250     9.1020    10.0840
  772.0000    61.1440     9.4000     2.5440     0.0240     9.0910    10.0710
  772.5000    61.6220     9.3950     2.5430     0.0250     9.0850    10.0570
  773.0000    59.0300     9.4110     2.5480     0.0350     9.0800    10.0310
  773.5000    60.3670     9.4260     2.5520     0.0350     9.0740    10.0060
  774.0000    56.9520     9.4410     2.5510     0.0430     9.0680     9.9800
  774.5000    65.4000     9.4560     2.5710     0.0380     9.0630     9.9540
  775.0000    63.0100     9.4690     2.5650     0.0270     9.0570     9.9290
  775.5000    60.9050     9.4680     2.5580     0.0270     9.0510     9.9030
  776.0000    64.1060     9.4680     2.5540     0.0300     9.0450     9.8760
  776.5000    62.1160     9.4680     2.5520     0.0340     9.0400     9.9320
  777.0000    57.6110     9.4680     2.5650     0.0350     9.0340     9.9930
  777.5000    56.8420     9.4680     2.5830     0.0310     9.0280    10.0580
  778.0000    59.5470     9.4680     2.5840     0.0370     9.0220    10.0070
  778.5000    57.0860     9.4680     2.5800     0.0420     9.0170     9.9530
  779.0000    58.4080     9.4680     2.5840     0.0410     9.0100     9.8990
  779.5000    56.5030     9.4680     2.5870     0.0400     8.9880     9.7990
  780.0000    55.1400     9.4680     2.5770     0.0410     8.9640     9.6640
  780.5000    64.4060     9.4680     2.5810     0.0410     8.9410     9.5780
  781.0000    58.2530     9.4680     2.5880     0.0300     8.9170     9.5280
  781.5000    59.5520     9.4680     2.5900     0.0250     8.8930     9.4770
  782.0000    60.5210     9.4680     2.5630     0.0140     8.8690     9.4270
  782.5000    60.0610     9.4680     2.5410     0.0040     8.8460     9.3770
  783.0000    59.5480     9.4680     2.5260     0.0080     8.8220     9.3260
  783.5000    62.5070     9.4680     2.5220     0.0180     8.7980     9.2760
  784.0000    59.8960     9.4680     2.5380     0.0200     8.7750     9.2250
  784.5000    61.6530     9.4680     2.5470     0.0210     8.7020     9.1770
  785.0000    58.7210     9.4680     2.5430     0.0220     8.6020     9.1230
  785.5000    64.6320     9.4680     2.5420     0.0210     8.5180     9.0710
  786.0000    60.4580     9.4680     2.5400     0.0190     8.4790     9.0190
  786.5000    64.6520     9.4680     2.5350     0.0190     8.4410     8.9680
  787.0000    69.5900     9.4680     2.5380     0.0200     8.4020     8.9160
  787.5000    71.5420     9.4680     2.5440     0.0200     8.3630     8.8640
  788.0000    67.3400     9.4680     2.5410     0.0230     8.3240     8.8120
  788.5000    65.3040     9.4680     2.5450     0.0240     8.2970     8.7660
  789.0000    63.0000     9.4680     2.5500     0.0200     8.3460     8.7880
  789.5000    60.8290     9.4680     2.5510     0.0130     8.3830     8.8070
  790.0000    62.6970     9.4680     2.5420     0.0060     8.4190     8.8270
  790.5000    60.7770     9.4680     2.5320     0.0090     8.4580     8.8470
  791.0000    62.2630     9.4680     2.5380     0.0120     8.5100     8.8980
  791.5000    62.3910     9.4680     2.5440     0.0090     8.5620     8.9520
  792.0000    61.3330     9.4680     2.5380     0.0050     8.6130     9.0050
  792.5000    59.3640     9.4680     2.5320     0.0130     8.6650     9.0590
  793.0000    58.3180     9.4680     2.5370     0.0150     8.7220     9.1120
  793.5000    58.9720     9.4680     2.5450     0.0160     8.8160     9.1660
  794.0000    60.3200     9.4680     2.5510     0.0180     8.9090     9.2200
  794.5000    60.4200     9.4670     2.5470     0.0210     9.0020     9.2730
  795.0000    63.3290     9.4610     2.5490     0.0230     9.0940     9.3270
  795.5000    63.7730     9.4550     2.5600     0.0200     9.0940     9.3470
  796.0000    60.3760     9.4500     2.5540     0.0190     9.0940     9.4910
  796.5000    57.4060     9.4440     2.5460     0.0210     9.1120     9.8240
  797.0000    56.4890     9.4380     2.5510     0.0230     9.1890     9.8760
  797.5000    58.8700     9.4330     2.5550     0.0250     9.2620    10.1400
  798.0000    56.6280     9.4270     2.5590     0.0230     9.5130    10.7180
  798.5000    53.5160     9.4210     2.5580     0.0200     9.7490    11.1390
  799.0000    51.8800     9.4150     2.5540     0.0170     9.9660    11.3850
  799.5000    51.6190     9.4100     2.5450     0.0180    10.0790    11.6300
  800.0000    52.8430     9.4090     2.5390     0.0200    10.1830    11.8750
  800.5000    54.6560     9.4090     2.5470     0.0200    10.3390    12.1200
  801.0000    54.3050     9.4090     2.5500     0.0140    10.3180    12.2290
  801.5000    53.9480     9.4090     2.5420     0.0110    10.2770    12.3050
  802.0000    55.2250     9.4090     2.5330     0.0120    10.2350    12.1500
  802.5000    54.5060     9.4090     2.5350     0.0150    10.1940    11.8430
  803.0000    59.2190     9.4090     2.5380     0.0180    10.1530    11.7490
  803.5000    57.2010     9.4090     2.5410     0.0190    10.1110    11.7410
  804.0000    55.7330     9.4090     2.5370     0.0180    10.0700    11.7330
  804.5000    54.4080     9.4090     2.5340     0.0150    10.0580    11.7250
  805.0000    54.0910     9.4090     2.5360     0.0130    10.0580    11.7180
  805.5000    54.1490     9.4090     2.5340     0.0150    10.0580    11.7100
  806.0000    52.9800     9.4090     2.5320     0.0170    10.0580    11.7020
  806.5000    55.6180     9.4090     2.5370     0.0160    10.0580    11.6950
  807.0000    56.3570     9.4090     2.5400     0.0170    10.0580    11.6870
  807.5000    53.4520     9.4090     2.5430     0.0200    10.0580    11.6790
  808.0000    56.1940     9.4140     2.5550     0.0210    10.0580    11.6720
  808.5000    56.1000     9.4180     2.5490     0.0210    10.0580    11.6640
  809.0000    54.4800     9.4230     2.5480     0.0210    10.0580    11.6560
  809.5000    55.0610     9.4280     2.5510     0.0210    10.0600    11.6490
  810.0000    56.4900     9.4320     2.5560     0.0150    10.0260    11.6150
  810.5000    57.5550     9.4370     2.5500     0.0140     9.9280    11.5720
  811.0000    61.0280     9.4420     2.5390     0.0150     9.7850    11.5300
  811.5000    60.0110     9.4460     2.5400     0.0110     9.8010    11.4870
  812.0000    59.6870     9.4470     2.5390     0.0150     9.8290    11.4440
  812.5000    60.1360     9.4450     2.5370     0.0190     9.8570    11.4010
  813.0000    55.6170     9.4420     2.5420     0.0210     9.8760    11.3590
  813.5000    54.8580     9.4390     2.5460     0.0180     9.7420    11.3230
  814.0000    55.8400     9.4370     2.5410     0.0200     9.6430    11.2990
  814.5000    54.0010     9.4340     2.5450     0.0160     9.5440    11.2750
  815.0000    54.2790     9.4310     2.5460     0.0170     9.5200    11.2520
  815.5000    54.5330     9.4290     2.5460     0.0190     9.5200    11.2280
  816.0000    60.2980     9.4260     2.5450     0.0240     9.5890    11.1570
  816.5000    57.8340     9.4230     2.5450     0.0280     9.6600    11.0840
  817.0000    59.1580     9.4210     2.5460     0.0290     9.7310    11.0240
  817.5000    57.0280     9.4180     2.5540     0.0290     9.8020    11.0600
  818.0000    58.9620     9.4150     2.5580     0.0180     9.8760    11.0900
  818.5000    55.5550     9.4130     2.5470     0.0190     9.8120    11.1210
  819.0000    53.3620     9.4100     2.5400     0.0250     9.7470    11.1520
  819.5000    60.1220     9.4100     2.5470     0.0280     9.6820    11.1830
  820.0000    55.9410     9.4120     2.5610     0.0210     9.6170    11.2140
  820.5000    60.3200     9.4140     2.5560     0.0240     9.5520    11.2440
  821.0000    56.1740     9.4160     2.5530     0.0260     9.4860    11.2750
  821.5000    53.9750     9.4180     2.5550     0.0300     9.4330    11.3060
  822.0000    52.9530     9.4200     2.5560     0.0350     9.6230    11.3310
  822.5000    55.9650     9.4220     2.5620     0.0290     9.7850    11.1100
  823.0000    57.2280     9.4240     2.5620     0.0280     9.7320    10.9230
