~VERSION INFORMATION
 VERS.                2.0:   CWLS LOG ASCII STANDARD - VERSION 2.0
 WRAP.                 NO:   ONE LINE PER DEPTH STEP
~WELL INFORMATION
#MNEM.UNIT      DATA TYPE    INFORMATION
#----------   ------------   ------------------------------
 STRT.F           48.5000:   START DEPTH
 STOP.F         3509.0000:   STOP DEPTH
 STEP.F            0.5000:   STEP LENGTH
 NULL.          -999.2500:   NO VALUE
 COMP.   TESORO PETROLEUM:   COMPANY
 WELL. TESORO "TX" #45-33:   WELL
 FLD .        TEAPOT DOME:   FIELD
 LOC .      S33 T39N R78W:   LOCATION
 CNTY.            NATRONA:   COUNTY
 STAT.            WYOMING:   STATE
 CTRY. UNITED STATES OF AMERICA:   COUNTRY
 SRVC.      DRESSER ATLAS:   SERVICE COMPANY
 DATE.        03-OCT-1976:   LOGDATE
 API .     49025102700000:   API NUMBER
~CURVE INFORMATION
#MNEM.UNIT       API CODE    CURVE DESCRIPTION
#----------   ------------   ------------------------------
 DEPT.F                  :   
 SPR .MV     07 010 01 00:   SPONTANEOUS POTENTIAL
 TENR.LBS    07 635 01 00:   TENSION FROM RESISTIVITY
 SFL .OHMM   07 220 01 00:   SHALLOW FOCUSED LOG RESISTIVITY
 ILM .OHMM   07 120 44 00:   INDUCTION LOG MEDIUM RESISTIVITY
 ILD .OHMM   07 120 46 00:   DEEP INDUCTION RESISTIVITY
 GRD .GAPI   45 310 01 00:   GAMMA RAY FROM DENSITY LOG
 CALD.IN     45 280 60 00:   CALIPER FROM DENSITY LOG
 NPHI.DEC    42 890 03 00:   NEUTRON POROSITY SANDSTONE
 DPHI.DEC    45 890 12 00:   DENSITY POROSITY SANDSTONE
 TEND.LBS    45 635 01 00:   TENSION FROM DENSITY LOG
~PARAMETER INFORMATION
#MNEM.UNIT          VALUE    DESCRIPTION
#----------   ------------   ------------------------------
 EKB .F         5217.0000:   Kelly bushing
 EGL .F         5206.0000:   Ground level
 EDF .F         5216.0000:   Drilling floor
 EPD .F         5206.0000:   Permanent datum
 TD  .F         3491.0000:   Total depth
 DATE.        03-OCT-1976:   Date logged
 CLNT.            A2DTECH:   Client Code
 SL  . 2030' FWL & 2145' FSL:   Surface Location
 PD  .                 GL:   Permanent Datum
 DD  .F              3491:   Depth driller
 DL  .F              3487:   Depth logger
 BLI .F              3485:   Bottom log interval
 TLI .F               813:   Top log interval
 CS1 .IN            8.625:   Casing size
 CBD1.      8.625" @ 823':   Casing driller 1
 CBL1.F               819:   Casing logger 1
 BS1 .IN            7.875:   Bit size
 BSD1.F              3491:   Depth drilled with bit1
 DFT .           CHEM GEL:   Type fluid in hole
 DFD .                9.4:   Density
 DFV .                 47:   Viscosity
 DFPH.                 10:   pH
 DFL .                5.8:   Fluid loss
 MSS .           FLOWLINE:   Source of sample
 RMS .OHMM           1.09:   Rm
 MST .F                68:   Rm Meas. temp.
 RMF .OHMM              1:   Rmf
 MFST.F                68:   Rmf Meas. temp.
 RMC .OHMM           1.24:   Rmc
 MCST.F                68:   Rmc Meas. temp.
 MFSS.               MEAS:   Source Rmf.
 MCSS.               MEAS:   Source Rmc.
 RMB .OHMM            .62:   Rm. at BHT
 BHT .F               119:   BHT.
 TCS .HRS              12:   Time Circ. stopped
 MRT .F               119:   Maximum recorded temp.
 LUN .               6134:   Logging unit number
 LUL .              GLTTE:   Logging unit location
 ENGI.            VAUGHIN:   Recorded By
 WITN.        WOLF-CARTER:   Witnessed by
 ORIG.     2.5", 5" PRINT:   Origin of data
 UWI .     49025102700000:   Unique Well ID
 DICO. A2D TECHNOLOGIES, INC.:   Digitizing Company
 DAPD.                 11:   Feet Above Permanent Datum
~OTHER INFORMATION
~A   DEPT      SPR        TENR       SFL        ILM        ILD        GRD       CALD       NPHI       DPHI       TEND   
# ...
  986.5000   -22.9190  -999.2500     5.1860     4.2070     4.5600   130.0180    10.1100     0.3240     0.0750   279.9830
  987.0000   -23.0840  -999.2500     4.9920     4.1360     4.5440   128.9750    10.0140     0.3170     0.0710   275.6430
  987.5000   -23.2400  -999.2500     4.7400     4.0150     4.5280   128.9250     9.9190     0.3090     0.0660   271.3040
  988.0000   -23.4000  -999.2500     4.7940     4.0960     4.5120   128.9300     9.8930     0.2930     0.0590   266.9650
  988.5000   -23.5610  -999.2500     4.9750     4.3720     4.4850   128.9440     9.8630     0.2960     0.0520   265.5690
  989.0000   -23.7170  -999.2500     5.1560     4.5880     4.5040   129.2910     9.8340     0.3000     0.0520   266.6080
  989.5000   -23.8810  -999.2500     5.3940     4.6550     4.5700   130.6520     9.8330     0.3010     0.0530   267.6480
  990.0000   -24.0370  -999.2500     5.3810     4.7220     4.6350   131.8130     9.8330     0.3020     0.0560   268.6870
  990.5000   -24.1840  -999.2500     5.3370     4.7890     4.7010   131.0280     9.8330     0.3030     0.0620   269.7270
  991.0000   -24.1160  -999.2500     5.2930     4.8560     4.7670   130.2450     9.8330     0.3040     0.0630   270.7670
  991.5000   -24.0390  -999.2500     5.2490     4.9180     4.8280   130.5720     9.8330     0.3050     0.0610   271.8060
  992.0000   -23.9540  -999.2500     5.1980     4.9400     4.8280   130.9080     9.8330     0.3090     0.0650   272.8460
  992.5000   -23.8760  -999.2500     5.2490     4.9600     4.8280   131.1160     9.8290     0.3110     0.0680   273.8850
  993.0000   -23.7940  -999.2500     5.3590     4.9800     4.8280   129.6370     9.8250     0.3070     0.0710   275.0000
  993.5000   -23.7130  -999.2500     5.4700     5.0000     4.8280   128.6220     9.8210     0.3090     0.0700   275.0000
  994.0000   -23.6320  -999.2500     5.5970     5.0200     4.8280   128.7600     9.8170     0.3130     0.0700   275.0000
  994.5000   -23.5520  -999.2500     5.5540     5.0400     4.8280   128.8760     9.8130     0.3170     0.0730   275.0000
  995.0000   -23.4710  -999.2500     5.5040     5.0600     4.8270   128.8080     9.8090     0.3150     0.0790   275.0000
  995.5000   -23.3900  -999.2500     5.4540     5.0800     4.8290   128.5580     9.8050     0.3160     0.0800   275.0000
  996.0000   -23.3080  -999.2500     5.4040     5.1030     4.8650   128.3020     9.8010     0.3180     0.0780   275.0000
  996.5000   -23.2300  -999.2500     5.3540     5.1150     4.8980   128.4190     9.7970     0.3170     0.0730   275.0000
  997.0000   -23.1450  -999.2500     5.2950     5.1290     4.9320   128.5740     9.7930     0.3190     0.0680   275.0000
  997.5000   -23.0660  -999.2500     5.3340     5.1430     4.9660   128.4770     9.7990     0.3210     0.0630   275.0000
  998.0000   -23.0240  -999.2500     5.3810     5.1560     5.0010   128.2900     9.8050     0.3220     0.0580   275.0000
  998.5000   -23.2460  -999.2500     5.4280     5.1700     5.0350   128.1020     9.8120     0.3210     0.0540   275.0000
  999.0000   -23.4370  -999.2500     5.4750     5.1840     5.0690   127.9650     9.8190     0.3220     0.0560   275.0000
  999.5000   -23.6410  -999.2500     5.5210     5.1980     5.1030   127.9680     9.8260     0.3220     0.0590   275.0000
 1000.0000   -23.8390  -999.2500     5.5680     5.1770     5.0820   127.9680     9.8320     0.3190     0.0630   275.0000
 1000.5000   -24.0410  -999.2500     5.5970     5.1560     5.0610   127.9680     9.8390     0.3160     0.0560   275.0000
 1001.0000   -24.1840  -999.2500     5.5340     5.1340     5.0400   127.9670     9.8460     0.3130     0.0540   275.0000
 1001.5000   -24.0740  -999.2500     5.4720     5.1130     5.0190   127.9710     9.8530     0.3100     0.0560   275.0000
 1002.0000   -23.9820  -999.2500     5.4100     5.0910     4.9980   128.0640     9.8550     0.3080     0.0580   275.0000
 1002.5000   -23.8770  -999.2500     5.3480     5.0700     4.9770   128.4330     9.8580     0.3120     0.0560   275.0000
 1003.0000   -23.7800  -999.2500     5.2850     5.0480     4.9560   128.3350     9.8600     0.3150     0.0560   275.0000
 1003.5000   -23.6790  -999.2500     5.1980     5.0270     4.9350   127.9580     9.8630     0.3170     0.0560   275.3570
 1004.0000   -23.5800  -999.2500     5.2140     5.0100     4.9190   127.9690     9.8660     0.3110     0.0560   276.4950
 1004.5000   -23.4810  -999.2500     5.2390     5.0140     4.9220   127.9590     9.8690     0.3060     0.0510   277.6340
 1005.0000   -23.3800  -999.2500     5.2650     5.0170     4.9250   128.3570     9.8710     0.3010     0.0510   278.7730
 1005.5000   -23.2820  -999.2500     5.2910     5.0200     4.9290   128.8930     9.8720     0.3010     0.0520   279.9110
 1006.0000   -23.1800  -999.2500     5.3170     5.0240     4.9320   129.4290     9.8660     0.3010     0.0510   281.0500
 1006.5000   -23.0800  -999.2500     5.3420     5.0270     4.9350   129.8340     9.8610     0.3030     0.0480   282.1890
 1007.0000   -23.0090  -999.2500     5.3680     5.0310     4.9390   129.3570     9.8560     0.3060     0.0480   283.3270
 1007.5000   -23.0700  -999.2500     5.3940     5.0340     4.9420   128.9650     9.8500     0.3120     0.0470   284.4660
 1008.0000   -23.1210  -999.2500     5.3930     5.0370     4.9450   129.2020     9.8450     0.3170     0.0480   284.0150
 1008.5000   -23.1790  -999.2500     5.3930     5.0410     4.9480   129.0400     9.8400     0.3210     0.0500   282.1590
 1009.0000   -23.2330  -999.2500     5.3940     5.0440     4.9520   128.7650     9.8340     0.3140     0.0490   280.3040
 1009.5000   -23.2890  -999.2500     5.3940     5.0470     4.9550   128.8020     9.8290     0.3080     0.0450   278.4480
 1010.0000   -23.3450  -999.2500     5.3940     5.0510     4.9580   130.4020     9.8240     0.3060     0.0450   276.5930
 1010.5000   -23.4000  -999.2500     5.3940     5.0540     4.9610   131.4750     9.8180     0.3030     0.0490   275.0000
 1011.0000   -23.4550  -999.2500     5.3940     5.0570     4.9650   131.1860     9.8130     0.3000     0.0520   275.0000
 1011.5000   -23.5110  -999.2500     5.3940     5.0610     4.9680   131.2170     9.8080     0.3040     0.0510   275.0000
 1012.0000   -23.5670  -999.2500     5.3940     5.0640     4.9710   132.0710     9.8030     0.3110     0.0500   275.0000
 1012.5000   -23.6210  -999.2500     5.3940     5.0670     4.9750   130.3070     9.7970     0.3190     0.0490   275.0000
 1013.0000   -23.6790  -999.2500     5.3940     5.0710     4.9780   128.5590     9.7910     0.3260     0.0500   275.0000
 1013.5000   -23.7300  -999.2500     5.3940     5.0740     4.9810   128.8880     9.7820     0.3260     0.0510   275.0000
 1014.0000   -23.7910  -999.2500     5.3940     5.0770     4.9840   129.5090     9.7730     0.3260     0.0550   275.0000
 1014.5000   -23.7240  -999.2500     5.3950     5.0810     4.9880   129.9530     9.7630     0.3210     0.0600   275.0000
 1015.0000   -23.6290  -999.2500     5.4130     5.0840     4.9910   130.4030     9.7540     0.3140     0.0600   275.0000
 1015.5000   -23.5320  -999.2500     5.4330     5.0880     4.9940   130.8520     9.7440     0.3070     0.0590   275.0000
 1016.0000   -23.4390  -999.2500     5.4520     5.0900     4.9970   131.0090     9.7350     0.3030     0.0580   275.0000
 1016.5000   -23.3430  -999.2500     5.4720     5.0930     5.0020   131.1660     9.7260     0.3050     0.0560   275.0000
 1017.0000   -23.2480  -999.2500     5.4910     5.0970     5.0030   130.8310     9.7160     0.3050     0.0550   275.0000
 1017.5000   -23.1560  -999.2500     5.5110     5.1030     5.0080   130.3740     9.7030     0.3040     0.0550   275.0000
 1018.0000   -23.0490  -999.2500     5.5300     5.0990     5.0050   129.9130     9.6860     0.3030     0.0480   275.0000
 1018.5000   -23.0290  -999.2500     5.5500     5.1930     5.0980   129.4520     9.6690     0.3010     0.0460   275.0000
 1019.0000   -23.1040  -999.2500     5.5690     5.2630     5.1680   128.9870     9.6520     0.3010     0.0490   275.0000
 1019.5000   -23.1960  -999.2500     5.5890     5.3350     5.2370   128.3290     9.6360     0.3000     0.0520   275.0000
