~VERSION INFORMATION
 VERS.                2.0:   CWLS LOG ASCII STANDARD - VERSION 2.0
 WRAP.                 NO:   ONE LINE PER DEPTH STEP
~WELL INFORMATION
#MNEM.UNIT      DATA TYPE    INFORMATION
#----------   ------------   ------------------------------
 STRT.F            4.0000:   START DEPTH
 STOP.F         5696.0000:   STOP DEPTH
 STEP.F            0.5000:   STEP LENGTH
 NULL.          -999.2500:   NO VALUE
 COMP.       FLUOR DANIEL:   COMPANY
 WELL.   FLUOR "X" #72-10:   WELL
 FLD .             NPR #3:   FIELD
 LOC .      S10 T38N R78W:   LOCATION
 CNTY.            NATRONA:   COUNTY
 STAT.            WYOMING:   STATE
 CTRY. UNITED STATES OF AMERICA:   COUNTRY
 SRVC.      WESTERN ATLAS:   SERVICE COMPANY
 DATE.        26-SEP-1996:   LOGDATE
 API .     49025228080000:   API NUMBER
~CURVE INFORMATION
#MNEM.UNIT       API CODE    CURVE DESCRIPTION
#----------   ------------   ------------------------------
 DEPT.F                  :   
 GRR .GAPI   07 310 01 00:   GAMMA RAY FROM RESISTIVITY
 SPR .MV     07 010 01 00:   SPONTANEOUS POTENTIAL
 CALR.IN     07 280 01 00:   CALIPER FROM RESISTIVITY
 RD  .OHMM   07 220 10 00:   RESISTIVITY DEEP
 RS  .OHMM   07 220 09 00:   RESISTIVITY SHALLOW
 TENR.LBS    07 635 01 00:   TENSION FROM RESISTIVITY
~PARAMETER INFORMATION
#MNEM.UNIT          VALUE    DESCRIPTION
#----------   ------------   ------------------------------
 EKB .F         5178.0000:   Kelly bushing
 EGL .F         5168.0000:   Ground level
 EDF .F         5177.0000:   Drilling floor
 TD  .F         5698.0000:   Total depth
 CLNT.            A2DTECH:   Client Code
 SL  . 687' FNL & 1002' FEL:   Surface Location
 PD  .                 GL:   Permanent Datum
 EPD .F              5168:   Elevation Permanent Datum
 LMF .                 KB:   Log Measured From
 DMF .                 KB:   Drilling Measured From
 DAPD.F                10:   Feet Above Permanent Datum
 DATE.        26-SEP-1996:   Date Logged [DD-MMM-YYYY]
 DD  .F              5698:   Depth driller
 DL  .F              5697:   Depth logger
 BLI .F              5685:   Bottom log interval
 CS1 .IN            9.625:   Casing size
 CBD1.      9.625" @ 526':   Casing driller 1
 CBL1.F               526:   Casing logger 1
 BS1 .IN             8.75:   Bit size
 BSD1.F              5698:   Depth drilled with bit1
 DFT .               CHEM:   Type fluid in hole
 DFD .                9.1:   Density
 DFV .                 60:   Viscosity
 DFPH.                9.5:   pH
 DFL .                7.6:   Fluid loss
 MSS .               CIRC:   Source of sample
 RMS .OHMM           0.82:   Rm
 MST .F                64:   Rm Meas. temp.
 RMF .OHMM           0.64:   Rmf
 MFST.F                64:   Rmf Meas. temp.
 MFSS.               CALC:   Source Rmf.
 RMC .OHMM           1.08:   Rmc
 MCST.F                64:   Rmc Meas. temp.
 MCSS.               CALC:   Source Rmc.
 RMB .OHMM           0.29:   Rm. at BHT
 BHT .F               183:   BHT.
 TCS .HRS               5:   Time Circ. stopped
 MRT .F               183:   Maximum recorded temp.
 LUN .            HL-6530:   Logging unit number
 LUL .             CASPER:   Logging unit location
 ENGI.           BROWNLOW:   Recorded By
 ORIG.        2" 5" PRINT:   Origin of data
 UWI .     49025228080000:   Unique Well ID
 WITN.              HARDY:   Witnessed by
 DICO. A2D TECHNOLOGIES, INC.:   Digitizing Company
~OTHER INFORMATION
~A  DEPTH      GRR        SPR       CALR         RD         RS       TENR
# ...
 4268.0000    82.6360   -55.3042     9.2503     9.9418     8.9685    -0.1501
 4268.5000    82.0514   -55.7509     9.2970    10.0799     8.8456   -22.8469
 4269.0000    82.0873   -56.0477     9.3586    10.0095     8.6041   -53.0207
 4269.5000    82.3997   -56.3446     9.4051     9.8710     8.3693   -75.6870
 4270.0000    81.8157   -56.3389     9.4970     9.5170     8.0214   -38.2931
 4270.5000    80.3254   -56.6343     9.5587     8.7727     7.6488    -8.0713
 4271.0000    80.6478   -56.6286     9.7001     8.1282     7.4918    -1.0430
 4271.5000    84.2934   -56.6229     9.8640     7.6362     7.2873   -16.2376
 4272.0000    87.0332   -56.6172     9.9407     7.2239     7.0394   -31.3963
 4272.5000    86.1517   -56.3074    10.0024     6.9743     6.7469   -61.5700
 4273.0000    85.8647   -56.1504    10.0791     6.7861     6.3890   -84.2362
 4273.5000    88.3070   -55.9934    10.0806     6.7388     6.1717   -99.3994
 4274.0000    89.8378   -55.8364    10.0032     6.7383     6.1721   -92.0310
 4274.5000    88.9517   -55.6793     9.8703     6.8794     6.2587   -84.7031
 4275.0000    88.3728   -55.8250     9.7047     7.1215     6.3907   -77.3034
 4275.5000    87.1846   -55.6665     9.6299     7.4233     6.7092   -54.9605
 4276.0000    85.6943   -55.5091     9.5855     7.6845     6.8984   -17.5666
 4276.5000    84.8082   -55.3004     9.5411     7.9000     7.0929   -17.7462
 4277.0000    84.5257   -55.1951     9.7090     8.0098     7.1924   -32.9049
 4277.5000    84.5468   -55.1884    10.0130     8.0092     7.2430   -48.0636
 4278.0000    84.2647   -55.3340    10.3171     7.8306     7.0334   -48.2073
 4278.5000    83.6807   -55.3282    10.5605     7.2173     6.7119   -25.8284
 4279.0000    83.3989   -55.3211    10.8191     6.8751     6.4836   -10.9571
 4279.5000    83.7263   -55.3154    11.0749     6.6405     6.2198    -3.5933
 4280.0000    83.7466   -55.3097    11.8820     6.4139     5.9254    -3.7729
 4280.5000    84.0695   -55.3039    12.1406     6.1053     5.5631    -3.9165
 4281.0000    84.0942   -55.6008    12.1568     5.7798     5.2672   -19.0752
 4281.5000    84.1145   -55.7449    12.1424     5.6605     5.1233   -26.7267
 4282.0000    83.5255   -56.0418    12.1436     5.5822     5.1953   -19.3627
 4282.5000    82.0402   -56.1888    12.1796     5.6207     5.2682   -19.5423
 4283.0000    80.5499   -56.4842    12.2974     5.6203     5.2322   -19.6860
 4283.5000    78.7625   -56.4771    12.3591     5.5425     5.1248   -19.8297
 4284.0000    78.1735   -56.4713    12.4358     5.5038     5.0545   -19.9734
 4284.5000    80.3136   -56.4656    12.3308     5.4654     5.0199   -27.6276
 4285.0000    83.0529   -56.3086    12.0423     5.5031     5.0553   -20.2607
 4285.5000    84.5837   -56.1502    11.9692     5.6574     5.1262    -5.3894
 4286.0000    84.9063   -55.8419    12.2432     5.8608     5.2747    -5.5690
 4286.5000    82.8166   -55.5336    12.5472     5.9378     5.3448   -20.7277
 4287.0000    82.2326   -55.3867    13.0331     5.6171     5.3452   -35.8864
 4287.5000    81.9457   -54.9156    13.7159     5.3508     5.1633   -51.0810
 4288.0000    80.7625   -55.0612    14.2530     5.0971     4.7185   -51.2247
 4288.5000    78.3659   -55.0555    14.4452     4.8878     4.3407   -51.3684
 4289.0000    76.5395   -55.3523    14.1889     4.7551     4.3122   -28.9895
 4289.5000    77.2030   -55.9666    14.0081     4.7878     4.3728   -29.1332
 4290.0000    78.4317   -57.1549    14.1304     4.8543     4.4651   -36.7867
 4290.5000    78.4520   -58.0569    14.3738     4.9217     4.5277   -29.4565
 4291.0000    78.1650   -58.8076    14.3432     4.9557     4.5913    -7.0417
 4291.5000    78.1903   -59.1094    14.1031     4.8480     4.5548    15.3012
 4292.0000    79.4241   -59.5511    14.3771     4.6553     4.3744    22.7010
 4292.5000    80.0486   -59.6981    15.1054     4.5277     4.2255    -7.5087
 4293.0000    78.2562   -59.6910    15.4549     4.4343     4.0256   -30.1801
 4293.5000    76.4637   -59.6853    15.6540     4.3729     3.8886    -7.8319
 4294.0000    76.1813   -59.6781    15.7754     4.3726     3.9185    -0.4322
 4294.5000    75.9000   -59.8237    15.8064     4.4333     4.0827   -38.1493
 4295.0000    75.9253   -59.8180    15.6107     4.5576     4.1688   -60.8157
 4295.5000    77.4562   -59.8123    15.3239     4.6531     4.2863   -68.4685
 4296.0000    80.1955   -59.8064    15.0521     4.7505     4.3465   -68.6465
 4296.5000    80.5128   -59.9521    14.9608     4.7502     4.3770   -61.2826
 4297.0000    78.4233   -59.9450    14.9330     4.7498     4.3471   -38.9038
 4297.5000    76.2602   -59.7882    15.2676     4.6196     4.2579    -9.0174
 4298.0000    74.2392   -59.7822    15.5413     4.5243     4.1417    35.8839
 4298.5000    76.0722   -59.7751    15.6330     4.4309     4.0567    43.2478
 4299.0000    76.3945   -59.7694    15.5433     4.4294     4.0011    35.5607
 4299.5000    76.1076   -59.9164    15.3858     4.4657     3.9737    72.9545
 4300.0000    76.4351   -59.9092    14.9244     4.5545     3.9740   117.8559
 4300.5000    77.0646   -59.9021    14.5769     4.6498     4.0298    72.6672
 4301.0000    78.2933   -60.0491    14.5322     4.7472     4.0863    34.9849
 4301.5000    79.5220   -60.1932    14.4881     4.8466     4.2016    27.2988
 4302.0000    79.5423   -60.1875    14.3193     4.9509     4.3225    34.6986
 4302.5000    78.6562   -60.1804    13.9023     5.0869     4.4728    11.9965
 4303.0000    78.3743   -60.1746    13.5172     5.1933     4.5672    -3.1622
 4303.5000    77.7903   -60.1689    13.3600     5.2292     4.6635    19.2166
 4304.0000    79.3262   -59.8606    13.4226     5.2287     4.7290    41.5955
 4304.5000    81.4613   -59.7035    13.6817     5.2713     4.5681    11.3858
 4305.0000    83.2942   -59.5452    14.0776     5.0921     4.4744   -11.2804
 4305.5000    83.9187   -59.5395    14.3215     4.9151     4.4130   -11.4241
 4306.0000    83.3752   -59.6865    14.4898     4.7518     4.3216    33.4773
 4306.5000    81.5851   -59.6793    14.7068     4.6544     4.2045    78.3787
 4307.0000    78.2844   -59.5209    14.9433     4.5906     4.1757    85.7425
 4307.5000    75.8901   -59.5152    15.1799     4.5278     4.2051    85.5628
 4308.0000    78.6374   -59.5095    15.4815     4.5281     4.2346    70.4041
 4308.5000    79.5663   -59.5037    15.8618     4.4971     4.2643    17.7078
 4309.0000    78.6600   -59.6479    15.9694     4.4803     4.1768   -27.4809
 4309.5000    76.5960   -59.6422    15.9865     4.4358     4.0911   -21.5548
 4310.0000    75.1080   -59.4548    15.9275     4.3751     4.0071     1.7559
 4310.5000    73.9221   -59.2523    15.7472     4.3452     4.0354    30.5252
 4311.0000    71.8356   -59.0499    15.5187     4.3455     4.1205    -7.2223
 4311.5000    70.3476   -58.8475    15.3113     4.3157     4.2074   -22.4473
 4312.0000    69.7603   -58.6318    15.4038     4.3161     4.1786    59.8728
 4312.5000    72.2054   -58.6233    15.4811     4.3766     4.1500    74.7303
 4313.0000    74.6506   -58.9153    15.5436     4.4380     4.1503    36.9303
 4313.5000    75.2774   -59.0602    15.4997     4.5003     4.2086   -15.8847
 4314.0000    75.3000   -59.5056    14.9558     4.5951     4.3574    -8.5347
 4314.5000    76.6050   -59.6462    14.3388     4.7906     4.6706    -8.7972
 4315.0000    80.1847   -59.6356    13.7472     4.9943     4.9056   -39.2903
 4315.5000    82.6242   -59.6272    13.4760     5.2067     5.1476   -61.8223
 4316.0000    83.5643   -59.6187    13.1140     5.4736     5.4041   -62.0322
 4316.5000    80.2581   -59.4568    12.2116     6.2790     5.6732   -54.7347
 4317.0000    80.5828   -59.4493    11.2991     7.8930     6.2090   -17.4597
 4317.5000    84.5328   -59.4398     9.6799     9.6505     7.0351    12.3604
 4318.0000    88.2065   -59.4312     9.2269    12.0476     8.0265    34.6729
 4318.5000    89.7196   -59.2694     9.0466    15.0398     9.6921    25.9467
 4319.0000    89.4401   -59.1097     9.0330    17.5180    12.0029   -33.3674
 4319.5000    86.4416   -58.9499     9.0043    19.6011    14.8830   -48.5399
