~VERSION INFORMATION
 VERS.                2.0:   CWLS LOG ASCII STANDARD - VERSION 2.0
 WRAP.                 NO:   ONE LINE PER DEPTH STEP
~WELL INFORMATION
#MNEM.UNIT      DATA TYPE    INFORMATION
#----------   ------------   ------------------------------
 STRT.F          480.0000:   START DEPTH
 STOP.F         4609.5000:   STOP DEPTH
 STEP.F            0.5000:   STEP LENGTH
 NULL.          -999.2500:   NO VALUE
 COMP.   FENNIX & SCISSON:   COMPANY
 WELL. FENNIX NPR-3 "LX" #58-14:   WELL
 FLD .              NPR-3:   FIELD
 LOC .      S14 T38N R78W:   LOCATION
 CNTY.            NATRONA:   COUNTY
 STAT.            WYOMING:   STATE
 CTRY. UNITED STATES OF AMERICA:   COUNTRY
 SRVC.       SCHLUMBERGER:   SERVICE COMPANY
 DATE.        08-MAR-1978:   LOGDATE
 API .     49025105920000:   API NUMBER
~CURVE INFORMATION
#MNEM.UNIT       API CODE    CURVE DESCRIPTION
#----------   ------------   ------------------------------
 DEPT.F                  :   
 SPR .MV     07 010 01 00:   SPONTANEOUS POTENTIAL
 SFL .OHMM   07 220 01 00:   SHALLOW FOCUSED LOG RESISTIVITY
 ILD .OHMM   07 120 46 00:   DEEP INDUCTION RESISTIVITY
 ILM .OHMM   07 120 44 00:   INDUCTION LOG MEDIUM RESISTIVITY
 CALD.IN     45 280 60 00:   CALIPER FROM DENSITY LOG
 GRD .GAPI   45 310 01 00:   GAMMA RAY FROM DENSITY LOG
 CORR.G/C3   45 356 01 00:   DENSITY CORRECTION
 RHOB.G/C3   45 350 01 00:   BULK DENSITY
 NPHI.DEC    42 890 03 00:   NEUTRON POROSITY SANDSTONE
~PARAMETER INFORMATION
#MNEM.UNIT          VALUE    DESCRIPTION
#----------   ------------   ------------------------------
 EKB .F         5320.0000:   Kelly bushing
 EGL .F         5310.0000:   Ground level
 EDF .F            0.0000:   Drilling floor
 TD  .F         4635.0000:   Total depth
 DATE.        08-MAR-1978:   Date logged
 CLNT.            A2DTECH:   Client Code
 SL  . 810' FSL & 1830' FEL:   Surface Location
 PD  .                 GL:   Permanent Datum
 DD  .F              4635:   Depth driller
 DL  .F              4608:   Depth logger
 BLI .F              4607:   Bottom log interval
 DFT .                FGM:   Type fluid in hole
 DFD .                9.1:   Density
 DFV .                 38:   Viscosity
 DFPH.                 11:   pH
 MSS .           FLOWLINE:   Source of sample
 RMS .OHMM           1.53:   Rm
 MST .F                58:   Rm Meas. temp.
 RMF .OHMM           1.06:   Rmf
 MFST.F                58:   Rmf Meas. temp.
 MFSS.               MEAS:   Source Rmf.
 RMB .OHMM           0.68:   Rm. at BHT
 BHT .F               131:   BHT.
 TCS .HRS            0630:   Time Circ. stopped
 MRT .F               131:   Maximum recorded temp.
 LUN .               8039:   Logging unit number
 LUL .               CSPP:   Logging unit location
 ENGI.           PETERSON:   Recorded By
 ORIG.           5" PRINT:   Origin of data
 UWI .     49025105920000:   Unique Well ID
 DICO. A2D TECHNOLOGIES, INC.:   Digitizing Company
 DAPD.                 20:   Feet Above Permanent Datum
 BSD1.               4635:   Depth drilled with bit1
 EPD .               5310:   Elevation Permanent Datum
 LMF .                 KB:   Log Measured From
 DMF .                 KB:   Drilling Measured From
 TLI .                508:   Top log interval
 CS1 .              8.625:   Casing size
 CBL1.                508:   Casing logger 1
 BS1 .              7.875:   Bit size
~OTHER INFORMATION
~A   DEPT      SPR        SFL        ILD        ILM       CALD         GRD      CORR       RHOB         NPHI 
# ...
 3765.0000   -45.8290     7.2660     6.2630     6.3250     9.6750   102.5740     0.0410     2.5200     0.2070
 3765.5000   -45.8070     7.8230     6.4430     6.3880     9.6640   101.2670     0.0380     2.5120     0.2040
 3766.0000   -45.7560     7.7630     6.4080     6.5020     9.6520   102.8920     0.0320     2.5040     0.2010
 3766.5000   -45.7040     7.6280     6.3760     6.4690     9.6400   106.1610     0.0300     2.5040     0.1990
 3767.0000   -45.6470     7.4930     6.3430     6.3920     9.6290   108.3840     0.0340     2.5090     0.2060
 3767.5000   -45.8010     7.1990     6.2900     6.3150     9.6170   110.5570     0.0390     2.5110     0.2140
 3768.0000   -45.9890     7.0330     6.2090     6.2390     9.6060   110.3060     0.0380     2.5130     0.2250
 3768.5000   -46.1790     6.8110     6.1300     6.1620     9.5970   109.7180     0.0370     2.5160     0.2230
 3769.0000   -46.3690     6.5010     6.0340     6.0850     9.5900   110.7960     0.0360     2.5170     0.2200
 3769.5000   -46.5580     6.1900     5.9370     6.0390     9.5830   114.2600     0.0360     2.5150     0.2230
 3770.0000   -46.7480     5.8360     5.8190     6.3010     9.5760   116.0230     0.0340     2.5130     0.2330
 3770.5000   -46.9380     5.9210     6.1140     6.5770     9.5690   113.9510     0.0260     2.5230     0.2280
 3771.0000   -47.1270     7.5350     6.4920     6.8090     9.5620   109.7470     0.0210     2.5370     0.2100
 3771.5000   -47.3170    10.1660     6.8150     7.0420     9.5750   106.4760     0.0210     2.5570     0.1830
 3772.0000   -47.5060    12.8900     6.8490     7.2740     9.5900   107.1110     0.0210     2.5670     0.1590
 3772.5000   -47.6940    11.6640     6.8820     7.4700     9.6050   110.9500     0.0160     2.5640     0.1660
 3773.0000   -47.8010     9.8150     6.9150     7.1220     9.6190   114.5950     0.0070     2.5520     0.1850
 3773.5000   -47.7180     7.5770     6.9370     6.8620     9.6340   117.1930     0.0040     2.5280     0.2030
 3774.0000   -47.6400     6.3420     6.2440     6.5370     9.6460   119.3250     0.0000     2.5080     0.2180
 3774.5000   -47.5630     6.0340     5.8780     6.0700     9.6570   121.5380     0.0040     2.5090     0.2230
 3775.0000   -47.4860     5.6790     5.5730     5.5570     9.6670   122.5800     0.0110     2.5140     0.2290
 3775.5000   -47.4090     5.2570     5.2690     5.3840     9.6780   122.0730     0.0180     2.5160     0.2360
 3776.0000   -47.3320     5.3760     5.0200     5.1920     9.6730   120.2850     0.0180     2.5060     0.2440
 3776.5000   -47.2430     5.4550     4.8300     5.0000     9.6620   116.9640     0.0100     2.4910     0.2460
 3777.0000   -47.6210     5.4550     4.6390     4.8080     9.6660   116.1060     0.0100     2.4830     0.2450
 3777.5000   -47.6870     5.0780     4.5210     4.6490     9.6710   116.5490     0.0140     2.4810     0.2460
 3778.0000   -47.7430     4.6440     4.4390     4.5310     9.6760   118.5450     0.0180     2.4790     0.2510
 3778.5000   -47.8010     4.3820     4.3570     4.4120     9.6820   120.0830     0.0150     2.4740     0.2620
 3779.0000   -47.8590     4.4480     4.2750     4.2930     9.6870   119.7240     0.0060     2.4670     0.2610
 3779.5000   -47.9170     4.6160     4.1920     4.1740     9.6930   118.2350     0.0000     2.4600     0.2590
 3780.0000   -47.9740     4.6060     4.0950     4.0580     9.6980   115.2110    -0.0010     2.4580     0.2610
 3780.5000   -48.0090     4.5760     4.1240     4.0720     9.7040   114.1980    -0.0010     2.4610     0.2650
 3781.0000   -47.9460     4.6080     4.1600     4.0900     9.7090   117.5590     0.0020     2.4660     0.2640
 3781.5000   -47.8850     4.7050     4.1960     4.1080     9.7150   121.0140     0.0080     2.4730     0.2590
 3782.0000   -47.8150     4.6830     4.2790     4.1260     9.7200   122.0430     0.0210     2.4820     0.2510
 3782.5000   -47.5000     4.6480     4.4540     4.1950     9.7260   119.3010     0.0390     2.4900     0.2550
 3783.0000   -47.1710     4.6180     4.6290     4.3000     9.7310   116.1540     0.0470     2.4930     0.2620
 3783.5000   -46.8420     4.9590     4.8480     4.4100     9.7370   115.3040     0.0390     2.4930     0.2640
 3784.0000   -46.4300     5.5620     5.1130     4.9920     9.7420   115.8380     0.0230     2.4950     0.2480
 3784.5000   -45.8500     6.8830     5.5230     5.5050     9.7480   115.8120     0.0180     2.5020     0.2150
 3785.0000   -45.2660     8.0440     5.9520     6.1460     9.7530   111.2630     0.0270     2.5170     0.2030
 3785.5000   -45.0720     8.3210     6.3690     6.5110     9.7580   105.6150     0.0390     2.5260     0.1940
 3786.0000   -45.2620     8.9050     6.7020     6.8760     9.7640   100.7180     0.0430     2.5230     0.1910
 3786.5000   -45.4530     9.1460     7.0360     7.2150     9.7690    98.7730     0.0380     2.5070     0.1820
 3787.0000   -45.6410     9.3260     7.1990     7.4010     9.7750    99.6010     0.0260     2.4920     0.1840
 3787.5000   -45.8320     8.8230     7.0770     7.2610     9.7800   100.7630     0.0190     2.4870     0.1920
 3788.0000   -46.0150     7.7720     6.9420     7.0620     9.7800   103.6130     0.0190     2.4920     0.2040
 3788.5000   -45.7280     6.9370     6.7690     6.8630     9.7800   106.6130     0.0220     2.5110     0.2150
 3789.0000   -45.3800     6.9960     6.5530     6.6650     9.7800   108.8930     0.0260     2.5240     0.2170
 3789.5000   -45.0320     7.0670     6.3380     6.4660     9.7800   110.8860     0.0230     2.5200     0.2180
 3790.0000   -44.4530     6.9140     6.1910     6.2670     9.7810   110.9210     0.0180     2.5130     0.2220
 3790.5000   -43.8900     6.5780     6.0910     6.0680     9.8100   108.9780     0.0120     2.5060     0.2260
 3791.0000   -43.3940     6.3250     5.9990     6.0320     9.8390   105.8570     0.0110     2.5030     0.2250
 3791.5000   -43.1380     6.3630     5.9070     6.0240     9.8680   101.8150     0.0110     2.5030     0.2220
 3792.0000   -42.8790     6.5230     5.8660     6.0160     9.9020   100.1500     0.0150     2.5090     0.2180
 3792.5000   -42.6670     6.6840     5.8540     6.0080     9.9390   100.7760     0.0210     2.5140     0.2150
 3793.0000   -42.6730     6.8100     5.8410     5.9990     9.9750   102.8710     0.0280     2.5130     0.2150
 3793.5000   -42.6740     6.7890     5.8290     5.9910     9.9880   105.8680     0.0360     2.5110     0.2200
 3794.0000   -42.6730     6.7720     5.7980     5.9830     9.9650   108.1730     0.0410     2.5090     0.2280
 3794.5000   -42.6750     6.7550     5.6870     5.8530     9.9420   111.0240     0.0450     2.5080     0.2340
 3795.0000   -42.7380     6.5020     5.5760     5.7230     9.9180   112.9910     0.0490     2.5150     0.2360
 3795.5000   -42.8040     5.9450     5.4650     5.5920     9.8960   112.6680     0.0650     2.5350     0.2400
 3796.0000   -42.8680     5.3550     5.3540     5.4050     9.8820   111.9430     0.0870     2.5460     0.2460
 3796.5000   -42.8050     5.3220     5.3050     5.4250     9.8670   109.6300     0.0940     2.5350     0.2520
 3797.0000   -42.7330     5.6190     5.3780     5.4610     9.8530   105.8220     0.0750     2.5210     0.2510
 3797.5000   -42.6300     6.0890     5.4410     5.4960     9.8380   101.6840     0.0640     2.5190     0.2430
 3798.0000   -42.3300     6.5590     5.5040     5.5320     9.8230    98.7120     0.0590     2.5280     0.2380
 3798.5000   -42.0280     6.7130     5.5670     5.6220     9.8350   100.2220     0.0490     2.5230     0.2380
 3799.0000   -41.9880     6.7420     5.6300     5.7350     9.8560   102.4930     0.0380     2.5150     0.2470
 3799.5000   -42.1830     6.6240     5.7140     5.8470     9.8780   105.2330     0.0380     2.5120     0.2540
 3800.0000   -42.6100     6.3200     5.8180     5.9600     9.9000   105.5140     0.0400     2.5130     0.2550
 3800.5000   -43.1790     6.0550     5.9230     6.0650     9.9170   105.6620     0.0750     2.5340     0.2490
 3801.0000   -43.5420     6.1390     6.0270     6.1520     9.8800   106.1450     0.0680     2.5370     0.2410
