~VERSION INFORMATION
 VERS.                2.0:   CWLS LOG ASCII STANDARD - VERSION 2.0
 WRAP.                 NO:   ONE LINE PER DEPTH STEP
~WELL INFORMATION
#MNEM.UNIT      DATA TYPE    INFORMATION
#----------   ------------   ------------------------------
 STRT.F            0.0000:   START DEPTH
 STOP.F         3964.0000:   STOP DEPTH
 STEP.F            0.5000:   STEP LENGTH
 NULL.          -999.2500:   NO VALUE
 COMP. LAWRENCE ALLISON & ASSOCIATES:   COMPANY
 WELL. LAWRENCE NPR 3 "X" #43-10:   WELL
 FLD .              N P R:   FIELD
 LOC .      S10 T38N R78W:   LOCATION
 CNTY.            NATRONA:   COUNTY
 STAT.            WYOMING:   STATE
 CTRY. UNITED STATES OF AMERICA:   COUNTRY
 SRVC.      DRESSER ATLAS:   SERVICE COMPANY
 DATE.        07-AUG-1985:   LOGDATE
 API .     49025111390000:   API NUMBER
~CURVE INFORMATION
#MNEM.UNIT       API CODE    CURVE DESCRIPTION
#----------   ------------   ------------------------------
 DEPT.F                  :   
 CNC .DEC    42 890 03 00:   NEUTRON PORISITY SANDSTONE
 RHOB.G/C3   45 350 01 00:   BULK DENSITY
 CORR.G/C3   45 356 01 00:   DENSITY CORRECTION
 TEND.LBS    45 635 01 00:   TENSION FROM DENSITY LOG
 GRR .GAPI   07 310 01 00:   GAMMA RAY FROM RESISTIVITY
 CALR.IN     07 280 01 00:   CALIPER FROM RESISTIVITY
 SPR .MV     07 010 01 00:   SPONTANEOUS POTENTIAL
 TENR.LBS    07 635 01 00:   TENSION FROM RESISTIVITY
 RILD.OHMM   07 120 46 00:   DEEP INDUCTION RESISTIVITY
 RILM.OHMM   07 120 44 00:   INDUCTION LOG MEDIUM RESISTIVITY
 RFOC.OHMM   07 220 04 00:   RESISTIVITY FOCUSED LOG RES.
 DT  .US/F   60 520 00 00:   DELTA TIME
 TENS.LBS    60 635 01 00:   TENSION FROM SONIC
~PARAMETER INFORMATION
#MNEM.UNIT          VALUE    DESCRIPTION
#----------   ------------   ------------------------------
 EKB .F         5223.0000:   Kelly bushing
 EGL .F         5211.0000:   Ground level
 EDF .F            0.0000:   Drilling floor
 EPD .F         5211.0000:   Permanent datum
 TD  .F         3950.0000:   Total depth
 DATE.        07-AUG-1985:   Date logged
 CLNT.            A2DTECH:   Client Code
 SL  . 2016' FNL & 2230' FWL:   Surface Location
 PD  .                 GL:   Permanent Datum
 DD  .F              3950:   Depth driller
 DL  .F              3950:   Depth logger
 BLI .F              3948:   Bottom log interval
 CS1 .IN            8.625:   Casing size
 CBD1.      8.625" @ 518':   Casing driller 1
 CBL1.F               520:   Casing logger 1
 BS1 .IN            7.875:   Bit size
 DFT .            KCL-GEL:   Type fluid in hole
 DFD .                8.9:   Density
 DFV .                 40:   Viscosity
 DFPH.                  9:   pH
 DFL .                 12:   Fluid loss
 MSS .           FLOWLINE:   Source of sample
 RMS .OHMM           .318:   Rm
 MST .F                82:   Rm Meas. temp.
 RMF .OHMM            .24:   Rmf
 MFST.F                82:   Rmf Meas. temp.
 RMC .OHMM            .40:   Rmc
 MCST.F                82:   Rmc Meas. temp.
 MFSS.               CALC:   Source Rmf.
 RMB .OHMM            .19:   Rm. at BHT
 BHT .F               140:   BHT.
 TCS .HRS               4:   Time Circ. stopped
 MRT .F               140:   Maximum recorded temp.
 LUN .               6264:   Logging unit number
 LUL .               GLTE:   Logging unit location
 ENGI.           FAHLSING:   Recorded By
 WITN.             STRONG:   Witnessed by
 ORIG.           5" PRINT:   Origin of data
 UWI .     49025111390000:   Unique Well ID
 DICO. A2D TECHNOLOGIES, INC.:   Digitizing Company
 DAPD.                 12:   Feet Above Permanent Datum
 BSD1.               3950:   Depth drilled with bit1
 MCSS.               CALC:   Source Rmc.
~OTHER INFORMATION
~A    DEPT     CNC       RHOB       CORR       TEND         GRR      CALR        SPR       TENR       RILD       RILM       RFOC         DT       TENS   
# ...
 3926.0000     0.3070     2.4780     0.0870   280.7830  -999.2500     8.2690   -69.4350   509.9240     2.4010     2.5790     2.6320  -999.2500   468.7280
 3926.5000     0.3020     2.4660     0.0680   285.4710  -999.2500     8.2690   -69.5140   513.5530     2.4570     2.6500     2.9110  -999.2500   471.9820
 3927.0000     0.2990     2.4730     0.0630   290.1590  -999.2500     8.2690   -69.5920   517.1820     2.5120     2.7210     2.9320  -999.2500   476.9750
 3927.5000     0.2970     2.4900     0.0650   294.8470  -999.2500     8.2690   -69.6210   520.3780     2.5730     2.8170     2.9770  -999.2500   482.5800
 3928.0000     0.2950     2.5010     0.0700   299.5350  -999.2500     8.2690   -69.4020   520.3780     2.6730     2.9360     3.0820  -999.2500   488.1850
 3928.5000     0.2880     2.5030     0.0760   304.2230  -999.2500     8.2690   -69.1820   520.3780     2.7730     3.0540     3.2360  -999.2500   493.7910
 3929.0000     0.2880     2.4980     0.0740   308.9120  -999.2500     8.2690   -68.9630   520.3780     2.8730     3.1730     3.5510  -999.2500   499.3960
 3929.5000     0.2910     2.4930     0.0590   313.6000  -999.2500     8.2690   -68.7180   520.3780     2.9730     3.2920     3.7960  -999.2500   505.0020
 3930.0000     0.2950     2.4870     0.0400   318.2880  -999.2500     8.2690   -68.4500   520.3780     3.0690     3.3870     3.5720  -999.2500   510.6070
 3930.5000     0.2950     2.4890     0.0270   322.9760  -999.2500     8.2690   -68.2070   520.3780     3.1590     3.4350     3.4010  -999.2500   516.2120
 3931.0000     0.2830     2.4980     0.0220   327.6640  -999.2500     8.2690   -68.0230   520.3780     3.2500     3.4840     3.5030  -999.2500   521.8180
 3931.5000     0.2730     2.5060     0.0220   332.8910  -999.2500     8.2690   -67.8370   520.3780     3.3230     3.5330     3.6390  -999.2500   527.4230
 3932.0000     0.2680     2.5130     0.0590   340.5790  -999.2500     8.2690   -67.6830   520.3780     3.3700     3.5820     3.7430  -999.2500   532.6520
 3932.5000     0.2710     2.5200     0.0940   348.2660  -999.2500     8.2690   -67.7220   520.3780     3.3320     3.5930     3.7860  -999.2500   537.6030
 3933.0000     0.2760     2.5110     0.0880   355.9540  -999.2500     8.2690   -67.7580   521.6770     3.2880     3.5610     3.8310  -999.2500   542.2420
 3933.5000     0.2800     2.4980     0.0530   363.6420  -999.2500     8.2690   -67.7930   529.6320     3.2430     3.4890     3.7490  -999.2500   546.8810
 3934.0000     0.2790     2.4850     0.0320   371.3300  -999.2500     8.2690   -67.8280   537.5880     3.1980     3.3940     3.6630  -999.2500   551.5200
 3934.5000     0.2790     2.4840     0.0410   379.0170  -999.2500     8.2690   -67.8650   545.5430     3.1560     3.3000     3.6090  -999.2500   556.1590
 3935.0000     0.2770     2.4960     0.0500   386.7050  -999.2500     8.2690   -67.9700   553.4980     3.1240     3.2730     3.5610  -999.2500   560.7970
 3935.5000     0.2720     2.5030     0.0590   394.3930  -999.2500     8.2690   -68.2200   561.4530     3.0920     3.2660     3.4980  -999.2500   565.4360
 3936.0000     0.2700     2.4920     0.0660   402.0810  -999.2500     8.2690   -68.4630   569.4080     3.0600     3.2580     3.4330  -999.2500   570.0750
 3936.5000     0.2730     2.4830     0.0720   409.7690  -999.2500     8.2690   -68.3210   577.3630     3.0470     3.2490     3.3240  -999.2500   574.7140
 3937.0000     0.2760     2.4730     0.0780   417.4560  -999.2500     8.2690   -68.1320   585.3190     3.0470     3.2970     3.2790  -999.2500   579.3530
 3937.5000     0.2820     2.4640     0.0790   426.4410  -999.2500     8.2690   -67.9440   593.2740     3.0470     3.3570     3.3400  -999.2500   583.9920
 3938.0000     0.2870     2.4560     0.0800   436.5210  -999.2500     8.2690   -67.7550   601.2290     3.0470     3.4170     3.5000  -999.2500   588.6310
 3938.5000     0.2810     2.4600     0.0820   446.6000  -999.2500     8.2690   -67.6830   609.1840     3.0470     3.4640     3.6600  -999.2500   593.2700
 3939.0000     0.2700     2.4610     0.0840   456.6800  -999.2500     8.2690   -67.6550   617.1390     3.0660     3.3910     3.7270  -999.2500   597.9090
 3939.5000     0.2560     2.4600     0.0840   466.7590  -999.2500     8.2690   -67.5110   625.0940     3.0850     3.3190     3.6920  -999.2500   602.5480
 3940.0000     0.2610     2.4680     0.0890   476.8390  -999.2500     8.2690   -67.3700   633.4490     3.1040     3.2470     3.5280  -999.2500   607.1870
 3940.5000     0.2680     2.4770     0.0980   486.9180  -999.2500     8.2680   -67.2470   642.3600     3.0420     3.1870     3.4010  -999.2500   611.8260
 3941.0000     0.2680     2.4780     0.1050   495.9240  -999.2500     8.2660   -67.1480   651.2710     2.9820     3.1340     3.4010  -999.2500   617.1340
 3941.5000     0.2590     2.4630     0.1450   504.3240  -999.2500     8.2650   -67.0500   660.1820     2.9210     3.0810     3.4960  -999.2500   622.5400
 3942.0000     0.2530     2.4470     0.1780   512.7240  -999.2500     8.2640   -66.9520   669.0930     2.8700     3.0280     3.2790  -999.2500   627.9450
 3942.5000     0.2500     2.4540     0.1610   521.1230  -999.2500     8.2630   -66.9230   678.0030     2.8320     2.9880     2.7970  -999.2500   633.3500
 3943.0000     0.2570     2.4700     0.0790   529.5230  -999.2500     8.2620   -66.9880   679.4230     2.9880     2.9500     2.5140  -999.2500   638.7550
 3943.5000     0.2650     2.4810     0.0660   537.9220  -999.2500     8.2610   -67.0510   679.4230     3.1130     2.9130     2.6680  -999.2500   642.6490
 3944.0000     0.2590     2.4940     0.0700   546.3220  -999.2500     8.2600   -67.1150   679.4230     3.2180     2.8770     3.0050  -999.2500   644.9420
 3944.5000     0.2570     2.5080     0.0790   541.6000  -999.2500     8.2590   -67.1790   679.4230     3.3180     2.8470     3.3430  -999.2500   647.2360
 3945.0000     0.2600     2.5210     0.0830   516.4020  -999.2500     8.2580   -67.2420   679.4230     3.4330     2.8170     3.7270  -999.2500   649.5290
 3945.5000     0.2680     2.5270     0.0760   420.6760  -999.2500     8.2570   -67.2790   679.4230     3.3770     2.8060     3.5990  -999.2500   651.8220
 3946.0000     0.2690     2.5220     0.0640   303.0820  -999.2500     8.2550   -67.2300   679.4230     3.3260     3.1320     3.3660  -999.2500   661.8360
 3946.5000  -999.2500  -999.2500     0.0680   185.4870  -999.2500     8.2540   -67.1820   679.4230     3.2580     3.0020     3.1330  -999.2500   673.8480
 3947.0000  -999.2500  -999.2500  -999.2500    72.8130  -999.2500     8.2530   -67.1350   716.2640     3.1910     2.9130     3.0340  -999.2500   685.8590
 3947.5000  -999.2500  -999.2500  -999.2500   -21.6820  -999.2500     8.2520   -67.0930   758.4880     3.1240     2.8850     2.9920  -999.2500   697.8710
 3948.0000  -999.2500  -999.2500  -999.2500   -66.1030  -999.2500     8.2510   -67.0920   788.7670     3.0700     2.8850     2.9920  -999.2500   702.1440
 3948.5000  -999.2500  -999.2500  -999.2500   -81.8790  -999.2500     8.2500   -67.0920   768.8870     3.0530     2.8850     2.9920  -999.2500   702.1440
 3949.0000  -999.2500  -999.2500  -999.2500   -95.9240  -999.2500     8.2500   -67.0920   654.9110  -999.2500  -999.2500  -999.2500  -999.2500   624.3770
 3949.5000  -999.2500  -999.2500  -999.2500   -95.9240  -999.2500     8.2500   -67.0920   560.1390  -999.2500  -999.2500  -999.2500  -999.2500   507.9570
 3950.0000  -999.2500  -999.2500  -999.2500   -95.9240  -999.2500     8.2500   -67.0920   408.2750  -999.2500  -999.2500  -999.2500  -999.2500   403.0410
 3950.5000  -999.2500  -999.2500  -999.2500   -95.9240  -999.2500  -999.2500  -999.2500   269.6640  -999.2500  -999.2500  -999.2500  -999.2500  -999.2500
 3951.0000  -999.2500  -999.2500  -999.2500   -95.9240  -999.2500  -999.2500  -999.2500   124.1830  -999.2500  -999.2500  -999.2500  -999.2500  -999.2500
 3951.5000  -999.2500  -999.2500  -999.2500   -95.9240  -999.2500  -999.2500  -999.2500   -58.6480  -999.2500  -999.2500  -999.2500  -999.2500  -999.2500
