~VERSION INFORMATION
 VERS.                2.0:   CWLS LOG ASCII STANDARD - VERSION 2.0
 WRAP.                 NO:   ONE LINE PER DEPTH STEP
~WELL INFORMATION
#MNEM.UNIT      DATA TYPE    INFORMATION
#----------   ------------   ------------------------------
 STRT.F          742.0000:   START DEPTH
 STOP.F         3406.0000:   STOP DEPTH
 STEP.F            0.5000:   STEP LENGTH
 NULL.          -999.2500:   NO VALUE
 COMP. FENIX & SCISSON - US NAVY:   COMPANY
 WELL.   FENIX "AX" #85-4:   WELL
 FLD .      NPR - WILDCAT:   FIELD
 LOC .       S4 T38N R78W:   LOCATION
 CNTY.            NATRONA:   COUNTY
 STAT.            WYOMING:   STATE
 CTRY. UNITED STATES OF AMERICA:   COUNTRY
 SRVC.              WELEX:   SERVICE COMPANY
 DATE.        03-MAY-1977:   LOGDATE
 API .     49025103520000:   API NUMBER
~CURVE INFORMATION
#MNEM.UNIT       API CODE    CURVE DESCRIPTION
#----------   ------------   ------------------------------
 DEPT.F                  :   
 SNP .DEC    41 890 00 00:   SIDEWALL NEUTRON POROSITY
 GR  .GAPI   30 310 01 00:   GAMMA RAY
 SPR .MV     07 010 01 00:   SPONTANEOUS POTENTIAL
 RXO .OHMM   11 220 01 00:   FLUSHED ZONE RESISTIVITY
 GURD.OHMM   07 220 05 00:   GUARD LOG RESISTIVITY
 CALD.IN     45 280 60 00:   CALIPER FROM DENSITY LOG
 RHOB.G/C3   45 350 01 00:   BULK DENSITY
 GRD .GAPI   45 310 01 00:   GAMMA RAY FROM DENSITY LOG
 CORR.G/C3   45 356 01 00:   DENSITY CORRECTION
~PARAMETER INFORMATION
#MNEM.UNIT          VALUE    DESCRIPTION
#----------   ------------   ------------------------------
 EKB .F         5254.0000:   Kelly bushing
 EGL .F         5240.0000:   Ground level
 EDF .F            0.0000:   Drilling floor
 TD  .F         3467.0000:   Total depth
 DATE.        03-MAY-1977:   Date logged
 CLNT.            A2DTECH:   Client Code
 SL  . 2200' FSL & 100' FEL:   Surface Location
 PD  .                 GL:   Permanent Datum
 EPD .F              5240:   Elevation Permanent Datum
 LMF .                 KB:   Log Measured From
 DMF .                 KB:   Drilling Measured From
 DAPD.F                14:   Feet Above Permanent Datum
 DD  .F              3647:   Depth driller
 DL  .F              3404:   Depth logger
 BLI .F              3402:   Bottom log interval
 TLI .F               720:   Top log interval
 CS1 .IN            8.625:   Casing size
 CBD1.      8.625" @ 720':   Casing driller 1
 CBL1.F               760:   Casing logger 1
 BS1 .IN            7.875:   Bit size
 BSD1.F              3467:   Depth drilled with bit1
 DFT .            KCL/MUD:   Type fluid in hole
 DFD .                9.1:   Density
 DFV .                 36:   Viscosity
 DFPH.                  8:   pH
 DFL .                  5:   Fluid loss
 MSS .           FLOWLINE:   Source of sample
 RMS .OHMM            .30:   Rm
 MST .F                66:   Rm Meas. temp.
 RMF .OHMM            .21:   Rmf
 MFST.F                66:   Rmf Meas. temp.
 RMC .OHMM            .49:   Rmc
 MCST.F                66:   Rmc Meas. temp.
 MFSS.               FANN:   Source Rmf.
 MCSS.                KIT:   Source Rmc.
 RMB .OHMM            .18:   Rm. at BHT
 BHT .F               107:   BHT.
 TCS .HRS             2.5:   Time Circ. stopped
 MRT .F               107:   Maximum recorded temp.
 LUN .               8611:   Logging unit number
 LUL .             CASPER:   Logging unit location
 ENGI.            C. DOAK:   Recorded By
 WITN.      B. HARRINGTON:   Witnessed by
 ORIG.     2.5", 5" PRINT:   Origin of data
 UWI .     49025103520000:   Unique Well ID
 DICO. A2D TECHNOLOGIES, INC.:   Digitizing Company
~OTHER INFORMATION
~A   DEPT        SNP       GR        SPR        RXO       GURD         CALD       RHOB       GRD       CORR  
# ...
 1107.0000     0.2000  -999.2500   -27.5390     7.1010     6.4850     9.0780     2.5540    91.2970     0.0320
 1107.5000     0.1960  -999.2500   -27.5390     7.4180     6.7380     9.0770     2.5640    91.5040     0.0360
 1108.0000     0.1920  -999.2500   -27.5390     7.8150     7.4990     9.0750     2.5650    91.6930     0.0360
 1108.5000     0.2050  -999.2500   -27.5390     8.2120     6.6030     9.0740     2.5580    91.8790     0.0330
 1109.0000     0.2030  -999.2500   -27.5390     8.1510     7.1200     9.0720     2.5580    91.9520     0.0300
 1109.5000     0.1950  -999.2500   -27.5390     8.0900     7.6360     9.0710     2.5570    91.8880     0.0270
 1110.0000     0.1880  -999.2500   -27.5390     8.0290     7.3600     9.0690     2.5540    92.2450     0.0250
 1110.5000     0.1850  -999.2500   -27.5390     7.9680     6.9730     9.0680     2.5500    92.3340     0.0250
 1111.0000     0.1840  -999.2500   -27.5390     7.9190     7.1200     9.0660     2.5450    92.3030     0.0240
 1111.5000     0.1840  -999.2500   -27.5390     7.9190     7.3640     9.0650     2.5330    92.6200     0.0230
 1112.0000     0.1830  -999.2500   -27.5390     9.1580     7.6410     9.0630     2.5300    93.2990     0.0210
 1112.5000     0.1800  -999.2500   -27.5400     8.9680     7.9190     9.0620     2.5280    93.9100     0.0210
 1113.0000     0.1800  -999.2500   -27.5360     8.4960     7.8150     9.0600     2.5350    94.5440     0.0180
 1113.5000     0.1820  -999.2500   -27.5460     8.2120     7.6410     9.0590     2.5420    95.1780     0.0170
 1114.0000     0.1850  -999.2500   -27.5300     8.4420     7.3640     9.0570     2.5530    95.7790     0.0170
 1114.5000     0.1850  -999.2500   -27.5240     8.6720     7.4990     9.0560     2.5610    96.4850     0.0220
 1115.0000     0.1830  -999.2500   -27.1690     8.5940     7.9190     9.0540     2.5700    96.2520     0.0280
 1115.5000     0.1860  -999.2500   -27.1560     8.4660     7.7780     9.0530     2.5790    95.5170     0.0340
 1116.0000     0.1830  -999.2500   -27.1420     8.3620     7.6360     9.0520     2.5770    94.7560     0.0370
 1116.5000     0.1820  -999.2500   -27.1520     8.8310     7.6360     9.0640     2.5720    94.9520     0.0340
 1117.0000     0.1870  -999.2500   -27.1480     8.7180     7.7760     9.0810     2.5660    95.2650     0.0330
 1117.5000     0.1930  -999.2500   -27.1480     8.6060     7.7680     9.0970     2.5630    95.5470     0.0330
 1118.0000     0.1910  -999.2500   -27.1490     8.5160     7.7470     9.1130     2.5590    94.8970     0.0340
 1118.5000     0.1890  -999.2500   -27.1480     8.4650     7.7270     9.1290     2.5570    93.7520     0.0360
 1119.0000     0.1860  -999.2500   -27.1480     8.4220     7.7060     9.1450     2.5540    92.5820     0.0370
 1119.5000     0.1850  -999.2500   -27.1490     8.3620     7.6860     9.1620     2.5510    91.8510     0.0330
 1120.0000     0.1910  -999.2500   -27.1480     8.4670     7.6650     9.1700     2.5470    92.1510     0.0290
 1120.5000     0.1870  -999.2500   -27.1480     8.6430     7.6450     9.1690     2.5430    92.5640     0.0250
 1121.0000     0.1800  -999.2500   -27.1490     8.8180     7.6360     9.1690     2.5260    92.9780     0.0210
 1121.5000     0.1800  -999.2500   -27.1470     8.9930     7.6150     9.1690     2.5100    93.1300     0.0170
 1122.0000     0.1860  -999.2500   -27.1640     8.8510     7.5970     9.1690     2.5040    93.0070     0.0130
 1122.5000     0.1930  -999.2500   -27.2060     8.7100     7.5780     9.1690     2.5090    92.7680     0.0090
 1123.0000     0.1980  -999.2500   -27.2460     8.5690     7.5600     9.1690     2.5180    92.5430     0.0100
 1123.5000     0.1980  -999.2500   -27.2860     8.4280     7.5420     9.1690     2.5230    92.3170     0.0120
 1124.0000     0.2000  -999.2500   -27.3260     8.2860     7.5240     9.1690     2.5270    92.0790     0.0150
 1124.5000     0.2030  -999.2500   -27.3660     8.1450     7.5060     9.1690     2.5310    91.8650     0.0180
 1125.0000     0.2060  -999.2500   -27.4060     7.9190     7.4980     9.1690     2.5360    91.6310     0.0210
 1125.5000     0.2040  -999.2500   -27.4460     8.0640     7.4990     9.1690     2.5360    91.4460     0.0210
 1126.0000     0.2020  -999.2500   -27.4860     8.0860     7.4990     9.1700     2.5300    91.0780     0.0170
 1126.5000     0.2010  -999.2500   -27.5260     8.1080     7.4990     9.1590     2.5280    90.7640     0.0100
 1127.0000     0.1870  -999.2500   -27.5670     8.1290     7.4990     9.1360     2.5300    90.9040     0.0140
 1127.5000     0.1930  -999.2500   -27.6070     8.1510     7.4990     9.1160     2.5390    91.3470     0.0180
 1128.0000     0.2020  -999.2500   -27.6470     8.1730     7.4990     9.0950     2.5520    91.7930     0.0230
 1128.5000     0.2050  -999.2500   -27.6870     8.1940     7.5000     9.0740     2.5640    92.2290     0.0270
 1129.0000     0.2040  -999.2500   -27.7270     8.2120     7.4880     9.0530     2.5710    92.6760     0.0320
 1129.5000     0.2020  -999.2500   -27.7670     8.1940     7.4670     9.0510     2.5650    93.1140     0.0320
 1130.0000     0.2010  -999.2500   -27.8070     8.1730     7.4470     9.0510     2.5580    93.5530     0.0300
 1130.5000     0.2070  -999.2500   -27.8470     8.1510     7.4270     9.0510     2.5530    94.0130     0.0290
 1131.0000     0.2140  -999.2500   -27.8870     8.1290     7.4070     9.0510     2.5560    94.4100     0.0300
 1131.5000     0.2210  -999.2500   -27.9280     8.1080     7.3890     9.0510     2.5560    95.0590     0.0330
 1132.0000     0.2190  -999.2500   -27.9680     8.0860     7.3660     9.0510     2.5530    94.6770     0.0350
 1132.5000     0.2130  -999.2500   -28.0080     8.0650     7.3920     9.0510     2.5550    93.9370     0.0370
 1133.0000     0.2080  -999.2500   -28.0480     8.0830     7.4250     9.0510     2.5570    93.2450     0.0400
 1133.5000     0.2060  -999.2500   -28.0880     8.1180     7.4590     9.0510     2.5540    92.5460     0.0400
 1134.0000     0.2090  -999.2500   -28.1280     8.1520     7.4930     9.0510     2.5470    91.8640     0.0380
 1134.5000     0.2070  -999.2500   -28.1680     8.1840     7.5270     9.0510     2.5380    91.1930     0.0370
 1135.0000     0.2010  -999.2500   -28.2080     8.2090     7.5610     9.0510     2.5300    91.1220     0.0340
 1135.5000     0.1950  -999.2500   -28.2480     8.1760     7.5950     9.0510     2.5220    91.4990     0.0310
 1136.0000     0.1930  -999.2500   -28.2890     8.1540     7.6360     9.0510     2.5130    92.6280     0.0270
 1136.5000     0.1970  -999.2500   -28.3290     8.1320     7.5800     9.0510     2.5040    93.6660     0.0240
 1137.0000     0.2000  -999.2500   -28.3690     8.1010     7.5100     9.0510     2.5000    94.7520     0.0210
 1137.5000     0.2040  -999.2500   -28.4090     8.0640     7.4390     9.0510     2.5060    95.1380     0.0220
 1138.0000     0.2080  -999.2500   -28.4490     8.2130     7.3690     9.0510     2.5110    94.6710     0.0230
 1138.5000     0.2170  -999.2500   -28.4890     8.5160     7.2980     9.0510     2.5170    93.7640     0.0240
 1139.0000     0.2130  -999.2500   -28.5290    12.0260     7.2280     9.0510     2.5190    92.8990     0.0250
 1139.5000     0.2110  -999.2500   -28.5690     7.4990     7.1570     9.0510     2.5210    91.9950     0.0250
 1140.0000     0.2130  -999.2500   -28.6090     7.7150     7.1010     9.0510     2.5230    91.2230     0.0220
 1140.5000     0.2090  -999.2500   -28.6490     8.0750     7.9190     9.0510     2.5250    90.8380     0.0190
 1141.0000     0.2030  -999.2500   -28.6910     8.3620     7.8430     9.0510     2.5250    90.7200     0.0160
 1141.5000     0.1960  -999.2500   -28.7130     8.2520     7.7170     9.0510     2.5200    91.0830     0.0140
 1142.0000     0.1890  -999.2500   -28.7110     8.1130     7.5910     9.0510     2.5160    92.5720     0.0110
 1142.5000     0.1860  -999.2500   -28.7230     7.9740     7.4650     9.0510     2.5140    94.0350     0.0080
 1143.0000     0.1870  -999.2500   -28.7370     7.9190     7.3640     9.0510     2.5180    95.5630     0.0040
