~VERSION INFORMATION
 VERS.                2.0:   CWLS LOG ASCII STANDARD - VERSION 2.0
 WRAP.                 NO:   ONE LINE PER DEPTH STEP
~WELL INFORMATION
#MNEM.UNIT      DATA TYPE    INFORMATION
#----------   ------------   ------------------------------
 STRT.F          200.0000:   START DEPTH
 STOP.F         3080.0000:   STOP DEPTH
 STEP.F            0.5000:   STEP LENGTH
 NULL.          -999.2500:   NO VALUE
 COMP.    FENIX & SCISSON:   COMPANY
 WELL. FENIX NPR 3 "AX" #55-33:   WELL
 FLD .        TEAPOT DOME:   FIELD
 LOC .      S33 T38N R78W:   LOCATION
 CNTY.            NATRONA:   COUNTY
 STAT.            WYOMING:   STATE
 CTRY. UNITED STATES OF AMERICA:   COUNTRY
 SRVC.           BIRDWELL:   SERVICE COMPANY
 DATE.        08-FEB-1978:   LOGDATE
 API .     49025105740000:   API NUMBER
~CURVE INFORMATION
#MNEM.UNIT       API CODE    CURVE DESCRIPTION
#----------   ------------   ------------------------------
 DEPT.F                  :   
 CALD.IN     45 280 60 00:   CALIPER FROM DENSITY LOG
 GRD .GAPI   45 310 01 00:   GAMMA RAY FROM DENSITY LOG
 RHOB.G/C3   45 350 01 00:   BULK DENSITY
 CORR.G/C3   45 356 01 00:   DENSITY CORRECTION
 NPOR.DEC    42 890 03 00:   ALPHA PROCESSED NEUTRON POROSITY
 SPR .MV     05 010 01 00:   SPONTANEOUS POTENTIAL
 SN  .OHMM   05 040 16 00:   SHORT NORMAL 16"
 ILD .OHMM   05 120 46 00:   DEEP INDUCTION RESISTIVITY
~PARAMETER INFORMATION
#MNEM.UNIT          VALUE    DESCRIPTION
#----------   ------------   ------------------------------
 EKB .F         5197.0000:   Kelly bushing
 EGL .F         5187.0000:   Ground level
 EDF .F            0.0000:   Drilling floor
 TD  .F         3084.0000:   Total depth
 DATE.        08-FEB-1978:   Date logged
 CLNT.            A2DTECH:   Client Code
 SL  . 2000' FSL & 2310' FEL:   Surface Location
 PD  .                 GL:   Permanent Datum
 EPD .F              5187:   Elevation Permanent Datum
 LMF .                 KB:   Log Measured From
 DMF .                 KB:   Drilling Measured From
 DAPD.F                10:   Feet Above Permanent Datum
 DD  .F              3084:   Depth driller
 DL  .F              3080:   Depth logger
 BLI .F              3074:   Bottom log interval
 TLI .F               200:   Top log interval
 CS1 .IN            8.625:   Casing size
 CBD1.      8.625" @ 229':   Casing driller 1
 CBL1.F               230:   Casing logger 1
 BS1 .IN            7.875:   Bit size
 BSD1.F              3084:   Depth drilled with bit1
 DFT .     LIGNOSULFONATE:   Type fluid in hole
 DFD .                9.2:   Density
 DFV .                 30:   Viscosity
 DFPH.                  9:   pH
 DFL .                  5:   Fluid loss
 MSS .           FLOWLINE:   Source of sample
 RMS .OHMM            1.5:   Rm
 MST .F                62:   Rm Meas. temp.
 RMF .OHMM            1.2:   Rmf
 MFST.F                66:   Rmf Meas. temp.
 RMC .OHMM            2.8:   Rmc
 MCST.F                65:   Rmc Meas. temp.
 MFSS.               MEAS:   Source Rmf.
 RMB .OHMM            .82:   Rm. at BHT
 BHT .F               114:   BHT.
 TCS .HRS               3:   Time Circ. stopped
 MRT .F               114:   Maximum recorded temp.
 LUN .               2958:   Logging unit number
 LUL .               CASP:   Logging unit location
 ENGI.            POINTER:   Recorded By
 WITN.         HARRINGTON:   Witnessed by
 ORIG.           5" PRINT:   Origin of data
 UWI .     49025105740000:   Unique Well ID
 DICO. A2D TECHNOLOGIES, INC.:   Digitizing Company
~OTHER INFORMATION
~A   DEPT       CALD      GRD       RHOB        CORR      NPOR        SPR         SN        ILD   
# ...
 1172.0000     9.8526    74.6663     2.5365     0.0774  -999.2500   -50.5132     9.6819     8.8530
 1172.5000     9.8524    77.2435     2.5195     0.0774  -999.2500   -51.3072     9.6818     8.8529
 1173.0000     9.8522    81.0112     2.5195     0.0774  -999.2500   -51.3082     9.5931     8.8528
 1173.5000     9.8917    83.5888     2.5195     0.0934  -999.2500   -51.3092     9.5052     8.8526
 1174.0000     9.9509    85.1736     2.5225     0.0994  -999.2500   -51.1120     9.5051     8.8525
 1174.5000     9.9309    85.3708     2.5275     0.1034  -999.2500   -51.3112     9.4180     8.8524
 1175.0000     9.9505    83.1859     2.5215     0.1034  -999.2500   -51.3122     9.3317     8.8522
 1175.5000     9.9703    79.0174     2.5175     0.1034  -999.2500   -51.3132     9.2463     8.8521
 1176.0000     9.9303    76.8329     2.5155     0.1074  -999.2500   -51.3142     9.1616     8.7709
 1176.5000     9.9500    77.4261     2.5375     0.1074  -999.2500   -51.5135     9.0776     8.6905
 1177.0000     9.9498    79.4081     2.5285     0.0994  -999.2500   -50.7214     9.0775     8.6903
 1177.5000     9.9297    80.0009     2.5235     0.0954  -999.2500   -50.3259     8.9944     8.6902
 1178.0000     9.9494    78.0152     2.5225     0.0954  -999.2500   -50.3269     8.9942     8.6901
 1178.5000     9.9492    77.2196     2.5225     0.0934  -999.2500   -50.1297     8.9118     8.6104
 1179.0000     9.9490    76.8199     2.5225     0.0934  -999.2500   -49.7342     8.9117     8.6102
 1179.5000     9.9885    77.0171     2.5175     0.0954  -999.2500   -50.1317     8.9116     8.6101
 1180.0000    10.0081    76.8171     2.5185     0.0974  -999.2500   -50.3310     8.9114     8.6100
 1180.5000    10.0278    77.8071     2.5215     0.0994  -999.2500   -50.3320     8.9113     8.6099
 1181.0000    10.0474    79.1939     2.5285     0.1054  -999.2500   -50.3330     8.9112     8.5309
 1181.5000    10.0273    80.3827     2.5445     0.1154  -999.2500   -50.7303     8.9111     8.5308
 1182.0000     9.9677    76.8090     2.5684     0.1054  -999.2500   -50.7313     8.9932     8.4525
 1182.5000     9.9476    76.0133     2.5784     0.1034  -999.2500   -51.7235     8.9930     8.7692
 1183.0000     9.9871    77.0033     2.5435     0.1014  -999.2500   -51.7245     8.9929     8.6888
 1183.5000     9.9670    80.9698     2.5235     0.1254  -999.2500   -51.5273     8.8290     8.6091
 1184.0000     9.9867    82.9518     2.5135     0.1613  -999.2500   -51.9247     8.6682     8.5302
 1184.5000     9.9667    78.9817     2.5255     0.1673  -999.2500   -52.1240     8.5888     8.2978
 1185.0000     9.9665    75.0111     2.5455     0.1653  -999.2500   -52.7197     8.5887     8.2977
 1185.5000     9.9067    74.4139     2.5495     0.1593  -999.2500   -52.5225     8.5885     8.3743
 1186.0000    10.1842    75.2059     2.5395     0.1514  -999.2500   -52.1270     8.5884     8.3468
 1186.5000     9.9857    76.9895     2.5345     0.1494  -999.2500   -51.7316     8.5098     8.3195
 1187.0000    10.0053    78.1779     2.5285     0.1494  -999.2500   -49.5340     8.5097     8.2922
 1187.5000    10.0448    80.3579     2.5335     0.1573  -999.2500   -49.9310     8.4318     8.2650
 1188.0000    10.1438    80.3571     2.5365     0.1633  -999.2500   -50.7250     8.3545     8.2379
 1188.5000    10.0444    80.3559     2.5385     0.1633  -999.2500   -51.5372     8.3544     8.2109
 1189.0000    10.0045    78.3686     2.5285     0.1633  -999.2500   -51.9347     8.3543     8.1840
 1189.5000    10.0242    76.5809     2.5265     0.1693  -999.2500   -50.9445     8.2777     8.1571
 1190.0000    10.0240    76.3805     2.5295     0.1693  -999.2500   -50.5490     8.2777     8.1304
 1190.5000    10.0437    76.3785     2.5315     0.1673  -999.2500   -50.5501     8.2775     8.1037
 1191.0000    10.0633    76.5748     2.5315     0.1613  -999.2500   -50.3526     8.2017     8.0772
 1191.5000    10.1027    77.5648     2.5275     0.1613  -999.2500   -50.3536     8.2016     8.0507
 1192.0000    10.1026    80.7373     2.5285     0.1633  -999.2500   -50.3547     8.2015     8.0243
 1192.5000    10.1619    81.5293     2.5275     0.1613  -999.2500   -50.9504     8.1264     7.9980
 1193.0000    10.2014    81.5273     2.5225     0.1613  -999.2500   -50.3567     8.1263     7.9718
 1193.5000    10.2012    81.7237     2.5165     0.1633  -999.2500   -50.3577     8.1262     7.9456
 1194.0000    10.2208    83.1096     2.5245     0.1593  -999.2500   -50.5569     8.1260     7.9196
 1194.5000    10.2405    82.1164     2.5315     0.1533  -999.2500   -50.3597     8.1260     7.8936
 1195.0000    10.2204    79.7335     2.5315     0.1354  -999.2500   -50.5590     8.1258     7.8677
 1195.5000    10.2797    78.3426     2.5325     0.1134  -999.2500   -50.7582     8.1257     7.8419
 1196.0000    10.0415    78.1422     2.5455     0.1094  -999.2500   -51.7504     8.1256     7.8162
 1196.5000    10.1007    77.1482     2.5504     0.1114  -999.2500   -51.9494     8.0512     7.7906
 1197.0000    10.0212    77.1461     2.5584     0.1094  -999.2500   -52.1487     7.9775     7.7650
 1197.5000    10.0011    78.1365     2.5415     0.0974  -999.2500   -52.1497     7.9774     7.7396
 1198.0000     9.8224    80.3166     2.5135     0.0954  -999.2500   -51.1595     7.9044     7.7142
 1198.5000     9.7825    79.5213     2.5135     0.0994  -999.2500   -50.7641     7.9042     7.6889
 1199.0000     9.7625    79.1225     2.5195     0.1174  -999.2500   -50.5669     7.9041     7.6637
 1199.5000     9.7623    78.9220     2.5225     0.1314  -999.2500   -50.5679     7.9040     7.6386
 1200.0000     9.7819    80.1104     2.5215     0.1414  -999.2500   -50.5689     7.9039     7.6135
 1200.5000     9.7817    79.4184     2.5187     0.1447  -999.2500   -50.1789     7.9038     7.5886
 1201.0000     9.8017    78.1257     2.5205     0.1493  -999.2500   -49.7788     7.9027     7.5673
 1201.5000     9.8215    77.9270     2.5325     0.1573  -999.2500   -49.5821     7.9020     7.5636
 1202.0000     9.8214    78.3235     2.5454     0.1553  -999.2500   -49.9802     7.9015     7.5630
 1202.5000     9.8412    80.1088     2.5464     0.1513  -999.2500   -50.3782     7.9009     7.5625
 1203.0000     9.8411    80.1086     2.5464     0.1433  -999.2500   -50.3798     7.9003     7.5621
 1203.5000     9.8411    78.9179     2.5494     0.1413  -999.2500   -50.5797     7.8996     7.5615
 1204.0000     9.8411    76.9336     2.5494     0.1333  -999.2500   -50.5813     7.8990     7.5609
 1204.5000     9.8410    76.5366     2.5474     0.1273  -999.2500   -50.5828     7.8984     7.5600
 1205.0000     9.8409    79.1154     2.5404     0.1193  -999.2500   -50.5841     7.8977     7.5594
 1205.5000     9.8409    81.2974     2.5374     0.1173  -999.2500   -50.7839     7.8971     7.5588
 1206.0000     9.8409    81.4955     2.5394     0.1173  -999.2500   -50.7855     7.9693     7.6281
 1206.5000     9.8408    81.2968     2.5384     0.1153  -999.2500   -51.1836     7.9688     7.5577
 1207.0000     9.8011    80.3045     2.5374     0.1152  -999.2500   -51.1852     7.9682     7.5575
 1207.5000     9.8209    79.5107     2.5364     0.1172  -999.2500   -51.3851     7.9675     7.5565
 1208.0000     9.8407    79.7088     2.5384     0.1212  -999.2500   -51.1884     7.9669     7.4867
 1208.5000     9.8605    79.9069     2.5494     0.1232  -999.2500   -50.7935     7.8934     7.4861
 1209.0000     9.8803    80.1050     2.5454     0.1292  -999.2500   -50.5968     7.8928     7.4855
 1209.5000     9.9199    80.1047     2.5364     0.1292  -999.2500   -50.5981     7.8200     7.4849
 1210.0000     9.9397    79.1124     2.5224     0.1372  -999.2500   -50.7979     7.8194     7.4843
 1210.5000     9.9595    79.9057     2.5194     0.1412  -999.2500   -50.6012     7.8187     7.4837
 1211.0000     9.9594    81.8891     2.5184     0.1511  -999.2500   -50.6028     7.8182     7.4832
 1211.5000     9.9792    83.4757     2.5314     0.1631  -999.2500   -50.6044     7.8176     7.4826
 1212.0000     9.9791    85.2607     2.5533     0.1671  -999.2500   -50.4077     7.8170     7.4820
