~VERSION INFORMATION
 VERS.                2.0:   CWLS LOG ASCII STANDARD - VERSION 2.0
 WRAP.                 NO:   ONE LINE PER DEPTH STEP
~WELL INFORMATION
#MNEM.UNIT      DATA TYPE    INFORMATION
#----------   ------------   ------------------------------
 STRT.F            0.0000:   START DEPTH
 STOP.F         5786.0000:   STOP DEPTH
 STEP.F            0.5000:   STEP LENGTH
 NULL.          -999.2500:   NO VALUE
 COMP. U.S. DEPARTMENT OF ENERGY:   COMPANY
 WELL. DEPARTMENT "X" #2-3:   WELL
 FLD .           N P R #3:   FIELD
 LOC .       S3 T38N R78W:   LOCATION
 CNTY.            NATRONA:   COUNTY
 STAT.            WYOMING:   STATE
 CTRY. UNITED STATES OF AMERICA:   COUNTRY
 SRVC.       BAKER HUHGES:   SERVICE COMPANY
 DATE.        14-JUL-2002:   LOGDATE
 API .     49025230540000:   API NUMBER
~CURVE INFORMATION
#MNEM.UNIT       API CODE    CURVE DESCRIPTION
#----------   ------------   ------------------------------
 DEPT.F                  :   
 TEND.LBS    45 635 01 00:   TENSION FROM DENSITY LOG
 CALD.IN     45 280 60 00:   CALIPER FROM DENSITY LOG
 ZCOR.G/C3   45 356 01 00:   DENSITY CORRECTION
 PE  .B/E    45 358 01 00:   PHOTOELECTRIC FACTOR
 ZDEN.G/C3   45 350 01 00:   BULK DENSITY
 CNCF.DEC    42 890 03 00:   NEUTRON POROSITY
 TENS.LBS    60 635 01 00:   TENSION FROM SONIC
 DT  .US/F   60 520 00 00:   DELTA TIME
 RD  .OHMM   11 220 10 00:   RESISTIVITY DEEP
 TENR.LBS    11 635 01 00:   TENSION FROM RES. LOG
 RS  .OHMM   11 220 09 00:   RESISTIVITY SHALLOW
 GRR .GAPI   11 310 01 00:   GAMMA RAY FROM RES.
 RMLL.OHMM   11 270 04 00:   MICRO LATEROLOG
 SPR .MV     11 010 01 00:   SPONTANEOUS POTENTIAL FROM RES.
~PARAMETER INFORMATION
#MNEM.UNIT          VALUE    DESCRIPTION
#----------   ------------   ------------------------------
 EKB .F         5164.7000:   Kelly bushing
 EGL .F         5154.7000:   Ground level
 EDF .F         5163.7000:   Drilling floor
 TD  .F         5773.0000:   Total depth
 DATE.        14-JUL-2002:   Date logged
 CLNT.            A2DTECH:   Client Code
 SL  . 838' FNL & 2128' FWL:   Surface Location
 PD  .                 GL:   Permanent Datum
 EPD .F            5154.7:   Elevation Permanent Datum
 LMF .                 KB:   Log Measured From
 DMF .                 KB:   Drilling Measured From
 DD  .F              5770:   Depth driller
 DL  .F              5773:   Depth logger
 BLI .F              5770:   Bottom log interval
 CS1 .IN            9.625:   Casing size
 CBD1.       9.625 @ 578':   Casing driller 1
 CBL1.F               578:   Casing logger 1
 BS1 .IN             8.75:   Bit size
 DFT .       GEL/CHEMICAL:   Type fluid in hole
 DFD .                  9:   Density
 DFV .                 45:   Viscosity
 DFPH.                8.5:   pH
 DFL .                9.6:   Fluid loss
 MSS .           FLOWLINE:   Source of sample
 RMS .OHMM          0.568:   Rm
 MST .F                91:   Rm Meas. temp.
 RMF .OHMM          0.490:   Rmf
 MFST.F                92:   Rmf Meas. temp.
 RMC .OHMM          1.072:   Rmc
 MCST.F                90:   Rmc Meas. temp.
 MFSS.               MEAS:   Source Rmf.
 RMB .OHMM          0.291:   Rm. at BHT
 BHT .F               184:   BHT.
 TCS .HRS               8:   Time Circ. stopped
 MRT .F               184:   Maximum recorded temp.
 LUN .            HL-6530:   Logging unit number
 LUL .             CASPER:   Logging unit location
 ENGI.           VERCIMAK:   Recorded By
 WITN.              HARDY:   Witnessed by
 ORIG.           5" PRINT:   Origin of data
 UWI .     49025230540000:   Unique Well ID
 DICO. A2D TECHNOLOGIES, INC.:   Digitizing Company
~OTHER INFORMATION
~A    DEPT    TEND       CALD       ZCOR         PE       ZDEN       CNCF       TENS         DT         RD       TENR         RS         GRR      RMLL        SPR   
# ...
 4361.0000     9.1200    11.4980     0.2430     2.6060     2.4280     0.2740   -43.7880    84.3490     3.7840   -40.5710     4.2720    88.5860     4.4520     3.9050
 4361.5000   -21.6000    11.5160     0.2280     2.5480     2.4420     0.2760   -42.8770    86.0420     3.7910   -45.4090     4.2610    86.1480     4.3290     3.9380
 4362.0000   -40.4890    11.4680     0.2230     2.4900     2.4700     0.2700   -41.9660    86.1010     3.7970   -45.4090     4.2500    85.6000     4.3670     4.0530
 4362.5000    -2.2220    11.4230     0.2070     2.4390     2.5190     0.2700   -41.0550    85.9730     3.8060   -45.4090     4.2060    86.6890     4.6590     4.1680
 4363.0000    25.0000    11.4410     0.1960     2.4030     2.5280     0.2740   -40.1450    86.4450     3.6840   -41.0880     4.1940    88.3790     4.4990     4.2670
 4363.5000   -19.5000    11.4570     0.2140     2.3710     2.4950     0.2760   -39.2340    88.8860     3.5490   -35.3000     4.1810    88.7920     4.1560     4.2670
 4364.0000   -60.5000    11.4850     0.2730     2.4550     2.4250     0.2720   -38.3230    91.3270     3.4140   -29.5120     4.0960    91.6110     4.0180     4.0950
 4364.5000   -69.4470    11.5140     0.2940     2.5530     2.3610     0.2640   -37.4120    92.7560     3.3460   -25.4490     3.9500    92.9600     3.9850     3.7640
 4365.0000   -46.2940    11.5430     0.2760     2.6320     2.3460     0.2590   -36.5020    91.4010     3.2850   -28.4430     3.7880    91.6800     3.7050     3.5010
 4365.5000   -23.1410    11.5710     0.2540     2.6290     2.3620     0.2600   -35.5910    90.0750     3.2660   -31.1770     3.6690    89.4750     3.6690     4.1220
 4366.0000     0.0120    11.6360     0.2420     2.5500     2.3720     0.2620   -34.6800    88.8480     3.2430   -33.9100     3.6520    89.1910     4.0590     4.8120
 4366.5000     0.7110    11.7060     0.2300     2.3420     2.3610     0.2660   -34.5690    88.7470     3.2260   -32.8840     3.6150    89.7370     4.0090     5.4960
 4367.0000    -4.7560    11.7770     0.1980     2.1390     2.3330     0.2700   -34.5690    90.2520     3.1320   -22.3410     3.6020    92.3160     3.8970     5.7050
 4367.5000   -10.2220    11.8440     0.1630     2.1100     2.2930     0.2800   -34.5690    91.4850     3.0500   -11.7980     3.5450    94.7090     3.8770     5.7730
 4368.0000   -11.0550    11.8800     0.1690     2.1570     2.2420     0.3000   -34.5690    91.7400     2.9680    -6.8860     3.4360    94.1950     3.8400     5.8350
 4368.5000    20.2550    11.9170     0.1940     2.3230     2.1820     0.3200   -34.5690    92.3850     2.8860   -13.9150     3.3460    93.6620     3.6560     5.9390
 4369.0000    51.5640    11.9540     0.2300     2.3100     2.1270     0.3230   -34.5690    93.3570     2.8040   -20.9440     3.2630    95.5030     3.5040     6.3240
 4369.5000    34.5600    11.9840     0.2510     2.2850     2.1140     0.3210   -34.5690    93.1310     2.7840   -24.6080     3.2020    97.3630     3.4720     6.7020
 4370.0000    11.6000    12.0140     0.2010     2.3330     2.1100     0.3190   -34.5690    92.7560     2.7340   -22.2650     3.1380    98.0500     3.4720     7.0990
 4370.5000   -11.3600    12.0430     0.1710     2.4590     2.0920     0.3210   -34.5690    93.5570     2.7300   -19.9220     3.1380    98.2190     3.4670     6.8470
 4371.0000   -16.0300    12.0730     0.1570     2.7580     2.0600     0.3300   -34.5690    95.4970     2.7260   -17.5790     3.1540    97.9100     3.4510     6.5380
 4371.5000   -17.6430    12.0710     0.1470     3.1010     2.0680     0.3340   -34.5690    97.1550     2.7220   -15.4690     3.1680    97.5970     3.4400     6.2330
 4372.0000   -19.2560    12.0610     0.1660     3.1930     2.0770     0.3370   -34.5690    98.2390     2.7180   -25.4490     3.1830    97.2790     3.6720     6.1290
 4372.5000   -20.8690    12.0430     0.1960     3.2740     2.0470     0.3390   -33.2590    98.4120     2.7140   -25.4490     3.1960    96.9600     3.9120     6.3460
 4373.0000   -22.4820    11.9440     0.2140     3.2670     2.0220     0.3420   -30.6430    96.9740     2.7100   -25.4490     3.1850    96.2220     3.6680     6.5490
 4373.5000   -24.0950    11.8850     0.2030     3.1910     2.0340     0.3440   -28.0280    95.4610     2.6880   -25.4490     3.1750    94.9800     3.6020     6.4960
 4374.0000   -25.7080    11.7000     0.1660     3.0170     2.0530     0.3440   -25.4120    95.8390     2.6410   -25.4490     3.1670    93.7480     3.4640     6.0590
 4374.5000   -27.3210    11.4120     0.0800     2.8450     2.0760     0.3550   -22.7970    96.9640     2.5950   -25.4490     3.1670    92.8100     3.2930     5.6640
 4375.0000   -28.9340    11.1230     0.0610     2.6770     2.1430     0.3660   -20.1810    97.2850     2.5480   -25.4490     3.1670    94.6100     3.2260     5.2680
 4375.5000   -30.5480    10.8360     0.0780     2.6510     2.2170     0.3610   -17.5660    97.9010     2.5020   -25.4490     3.1380    96.4430     3.2790     4.8740
 4376.0000   -32.1610    10.7010     0.1040     2.7800     2.2930     0.3490   -14.9500    98.5680     2.4320   -21.9690     3.1090    97.6550     3.3160     5.1290
 4376.5000   -33.7740    10.5860     0.1100     2.9320     2.3800     0.3400    -9.8480    99.1680     2.4480   -12.7430     3.0530    97.8860     2.9540     5.4610
 4377.0000   -34.0920    10.4550     0.0860     3.1030     2.4480     0.3450    -2.5620    97.9670     2.5630    -3.5180     3.1380    97.2180     2.5630     5.5920
 4377.5000   -30.3080    10.2590     0.0420     3.0960     2.4960     0.3480     4.7240    96.5640     2.6220    -5.4890     3.3180    98.0070     2.3820     5.6680
 4378.0000   -26.5230    10.0990     0.0060     3.0430     2.5020     0.3400     5.5110    95.1620     2.6870    -9.6440     3.4720   100.6810     3.0530     5.4080
 4378.5000   -26.9400    10.1140     0.0210     2.9920     2.3740     0.3300     5.5110    93.6570     2.7590   -14.1170     3.4400   105.0080     3.1090     4.9460
 4379.0000   -31.8600    10.1180     0.0780     3.0970     2.2770     0.3330     5.5110    95.0810     2.7590   -14.6710     3.4640   110.6340     3.3770     4.3120
 4379.5000   -36.7800    10.0680     0.1510     3.5020     2.2230     0.3200     5.5110    97.7440     2.7360   -11.9370     3.4790   116.8240     3.4090     3.6530
 4380.0000   -41.7000     9.9680     0.2100     3.8840     2.1660     0.3000     5.5110    98.4670     2.7090    -9.2040     3.4950   121.5850     3.3770     3.5330
 4380.5000   -41.1880     9.8700     0.1900     4.1720     2.3100     0.2030     5.5110    84.2870     3.2260    -6.4700     5.6200   110.7350     3.4090     3.6150
 4381.0000   -29.6120     9.7720     0.0870     4.0790     2.4280     0.1490     0.3010    73.0260     6.5880    -5.4890    21.1960    86.7710     7.2740     3.6580
 4381.5000   -18.0350     9.6800     0.0090     3.9460     2.5440     0.1010    -4.5090    61.5240    20.4950    -5.4890    72.1860    63.0190    13.2050     3.5110
 4382.0000    -6.4590     9.6630     0.0050     3.8930     2.6180     0.0540    -4.5090    53.2910    73.5960    -5.4890   123.1750    45.2330   554.8090     3.3000
 4382.5000    -5.0000     9.6630     0.0080     3.8400     2.6560     0.0410    -4.5090    52.6890   117.3380    -5.4890   146.9660    37.2170   100.3760     3.1070
 4383.0000    -5.0000     9.6790     0.0150     3.8050     2.6680     0.0400    -4.5090    53.5540   139.7470    -5.4890   158.9390    34.6020   116.2790     2.9080
 4383.5000    -5.0000     9.6950     0.0250     3.7950     2.6630     0.0410    -4.5090    54.2120   133.2680    -5.4890   152.4210    35.0400   113.1160     2.8790
 4384.0000    -5.0000     9.7100     0.0310     3.7180     2.6530     0.0460    -4.5090    54.3260   121.9020    -5.4890   134.6680    37.5750   109.0330     2.9570
 4384.5000    -5.0000     9.7240     0.0230     3.6290     2.6390     0.0550    -4.5090    54.6500   111.0560    -5.4890   116.9150    45.1330    98.5800     3.0370
 4385.0000    -5.0000     9.7320     0.0130     3.7240     2.6250     0.0760    -4.5090    57.5800    91.5490    -5.4890    99.1620    56.8660    65.1680     3.1180
