~VERSION INFORMATION
 VERS.                2.0:   CWLS LOG ASCII STANDARD - VERSION 2.0
 WRAP.                 NO:   ONE LINE PER DEPTH STEP
~WELL INFORMATION
#MNEM.UNIT      DATA TYPE    INFORMATION
#----------   ------------   ------------------------------
 STRT.F          200.0000:   START DEPTH
 STOP.F         3060.0000:   STOP DEPTH
 STEP.F            0.5000:   STEP LENGTH
 NULL.          -999.2500:   NO VALUE
 COMP.    FENIX & SCISSON:   COMPANY
 WELL. FENIX & SCISSON NPR "AX" #81-10:   WELL
 FLD .                NPR:   FIELD
 LOC .      S10 T38N R78W:   LOCATION
 CNTY.            NATRONA:   COUNTY
 STAT.            WYOMING:   STATE
 CTRY. UNITED STATES OF AMERICA:   COUNTRY
 SRVC.              WELEX:   SERVICE COMPANY
 DATE.        28-NOV-1977:   LOGDATE
 API .     49025104400000:   API NUMBER
~CURVE INFORMATION
#MNEM.UNIT       API CODE    CURVE DESCRIPTION
#----------   ------------   ------------------------------
 DEPT.F                  :   
 CALD.IN     45 280 60 00:   CALIPER FROM DENSITY LOG
 GRD .GAPI   45 310 01 00:   GAMMA RAY FROM DENSITY LOG
 RHOB.G/C3   45 350 01 00:   BULK DENSITY
 CORR.G/C3   45 356 01 00:   DENSITY CORRECTION
 TEND.LBS    45 635 01 00:   TENSION FROM DENSITY LOG
 NPHI.DEC    42 890 03 00:   NEUTRON POROSITY SANDSTONE
 SPR .MV     07 010 01 00:   SPONTANEOUS POTENTIAL
 IL  .OHMM   07 120 00 00:   INDUCTION LOG RES.
 ASGR.OHMM   07 221 05 00:   AMPLIFIED SHALLOW GUARD
 SNP .DEC    41 890 00 00:   SIDEWALL NEUTRON POROSITY
~PARAMETER INFORMATION
#MNEM.UNIT          VALUE    DESCRIPTION
#----------   ------------   ------------------------------
 EKB .F         5147.0000:   Kelly bushing
 EGL .F         5137.0000:   Ground level
 EDF .F            0.0000:   Drilling floor
 TD  .F         3058.0000:   Total depth
 DATE.        28-NOV-1977:   Date logged
 CLNT.            A2DTECH:   Client Code
 PD  .                 GL:   Permanent Datum
 EPD .F              5137:   Elevation Permanent Datum
 LMF .                 KB:   Log Measured From
 DMF .                 KB:   Drilling Measured From
 DD  .F              3055:   Depth driller
 DL  .F              3058:   Depth logger
 BLI .F              3055:   Bottom log interval
 TLI .F               200:   Top log interval
 CS1 .IN            8.625:   Casing size
 CBD1.      8.625" @ 205':   Casing driller 1
 CBL1.F               215:   Casing logger 1
 BSD1.F              3055:   Depth drilled with bit1
 DFT .            KCL/MUD:   Type fluid in hole
 ENGI.            BENTSEN:   Recorded By
 WITN.         HARRINGTON:   Witnessed by
 ORIG.           5" PRINT:   Origin of data
 UWI .     49025104400000:   Unique Well ID
 DICO. A2D TECHNOLOGIES, INC.:   Digitizing Company
 DAPD.                 10:   Feet Above Permanent Datum
 BS1 .IN            7.875:   Bit size
 DFD .                8.9:   Density
 DFV .                 35:   Viscosity
 MSS .           FLOWLINE:   Source of sample
 RMS .OHMM            .17:   Rm
 MST .F                75:   Rm Meas. temp.
 RMF .OHMM            .12:   Rmf
 MFST.F                75:   Rmf Meas. temp.
 MFSS.               FANN:   Source Rmf.
 RMC .OHMM            .50:   Rmc
 MCST.F                75:   Rmc Meas. temp.
 MCSS.                KIT:   Source Rmc.
 RMB .OHMM           .113:   Rm. at BHT
 BHT .F               113:   BHT.
 TCS .HRS             2.5:   Time Circ. stopped
 MRT .F               113:   Maximum recorded temp.
 LUN .               9685:   Logging unit number
 LUL .             CASPER:   Logging unit location
 SL  . 601' FNL & 200' FEL:   Surface Location
~OTHER INFORMATION
~A   DEPT       CALD      GRD       RHOB       CORR        TEND        NPHI       SPR        IL       ASGR        SNP   
# ...
  937.0000    10.0270   105.9920     2.5260     0.0270   976.6160     0.1400   -84.6270     6.5560     5.8890     0.2380
  937.5000    10.0280   106.6420     2.5250     0.0220   976.6380     0.1400   -84.7610     6.5200     5.9110     0.2420
  938.0000    10.0290   106.9510     2.5210     0.0170   976.6590     0.1390   -84.8900     6.4840     5.9960     0.2420
  938.5000    10.0290   106.6990     2.5170     0.0110   976.6810     0.1380   -85.0180     6.4470     5.8960     0.2400
  939.0000    10.0300   106.4660     2.5120     0.0050   976.7020     0.1390   -85.1520     6.4110     5.7970     0.2380
  939.5000    10.0310   106.0930     2.5080     0.0000   976.7240     0.1380   -85.1530     6.3890     5.7770     0.2360
  940.0000    10.0310   105.6360     2.5040     0.0000   976.7450     0.1380   -85.1040     6.4310     5.8580     0.2340
  940.5000    10.0320   105.1790     2.5060     0.0020   976.7670     0.1380   -85.0540     6.4730     5.9580     0.2320
  941.0000    10.0320   104.8880     2.5090     0.0040   976.7880     0.1380   -85.0030     6.5140     5.9720     0.2310
  941.5000    10.0330   105.0110     2.5120     0.0060   976.8100     0.1370   -84.9530     6.5550     5.9620     0.2300
  942.0000    10.0340   105.1240     2.5160     0.0080   976.8310     0.1360   -84.9020     6.5960     5.9930     0.2290
  942.5000    10.0340   105.2370     2.5190     0.0100   976.8530     0.1350   -84.8510     6.6380     6.0380     0.2330
  943.0000    10.0350   105.3520     2.5180     0.0120   976.8740     0.1370   -84.8000     6.6790     6.0540     0.2360
  943.5000    10.0350   105.4370     2.5160     0.0120   976.8960     0.1380   -84.7910     6.7200     6.0690     0.2380
  944.0000    10.0360   105.0200     2.5140     0.0120   976.9170     0.1390   -84.7910     6.7610     6.0770     0.2400
  944.5000    10.0370   104.6000     2.5120     0.0100   976.9390     0.1410   -84.7910     6.7740     6.0610     0.2400
  945.0000    10.0370   104.1830     2.5090     0.0080   976.9610     0.1410   -84.7910     6.7320     6.0470     0.2400
  945.5000    10.0380   103.7660     2.5070     0.0060   976.9820     0.1410   -84.7910     6.6910     6.0320     0.2390
  946.0000    10.0390   103.3500     2.5050     0.0040   977.0040     0.1400   -84.7910     6.6490     6.0210     0.2390
  946.5000    10.0390   102.9330     2.5030     0.0020   977.0250     0.1380   -84.7910     6.6080     6.0280     0.2380
  947.0000    10.0400   102.5150     2.5000    -0.0020   977.0470     0.1380   -84.7910     6.5670     6.0340     0.2380
  947.5000    10.0400   102.1020     2.4980    -0.0070   977.0680     0.1410   -84.7910     6.5260     6.0390     0.2380
  948.0000    10.0410   102.0820     2.4960    -0.0130   977.0900     0.1440   -84.7910     6.4840     6.0190     0.2370
  948.5000    10.0420   102.4510     2.4940    -0.0190   977.1110     0.1470   -84.7910     6.4430     6.0000     0.2360
  949.0000    10.0420   103.4970     2.4910    -0.0250   977.1330     0.1460   -84.7910     6.4020     6.0180     0.2350
  949.5000    10.0430   104.5630     2.4890    -0.0280   977.1540     0.1430   -84.7910     6.3740     6.0440     0.2340
  950.0000    10.0430   105.6310     2.4890    -0.0250   977.1760     0.1380   -84.7910     6.3600     6.0810     0.2340
  950.5000    10.0440   106.6980     2.4930    -0.0190   977.1970     0.1350   -84.7910     6.3450     6.1590     0.2330
  951.0000    10.0450   107.7650     2.4960    -0.0140   977.2190     0.1340   -84.7910     6.3310     6.2350     0.2330
  951.5000    10.0450   108.8320     2.5000    -0.0080   977.2400     0.1360   -84.7910     6.3160     6.3100     0.2320
  952.0000    10.0460   109.9000     2.5030    -0.0020   977.2620     0.1380   -84.7910     6.3020     6.3860     0.2320
  952.5000    10.0460   110.9700     2.5070     0.0030   977.2830     0.1390   -84.7910     6.2870     6.4620     0.2320
  953.0000    10.0470   111.9770     2.5100     0.0040   977.3050     0.1390   -84.7910     6.2730     6.5360     0.2310
  953.5000    10.0480   112.0130     2.5130     0.0050   977.3260     0.1380   -84.7910     6.2580     6.5980     0.2320
  954.0000    10.0480   111.4810     2.5170     0.0060   977.3480     0.1370   -84.7910     6.2430     6.5540     0.2370
  954.5000    10.0490   110.6360     2.5200     0.0070   977.3690     0.1340   -84.7910     6.2290     6.5130     0.2440
  955.0000    10.0500   109.7840     2.5240     0.0080   977.3910     0.1320   -84.7910     6.2150     6.4710     0.2510
  955.5000    10.0500   109.4310     2.5270     0.0090   977.4120     0.1330   -84.7910     6.2000     6.4310     0.2550
  956.0000    10.0510   109.4840     2.5310     0.0100   977.4340     0.1330   -84.7910     6.1820     6.4080     0.2510
  956.5000    10.0510   109.6470     2.5310     0.0120   977.4550     0.1300   -84.7910     6.2980     6.4350     0.2360
  957.0000    10.0520   109.8100     2.5300     0.0120   977.4770     0.1260   -84.7910     6.4600     6.4600     0.2320
  957.5000    10.0530   109.9700     2.5210     0.0080   977.4980     0.1260   -84.7910     6.5760     6.4790     0.2300
  958.0000    10.0530   110.1320     2.5120     0.0040   977.5200     0.1270   -84.7900     6.5290     6.4130     0.2290
  958.5000    10.0540   109.8030     2.5050     0.0000   977.5420     0.1300   -84.7970     6.4870     6.3460     0.2270
  959.0000    10.0540   108.9870     2.5100    -0.0010   977.5630     0.1330   -84.9700     6.4450     6.3520     0.2240
  959.5000    10.0550   108.1740     2.5180     0.0000   977.5850     0.1380   -85.1450     6.4020     6.4020     0.2210
  960.0000    10.0560   107.3620     2.5250     0.0020   977.6060     0.1440   -85.3200     6.3600     6.3150     0.2140
  960.5000    10.0560   106.5550     2.5320     0.0030   977.6280     0.1480   -85.4950     6.3180     6.3150     0.2080
  961.0000    10.0570   106.1080     2.5390     0.0050   977.6490     0.1450   -85.6670     6.2850     6.4390     0.2160
  961.5000    10.0580   106.3570     2.5460     0.0060   977.6710     0.1400   -85.7500     6.3160     6.4910     0.2320
  962.0000    10.0580   106.6090     2.5440     0.0080   977.6920     0.1370   -85.6190     6.3460     6.1110     0.2420
  962.5000    10.0590   105.4240     2.5330     0.0110   977.7140     0.1360   -85.4950     6.3760     6.2720     0.2460
  963.0000    10.0590   104.8430     2.5230     0.0110   977.7350     0.1340   -85.3720     6.4060     6.1560     0.2440
  963.5000    10.0600   104.8790     2.5120     0.0080   977.7570     0.1320   -85.2480     6.4360     6.0030     0.2310
  964.0000    10.0610   105.7520     2.5020     0.0060   977.7780     0.1310   -85.1240     6.4650     5.9820     0.2190
  964.5000    10.0610   106.6750     2.4950     0.0050   977.8000     0.1330   -85.0010     6.4780     6.0110     0.2120
  965.0000    10.0620   107.6000     2.5000     0.0050   977.8210     0.1340   -84.8770     6.4580     6.0430     0.2150
  965.5000    10.0630   107.5740     2.5060     0.0060   977.8430     0.1360   -84.7530     6.4390     6.0780     0.2200
  966.0000    10.0710   107.4990     2.5110     0.0060   977.8640     0.1370   -84.6290     6.4200     5.9900     0.2260
  966.5000    10.0800   107.4470     2.5160     0.0070   977.8860     0.1360   -84.5050     6.4010     5.9230     0.2310
  967.0000    10.0900   108.0760     2.5210     0.0070   977.9070     0.1350   -84.3820     6.3810     5.9350     0.2310
  967.5000    10.0990   109.2140     2.5260     0.0080   977.9290     0.1350   -84.2580     6.3620     5.8780     0.2310
  968.0000    10.1080   109.2320     2.5250     0.0080   977.9500     0.1350   -84.1340     6.3430     5.7650     0.2300
  968.5000    10.1170   109.2280     2.5230     0.0080   977.9720     0.1370   -84.0100     6.3240     5.7750     0.2300
  969.0000    10.1270   109.2170     2.5210     0.0080   977.9930     0.1340   -83.8880     6.3040     5.7690     0.2280
  969.5000    10.1360   109.8770     2.5190     0.0070   978.0150     0.1330   -83.7860     6.2850     5.7600     0.2300
  970.0000    10.1450   110.8810     2.5170     0.0070   978.0360     0.1360   -83.5730     6.2660     5.7950     0.2320
