~VERSION INFORMATION
 VERS.                2.0:   CWLS LOG ASCII STANDARD - VERSION 2.0
 WRAP.                 NO:   ONE LINE PER DEPTH STEP
~WELL INFORMATION
#MNEM.UNIT      DATA TYPE    INFORMATION
#----------   ------------   ------------------------------
 STRT.F          206.0000:   START DEPTH
 STOP.F         3218.0000:   STOP DEPTH
 STEP.F            0.5000:   STEP LENGTH
 NULL.          -999.2500:   NO VALUE
 COMP.    FENIX & SCISSON:   COMPANY
 WELL.     FENIX AX #16-2:   WELL
 FLD .              NPR 3:   FIELD
 LOC .       S2 T38N R78W:   LOCATION
 CNTY.            NATRONA:   COUNTY
 STAT.            WYOMING:   STATE
 CTRY. UNITED STATES OF AMERICA:   COUNTRY
 SRVC.       SCHLUMBERGER:   SERVICE COMPANY
 DATE.        10-OCT-1977:   LOGDATE
 API .     49025105780000:   API NUMBER
~CURVE INFORMATION
#MNEM.UNIT       API CODE    CURVE DESCRIPTION
#----------   ------------   ------------------------------
 DEPT.F                  :   
 GRD .GAPI   45 310 01 00:   GAMMA RAY FROM DENSITY LOG
 CALD.IN     45 280 60 00:   CALIPER FROM DENSITY LOG
 RHOB.G/C3   45 350 01 00:   BULK DENSITY
 CORR.G/C3   45 356 01 00:   DENSITY CORRECTION
 SPR .MV     07 010 01 00:   SPONTANEOUS POTENTIAL FROM RES.
 RILD.OHMM   07 120 46 00:   DEEP INDUCTION RESISTIVITY
 RILM.OHMM   07 120 44 00:   INDUCTION LOG MEDIUM RESISTIVITY
 RLL8.OHMM   07 220 08 00:   LATEROLOG-8 RES.
~PARAMETER INFORMATION
#MNEM.UNIT          VALUE    DESCRIPTION
#----------   ------------   ------------------------------
 EKB .F         5123.0000:   Kelly bushing
 EGL .F         5113.0000:   Ground level
 EDF .F            0.0000:   Drilling floor
 TD  .F         3220.0000:   Total depth
 CLNT.            A2DTECH:   Client Code
 SL  . 1772' FSL & 576' FWL:   Surface Location
 PD  .                 GL:   Permanent Datum
 EPD .F              5113:   Elevation Permanent Datum
 LMF .                 KB:   Log Measured From
 DMF .                 KB:   Drilling Measured From
 DAPD.F                10:   Feet Above Permanent Datum
 DATE.        10-OCT-1977:   Date Logged [DD-MMM-YYYY]
 DD  .F              3220:   Depth driller
 DL  .F              3218:   Depth logger
 BLI .F              3212:   Bottom log interval
 TLI .F               223:   Top log interval
 CS1 .IN            8.625:   Casing size
 CBD1.      8.625" @ 222':   Casing driller 1
 CBL1.F               223:   Casing logger 1
 BS1 .IN            7.875:   Bit size
 BSD1.F              3220:   Depth drilled with bit1
 DFT .                KCL:   Type fluid in hole
 DFD .                8.6:   Density
 DFV .                 32:   Viscosity
 DFPH.                 11:   pH
 MSS .            MUD PIT:   Source of sample
 RMS .OHMM           0.29:   Rm
 MST .F                82:   Rm Meas. temp.
 RMF .OHMM          0.228:   Rmf
 MFST.F                81:   Rmf Meas. temp.
 MFSS.               MEAS:   Source Rmf.
 RMB .OHMM           0.21:   Rm. at BHT
 BHT .F               122:   BHT.
 TCS .HRS            0600:   Time Circ. stopped
 MRT .F               122:   Maximum recorded temp.
 LUN .               5642:   Logging unit number
 ENGI. CHALUPSKY PETERSON:   Recorded By
 WITN.     WES PETTINGILL:   Witnessed by
 ORIG.           5" PRINT:   Origin of data
 UWI .     49025105780000:   Unique Well ID
 DICO. A2D TECHNOLOGIES, INC.:   Digitizing Company
 TLAB.HRS            1000:   Time logger at bottom
 LUL .               CSPR:   Logging unit location
~OTHER INFORMATION
~A   DEPT       GRD      CALD       RHOB       CORR        SPR       RILD       RILM       RLL8   
# ...
 1380.5000   109.3530    10.5633     2.5281     0.0087   -34.7078     7.7479     6.8272     8.0054
 1381.0000   109.8145    10.5788     2.5199     0.0034   -34.6915     7.7566     6.7853     8.0146
 1381.5000   109.5263    10.5793     2.5146    -0.0027   -34.4959     7.8210     6.7939     8.0332
 1382.0000   108.4886    10.6096     2.5162    -0.0055   -34.2186     7.8297     6.7522     8.2674
 1382.5000   108.6507    10.6101     2.5267    -0.0024   -33.5496     7.8947     6.7608     8.2767
 1383.0000   108.8147    10.6105     2.5403     0.0051   -32.5614     7.8469     6.7676     8.1081
 1383.5000   108.2267    10.6110     2.5378     0.0104   -30.8200     7.8561     6.8216     8.0595
 1384.0000   105.0871    10.6114     2.5298     0.0135   -29.7838     7.8089     6.8759     8.2455
 1384.5000   107.2007    10.5969     2.5276     0.0128   -28.9941     7.8178     6.9307     8.4335
 1385.0000   109.9110    10.5973     2.5133     0.0045   -28.2597     7.8268     6.9377     8.7498
 1385.5000   110.8223    10.5978     2.5036    -0.0045   -27.9796     7.8374     6.8899     8.5748
 1386.0000   110.8535    10.5983     2.5029    -0.0062   -27.7482     7.8461     6.8090     8.1078
 1386.5000   110.6957    10.5987     2.5134     0.0009   -28.1059     7.8549     6.7223     7.7765
 1387.0000   110.8777    10.6141     2.5270    -0.0105   -28.6455     7.8637     6.5925     7.6202
 1387.5000   113.1189    10.6146     2.5217    -0.0011   -29.2453     7.8726     6.6450     7.6835
 1388.0000   114.6289    10.6150     2.5120     0.0002   -29.8577     7.9948     6.7445     8.0288
 1388.5000   113.5941    10.6304     2.5175     0.0003   -30.4648     8.0038     6.8454     8.5102
 1389.0000   111.0570    10.6309     2.5211     0.0003   -31.0643     8.0702     6.8524     8.5808
 1389.5000   106.2711    10.6313     2.5234     0.0064   -31.7930     8.1372     6.8594     8.4018
 1390.0000   103.4343    10.6317     2.5459     0.0147   -32.5086     8.2047     6.9620     8.2394
 1390.5000   102.5435    10.6337     2.5632     0.0042   -33.2597     8.2730     7.0175     8.2510
 1391.0000   102.4078    10.6477     2.5692     0.0020   -33.7034     8.2825     7.0736     8.3790
 1391.5000   103.6193    10.6481     2.5497     0.0118   -33.8932     8.2937     7.2812     8.5701
 1392.0000   104.6805    10.6486     2.5273    -0.0010   -33.8931     8.2439     7.4931     8.9552
 1392.5000   103.3428    10.6490     2.5264    -0.0032   -33.6489     8.1920     7.6053     9.4247
 1393.0000   104.1071    10.6494     2.5326     0.0067   -33.2897     8.2035     7.6130     9.8482
 1393.5000   105.6180    10.6499     2.5386     0.0037   -32.2729     8.1520     7.5160     9.3119
 1394.0000   109.2350    10.6503     2.5331     0.0127   -30.8312     8.1030     7.5236     8.7422
 1394.5000   114.1881    10.6508     2.5267    -0.0008   -29.5425     8.1143     7.4775     8.5051
 1395.0000   114.7995    10.6512     2.5199     0.0038   -28.3760     8.1817     7.4334     8.3941
 1395.5000   115.2610    10.6666     2.5035     0.0091   -27.7015     8.2496     7.4429     8.4640
 1396.0000   114.8230    10.6672     2.4945    -0.0007   -27.2364     8.2884     7.3990     8.5360
 1396.5000   113.3354    10.6525     2.4998     0.0107   -27.1306     8.3491     7.4067     8.6751
 1397.0000   112.2976    10.6531     2.5066    -0.0014   -27.1781     8.3969     7.4141     8.8036
 1397.5000   109.7606    10.6535     2.5186     0.0092   -27.7071     8.4082     7.3705     8.6885
 1398.0000   110.3720    10.6539     2.5291     0.0108   -28.4428     8.4177     7.3798     8.6364
 1398.5000   110.0691    10.6394     2.5351     0.0048   -29.1068     8.4271     7.3873     8.5832
 1399.0000   105.7172    10.6398     2.5305     0.0154   -29.4941     8.4365     7.4979     8.5942
 1399.5000   103.6605    10.6403     2.5255     0.0041   -30.1354     8.4460     7.5576     8.9165
 1400.0000   103.8250    10.6407     2.5232     0.0177   -30.8351     8.3355     7.6159     9.5180
 1400.5000   104.7363    10.6335     2.5188     0.0065   -31.5247     8.3455     7.6046    10.0164
 1401.0000   106.2472    10.6348     2.5098    -0.0011   -32.2994     8.3555     7.5948     9.5223
 1401.5000   108.7990    10.6358     2.5001    -0.0070   -33.1206     8.3654     7.5842     9.2794
 1402.0000   113.0035    10.6369     2.4934    -0.0168   -33.2640     8.3158     7.4860     9.1575
 1402.5000   112.7124    10.6381     2.4829    -0.0160   -33.6914     8.2665     7.2875     9.0372
 1403.0000   110.9242    10.6239     2.4827    -0.0145   -33.5658     8.2126     7.0454     8.7318
 1403.5000   108.9839    10.6099     2.4935    -0.0039   -33.2585     8.1599     6.9063     8.3745
 1404.0000   109.4424    10.6112     2.5216     0.0089   -32.8840     8.0624     6.8642     8.2035
 1404.5000   112.7873    10.6122     2.5269     0.0059   -31.8292     8.0744     6.8700     8.0957
 1405.0000   114.5826    10.6132     2.5261     0.0066   -30.4314     8.0241     6.8767     8.1064
 1405.5000   110.3704    10.5992     2.5157     0.0014   -29.1798     8.0361     6.8823     8.2317
 1406.0000   107.9803    10.6003     2.4992    -0.0099   -27.9420     7.9884     6.8390     8.2404
 1406.5000   109.6382    10.5865     2.5000    -0.0023   -27.7167     7.9979     6.8460     8.4880
 1407.0000   113.5450    10.5876     2.5203    -0.0008   -27.0843     8.0075     6.8029     8.7432
 1407.5000   114.7532    10.5886     2.5113    -0.0046   -26.7040     8.0171     6.8098     8.8151
 1408.0000   113.4126    10.6046     2.5144     0.0075   -26.9453     8.0266     6.7681     8.6374
 1408.5000   110.8726    10.6056     2.5227     0.0091   -27.3508     7.9222     6.7738     8.3422
 1409.0000   108.0031    10.6066     2.5189     0.0023   -27.9632     7.9317     6.8264     8.1125
 1409.5000   106.5444    10.6226     2.5220     0.0076   -28.5640     7.8846     6.8321     8.0103
 1410.0000   105.8036    10.6237     2.5385     0.0174   -29.1533     7.8378     6.8389     7.9617
 1410.5000   105.5103    10.6249     2.5288     0.0167   -29.7326     7.7913     6.7959     7.9722
 1411.0000   109.1194    10.6409     2.5160     0.0022   -30.4361     7.7451     6.8027     8.0378
 1411.5000   110.3275    10.6420     2.5183    -0.0075   -31.4958     7.7566     6.8083     8.0463
 1412.0000   109.4367    10.5980     2.5281     0.0085   -32.4455     7.7091     6.8138     8.1113
 1412.5000   106.2970    10.5990     2.5401     0.0206   -33.1521     7.6626     6.8193     8.1211
 1413.0000   106.3058    10.5850     2.5409     0.0259   -33.5087     7.6740     6.8245     8.2466
 1413.5000   106.4872    10.5561     2.5408     0.0206   -33.5023     7.6832     6.8304     8.6166
 1414.0000   109.3239    10.5421     2.5357     0.0048   -33.2286     7.6923     6.8359     8.5644
 1414.5000   112.7810    10.5434     2.5208     0.0045   -32.9516     7.6467     6.7943     8.2727
 1415.0000   115.3384    10.5444     2.5035     0.0017   -32.3033     7.6553     6.8000     8.1619
 1415.5000   115.6448    10.5454     2.4976    -0.0072   -31.2249     7.6089     6.8057     8.0565
 1416.0000   114.1565    10.5463     2.4916     0.0019   -29.7508     7.6195     6.7653     8.0078
 1416.5000   113.1158    10.5474     2.4946     0.0019   -28.4621     7.5743     6.7708     7.9593
 1417.0000   111.4753    10.5484     2.5029     0.0027   -27.5555     7.5294     6.7763     7.9678
 1417.5000   108.3371    10.5495     2.5129     0.0178   -27.0501     7.5386     6.7336     7.9764
 1418.0000   108.4958    10.5505     2.5270     0.0238   -26.7230     7.5184     6.6926     7.9278
 1418.5000   110.0038    10.5365     2.5277     0.0103   -26.6961     7.5031     6.6994     7.8236
 1419.0000   110.6122    10.5525     2.5270    -0.0003   -26.9566     7.4603     6.6585     7.8339
 1419.5000   110.6209    10.5386     2.5218     0.0083   -27.4384     7.4678     6.5724     7.9550
 1420.0000   108.3808    10.5548     2.5136     0.0013   -27.8888     7.4249     6.5809     8.1358
 1420.5000   109.0070    10.5406     2.5106    -0.0010   -28.8638     7.3798     6.8227     8.4404
