~VERSION INFORMATION
 VERS.                2.0:   CWLS LOG ASCII STANDARD - VERSION 2.0
 WRAP.                 NO:   ONE LINE PER DEPTH STEP
~WELL INFORMATION
#MNEM.UNIT      DATA TYPE    INFORMATION
#----------   ------------   ------------------------------
 STRT.F          203.5000:   START DEPTH
 STOP.F         3126.0000:   STOP DEPTH
 STEP.F            0.5000:   STEP LENGTH
 NULL.          -999.2500:   NO VALUE
 COMP.    FENIX & SCISSON:   COMPANY
 WELL. FENIX NPR 3 "AX" #88-33:   WELL
 FLD .        TEAPOT DOME:   FIELD
 LOC .      S33 T39N R78W:   LOCATION
 CNTY.            NATRONA:   COUNTY
 STAT.            WYOMING:   STATE
 CTRY. UNITED STATES OF AMERICA:   COUNTRY
 SRVC.       SCHLUMBERGER:   SERVICE COMPANY
 DATE.        23-JAN-1978:   LOGDATE
 API .     49025105610000:   API NUMBER
~CURVE INFORMATION
#MNEM.UNIT       API CODE    CURVE DESCRIPTION
#----------   ------------   ------------------------------
 DEPT.F                  :   
 CALD.IN     45 280 60 00:   CALIPER FROM DENSITY LOG
 GRD .GAPI   45 310 01 00:   GAMMA RAY FROM DENSITY LOG
 RHOB.G/C3   45 350 01 00:   BULK DENSITY
 CORR.G/C3   45 356 01 00:   DENSITY CORRECTION
 SPR .MV     05 010 01 00:   SPONTANEOUS POTENTIAL
 SN  .OHMM   05 040 16 00:   SHORT NORMAL 16"
 ILD .OHMM   05 120 46 00:   DEEP INDUCTION RESISTIVITY
~PARAMETER INFORMATION
#MNEM.UNIT          VALUE    DESCRIPTION
#----------   ------------   ------------------------------
 EKB .F         5174.0000:   Kelly bushing
 EGL .F         5164.0000:   Ground level
 EDF .F            0.0000:   Drilling floor
 TD  .F         3115.0000:   Total depth
 DATE.        23-JAN-1978:   Date logged
 CLNT.            A2DTECH:   Client Code
 PD  .                 GL:   Permanent Datum
 EPD .F              5164:   Elevation Permanent Datum
 LMF .                 KB:   Log Measured From
 DMF .                 KB:   Drilling Measured From
 DD  .F              3115:   Depth driller
 DL  .F              3115:   Depth logger
 BLI .F              3115:   Bottom log interval
 TLI .F               210:   Top log interval
 CS1 .IN            8.625:   Casing size
 CBD1.      9.625" @ 219':   Casing driller 1
 CBL1.F               219:   Casing logger 1
 BS1 .IN            7.875:   Bit size
 BSD1.F              3115:   Depth drilled with bit1
 DFT .                GEL:   Type fluid in hole
 DFD .                8.9:   Density
 DFV .                 36:   Viscosity
 DFPH.                 10:   pH
 DFL .                7.8:   Fluid loss
 MSS .           FLOWLINE:   Source of sample
 RMS .OHMM            2.2:   Rm
 MST .F                62:   Rm Meas. temp.
 RMF .OHMM           1.94:   Rmf
 MFST.F                54:   Rmf Meas. temp.
 RMC .OHMM            3.4:   Rmc
 MCST.F                54:   Rmc Meas. temp.
 MFSS.               MEAS:   Source Rmf.
 MCSS.               MEAS:   Source Rmc.
 RMB .OHMM            1.1:   Rm. at BHT
 BHT .F               114:   BHT.
 TCS .HRS             4.5:   Time Circ. stopped
 MRT .F               114:   Maximum recorded temp.
 LUN .               2958:   Logging unit number
 LUL .             CASPER:   Logging unit location
 ENGI.           REYNOLDS:   Recorded By
 WITN.           MCGINLEY:   Witnessed by
 ORIG.           5" PRINT:   Origin of data
 UWI .     49025105610000:   Unique Well ID
 DICO. A2D TECHNOLOGIES, INC.:   Digitizing Company
 DAPD.F              5164:   Feet Above Permanent Datum
 SL  . 100' FSL & 550' FEL:   Surface Location
~OTHER INFORMATION
~A   DEPT     CALD        GRD       RHOB       CORR        SPR         SN        ILD   
# ...
 1932.5000    10.4399   122.3415     2.4995     0.0539   -39.5761     5.3897     4.6511
 1933.0000    10.4398   123.7289     2.4638     0.0699   -39.3759     5.6442     4.6518
 1933.5000    10.4397   126.3061     2.4588     0.0919   -39.3749     6.1893     4.8715
 1934.0000    10.4396   129.4782     2.4555     0.1119   -39.3739     6.1333     5.1015
 1934.5000    10.4395   131.6590     2.4525     0.1118   -39.3728     5.8046     5.2451
 1935.0000    10.4394   137.0126     2.4096     0.1338   -39.5710     5.4936     5.3431
 1935.5000    10.4393   141.5732     2.4016     0.1778   -39.7692     5.3942     5.3931
 1936.0000    11.2918   147.7204     2.4845     0.0578   -40.3658     5.7012     5.5450
 1936.5000    10.2805   159.6187     2.4498     0.0758   -40.9624     6.0814     5.9145
 1937.0000    10.2804   166.1631     2.4448     0.0998   -41.3598     6.9824     6.6668
 1937.5000    10.2803   169.3364     2.4418     0.1478   -41.7572     8.2414     7.7972
 1938.0000    10.2802   172.3116     2.4748     0.2180   -42.5530     8.8722     9.0351
 1938.5000    10.3394   174.4936     2.4868     0.2060   -42.7512     9.7284     9.8290
 1939.0000    10.3790   176.8740     2.4958     0.1700   -42.7502    10.0946     9.8296
 1939.5000    10.7559   178.4612     2.5018     0.0958   -42.7494    10.9677    10.0141
 1940.0000    10.1013   175.4867     2.4798     0.0418   -42.7484    11.3806    10.0155
 1940.5000    10.0813   176.2806     2.4678     0.0458   -42.5482    11.7007    10.2034
 1941.0000    10.0368   178.2644     2.4648     0.0498   -42.5472    11.7024    10.2049
 1941.5000    10.0415   179.2567     2.4598     0.0538   -42.3469    11.7040    10.2063
 1942.0000    10.0216   179.4557     2.4558     0.0657   -41.9475    11.7057    10.2077
 1942.5000    10.0215   178.0678     2.4588     0.0777   -41.5481    12.0350    10.6912
 1943.0000    10.0214   175.4897     2.4608     0.0817   -41.5471    12.1480    10.8918
 1943.5000    10.0213   185.6067     2.4608     0.0877   -41.3469    12.1493    11.0959
 1944.0000    10.0212   189.7731     2.4804     0.0937   -41.5451    12.2634    11.4089
 1944.5000    10.0211   194.1379     2.4804     0.0937   -41.3448    12.4929    11.4105
 1945.0000    10.0210   200.2884     2.4658     0.0937   -41.3438    12.4946    11.4121
 1945.5000    10.0209   200.5861     2.4578     0.0937   -41.3430    12.4964    11.4137
 1946.0000    10.0208   197.7114     2.4558     0.0877   -41.3420    12.4982    11.4153
 1946.5000    10.0207   192.5543     2.4508     0.0877   -41.7394    12.3854    11.4169
 1947.0000    10.0206   188.1905     2.4428     0.0937   -42.1368    12.5017    11.3130
 1947.5000    10.0205   178.8669     2.4348     0.0996   -42.3350    12.2734    11.1084
 1948.0000    10.0204   175.8915     2.4348     0.1056   -42.5332    12.2744    11.1099
 1948.5000    10.0203   160.8136     2.4348     0.1096   -42.5322    11.9419    10.9081
 1949.0000    10.0202   150.4968     2.4388     0.1256   -42.5312    11.7261    10.3224
 1949.5000    10.0201   147.7191     2.4358     0.1336   -42.5302    11.6197    10.1351
 1950.0000    10.0200   142.3619     2.4528     0.1376   -42.3299    11.3049    10.2302
 1950.5000    10.0993   140.1792     2.4548     0.1416   -42.1297    11.3065    10.0446
 1951.0000    10.0397   140.3774     2.4548     0.1556   -41.7303    11.2045    10.1391
 1951.5000    10.0792   140.7741     2.4628     0.1595   -41.5301    11.2061    10.0474
 1952.0000    10.0990   140.3770     2.4778     0.1495   -41.3301    11.1050    10.0488
 1952.5000    10.1584   140.7737     2.4768     0.1415   -41.3291    10.5123    10.0502
 1953.0000    10.1782   138.5907     2.4718     0.1395   -41.1288    10.3220    10.2388
 1953.5000    10.1781   133.0342     2.4727     0.1415   -40.7294    10.1352    10.2403
 1954.0000    10.1780   128.2712     2.4747     0.1475   -40.5292    10.2301    10.1477
 1954.5000    10.2176   121.5235     2.4777     0.1555   -40.5282    10.2318    10.0559
 1955.0000    10.1976   115.7679     2.4997     0.1635   -40.5272    10.0466    10.0567
 1955.5000    10.1975   109.6146     2.5251     0.1515   -40.7254    10.1409     9.9655
 1956.0000    10.1974   113.7819     2.5007     0.0595   -41.1228    10.1421     9.6161
 1956.5000    10.1973   118.1472     2.4907     0.0515   -40.7233    10.2373     9.2789
 1957.0000    10.1972   113.7805     2.4887     0.0515   -40.7223     9.8687     9.0081
 1957.5000    10.1971   111.3981     2.4917     0.0515   -40.5221     9.5134     8.7632
 1958.0000    10.1970   110.2065     2.4937     0.0495   -40.3221     9.3412     8.7644
 1958.5000    10.1969   110.8011     2.4927     0.0495   -40.3211     9.0049     8.5369
 1959.0000    10.2365   111.3958     2.4927     0.0515   -40.3201     8.9237     8.2952
 1959.5000    10.2365   111.5935     2.4927     0.0595   -40.5183     8.8432     8.2195
 1960.0000    10.2364   113.5776     2.4927     0.0755   -40.5173     8.7634     8.0862
 1960.5000    10.2363   115.9588     2.4977     0.0914   -40.3170     8.6053     7.9550
 1961.0000    10.2362   117.9432     2.5047     0.0994   -40.3160     8.3717     7.9937
 1961.5000    10.2361   120.7216     2.5137     0.1034   -40.3150     8.0703     7.8490
 1962.0000    10.2161   122.5076     2.5197     0.1034   -40.5132     8.0714     7.7782
 1962.5000    10.2359   122.7055     2.5177     0.0994   -40.5122     8.0723     7.7791
 1963.0000    10.2358   123.3005     2.5137     0.0894   -40.5112     8.0735     7.7089
 1963.5000    10.2159   123.6970     2.5057     0.0734   -40.5102     8.0006     7.5694
 1964.0000    10.2158   123.8950     2.4917     0.0654   -40.5094     7.9285     7.5229
 1964.5000    10.2355   124.0930     2.4867     0.0654   -40.5083     7.9296     7.5022
 1965.0000    10.2354   123.0998     2.4817     0.0694   -40.3081     7.9303     7.5032
 1965.5000    10.2353   122.1066     2.4827     0.0774   -39.9087     7.9318     7.5043
 1966.0000    10.2352   119.5251     2.4887     0.0814   -39.9077     7.9323     7.5053
 1966.5000    10.2351   118.9289     2.4737     0.0953   -39.9067     8.0462     7.6500
 1967.0000    10.2152   119.7224     2.4757     0.1113   -39.9057     8.1573     7.6510
 1967.5000    10.2151   118.7291     2.4967     0.1293   -39.9047     8.1584     7.6521
 1968.0000    10.2150   115.3530     2.5057     0.1353   -39.9037     8.1596     7.6532
 1968.5000    10.2149   119.5220     2.5097     0.1053   -39.9026     8.0857     7.5838
 1969.0000    10.2346   120.5143     2.5096     0.0953   -39.9016     8.0869     7.5848
 1969.5000    10.2147   120.5136     2.5126     0.0953   -40.2990     8.0880     7.5162
 1970.0000    10.2146   116.1445     2.5136     0.0913   -40.4972     8.0150     7.5173
 1970.5000    10.2344   115.1510     2.5066     0.0933   -40.4964     7.9427     7.3809
 1971.0000    10.2144   113.1645     2.5036     0.0933   -40.4954     7.9439     7.2470
 1971.5000    10.2143   114.3554     2.5006     0.0913   -40.4944     7.9450     7.1814
 1972.0000    10.2142   116.1418     2.5036     0.0933   -40.4934     7.8733     7.1824
 1972.5000    10.2141   117.3326     2.5036     0.0952   -40.4924     7.8744     7.2500
 1973.0000    10.2140   114.9489     2.5046     0.0952   -40.4913     7.8755     7.1845
 1973.5000    10.2139   114.9482     2.5056     0.0932   -40.4903     7.8766     7.1855
 1974.0000    10.2138   115.1461     2.5026     0.0872   -40.4893     7.8056     7.2531
 1974.5000    10.2138   115.5430     2.5026     0.0832   -40.4883     7.8786     7.1875
 1975.0000    10.2137   115.9395     2.4986     0.0812   -40.2881     7.8797     7.2549
 1975.5000    10.2136   117.1302     2.4986     0.0812   -40.4863     7.8808     7.1233
 1976.0000    10.2135   122.6908     2.5006     0.0812   -40.4853     7.8097     7.1903
 1976.5000    10.2134   122.6903     2.5046     0.0812   -40.4845     7.8830     7.1913
 1977.0000    10.2331   118.1214     2.5046     0.0792   -40.4834     7.8841     7.1263
 1977.5000    10.2330   118.1207     2.5046     0.0752   -40.4824     7.8130     7.1273
