~VERSION INFORMATION
 VERS.                2.0:   CWLS LOG ASCII STANDARD - VERSION 2.0
 WRAP.                 NO:   ONE LINE PER DEPTH STEP
~WELL INFORMATION
#MNEM.UNIT      DATA TYPE    INFORMATION
#----------   ------------   ------------------------------
 STRT.F          450.5000:   START DEPTH
 STOP.F         3173.5000:   STOP DEPTH
 STEP.F            0.5000:   STEP LENGTH
 NULL.          -999.2500:   NO VALUE
 COMP.    FENIX & SCISSON:   COMPANY
 WELL. FENIX & SCISSONNPR #72-TX-33:   WELL
 FLD .              N.P.R:   FIELD
 LOC .      S33 T39N R78W:   LOCATION
 CNTY.            NATRONA:   COUNTY
 STAT.            WYOMING:   STATE
 CTRY. UNITED STATES OF AMERICA:   COUNTRY
 SRVC.       SCHLUMBERGER:   SERVICE COMPANY
 DATE.        03-SEP-1981:   LOGDATE
 API .     49025108810000:   API NUMBER
~CURVE INFORMATION
#MNEM.UNIT       API CODE    CURVE DESCRIPTION
#----------   ------------   ------------------------------
 DEPT.F                  :   
 CALD.IN     45 280 60 00:   CALIPER FROM DENSITY LOG
 GRD .GAPI   45 310 01 00:   GAMMA RAY FROM DENSITY LOG
 DPHI.DEC    45 890 03 00:   
 RHOB.G/C3   45 350 01 00:   BULK DENSITY
 CORR.G/C3   45 356 01 00:   DENSITY CORRECTION
 SPR .MV     07 010 01 00:   SPONTANEOUS POTENTIAL
 SFL .OHMM   07 220 01 00:   SHALLOW FOCUSED LOG RESISTIVITY
 ILD .OHMM   07 120 46 00:   DEEP INDUCTION RESISTIVITY
 ILM .OHMM   07 120 44 00:   INDUCTION LOG MEDIUM RESISTIVITY
 TENR.LBS    07 635 01 00:   TENSION FROM RESISTIVITY
~PARAMETER INFORMATION
#MNEM.UNIT          VALUE    DESCRIPTION
#----------   ------------   ------------------------------
 EKB .F         5115.0000:   Kelly bushing
 EGL .F         5105.0000:   Ground level
 EDF .F            0.0000:   Drilling floor
 TD  .F         3162.0000:   Total depth
 DATE.        03-SEP-1981:   Date logged
 CLNT.            A2DTECH:   Client Code
 CTRY.                USA:   Country
 SL  . 808' FNL & 954' FEL:   Surface Location
 PD  .                 GL:   Permanent Datum
 EPD .F              5105:   Elevation Permanent Datum
 LMF .                 KB:   Log Measured From
 DMF .                 KB:   Drilling Measured From
 DAPD.F                10:   Feet Above Permanent Datum
 DD  .F              3162:   Depth driller
 DL  .F              3162:   Depth logger
 BLI .F              3158:   Bottom log interval
 TLI .F              1612:   Top log interval
 CS1 .IN            9.625:   Casing size
 CBD1.      9.625" @ 480':   Casing driller 1
 BS1 .IN            7.875:   Bit size
 BSD1.F              3162:   Depth drilled with bit1
 DFT .              WATER:   Type fluid in hole
 MSS .               TANK:   Source of sample
 RMS .OHMM            6.3:   Rm
 MST .F                73:   Rm Meas. temp.
 RMF .OHMM            6.3:   Rmf
 MFST.F                73:   Rmf Meas. temp.
 TCS .HRS            2200:   Time Circ. stopped
 TLAB.HRS            0300:   Time logger at bottom
 MRT .F               100:   Maximum recorded temp.
 LUN .               8039:   Logging unit number
 LUL .               CSPR:   Logging unit location
 ENGI.           C. PEARR:   Recorded By
 WITN.           R. SCOTT:   Witnessed by
 ORIG.         2.5" PRINT:   Origin of data
 UWI .     49025108810000:   Unique Well ID
 DICO. A2D TECHNOLOGIES, INC.:   Digitizing Company
~OTHER INFORMATION
~A   DEPT     CALD         GRD      DPHI       RHOB       CORR        SPR        SFL        ILD        ILM       TENR   
# ...
 1723.5000     8.7919   112.4093     0.0926     2.5263     0.1728   -38.1816     5.8345     4.3807     4.2249   432.5660
 1724.0000     8.7919   110.6651     0.1012     2.4502     0.1650   -38.1941     5.6243     4.3787     4.2229   431.2394
 1724.5000     8.7532   112.4093     0.1418     2.3994     0.0479   -38.2024     5.9345     4.1443     4.0700   429.9127
 1725.0000     8.7919   113.5721     0.1746     2.3350     0.0459   -38.2149     6.2604     3.9942     3.7151   428.5860
 1725.5000     8.7919   111.2465     0.2352     2.2276     0.0421   -38.2232     5.8214     3.9933     3.2127   427.2594
 1726.0000     9.6447   103.1070     0.3004     1.9444     0.0045   -38.2357     3.5668     3.8486     2.9868   425.9327
 1726.5000     9.6834   100.2000     0.2996     1.9483    -0.0126   -38.2440     3.5012     3.7101     2.9847   424.6060
 1727.0000     9.3733   102.5256     0.2964     1.9789    -0.0575   -37.8655     4.1175     3.5748     3.5107   423.2794
 1727.5000     9.0245   105.4326     0.2949     2.1592    -0.0477   -37.8780     5.3053     3.4461     3.2053   421.9527
 1728.0000     8.7919   107.7581     0.2136     2.3175     0.0695   -38.2773     4.9310     3.4437     3.0891   420.6260
 1728.5000     8.8695   107.7581     0.2419     2.2375     0.0617   -38.2939     4.0381     3.4429     3.2601   419.2994
 1729.0000     8.8695   110.0837     0.2792     2.2043    -0.0183   -38.3022     4.1091     4.1227     3.3174   417.9727
 1729.5000     8.9082   115.3163     0.2438     2.2258    -0.0164   -38.3064     4.0335     4.4315     3.4382   416.6460
 1730.0000     8.5981   125.2000     0.1214     2.3261    -0.0046   -38.3147     7.6003     4.4264     4.1171   415.3194
 1730.5000     8.5594   126.9442     0.1044     2.4251     0.0266   -38.7224     7.4605     4.6725     4.5470   413.9927
 1731.0000     8.5921   124.6186     0.0917     2.5266     0.0599   -38.7338     6.9342     4.9312     4.7547   412.6660
 1731.5000     8.5981   121.1302     0.0909     2.5157     0.0463   -38.7432     6.6844     5.2982     4.9900   411.3394
 1732.0000     8.5981   119.3860     0.1073     2.5047     0.0327   -39.1426     7.1821     5.5902     5.5902   410.0127
 1732.5000     8.5981   120.5488     0.1065     2.4974     0.0208   -38.9640     7.8598     5.6911     5.4874   408.6860
 1733.0000     8.6369   122.8744     0.0893     2.5222     0.0150   -39.3592     8.5995     6.0035     5.7269   406.9067
 1733.5000     8.5981   124.6186     0.0768     2.5502     0.0228   -39.3759     8.5957     6.1105     5.8931   407.3029
 1734.0000     8.5981   125.2000     0.0768     2.5521     0.0248   -39.3842     8.7471     6.1078     6.1064   410.8487
 1734.5000     8.5594   127.5256     0.0880     2.5349     0.0287   -39.3926     8.7432     6.2166     6.3289   414.3946
 1735.0000     8.5594   131.0140     0.0987     2.5190     0.0302   -39.4051     8.7374     6.2125     5.8825   417.9405
 1735.5000     8.6369   135.0837     0.0920     2.5249     0.0307   -39.4134     8.5767     6.2097     5.9971   421.4864
 1736.0000     8.6369   136.2465     0.0854     2.5308     0.0327   -39.4259     8.4170     6.2041     6.0927   425.0323
 1736.5000     8.6369   138.5721     0.0910     2.5308     0.0347   -39.4342     8.4133     6.2027     5.9807   428.5781
 1737.0000     8.6369   139.7349     0.0966     2.5113     0.0332   -39.4509     8.2566     6.0873     5.9766   430.3832
 1737.5000     8.6369   142.6419     0.1023     2.4996     0.0347   -39.4551     7.9591     5.9726     5.7601   430.9140
 1738.0000     8.6369   144.3860     0.1095     2.4976     0.0621   -39.4717     7.3975     5.8627     5.7575   431.4449
 1738.5000     8.6369   143.8047     0.1052     2.4996     0.0660   -39.4884     7.2598     5.7536     5.6503   431.7715
 1739.0000     8.6369   140.8977     0.1008     2.4996     0.0758   -39.4949     7.2565     5.7510     5.5476   431.9698
 1739.5000     8.6369   139.7349     0.0947     2.5016     0.0582   -39.5009     7.6570     5.6452     5.4431   432.7510
 1740.0000     8.6757   135.6651     0.0991     2.5094     0.0621   -39.5092     8.0813     5.5414     5.2470   433.3583
 1740.5000     8.6369   134.5023     0.1009     2.5133     0.0563   -39.1305     8.0741     5.3393     5.0569   433.5567
 1741.0000     8.6757   132.7581     0.0962     2.5056     0.0739   -39.1389     7.9273     5.3369     4.8758   430.2769
 1741.5000     8.6757   131.5953     0.0946     2.4821     0.1012   -39.1472     6.9779     5.0511     4.6136   426.9971
 1742.0000     8.6757   131.0140     0.1309     2.4001     0.1032   -39.1597     5.9247     5.0489     4.5287   423.7173
 1742.5000     8.6065   134.5023     0.1672     2.4099     0.0548   -39.1722     5.2150     5.1377     4.4444   420.4375
 1743.0000     8.5594   147.2930     0.1899     2.3591     0.0219   -39.1805     5.1190     5.1365     4.4424   417.1577
 1743.5000     8.5594   150.0000     0.1580     2.3806     0.0037   -39.1972     6.3589     5.1331     4.9492   416.8155
 1744.0000     8.5206   170.3488     0.1261     2.4686     0.0076   -39.5926     8.1927     5.1296     5.2246   417.3998
 1744.5000     8.5206   172.0930     0.0985     2.5076     0.0492   -39.6093    10.3634     5.1273     5.3153   417.9842
 1745.0000     8.5440   176.1628     0.0985     2.4979     0.0908   -39.6176    10.3588     5.1226     4.5123   418.5686
 1745.5000     8.5594   177.9070     0.1259     2.4530     0.1366   -40.8040    10.7367     5.1215     4.5103   419.1529
 1746.0000     8.5594   179.0698     0.1534     2.4093     0.1131   -40.8123     7.2001     5.1169     4.4263   419.7373
 1746.5000     8.5981   180.2326     0.1808     2.3476     0.0725   -41.9988     5.2865     5.3033     4.5052   420.1860
 1747.0000     8.6757   184.3023     0.1946     2.3690     0.0331   -43.1894     5.9980     5.3991     4.9291   420.7174
 1747.5000     8.7532   196.5116     0.1713     2.4316     0.0049   -43.3849     6.6844     5.4941     5.1088   421.2487
 1748.0000     8.6392   201.7442     0.1367     2.4492     0.0019   -44.1760     7.5840     5.9019     5.3918   421.7726
 1748.5000     8.5253   204.0698     0.1375     2.4453     0.0039   -44.1886     9.7715     6.1170     5.5871   422.2770
 1749.0000     8.4819   205.8140     0.1407     2.4414     0.0117   -44.9839    12.1364     6.4545     6.0031   422.7814
 1749.5000     8.4819   206.3953     0.1439     2.4336     0.0117   -44.6010    12.5819     6.6898     6.3357   423.1611
 1750.0000     8.4819   205.2326     0.1470     2.4317     0.0117   -45.0049    12.5764     7.4533     6.5652   423.7562
 1750.5000     8.4819   202.3256     0.1502     2.4239     0.0117   -44.6220    13.5137     7.8663     6.6838   424.2653
 1751.0000     8.4819   194.7674     0.1523     2.4259     0.0118   -44.2433    14.2631     8.4522     7.3129   424.7744
 1751.5000     8.4819   195.9302     0.1474     2.4337     0.0118   -44.2517    14.5146     8.7604     7.7164   425.2835
 1752.0000     8.4819   198.2558     0.1445     2.4357     0.0059   -43.8729    14.2476     9.2438     7.9978   425.7926
 1752.5000     8.4819   220.0210     0.1453     2.4376     0.0060   -43.4900    13.7310     9.2418     8.4391   426.1368
 1753.0000     8.4819   250.0000     0.1453     2.4377     0.0060   -43.1112    13.4754     9.7497     8.4335   427.0073
 1753.5000     8.4819   250.0000     0.1445     2.4416     0.0060   -42.7282    13.4695     9.9236     8.7410   427.4038
 1754.0000     8.4819   239.7238     0.1398     2.4475     0.0177   -42.7407    14.2134     9.9171     8.8950   427.6021
 1754.5000     8.4819   229.4475     0.1405     2.4455     0.0197   -43.1406    14.7321    10.0940     9.2193   428.1969
 1755.0000     8.4819   219.1713     0.1398     2.4319     0.0178   -42.7617    14.9920    10.0874     9.2132   428.9900
 1755.5000     8.4819   206.9767     0.1524     2.4260     0.0139   -42.7701    15.5391    10.0829     9.2091   429.5795
 1756.0000     8.6369   193.0260     0.1593     2.4222     0.0120   -42.3913    16.3975    10.4483     9.2030   429.9812
 1756.5000     8.4819   179.0698     0.1534     2.4280     0.0138   -42.3997    16.6904    10.8294     9.1989   430.5761
