~VERSION INFORMATION
 VERS.                2.0:   CWLS LOG ASCII STANDARD - VERSION 2.0
 WRAP.                 NO:   ONE LINE PER DEPTH STEP
~WELL INFORMATION
#MNEM.UNIT      DATA TYPE    INFORMATION
#----------   ------------   ------------------------------
 STRT.F           42.0000:   START DEPTH
 STOP.F         4542.0000:   STOP DEPTH
 STEP.F            0.5000:   STEP LENGTH
 NULL.          -999.2500:   NO VALUE
 COMP. LAWRENCE ALLISON & ASSOC.:   COMPANY
 WELL. ALLISON NPR 3 #86-27:   WELL
 FLD .                NPR:   FIELD
 LOC .      S27 T39N R78W:   LOCATION
 CNTY.            NATRONA:   COUNTY
 STAT.            WYOMING:   STATE
 CTRY. UNITED STATES OF AMERICA:   COUNTRY
 SRVC.      DRESSER ATLAS:   SERVICE COMPANY
 DATE.        20-MAR-1985:   LOGDATE
 API .     49025110190000:   API NUMBER
~CURVE INFORMATION
#MNEM.UNIT       API CODE    CURVE DESCRIPTION
#----------   ------------   ------------------------------
 DEPT.F                  :   
 CALD.IN     45 280 60 00:   CALIPER FROM DENSITY LOG
 TEND.LBS    45 635 01 00:   TENSION FROM DENSITY LOG
 CORR.G/C3   45 356 01 00:   DENSITY CORRECTION
 RHOB.G/C3   45 350 01 00:   BULK DENSITY
 CNC .DEC    42 890 03 00:   NEUTRON PORISITY SANDSTONE
 TENR.LBS    07 635 01 00:   TENSION FROM RESISTIVITY
 GRR .GAPI   07 310 01 00:   GAMMA RAY FROM RESISTIVITY
 SFL .OHMM   07 220 01 00:   SHALLOW FOCUSED LOG RESISTIVITY
 ILD .OHMM   07 120 46 00:   DEEP INDUCTION RESISTIVITY
 ILM .OHMM   07 120 44 00:   INDUCTION LOG MEDIUM RESISTIVITY
 TENS.LBS    60 635 01 00:   TENSION FROM SONIC LOG
 DT  .US/F   60 520 00 00:   DELTA TIME
 CALS.IN     60 280 50 00:   CALIPER FROM SONIC LOG
 GRS .GAPI   60 310 01 00:   GAMMA RAY FROM SONIC LOG
~PARAMETER INFORMATION
#MNEM.UNIT          VALUE    DESCRIPTION
#----------   ------------   ------------------------------
 EKB .F         5095.0000:   Kelly bushing
 EGL .F         5083.0000:   Ground level
 EDF .F            0.0000:   Drilling floor
 TD  .F         4545.0000:   Total depth
 DATE.        20-MAR-1985:   Date logged
 CLNT.            A2DTECH:   Client Code
 SL  . 292' FEL & 1975' FWL:   Surface Location
 PD  .                 GL:   Permanent Datum
 EPD .F              5083:   Elevation Permanent Datum
 LMF .                 KB:   Log Measured From
 DMF .                 KB:   Drilling Measured From
 DAPD.F                12:   Feet Above Permanent Datum
 DD  .F              4545:   Depth driller
 DL  .F              4533:   Depth logger
 BLI .F              4534:   Bottom log interval
 TLI .F              1045:   Top log interval
 CS1 .IN            8.625:   Casing size
 CBD1.     8.625" @ 1033':   Casing driller 1
 CBL1.F              1045:   Casing logger 1
 BS1 .IN            7.875:   Bit size
 BSD1.F              4545:   Depth drilled with bit1
 DFT .    GEL/KCL/STA/FLO:   Type fluid in hole
 DFD .                9.1:   Density
 DFV .                 30:   Viscosity
 DFPH.                  8:   pH
 DFL .                 12:   Fluid loss
 MSS .           MUD/TANK:   Source of sample
 RMS .OHMM            .46:   Rm
 MST .F                74:   Rm Meas. temp.
 RMF .OHMM            .37:   Rmf
 MFST.F                72:   Rmf Meas. temp.
 RMC .OHMM            .58:   Rmc
 MCST.F                74:   Rmc Meas. temp.
 MFSS.               MEAS:   Source Rmf.
 MCSS.               CALC:   Source Rmc.
 RMB .OHMM            .25:   Rm. at BHT
 BHT .F               138:   BHT.
 TCS .HRS             4.5:   Time Circ. stopped
 MRT .F               138:   Maximum recorded temp.
 LUN .            HL-6274:   Logging unit number
 LUL .           GILLETTE:   Logging unit location
 ENGI.             RAUTIO:   Recorded By
 WITN.             STRONG:   Witnessed by
 ORIG.           5" PRINT:   Origin of data
 UWI .     49025110190000:   Unique Well ID
 DICO. A2D TECHNOLOGIES, INC.:   Digitizing Company
~OTHER INFORMATION
~A   DEPT     CALD       TEND       CORR       RHOB        CNC       TENR        GRR        SFL        ILD        ILM       TENS         DT        CALS        GRS  
# ...
 4476.5000     7.9650   139.2220     0.0260     2.5320     0.2580   193.4120    73.1110     4.3490     3.9650     3.7330  -999.2500  -999.2500  -999.2500  -999.2500
 4477.0000     7.9620   139.2220     0.0180     2.5450     0.2580   196.6220    71.1100     5.0770     4.0090     3.9090  -999.2500  -999.2500  -999.2500  -999.2500
 4477.5000     7.9580   139.2220     0.0110     2.5600     0.2590   199.8330    72.8730     5.3300     4.1080     4.0850  -999.2500  -999.2500  -999.2500  -999.2500
 4478.0000     7.9550   149.8000    -0.0040     2.5580     0.2590   203.0430    74.9320     5.0640     4.2070     4.2620  -999.2500  -999.2500  -999.2500  -999.2500
 4478.5000     7.9520   179.1420    -0.0180     2.5530     0.2590   206.2540    75.8980     4.5970     4.3060     4.4380  -999.2500  -999.2500  -999.2500  -999.2500
 4479.0000     7.9480   181.1190    -0.0040     2.5500     0.2570   209.4640    76.2250     4.6890     4.4050     4.5970  -999.2500  -999.2500  -999.2500  -999.2500
 4479.5000     7.9450   183.5040     0.0110     2.5500     0.2520   212.6750    76.6400     4.8770     4.5130     4.5050  -999.2500  -999.2500  -999.2500  -999.2500
 4480.0000     7.9420   185.8900     0.0200     2.5450     0.2530   215.8860    76.9900     5.0420     4.7030     4.4300  -999.2500  -999.2500  -999.2500  -999.2500
 4480.5000     7.9380   188.2760     0.0260     2.5400     0.2710   219.0960    77.3100     4.9680     4.9120     4.7240  -999.2500  -999.2500  -999.2500  -999.2500
 4481.0000     7.9350   190.6620     0.0230     2.5340     0.2760   222.3070    75.7270     4.8590     5.1210     4.9500  -999.2500  -999.2500  -999.2500  -999.2500
 4481.5000     7.9320   193.0470     0.0250     2.5300     0.2660   225.5170    74.0790     4.8920     5.3300     4.7700  -999.2500  -999.2500  -999.2500  -999.2500
 4482.0000     7.9290   195.4330     0.0300     2.5360     0.2480   228.7280    71.5020     4.9850     5.5390     5.1800  -999.2500  -999.2500  -999.2500  -999.2500
 4482.5000     7.9250   197.8190     0.0160     2.5450     0.2300   231.9380    68.1000     5.3320     5.7480     5.6080  -999.2500  -999.2500  -999.2500  -999.2500
 4483.0000     7.9220   200.2040    -0.0070     2.5530     0.2110   235.1490    64.7730     5.9560     5.9570     5.9560  -999.2500  -999.2500  -999.2500  -999.2500
 4483.5000     7.9190   202.5900    -0.0330     2.5560     0.2110   238.6280    62.4380     7.6110     6.1660     6.0510  -999.2500  -999.2500  -999.2500  -999.2500
 4484.0000     7.9150   204.9760    -0.0330     2.5550     0.2180   242.5130    65.1350     8.4630     6.4130     6.0400  -999.2500  -999.2500  -999.2500  -999.2500
 4484.5000     7.9120   207.3610    -0.0230  -999.2500     0.2280   246.3980    67.5350     7.4020     6.2260     5.9160  -999.2500  -999.2500  -999.2500  -999.2500
 4485.0000     7.9090   209.7470    -0.0020  -999.2500     0.2270   250.2820    66.7440     6.3450     5.9980     5.7920  -999.2500  -999.2500  -999.2500  -999.2500
 4485.5000     7.9090   212.1330     0.0000  -999.2500     0.2250   254.1670    65.6200     6.0580     5.7700     5.6680  -999.2500  -999.2500  -999.2500  -999.2500
 4486.0000     7.9110   214.5190     0.0020  -999.2500     0.2270   258.0520    66.5040     5.8950     5.5410     5.5440  -999.2500  -999.2500  -999.2500  -999.2500
 4486.5000     7.9120   216.9040    -0.0060  -999.2500     0.2300   261.9360    68.7650     6.0670     5.3300     5.4300  -999.2500  -999.2500  -999.2500  -999.2500
 4487.0000     7.9140   219.0620    -0.0080  -999.2500     0.2330   265.8210    70.2950     5.9750     5.3300     5.3400  -999.2500  -999.2500  -999.2500  -999.2500
 4487.5000     7.9160   221.8060    -0.0220  -999.2500     0.2360   269.7060    69.0530     5.4300     5.3300     5.2570  -999.2500  -999.2500  -999.2500  -999.2500
 4488.0000     7.9180   224.3110    -0.0400  -999.2500     0.2380   273.5900    66.4680     5.5280     5.4490     5.3770  -999.2500  -999.2500  -999.2500  -999.2500
 4488.5000     7.9200   226.8160    -0.0900  -999.2500     0.2150   277.4750    65.0110     5.8470     5.6180     5.5830  -999.2500  -999.2500  -999.2500  -999.2500
 4489.0000     7.9210   229.3210    -0.1970  -999.2500     0.2100   281.3600    64.6150     6.1660     5.7870     5.7880  -999.2500  -999.2500  -999.2500  -999.2500
 4489.5000     7.9230   231.8260    -0.3090  -999.2500     0.2100   285.2450    64.2000     6.4860     5.9560     5.9940  -999.2500  -999.2500  -999.2500  -999.2500
 4490.0000     7.9250   234.3310  -999.2500  -999.2500     0.2100   289.1290    64.6000     6.8050     6.1250     6.1990  -999.2500  -999.2500  -999.2500  -999.2500
 4490.5000     7.9270   236.8360  -999.2500  -999.2500     0.2110   293.0140    64.9710     7.1240     6.2940     6.4050  -999.2500  -999.2500  -999.2500  -999.2500
 4491.0000     7.9290   239.3410  -999.2500  -999.2500     0.2110   296.8990    65.3710     7.4430     6.4630     6.7270  -999.2500  -999.2500  -999.2500  -999.2500
 4491.5000     7.9300   241.8460  -999.2500  -999.2500     0.2120   300.7830    66.0090     7.5740     6.8950     7.2380  -999.2500  -999.2500  -999.2500  -999.2500
 4492.0000     7.9320   244.3510  -999.2500  -999.2500     0.2120   304.6680    66.6600     6.6550     7.5110     7.7490  -999.2500  -999.2500  -999.2500  -999.2500
 4492.5000     7.9340   246.8560  -999.2500  -999.2500     0.2110   308.5530    67.1630     6.5330     8.1260     8.2610  -999.2500  -999.2500  -999.2500  -999.2500
 4493.0000     7.9360   249.3610  -999.2500  -999.2500     0.1960   312.4370    67.1800     6.9310     8.7420     8.7720  -999.2500  -999.2500  -999.2500  -999.2500
 4493.5000     7.9380   251.8660  -999.2500  -999.2500     0.1820   316.3220    66.9160     7.7680     9.3580     9.2830  -999.2500  -999.2500  -999.2500  -999.2500
 4494.0000     7.9390   254.3710  -999.2500  -999.2500     0.1650   320.2070    65.8930     9.7120    10.1830     9.7950  -999.2500  -999.2500  -999.2500  -999.2500
 4494.5000     7.9410   256.8760  -999.2500  -999.2500     0.1570   324.0910    64.9140    14.7400    10.1440    10.3730  -999.2500  -999.2500  -999.2500  -999.2500
 4495.0000     7.9430   258.9820  -999.2500  -999.2500     0.1630   327.9760    63.8310    17.6210    10.0850     9.7880  -999.2500  -999.2500  -999.2500  -999.2500
 4495.5000     7.9450   278.9420  -999.2500  -999.2500     0.1690   331.8610    63.9100    17.1260    10.0260     9.1160  -999.2500  -999.2500  -999.2500  -999.2500
 4496.0000     7.9470   273.1540  -999.2500  -999.2500     0.2320   335.7450    64.5650    14.2050     9.8800     8.4440  -999.2500  -999.2500  -999.2500  -999.2500
 4496.5000     7.9480   283.2570  -999.2500  -999.2500  -999.2500   339.6300    65.7250     7.8600     9.6490     7.7160  -999.2500  -999.2500  -999.2500  -999.2500
 4497.0000     7.9460   288.8680  -999.2500  -999.2500  -999.2500   343.5150    66.9200     6.1800     9.4170     7.7160  -999.2500  -999.2500  -999.2500  -999.2500
 4497.5000     7.9460   294.4790  -999.2500  -999.2500  -999.2500   347.3990    68.2580     6.2290     9.1850     7.7160  -999.2500  -999.2500  -999.2500  -999.2500
 4498.0000     7.9450   300.0900  -999.2500  -999.2500  -999.2500   351.2840    67.9980     6.6550     8.9530     8.1600  -999.2500  -999.2500  -999.2500  -999.2500
 4498.5000     7.9440   305.7020  -999.2500  -999.2500  -999.2500   355.1690    69.0090     9.0480     8.6210     8.5490  -999.2500  -999.2500  -999.2500  -999.2500
 4499.0000     7.9430   311.3130  -999.2500  -999.2500  -999.2500   359.0530    68.6100    11.1290     8.6880     8.7880  -999.2500  -999.2500  -999.2500  -999.2500
 4499.5000     7.9420   316.9240  -999.2500  -999.2500  -999.2500   362.9380    68.5250    12.3180     8.8050     9.0280  -999.2500  -999.2500  -999.2500  -999.2500
 4500.0000     7.9410   322.5350  -999.2500  -999.2500  -999.2500   366.8230    68.3850    13.4380     8.9460     9.2670  -999.2500  -999.2500  -999.2500  -999.2500
 4500.5000     7.9400   328.1460  -999.2500  -999.2500  -999.2500   370.7070  -999.2500    12.2550     9.9130     9.5060  -999.2500  -999.2500  -999.2500  -999.2500
