~VERSION INFORMATION
 VERS.                2.0:   CWLS LOG ASCII STANDARD - VERSION 2.0
 WRAP.                 NO:   ONE LINE PER DEPTH STEP
~WELL INFORMATION
#MNEM.UNIT      DATA TYPE    INFORMATION
#----------   ------------   ------------------------------
 STRT.F           85.5000:   START DEPTH
 STOP.F         3267.0000:   STOP DEPTH
 STEP.F            0.5000:   STEP LENGTH
 NULL.          -999.2500:   NO VALUE
 COMP. LAWRENCE ALLISON & ASSOCIATES:   COMPANY
 WELL. LAWRENCE "X" #78-33:   WELL
 FLD .           N P R #3:   FIELD
 LOC .      S33 T39N R78W:   LOCATION
 CNTY.            NATRONA:   COUNTY
 STAT.            WYOMING:   STATE
 CTRY. UNITED STATES OF AMERICA:   COUNTRY
 SRVC.      DRESSER ATLAS:   SERVICE COMPANY
 DATE.        04-FEB-1986:   LOGDATE
 API .     49025110630000:   API NUMBER
~CURVE INFORMATION
#MNEM.UNIT       API CODE    CURVE DESCRIPTION
#----------   ------------   ------------------------------
 DEPT.F                  :   
 CNC .DEC    42 890 03 00:   NEUTRON PORISITY SANDSTONE
 DEN .G/C3   45 350 01 00:   BULK DENSITY
 DCOR.G/C3   45 356 01 00:   DENSITY CORRECTION
 TEND.LBS    45 635 01 00:   TENSION FROM DENSITY LOG
 GRR .GAPI   07 310 01 00:   GAMMA RAY FROM RESISTIVITY
 CALR.IN     07 280 01 00:   CALIPER FROM RESISTIVITY
 RILM.OHMM   07 120 44 00:   INDUCTION LOG MEDIUM RESISTIVITY
 RILD.OHMM   07 120 46 00:   DEEP INDUCTION RESISTIVITY
 RFOC.OHMM   07 220 04 00:   RESISTIVITY FOCUSED LOG RES.
 TENR.LBS    07 635 01 00:   TENSION FROM RESISTIVITY
 DT  .US/F   60 520 00 00:   DELTA TIME
 TENS.LBS    60 635 01 00:   TENSION FROM SONIC
 SPR .MV     07 010 01 00:   SPONTANEOUS POTENTIAL
~PARAMETER INFORMATION
#MNEM.UNIT          VALUE    DESCRIPTION
#----------   ------------   ------------------------------
 EKB .F            0.0000:   Kelly bushing
 EGL .F         5150.0000:   Ground level
 EDF .F         5161.0000:   Drilling floor
 TD  .F         3260.0000:   Total depth
 DATE.        04-FEB-1986:   Date logged
 CLNT.            A2DTECH:   Client Code
 SL  . 1200' FEL & 650' FEL:   Surface Location
 PD  .                 GL:   Permanent Datum
 DD  .F              3260:   Depth driller
 DL  .F              3260:   Depth logger
 BLI .F              3258:   Bottom log interval
 CS1 .IN            8.625:   Casing size
 CBD1.      8.625" @ 566':   Casing driller 1
 CBL1.F               566:   Casing logger 1
 BS1 .IN            7.875:   Bit size
 DFT .        POLYMER-KCL:   Type fluid in hole
 DFD .                9.0:   Density
 DFV .                 36:   Viscosity
 DFPH.                8.5:   pH
 DFL .                 14:   Fluid loss
 MSS .           FLOWLINE:   Source of sample
 RMS .OHMM          0.367:   Rm
 MST .F                65:   Rm Meas. temp.
 RMF .OHMM          0.275:   Rmf
 MFST.F                65:   Rmf Meas. temp.
 RMC .OHMM          0.459:   Rmc
 MCST.F                65:   Rmc Meas. temp.
 MFSS.               CALC:   Source Rmf.
 RMB .OHMM          0.227:   Rm. at BHT
 BHT .F               105:   BHT.
 TCS .HRS               6:   Time Circ. stopped
 MRT .F               105:   Maximum recorded temp.
 LUN .               6274:   Logging unit number
 LUL .           GILLETTE:   Logging unit location
 ENGI.             MILLER:   Recorded By
 WITN.             STRONG:   Witnessed by
 ORIG.           5" PRINT:   Origin of data
 UWI .     49025110630000:   Unique Well ID
 DICO. A2D TECHNOLOGIES, INC.:   Digitizing Company
 DAPD.                 11:   Feet Above Permanent Datum
 BSD1.               3260:   Depth drilled with bit1
 MCSS.               CALC:   Source Rmc.
 EPD .F              5150:   Elevation Permanent Datum
 LMF .                 KB:   Log Measured From
 DMF .                 KB:   Drilling Measured From
 TLI .                566:   Top log interval
~OTHER INFORMATION
~A   DEPT      CNC        DEN       DCOR       TEND         GRR      CALR       RILM       RILD       RFOC       TENR         DT       TENS        SPR   
# ...
 1255.5000  -999.2500  -999.2500  -999.2500  -999.2500    88.5360     9.9030    10.0910    10.2080    10.8250   -38.0430  -999.2500  -999.2500   -77.8730
 1256.0000  -999.2500  -999.2500  -999.2500  -999.2500    88.7670     9.9030    10.2570    10.3520    10.6760   -40.4190  -999.2500  -999.2500   -77.8410
 1256.5000  -999.2500  -999.2500  -999.2500  -999.2500    87.3760     9.8960     9.2690    10.7410    10.4340   -42.7950  -999.2500  -999.2500   -77.7590
 1257.0000  -999.2500  -999.2500  -999.2500  -999.2500    86.8340     9.8950     9.2690    10.6830    10.2570   -45.1710  -999.2500  -999.2500   -77.7100
 1257.5000  -999.2500  -999.2500  -999.2500  -999.2500    87.4640     9.8900     9.2690    10.6380    10.2320   -47.5480  -999.2500  -999.2500   -77.6300
 1258.0000  -999.2500  -999.2500  -999.2500  -999.2500    88.3580     9.8870     9.2690    10.5930    10.2130   -49.9240  -999.2500  -999.2500   -77.7250
 1258.5000  -999.2500  -999.2500  -999.2500  -999.2500    89.2560     9.8930     9.2690    10.5480    10.1930   -52.3000  -999.2500  -999.2500   -78.3820
 1259.0000  -999.2500  -999.2500  -999.2500  -999.2500    88.1460     9.9020     9.2130    10.5030    10.1740   -55.0000  -999.2500  -999.2500   -79.0220
 1259.5000  -999.2500  -999.2500  -999.2500  -999.2500    87.3050     9.9080     9.1680    10.4580    10.1630   -55.0000  -999.2500  -999.2500   -79.1720
 1260.0000  -999.2500  -999.2500  -999.2500  -999.2500    89.0360     9.9180     9.1240    10.4130    10.1540   -55.0000  -999.2500  -999.2500   -79.1850
 1260.5000  -999.2500  -999.2500  -999.2500  -999.2500    90.5040     9.9250     9.1000    10.3680    10.1470   -55.0000  -999.2500  -999.2500   -79.1430
 1261.0000  -999.2500  -999.2500  -999.2500  -999.2500    90.6390     9.9280     9.1000    10.3340    10.1400   -55.0000  -999.2500  -999.2500   -79.0800
 1261.5000  -999.2500  -999.2500  -999.2500  -999.2500    90.8700     9.9240     9.1000    10.2950    10.1330   -65.0000  -999.2500  -999.2500   -79.0320
 1262.0000  -999.2500  -999.2500  -999.2500  -999.2500    91.6260     9.9090     9.1000    10.2560    10.1260   -63.1860  -999.2500  -999.2500   -78.6930
 1262.5000  -999.2500  -999.2500  -999.2500  -999.2500    91.9910     9.9050     9.1000    10.2180    10.1190   -61.4660  -999.2500  -999.2500   -78.2490
 1263.0000  -999.2500  -999.2500  -999.2500  -999.2500    92.1200     9.9080     9.1000    10.1790    10.1120   -59.7450  -999.2500  -999.2500   -78.2020
 1263.5000  -999.2500  -999.2500  -999.2500  -999.2500    91.9570     9.9050     9.1000    10.1400    10.1050   -58.0240  -999.2500  -999.2500   -78.2670
 1264.0000  -999.2500  -999.2500  -999.2500  -999.2500    90.4080     9.9070     9.1000    10.1010    10.0980   -56.3030  -999.2500  -999.2500   -77.7990
 1264.5000  -999.2500  -999.2500  -999.2500  -999.2500    88.8050     9.9170     9.1000    10.0620    10.0910   -54.5830  -999.2500  -999.2500   -77.2270
 1265.0000  -999.2500  -999.2500  -999.2500  -999.2500    88.5010     9.9300     9.1000    10.0230    10.0840   -52.8620  -999.2500  -999.2500   -76.9810
 1265.5000  -999.2500  -999.2500  -999.2500  -999.2500    89.1170     9.9410     8.6110     9.9780    10.0770   -51.1410  -999.2500  -999.2500   -76.8740
 1266.0000  -999.2500  -999.2500  -999.2500  -999.2500    90.2040     9.9460     8.6330     9.9780    10.0700   -49.4210  -999.2500  -999.2500   -77.0510
 1266.5000  -999.2500  -999.2500  -999.2500  -999.2500    91.7210     9.9460     8.6590     9.9780     9.8520   -47.7000  -999.2500  -999.2500   -77.2980
 1267.0000  -999.2500  -999.2500  -999.2500  -999.2500    93.1980     9.9460     8.6900     9.9780     9.6430   -45.9790  -999.2500  -999.2500   -77.4470
 1267.5000  -999.2500  -999.2500  -999.2500  -999.2500    92.9400     9.9460     8.6900     9.9780     9.4330   -45.6420  -999.2500  -999.2500   -77.4930
 1268.0000  -999.2500  -999.2500  -999.2500  -999.2500    92.3550     9.9450     8.6900     9.9780     9.3550   -47.1310  -999.2500  -999.2500   -77.6880
 1268.5000  -999.2500  -999.2500  -999.2500  -999.2500    94.1650     9.9420     8.6900     9.9780     9.6290   -48.6210  -999.2500  -999.2500   -78.1760
 1269.0000  -999.2500  -999.2500  -999.2500  -999.2500    97.6070     9.9400     8.9070     9.9780     9.8860   -50.1100  -999.2500  -999.2500   -78.2130
 1269.5000  -999.2500  -999.2500  -999.2500  -999.2500    99.6720     9.9370     9.0760     9.9780     9.8440   -51.6000  -999.2500  -999.2500   -78.0660
 1270.0000  -999.2500  -999.2500  -999.2500  -999.2500    96.0560     9.9350     9.0380     9.9780     9.8090   -53.0900  -999.2500  -999.2500   -78.0590
 1270.5000  -999.2500  -999.2500  -999.2500  -999.2500    89.6370     9.9310     9.0360    10.0490     9.8710   -54.5790  -999.2500  -999.2500   -77.6490
 1271.0000  -999.2500  -999.2500  -999.2500  -999.2500    87.8590     9.9290     9.0820    10.1360     9.9940   -56.0690  -999.2500  -999.2500   -77.2480
 1271.5000  -999.2500  -999.2500  -999.2500  -999.2500    89.1840     9.9260     9.1570    10.2240    10.1160   -57.5580  -999.2500  -999.2500   -77.2320
 1272.0000  -999.2500  -999.2500  -999.2500  -999.2500    88.9100     9.9180     9.2690    10.2440    10.1070   -59.0480  -999.2500  -999.2500   -77.2420
 1272.5000  -999.2500  -999.2500  -999.2500  -999.2500    87.3270     9.9130     8.6300    10.2210    10.0160   -60.5370  -999.2500  -999.2500   -77.1940
 1273.0000  -999.2500  -999.2500  -999.2500  -999.2500    86.0110     9.9180     8.6620    10.1990     9.9250   -62.0270  -999.2500  -999.2500   -77.1370
 1273.5000  -999.2500  -999.2500  -999.2500  -999.2500    85.4290     9.9640     8.6940    10.1760     9.8330   -63.5160  -999.2500  -999.2500   -77.0460
 1274.0000  -999.2500  -999.2500  -999.2500  -999.2500    86.4830    10.0020     8.7260    10.1480     9.7420   -65.0000  -999.2500  -999.2500   -77.0030
 1274.5000  -999.2500  -999.2500  -999.2500  -999.2500    88.0170     9.9900     8.7580    10.1090     9.7060   -62.0530  -999.2500  -999.2500   -76.8990
 1275.0000  -999.2500  -999.2500  -999.2500  -999.2500    86.9000     9.9910     8.6990    10.0700     9.7970   -59.1180  -999.2500  -999.2500   -76.8580
 1275.5000  -999.2500  -999.2500  -999.2500  -999.2500    85.4980    10.0060     8.5800    10.0700    10.0260   -56.1820  -999.2500  -999.2500   -77.0760
 1276.0000  -999.2500  -999.2500  -999.2500  -999.2500    89.6360    10.0110     8.5480     9.9130    10.0710   -53.2470  -999.2500  -999.2500   -77.2520
 1276.5000  -999.2500  -999.2500  -999.2500  -999.2500    94.6270    10.0220     8.5760     9.7830     9.8380   -50.3120  -999.2500  -999.2500   -77.3490
 1277.0000  -999.2500  -999.2500  -999.2500  -999.2500    92.7280    10.0230     8.6040     9.6520     9.6050   -47.3760  -999.2500  -999.2500   -77.4930
 1277.5000  -999.2500  -999.2500  -999.2500  -999.2500    89.1690    10.0180     8.6310     9.5210     9.3730   -44.4410  -999.2500  -999.2500   -77.5740
 1278.0000  -999.2500  -999.2500  -999.2500  -999.2500    87.7330    10.0130     8.6590     9.4410     9.1840   -41.5060  -999.2500  -999.2500   -77.6380
 1278.5000  -999.2500  -999.2500  -999.2500  -999.2500    87.6450    10.0070     8.6870     9.5960     9.6120   -38.5710  -999.2500  -999.2500   -77.7430
 1279.0000  -999.2500  -999.2500  -999.2500  -999.2500    89.7170    10.0020     8.7150     9.7270     9.9780   -35.6350  -999.2500  -999.2500   -77.7870
 1279.5000  -999.2500  -999.2500  -999.2500  -999.2500    91.2190     9.9970     8.7420     9.8860    10.0140   -32.7000  -999.2500  -999.2500   -77.7700
 1280.0000  -999.2500  -999.2500  -999.2500  -999.2500    92.9360     9.9910     8.7710     9.8690    10.0700   -29.7650  -999.2500  -999.2500   -77.6130
 1280.5000  -999.2500  -999.2500  -999.2500  -999.2500    93.9170     9.9860     8.7710     9.8400     9.9810   -26.8290  -999.2500  -999.2500   -77.1860
 1281.0000  -999.2500  -999.2500  -999.2500  -999.2500    91.2600     9.9880     8.7710     9.8110     9.8670   -25.4700  -999.2500  -999.2500   -76.8250
