~VERSION INFORMATION
 VERS.                2.0:   CWLS LOG ASCII STANDARD - VERSION 2.0
 WRAP.                 NO:   ONE LINE PER DEPTH STEP
~WELL INFORMATION
#MNEM.UNIT      DATA TYPE    INFORMATION
#----------   ------------   ------------------------------
 STRT.F          148.0000:   START DEPTH
 STOP.F         3394.0000:   STOP DEPTH
 STEP.F            0.5000:   STEP LENGTH
 NULL.          -999.2500:   NO VALUE
 COMP.    FENIX & SCISSON:   COMPANY
 WELL.  FENIX "AX" #28-10:   WELL
 FLD .        TEAPOT DOME:   FIELD
 LOC .      S10 T38N R78W:   LOCATION
 CNTY.            NATRONA:   COUNTY
 STAT.            WYOMING:   STATE
 CTRY. UNITED STATES OF AMERICA:   COUNTRY
 SRVC.       SCHLUMBERGER:   SERVICE COMPANY
 DATE.        03-MAR-1981:   LOGDATE
 API .     49025108680000:   API NUMBER
~CURVE INFORMATION
#MNEM.UNIT       API CODE    CURVE DESCRIPTION
#----------   ------------   ------------------------------
 DEPT.F                  :   
 SFL .OHMM   07 220 01 00:   SHALLOW FOCUSED LOG RESISTIVITY
 ILD .OHMM   07 120 46 00:   INDUCTION LOG DEEP RESISTIVITY
 ILM .OHMM   07 120 44 00:   INDUCTION LOG MEDIUM RESISTIVITY
 TENR.LBS    07 635 01 00:   TENSION
 SPR .MV     07 010 01 00:   SPONTANEOUS POTENTIAL
 CALD.IN     45 280 60 00:   CALIPER FROM DENSITY LOG
 GRD .GAPI   45 310 01 00:   GAMMA RAY FROM DENSITY LOG
 TEND.LBS    45 635 01 00:   TENSION FROM DENSITY LOG
 CORR.G/C3   45 356 01 00:   DENSITY CORRECTION
 RHOB.G/C3   45 350 01 00:   BULK DENSITY
~PARAMETER INFORMATION
#MNEM.UNIT          VALUE    DESCRIPTION
#----------   ------------   ------------------------------
 EKB .F         5241.0000:   Kelly bushing
 EGL .F         5231.0000:   Ground level
 EDF .F            0.0000:   Drilling floor
 TD  .F         3381.0000:   Total depth
 DATE.        03-MAR-1981:   Date logged
 CLNT.            A2DTECH:   Client Code
 SL  . 640' FSL & 720' FWL:   Surface Location
 PD  .                 GL:   Permanent Datum
 EPD .F              5231:   Elevation Permanent Datum
 LMF .                 KB:   Log Measured From
 DMF .                 KB:   Drilling Measured From
 DAPD.F                10:   Feet Above Permanent Datum
 DD  .F              3361:   Depth driller
 DL  .F              3381:   Depth logger
 BLI .F              3375:   Bottom log interval
 TLI .F               233:   Top log interval
 CS1 .IN            8.625:   Casing size
 CBD1.      8.625" @ 224':   Casing driller 1
 CBL1.F               233:   Casing logger 1
 BS1 .IN            7.875:   Bit size
 BSD1.F              3361:   Depth drilled with bit1
 DFT .           CHEM/GEL:   Type fluid in hole
 DFD .                  9:   Density
 DFV .                 40:   Viscosity
 DFPH.                8.5:   pH
 DFL .                 11:   Fluid loss
 MSS .           MUD/TANK:   Source of sample
 RMS .OHMM           2.52:   Rm
 MST .F                66:   Rm Meas. temp.
 RMF .OHMM            1.8:   Rmf
 MFST.F                67:   Rmf Meas. temp.
 MFSS.               MEAS:   Source Rmf.
 RMB .OHMM           1.47:   Rm. at BHT
 BHT .F               118:   BHT.
 TCS .HRS            0500:   Time Circ. stopped
 TLAB.HRS            0830:   Time logger at bottom
 MRT .F               118:   Maximum recorded temp.
 LUN .               8035:   Logging unit number
 LUL .               CSPR:   Logging unit location
 ENGI.            BEATTLE:   Recorded By
 WITN.              FIVAS:   Witnessed by
 ORIG.           5" PRINT:   Origin of data
 UWI .     49025108680000:   Unique Well ID
 DICO. A2D TECHNOLOGIES, INC.:   Digitizing Company
~OTHER INFORMATION
~A   DEPT      SFL        ILD        ILM       TENR        SPR         CALD       GRD      TEND       CORR       RHOB   
# ...
 2694.0000     5.3050     4.3140     4.3340   605.2440   -24.8980     9.2130   126.8180   685.8210     0.0250     2.5550
 2694.5000     5.9790     4.5370     4.6180   605.5980   -24.7410     9.2160   120.2250   685.8880     0.0080     2.5550
 2695.0000     7.3460     4.7600     4.9030   605.9530   -24.5690     9.2190   116.5370   685.9560     0.0110     2.5540
 2695.5000     7.2660     4.9840     5.0520   606.3070   -24.3930     9.2220   116.2950   686.0240     0.0160     2.5620
 2696.0000     7.0320     5.1480     5.0280   606.6620   -24.2190     9.2250   118.1340   686.0920     0.0280     2.5710
 2696.5000     6.3610     4.9800     4.9930   607.0160   -24.0450     9.2280   121.2680   686.1590     0.0380     2.5610
 2697.0000     5.6900     4.7870     4.9580   607.3710   -23.8680     9.2320   124.6890   686.2270     0.0550     2.5440
 2697.5000     4.7760     4.6010     4.9220   607.7250   -23.6970     9.2270   128.3410   686.2950     0.0470     2.5270
 2698.0000     4.9160     4.5460     4.8660   608.0800   -23.5210     9.2120   128.8810   686.3630     0.0280     2.5160
 2698.5000     5.5140     4.6770     4.9050   608.4340   -23.3380     9.1980   127.0500   686.4300     0.0090     2.5270
 2699.0000     6.1110     4.8070     4.9970   608.7890   -23.2910     9.1830   124.7630   686.4980     0.0060     2.5390
 2699.5000     6.7090     4.9380     5.0880   609.1430   -23.2400     9.1690   124.1150   686.5660     0.0120     2.5520
 2700.0000     6.9450     5.0690     5.1790   609.4980   -23.6130     9.1550   123.3890   686.6340     0.0180     2.5620
 2700.5000     5.7590     5.1480     5.2710   609.8520   -23.8390     9.1410   122.9320   686.7010     0.0230     2.5690
 2701.0000     5.9570     5.2290     5.3440   610.2060   -24.0790     9.1260   123.6440   686.7690     0.0270     2.5770
 2701.5000     6.2860     5.3110     5.4250   610.5610   -24.0990     9.1120   126.3060   686.8370     0.0220     2.5750
 2702.0000     6.6160     5.3440     5.5480   610.9150   -24.1380     9.0980   128.4090   686.9050     0.0150     2.5710
 2702.5000     6.9450     5.2180     5.4240   611.2700   -24.1530     9.0830   127.5340   686.9720     0.0100     2.5710
 2703.0000     6.9450     5.0600     5.2690   611.6240   -24.1790     9.0730   127.6370   687.0400     0.0170     2.5740
 2703.5000     6.2960     4.9020     5.1140   611.9790   -24.2020     9.0730   130.1920   687.1080     0.0270     2.5740
 2704.0000     5.4850     4.7760     4.9590   612.3330   -24.2250     9.0800   131.9950   687.1760     0.0330     2.5490
 2704.5000     4.3490     4.8500     4.8660   612.6880   -24.2490     9.0880   131.8740   687.2430     0.0140     2.5220
 2705.0000     4.8380     4.9430     5.0400   613.0420   -24.2730     9.0960   127.7550   687.3110     0.0010     2.5100
 2705.5000     5.6530     5.0360     5.2140   613.3970   -24.2960     9.1030   123.1760   687.3790     0.0000     2.5230
 2706.0000     6.5960     5.1480     5.3870   613.7510   -24.3200     9.1120   118.0130   687.4470     0.0050     2.5380
 2706.5000     7.5400     5.3470     5.5610   614.1060   -24.3430     9.1120   116.8150   687.5140     0.0060     2.5540
 2707.0000     7.9180     5.5960     5.7340   614.4600   -24.3670     9.1120   120.7160   687.5820     0.0050     2.5610
 2707.5000     7.4970     5.8460     5.9080   614.8140   -24.3900     9.1100   125.4240   687.6500     0.0060     2.5620
 2708.0000     7.0760     6.0950     6.0820   615.1690   -24.4140     9.1070   123.9660   687.7180     0.0070     2.5640
 2708.5000     7.1440     6.3440     6.2550   615.5230   -24.4380     9.1030   120.1600   687.7850     0.0060     2.5660
 2709.0000     7.3150     6.4440     6.3460   615.8780   -24.4610     9.1000   117.6880   687.8530     0.0060     2.5740
 2709.5000     7.4850     6.4440     6.3810   616.2320   -24.4850     9.0970   120.0570   687.9210     0.0210     2.5830
 2710.0000     7.4060     6.4440     6.4170   616.5870   -24.4960     9.0940   122.2630   687.9880     0.0230     2.5850
 2710.5000     7.5050     6.4440     6.4520   616.9410   -24.4910     9.0900   122.3690   688.0560     0.0170     2.5830
 2711.0000     7.7020     6.4440     6.4880   617.2960   -24.4960     9.0870   118.5180   688.1240     0.0120     2.5780
 2711.5000     7.9000     6.4440     6.5230   617.6500   -24.5070     9.0840   116.4750   688.1920     0.0080     2.5750
 2712.0000     8.0980     6.4440     6.5660   618.0050   -24.7120     9.0810   116.5440   688.2590     0.0080     2.5780
 2712.5000     8.2960     6.4440     6.5660   618.3590   -24.9270     9.0780   118.6140   688.3270     0.0130     2.5820
 2713.0000     8.3750     6.4440     6.5230   618.7140   -25.1450     9.0740   120.7110   688.3950     0.0190     2.5850
 2713.5000     8.3750     6.4440     6.4800   619.0680   -25.3570     9.0720   119.8960   688.4630     0.0160     2.5820
 2714.0000     7.9690     6.4420     6.4380   619.4220   -25.5970     9.0720   118.2580   688.5300     0.0110     2.5790
 2714.5000     7.5630     6.3760     6.3950   619.7770   -25.6520     9.0720   119.4600   688.5980     0.0080     2.5760
 2715.0000     7.0760     6.3220     6.3520   619.9690   -25.4530     9.0720   120.9880   688.6660     0.0090     2.5780
 2715.5000     6.9450     6.2680     6.3100   620.0520   -25.2810     9.0720   118.9390   688.7340     0.0110     2.5880
 2716.0000     7.2180     6.2130     6.2670   620.1360   -25.1020     9.0720   114.6950   688.8010     0.0150     2.5970
 2716.5000     7.6730     6.1580     6.2240   620.2190   -24.9210     9.0720   113.0690   688.8690     0.0190     2.5990
 2717.0000     8.2200     6.0900     6.1480   620.3020   -24.7460     9.0720   115.5820   688.9370     0.0170     2.5890
 2717.5000     8.1070     6.0950     6.0490   620.3860   -24.5610     9.0720   118.6710   689.0050     0.0120     2.5790
 2718.0000     7.7710     5.8930     5.9500   620.4690   -24.4880     9.0720   123.2970   689.0720     0.0150     2.5750
 2718.5000     7.7710     5.7480     5.8510   620.5530   -24.4950     9.0720   127.9510   689.1400     0.0240     2.5780
 2719.0000     6.9770     5.6040     5.7520   620.6360   -24.4940     9.0720   132.4430   689.2080     0.0330     2.5850
 2719.5000     6.1830     5.4590     5.6530   620.7190   -24.4930     9.0710   137.1130   689.2760     0.0410     2.5910
 2720.0000     5.4450     5.3440     5.6530   620.8030   -24.4940     9.0680   136.8670   689.3430     0.0460     2.5960
 2720.5000     5.8600     5.6190     5.9610   620.8860   -24.4940     9.0650   135.4040   689.4110     0.0350     2.5890
 2721.0000     6.8180     5.8480     6.2170   620.9700   -24.4940     9.0630   129.9200   689.4790     0.0260     2.5860
 2721.5000     7.6410     6.0770     6.4740   621.0530   -24.4940     9.0600   123.1230   689.5470     0.0160     2.5890
 2722.0000     8.5100     6.3070     6.7310   621.1360   -24.4930     9.0570   116.7710   689.6140     0.0220     2.6090
 2722.5000     9.7280     6.5690     6.9870   621.2200   -24.4950     9.0540   110.7420   689.6820     0.0290     2.6190
 2723.0000     9.3900     6.8810     7.2440   621.3030   -24.4930     9.0510   112.2850   689.7500     0.0290     2.6140
 2723.5000     8.8260     7.1930     7.5010   621.3870   -24.4890     9.0480   113.3980   689.8180     0.0280     2.6100
 2724.0000     8.3750     7.5050     7.7580   621.4700   -24.4010     9.0450   113.3200   689.8850     0.0260     2.6080
 2724.5000     9.7170     7.8170     8.0140   621.5540   -24.3110     9.0420    98.1580   689.9530     0.0250     2.6040
 2725.0000    11.7310     8.0670     8.2200   621.6370   -24.2200     9.0400    79.7880   690.0210     0.0230     2.6090
 2725.5000    14.6850     7.5530     7.9440   621.7200   -24.1190     9.0370    81.3350   690.0880     0.0240     2.6120
 2726.0000    14.6850     7.2100     7.7150   621.8040   -24.1440     9.0340    91.3700   690.1560     0.0250     2.6170
 2726.5000    12.3490     7.2100     7.4850   621.8870   -24.2610     9.0330    99.4110   690.2240     0.0240     2.5980
 2727.0000     8.2200     7.2100     7.3460   621.9710   -24.3670     9.0420   109.4430   690.2920     0.0220     2.5780
