~VERSION INFORMATION
 VERS.                2.0:   CWLS LOG ASCII STANDARD - VERSION 2.0
 WRAP.                 NO:   ONE LINE PER DEPTH STEP
~WELL INFORMATION
#MNEM.UNIT      DATA TYPE    INFORMATION
#----------   ------------   ------------------------------
 STRT.F          200.0000:   START DEPTH
 STOP.F         3014.0000:   STOP DEPTH
 STEP.F            0.5000:   STEP LENGTH
 NULL.          -999.2500:   NO VALUE
 COMP.    FENIX & SCISSON:   COMPANY
 WELL. FENIX NPR 3 "AX" #45-28:   WELL
 FLD .                NPR:   FIELD
 LOC .      S28 T39N R78W:   LOCATION
 CNTY.            NATRONA:   COUNTY
 STAT.            WYOMING:   STATE
 CTRY. UNITED STATES OF AMERICA:   COUNTRY
 SRVC.              WELEX:   SERVICE COMPANY
 DATE.        30-SEP-1977:   LOGDATE
 API .     49025104230000:   API NUMBER
~CURVE INFORMATION
#MNEM.UNIT       API CODE    CURVE DESCRIPTION
#----------   ------------   ------------------------------
 DEPT.F                  :   
 SPR .MV     07 010 01 00:   SPONTANEOUS POTENTIAL
 TENR.LBS    07 635 01 00:   TENSION
 SFL .OHMM   07 220 01 00:   SHALLOW FOCUSED LOG RESISTIVITY
 ILD .OHMM   07 120 46 00:   INDUCTION LOG DEEP RESISTIVITY
 ILM .OHMM   07 120 44 00:   INDUCTION LOG MEDIUM RESISTIVITY
 TEND.LBS    45 635 01 00:   TENSION FROM DENSITY LOG
 CALD.IN     45 280 60 00:   CALIPER FROM DENSITY LOG
 RHOB.G/C3   45 350 01 00:   BULK DENSITY
 CORR.G/C3   45 356 01 00:   DENSITY CORRECTION
 GRD .GAPI   45 310 01 00:   GAMMA RAY FROM DENSITY LOG
~PARAMETER INFORMATION
#MNEM.UNIT          VALUE    DESCRIPTION
#----------   ------------   ------------------------------
 EKB .F         5075.0000:   Kelly bushing
 EGL .F         5065.0000:   Ground level
 EDF .F            0.0000:   Drilling floor
 E TD.F         3008.0000:   Total depth
 DATE.        30-SEP-1977:   Date logged
 CLNT.            A2DTECH:   Client Code
 SL  . 2210' FSL & 2310' FWL:   Surface Location
 PD  .                 GL:   Permanent Datum
 EPD .F              5065:   Elevation Permanent Datum
 LMF .                 KB:   Log Measured From
 DMF .                 KB:   Drilling Measured From
 DAPD.F                10:   Feet Above Permanent Datum
 DD  .F              3005:   Depth driller
 DL  .F              3008:   Depth logger
 BLI .F              3006:   Bottom log interval
 TLI .F               200:   Top log interval
 CS1 .IN            8.625:   Casing size
 CBD1.      8.625" @ 205':   Casing driller 1
 CBL1.F               220:   Casing logger 1
 BS1 .IN            7.875:   Bit size
 BSD1.F              3005:   Depth drilled with bit1
 DFT .            KCL/MUD:   Type fluid in hole
 DFD .                9.1:   Density
 DFV .                 38:   Viscosity
 DFPH.                 11:   pH
 DFL .                6.8:   Fluid loss
 MSS .           FLOWLINE:   Source of sample
 RMS .OHMM            .31:   Rm
 MST .F                78:   Rm Meas. temp.
 RMF .OHMM            .15:   Rmf
 MFST.F                78:   Rmf Meas. temp.
 RMC .OHMM           1.02:   Rmc
 MCST.F                78:   Rmc Meas. temp.
 MFSS.               FANN:   Source Rmf.
 MCSS.                KIT:   Source Rmc.
 RMB .OHMM            .20:   Rm. at BHT
 BHT .F               117:   BHT.
 TCS .HRS               3:   Time Circ. stopped
 MRT .F               117:   Maximum recorded temp.
 LUN .               8611:   Logging unit number
 LUL .             CASPER:   Logging unit location
 ENGI.         G. BENTSEN:   Recorded By
 WITN.         HARRINGTON:   Witnessed by
 ORIG.           5" PRINT:   Origin of data
 UWI .     49025104230000:   Unique Well ID
 DICO. A2D TECHNOLOGIES, INC.:   Digitizing Company
~OTHER INFORMATION
~A   DEPT      SPR        TENR       SFL        ILD        ILM       TEND       CALD       RHOB       CORR        GRD   
# ...
 1875.0000   -65.5720   677.7110    13.2320     9.5550     9.9640   831.2320     9.0320     2.4570     0.0010   114.7720
 1875.5000   -65.5120   677.7110    12.8570     9.6180    10.0500   831.2920     9.0360     2.4620     0.0010   115.3050
 1876.0000   -65.6110   677.7110    12.5490     9.6810    10.1960   831.3530     9.0400     2.4680     0.0010   118.1140
 1876.5000   -65.7180   677.7110    13.1950     9.7450    10.3410   831.4130     9.0440     2.4730     0.0010   122.4380
 1877.0000   -65.8240   677.7110    13.7630     9.8080    10.4860   831.4740     9.0480     2.4740     0.0000   126.8210
 1877.5000   -65.9300   677.7110    13.4710     9.8710    10.6320   831.5340     9.0510     2.4670     0.0020   129.0800
 1878.0000   -66.0350   677.7110    13.1660     9.9640    10.7270   831.5950     9.0500     2.4600     0.0030   130.0730
 1878.5000   -66.1130   677.7110    12.9380     9.9340    10.5820   831.6550     9.0430     2.4550     0.0030   129.4850
 1879.0000   -66.1360   677.7110    13.3400     9.8780    10.4740   831.7160     9.0360     2.4560     0.0030   128.9360
 1879.5000   -66.1600   677.7110    13.7630     9.8230    10.3660   831.7760     9.0290     2.4570     0.0040   128.3530
 1880.0000   -66.1840   677.7110    13.0210     9.7670    10.2580   831.8370     9.0190     2.4520     0.0040   129.2300
 1880.5000   -66.2080   677.7110    13.2210     9.7120    10.1500   831.8970     9.0100     2.4450     0.0040   130.6110
 1881.0000   -66.2330   677.7110    13.5080     9.6560    10.0420   831.9580     9.0000     2.4380     0.0030   131.9370
 1881.5000   -66.2570   677.7110    13.8900     9.6000     9.9510   832.0180     8.9910     2.4300     0.0010   132.7610
 1882.0000   -66.2810   677.7110    13.4410     9.5450     9.9030   832.0790     8.9810     2.4200    -0.0010   124.7820
 1882.5000   -66.3050   677.7110    12.7670     9.4270     9.8540   832.1390     8.9730     2.4160    -0.0030   118.7480
 1883.0000   -66.3290   677.7110    11.9840     9.4160     9.8060   832.2000     8.9780     2.4200    -0.0050   117.9810
 1883.5000   -66.3530   677.7110    12.9730     9.3710     9.7580   832.2600     8.9830     2.4240    -0.0040   121.2470
 1884.0000   -66.3770   677.7110    13.8900     9.3250     9.6950   832.3210     8.9880     2.4270    -0.0030   123.2970
 1884.5000   -66.4010   677.7110    13.7780     9.2800     9.7100   832.3810     8.9930     2.4310    -0.0020   120.1160
 1885.0000   -66.4250   677.7110    13.6670     9.2340     9.7390   832.4420     8.9980     2.4300    -0.0010   117.5210
 1885.5000   -66.4490   677.7110    13.5570     9.1700     9.7680   832.5020     9.0040     2.4270     0.0010   119.1830
 1886.0000   -66.4740   677.7110    13.3120     9.1970     9.7980   832.5630     9.0090     2.4290     0.0020   121.3120
 1886.5000   -66.4980   677.7110    12.9720     9.2430     9.8270   832.6230     9.0120     2.4380     0.0030   123.4710
 1887.0000   -66.5220   677.7110    12.6320     9.2890     9.8560   832.6840     9.0120     2.4470     0.0040   125.2330
 1887.5000   -66.5460   677.7110    12.2070     9.3350     9.8850   832.7440     9.0120     2.4560     0.0060   123.5900
 1888.0000   -66.5700   677.7110    12.3850     9.3810     9.9150   832.8050     9.0120     2.4570     0.0070   120.3280
 1888.5000   -66.5940   677.7110    12.6220     9.4270     9.9440   832.8650     9.0120     2.4520     0.0080   117.9400
 1889.0000   -66.6180   677.7110    12.7830     9.4730     9.9640   832.9260     9.0120     2.4550     0.0090   121.1400
 1889.5000   -66.6420   677.7110    12.7130     9.5080     9.8860   832.9860     9.0010     2.4620     0.0110   124.3620
 1890.0000   -66.6660   677.7110    12.6660     9.4260     9.8270   833.0470     8.9890     2.4700     0.0120   126.5240
 1890.5000   -66.6900   677.7110    12.8230     9.3460     9.7680   833.1070     8.9770     2.4750     0.0120   125.8870
 1891.0000   -66.7400   677.7110    12.9660     9.2660     9.7090   833.1680     8.9660     2.4740     0.0100   126.2440
 1891.5000   -66.8060   677.7110    13.1090     9.1860     9.6500   833.2280     8.9540     2.4710     0.0090   130.2900
 1892.0000   -66.8720   677.7110    13.2510     9.1070     9.5900   833.2890     8.9480     2.4660     0.0070   128.8870
 1892.5000   -66.9380   677.7110    13.3870     9.0270     9.5310   833.3490     8.9420     2.4560     0.0060   126.4000
 1893.0000   -67.0040   677.7110    12.9870     8.9470     9.4720   833.4100     8.9370     2.4530     0.0040   123.9200
 1893.5000   -67.0690   677.7110    12.3500     8.8470     9.4270   833.4700     8.9320     2.4520     0.0030   121.9640
 1894.0000   -67.1350   677.7110    11.3380     8.8990     9.4970   833.5310     8.9270     2.4510     0.0010   120.0560
 1894.5000   -67.2010   677.7110    12.0110     8.9970     9.5530   833.5910     8.9220     2.4500     0.0000   122.3670
 1895.0000   -67.2670   677.7110    13.6360     9.0960     9.6100   833.6520     8.9160     2.4470    -0.0020   126.9570
 1895.5000   -67.2530   677.7110    13.3320     9.1940     9.6670   833.7120     8.9110     2.4410    -0.0030   131.5640
 1896.0000   -67.1770   677.7110    13.0210     9.2600     9.7230   833.7730     8.9060     2.4360    -0.0020   136.2180
 1896.5000   -67.1020   677.7110    13.1910     9.2860     9.7800   833.8330     8.9010     2.4400    -0.0010   140.7750
 1897.0000   -67.0260   677.7110    13.3640     9.3130     9.8370   833.8940     8.8950     2.4460     0.0010   142.5000
 1897.5000   -66.9500   677.7110    13.5280     9.3400     9.8930   833.9540     8.8900     2.4500     0.0020   144.3700
 1898.0000   -66.8740   677.7110    13.6410     9.3670     9.9500   834.0150     8.8850     2.4490     0.0040   139.2280
 1898.5000   -66.7980   677.7110    13.7630     9.3940    10.0060   834.0760     8.8800     2.4500     0.0050   136.5300
 1899.0000   -66.7220   677.7110    14.5140     9.4200    10.0580   834.1360     8.8740     2.4520     0.0060   136.3420
 1899.5000   -66.6110   677.7110    15.1220     9.4470    10.0750   834.1970     8.8690     2.4480     0.0060   136.0020
 1900.0000   -66.4870   677.7110    14.1250     9.4740    10.0910   834.2570     8.8640     2.4440     0.0050   134.4830
 1900.5000   -66.3620   677.7110    13.1280     9.5010    10.1080   834.3180     8.8590     2.4460     0.0040   132.9610
 1901.0000   -66.2380   677.7110    13.9070     9.5140    10.1240   834.3780     8.8540     2.4450     0.0030   130.7450
 1901.5000   -66.1130   677.7110    13.3020     9.5140    10.1490   834.4390     8.8530     2.4410     0.0020   132.1120
 1902.0000   -65.9880   677.7110    13.5180     9.5140    10.1370   834.4990     8.8530     2.4300     0.0010   135.2080
 1902.5000   -65.8640   677.7110    13.8070     9.5150    10.1120   834.5600     8.8600     2.4150     0.0000   139.0570
 1903.0000   -65.7390   677.7110    14.0290     9.5150    10.0880   834.6200     8.8700     2.4050     0.0000   137.6250
 1903.5000   -65.6150   677.7110    14.0650     9.4800    10.0630   834.6810     8.8810     2.4110    -0.0010   135.1130
 1904.0000   -65.4900   677.7110    14.1000     9.4280    10.0380   834.7410     8.8920     2.4220     0.0000   132.4690
 1904.5000   -65.3660   677.7110    14.1450     9.3760    10.0130   834.8020     8.9020     2.4330     0.0020   127.2000
 1905.0000   -65.2410   677.7110    13.9220     9.3240     9.9880   834.8620     8.9130     2.4390     0.0040   122.4180
 1905.5000   -65.1160   677.7110    13.5110     9.2720     9.9640   834.9230     8.9230     2.4400     0.0060   119.9620
 1906.0000   -64.9920   677.7110    13.9010     9.2200     9.8590   834.9830     8.9340     2.4490     0.0090   117.4320
 1906.5000   -64.8670   677.7110    14.5030     9.1680     9.7570   835.0440     8.9440     2.4590     0.0110   114.8950
 1907.0000   -64.7430   677.7110    14.3220     9.1160     9.6560   835.1040     8.9550     2.4700     0.0120   112.3860
 1907.5000   -64.6180   677.7110    13.9600     9.0640     9.5540   835.1650     8.9660     2.4690     0.0120   108.9870
 1908.0000   -64.4940   677.7110    11.6330     9.0020     9.5140   835.2250     8.9720     2.4680     0.0100   111.6800
