~VERSION INFORMATION
 VERS.                2.0:   CWLS LOG ASCII STANDARD - VERSION 2.0
 WRAP.                 NO:   ONE LINE PER DEPTH STEP
~WELL INFORMATION
#MNEM.UNIT      DATA TYPE    INFORMATION
#----------   ------------   ------------------------------
 STRT.F           10.0000:   START DEPTH
 STOP.F         4008.0000:   STOP DEPTH
 STEP.F            0.5000:   STEP LENGTH
 NULL.          -999.2500:   NO VALUE
 COMP. LAWRENCE ALLISON & ASSOC.:   COMPANY
 WELL. LAWRENCE NPR 3 "AX" #75-28:   WELL
 FLD .                NPR:   FIELD
 LOC .      S28 T39N R78W:   LOCATION
 CNTY.            NATRONA:   COUNTY
 STAT.            WYOMING:   STATE
 CTRY. UNITED STATES OF AMERICA:   COUNTRY
 SRVC.      DRESSER ATLAS:   SERVICE COMPANY
 DATE.        28-APR-1983:   LOGDATE
 API .     49025109060000:   API NUMBER
~CURVE INFORMATION
#MNEM.UNIT       API CODE    CURVE DESCRIPTION
#----------   ------------   ------------------------------
 DEPT.F                  :   
 RHOB.G/C3   45 350 01 00:   BULK DENSITY
 CORR.G/C3   45 356 01 00:   DENSITY CORRECTION
 TEND.LBS    45 635 01 00:   TENSION FROM DENSITY LOG
 NPHI.DEC    42 890 03 00:   NEUTRON POROSITY SANDSTONE
 GRR .GAPI   07 310 01 00:   GAMMA RAY FROM RESISTIVITY
 CALR.IN     07 280 01 00:   CALIPER FROM RESISTIVITY
 RFOC.OHMM   07 220 01 00:   RESISTIVITY FOCUSED LOG RES.
 RILD.OHMM   07 120 46 00:   DEEP INDUCTION RESISTIVITY
 TENR.LBS    01 635 01 00:   TENSION FROM RES.
 RILM.OHMM   07 120 44 00:   INDUCTION LOG MEDIUM RESISTIVITY
 TENS.LBS    60 635 01 00:   TENSION FROM SONIC LOG
 DT  .US/F   60 520 00 00:   DELTA TIME
 SPR .MV     07 010 01 00:   SPONTANEOUS POTENTIAL
~PARAMETER INFORMATION
#MNEM.UNIT          VALUE    DESCRIPTION
#----------   ------------   ------------------------------
 EKB .F         5068.0000:   Kelly bushing
 EGL .F         5058.0000:   Ground level
 EDF .F            0.0000:   Drilling floor
 TD  .F         4003.0000:   Total depth
 DATE.        28-APR-1983:   Date logged
 CLNT.            A2DTECH:   Client Code
 SL  . 2100' FSL & 1050' FEL:   Surface Location
 PD  .                 GL:   Permanent Datum
 EPD .F              5058:   Elevation Permanent Datum
 LMF .                 KB:   Log Measured From
 DMF .                 KB:   Drilling Measured From
 DAPD.F                10:   Feet Above Permanent Datum
 DD  .F              4000:   Depth driller
 DL  .F              4003:   Depth logger
 BLI .F              4000:   Bottom log interval
 CS1 .IN            8.625:   Casing size
 CBD1.      8.625" @ 498':   Casing driller 1
 CBL1.F               497:   Casing logger 1
 BS1 .IN            7.875:   Bit size
 BSD1.F              4000:   Depth drilled with bit1
 DFT .            KCL/GEL:   Type fluid in hole
 DFD .                  9:   Density
 DFV .                 43:   Viscosity
 DFPH.                8.5:   pH
 DFL .               12.4:   Fluid loss
 MSS .           MUD/TANK:   Source of sample
 RMS .OHMM            .45:   Rm
 MST .F                43:   Rm Meas. temp.
 RMF .OHMM            .27:   Rmf
 MFST.F                51:   Rmf Meas. temp.
 RMC .OHMM            .56:   Rmc
 MCST.F                43:   Rmc Meas. temp.
 MFSS.               MEAS:   Source Rmf.
 MCSS.               CALC:   Source Rmc.
 RMB .OHMM            .16:   Rm. at BHT
 BHT .F               121:   BHT.
 TCS .HRS               7:   Time Circ. stopped
 MRT .F               121:   Maximum recorded temp.
 LUN .               6274:   Logging unit number
 LUL .               GLTE:   Logging unit location
 ENGI.            WACDELL:   Recorded By
 WITN.             STRONG:   Witnessed by
 ORIG.           5" PRINT:   Origin of data
 UWI .     49025109060000:   Unique Well ID
 DICO. A2D TECHNOLOGIES, INC.:   Digitizing Company
~OTHER INFORMATION
~A   DEPT     RHOB       CORR       TEND       NPHI         GRR      CALR       RFOC       RILD       TENR       RILM       TENS         DT        SPR   
# ...
  504.0000  -999.2500  -999.2500  -999.2500  -999.2500    76.7560    12.9020     5.1480     6.8560   -69.6690     5.6940  -999.2500  -999.2500    -0.9230
  504.5000  -999.2500  -999.2500  -999.2500  -999.2500    81.7230    12.8710     5.0830     6.8560   -69.0010     5.6610  -999.2500  -999.2500    -0.7880
  505.0000  -999.2500  -999.2500  -999.2500  -999.2500    85.5700    12.8520     5.0100     6.8560   -68.4490     5.6280  -999.2500  -999.2500    -1.2830
  505.5000  -999.2500  -999.2500  -999.2500  -999.2500    86.3910    12.8490     5.0100     6.8560   -67.8970     5.5960  -999.2500  -999.2500    -2.0590
  506.0000  -999.2500  -999.2500  -999.2500  -999.2500    84.1650    12.8580     5.1300     6.8560   -67.3450     5.5630  -999.2500  -999.2500    -2.8350
  506.5000  -999.2500  -999.2500  -999.2500  -999.2500    80.5330    12.8800     5.3050     6.8560   -66.7930     5.5300  -999.2500  -999.2500    -3.6000
  507.0000  -999.2500  -999.2500  -999.2500  -999.2500    77.3200    12.9140     5.4940     6.8560   -66.2410     5.4940  -999.2500  -999.2500    -4.5290
  507.5000  -999.2500  -999.2500  -999.2500  -999.2500    75.2310    12.9630     5.4940     6.8560   -65.6880     5.5520  -999.2500  -999.2500    -5.7410
  508.0000  -999.2500  -999.2500  -999.2500  -999.2500    73.9440    13.0140     5.4150     6.8560   -65.1360     5.6160  -999.2500  -999.2500    -7.1700
  508.5000  -999.2500  -999.2500  -999.2500  -999.2500    73.2840    13.0240     5.3450     6.8560   -64.5840     5.6800  -999.2500  -999.2500    -8.6450
  509.0000  -999.2500  -999.2500  -999.2500  -999.2500    73.9710    12.9330     5.2750     6.8560   -64.0320     5.7440  -999.2500  -999.2500   -10.0580
  509.5000  -999.2500  -999.2500  -999.2500  -999.2500    76.8170    12.7100     5.2040     6.8560   -63.4800     5.8070  -999.2500  -999.2500   -11.4110
  510.0000  -999.2500  -999.2500  -999.2500  -999.2500    81.3310    12.3860     5.1030     6.8560   -62.9280     5.8710  -999.2500  -999.2500   -12.7320
  510.5000  -999.2500  -999.2500  -999.2500  -999.2500    85.3160    12.0490     5.1030     6.8560   -62.3760     5.9350  -999.2500  -999.2500   -13.9900
  511.0000  -999.2500  -999.2500  -999.2500  -999.2500    86.2770    11.7880     5.1650     6.8560   -61.8230     6.0250  -999.2500  -999.2500   -15.1070
  511.5000  -999.2500  -999.2500  -999.2500  -999.2500    83.5700    11.6380     5.2950     6.8560   -61.2710     6.0250  -999.2500  -999.2500   -16.0460
  512.0000  -999.2500  -999.2500  -999.2500  -999.2500    79.2090    11.5670     5.2950     6.8560   -60.7190     6.0250  -999.2500  -999.2500   -16.8490
  512.5000  -999.2500  -999.2500  -999.2500  -999.2500    76.6510    11.5180     5.2950     6.8560   -60.1670     6.0250  -999.2500  -999.2500   -17.6010
  513.0000  -999.2500  -999.2500  -999.2500  -999.2500    78.2890    11.4510     5.2950     6.8560   -59.6190     5.5490  -999.2500  -999.2500   -18.3590
  513.5000  -999.2500  -999.2500  -999.2500  -999.2500    83.4390    11.3580     5.2950     5.8070   -63.2550     5.2500  -999.2500  -999.2500   -19.1350
  514.0000  -999.2500  -999.2500  -999.2500  -999.2500    88.5080    11.2490     5.0100     5.8070   -66.8620     4.9520  -999.2500  -999.2500   -19.9150
  514.5000  -999.2500  -999.2500  -999.2500  -999.2500    89.8770    11.1340     5.0100     5.2950   -70.4700     4.4850  -999.2500  -999.2500   -20.6890
  515.0000  -999.2500  -999.2500  -999.2500  -999.2500    87.4790    11.0190     4.3890     5.1980   -74.0770     4.4850  -999.2500  -999.2500   -21.4560
  515.5000  -999.2500  -999.2500  -999.2500  -999.2500    85.4170    10.9090     3.7980     5.2950   -79.6590     4.4850  -999.2500  -999.2500   -22.2220
  516.0000  -999.2500  -999.2500  -999.2500  -999.2500    88.1630    10.8070     3.7980     5.2950   -79.6590     4.6800  -999.2500  -999.2500   -22.9910
  516.5000  -999.2500  -999.2500  -999.2500  -999.2500    95.6770    10.7140     4.2960     5.3550   -79.6590     4.9100  -999.2500  -999.2500   -23.7630
  517.0000  -999.2500  -999.2500  -999.2500  -999.2500   102.7510    10.6270     4.7670     5.3940   -79.6590     5.1400  -999.2500  -999.2500   -24.5390
  517.5000  -999.2500  -999.2500  -999.2500  -999.2500   103.8150    10.5430     5.2950     5.7570   -79.6590     5.3700  -999.2500  -999.2500   -25.3130
  518.0000  -999.2500  -999.2500  -999.2500  -999.2500    98.2870    10.4580     5.3620     6.0950   -79.6590     5.5990  -999.2500  -999.2500   -26.0780
  518.5000  -999.2500  -999.2500  -999.2500  -999.2500    90.7770    10.3710     5.4380     6.4340   -79.6590     5.8290  -999.2500  -999.2500   -26.8380
  519.0000  -999.2500  -999.2500  -999.2500  -999.2500    86.2850    10.2810     5.5140     6.7730   -79.6590     6.0590  -999.2500  -999.2500   -27.6080
  519.5000  -999.2500  -999.2500  -999.2500  -999.2500    85.9070    10.1900     5.5970     7.1110   -79.6590     6.2890  -999.2500  -999.2500   -28.3970
  520.0000  -999.2500  -999.2500  -999.2500  -999.2500    87.3100    10.1080     5.7740     7.4500   -79.6590     6.5190  -999.2500  -999.2500   -29.1920
  520.5000  -999.2500  -999.2500  -999.2500  -999.2500    88.2850    10.0440     5.9690     7.9470   -79.6590     6.8560  -999.2500  -999.2500   -29.9500
  521.0000  -999.2500  -999.2500  -999.2500  -999.2500    88.7500    10.0020     6.1380     7.9470   -79.6590     6.8560  -999.2500  -999.2500   -30.6300
  521.5000  -999.2500  -999.2500  -999.2500  -999.2500    89.4730     9.9760     6.1880     7.9470   -79.6590     6.9360  -999.2500  -999.2500   -31.2400
  522.0000  -999.2500  -999.2500  -999.2500  -999.2500    90.2020     9.9560     6.2330     7.9470   -79.6590     6.9890  -999.2500  -999.2500   -31.8420
  522.5000  -999.2500  -999.2500  -999.2500  -999.2500    89.8300     9.9330     6.2780     7.9470   -79.6590     7.0410  -999.2500  -999.2500   -32.5050
  523.0000  -999.2500  -999.2500  -999.2500  -999.2500    88.0790     9.9070     6.3230     7.9470   -79.6590     7.0930  -999.2500  -999.2500   -33.2360
  523.5000  -999.2500  -999.2500  -999.2500  -999.2500    86.2210     9.8780     6.3680     7.9470   -79.6590     7.1450  -999.2500  -999.2500   -33.9460
  524.0000  -999.2500  -999.2500  -999.2500  -999.2500    85.9420     9.8520     6.3680     7.9470   -79.6590     7.1970  -999.2500  -999.2500   -34.5140
  524.5000  -999.2500  -999.2500  -999.2500  -999.2500    87.6850     9.8290     6.3680     7.9470   -79.6590     7.2500  -999.2500  -999.2500   -34.8730
  525.0000  -999.2500  -999.2500  -999.2500  -999.2500    90.1610     9.8070     6.3680     7.9470   -79.6590     7.3020  -999.2500  -999.2500   -35.0670
  525.5000  -999.2500  -999.2500  -999.2500  -999.2500    91.2550     9.7800     6.4900     7.9470   -79.6590     7.3540  -999.2500  -999.2500   -35.2130
  526.0000  -999.2500  -999.2500  -999.2500  -999.2500    89.7370     9.7460     6.5660     7.9470   -79.6590     7.4060  -999.2500  -999.2500   -35.4030
  526.5000  -999.2500  -999.2500  -999.2500  -999.2500    86.3320     9.7070     6.6420     7.9470   -79.6590     7.4580  -999.2500  -999.2500   -35.6360
  527.0000  -999.2500  -999.2500  -999.2500  -999.2500    83.2900     9.6700     6.7310     7.9470   -79.6590     7.5190  -999.2500  -999.2500   -35.8300
  527.5000  -999.2500  -999.2500  -999.2500  -999.2500    82.7690     9.6410     6.6740     7.9470   -79.6590     7.4470  -999.2500  -999.2500   -35.9150
  528.0000  -999.2500  -999.2500  -999.2500  -999.2500    85.1360     9.6220     6.6060     7.9470   -79.6590     7.3600  -999.2500  -999.2500   -35.9130
  528.5000  -999.2500  -999.2500  -999.2500  -999.2500    88.7130     9.6100     6.5380     7.9470   -79.6590     7.2730  -999.2500  -999.2500   -35.9350
  529.0000  -999.2500  -999.2500  -999.2500  -999.2500    91.1200     9.6010     6.4710     7.9470   -79.6590     7.1860  -999.2500  -999.2500   -36.0900
  529.5000  -999.2500  -999.2500  -999.2500  -999.2500    91.1440     9.5960     6.4030     7.9470   -79.6590     7.0990  -999.2500  -999.2500   -36.4010
