~VERSION INFORMATION
 VERS.                2.0:   CWLS LOG ASCII STANDARD - VERSION 2.0
 WRAP.                 NO:   ONE LINE PER DEPTH STEP
~WELL INFORMATION
#MNEM.UNIT      DATA TYPE    INFORMATION
#----------   ------------   ------------------------------
 STRT.F          700.5000:   START DEPTH
 STOP.F         3060.0000:   STOP DEPTH
 STEP.F            0.5000:   STEP LENGTH
 NULL.          -999.2500:   NO VALUE
 COMP.    FENIX & SCISSON:   COMPANY
 WELL.   FENIX "A" #23-34:   WELL
 FLD .           N P R #3:   FIELD
 LOC .      S34 T39N R78W:   LOCATION
 CNTY.            NATRONA:   COUNTY
 STAT.            WYOMING:   STATE
 CTRY. UNITED STATES OF AMERICA:   COUNTRY
 SRVC.       SCHLUMBERGER:   SERVICE COMPANY
 DATE.        23-APR-1977:   LOGDATE
 API .     49025103590000:   API NUMBER
~CURVE INFORMATION
#MNEM.UNIT       API CODE    CURVE DESCRIPTION
#----------   ------------   ------------------------------
 DEPT.F                  :   
 ILD .OHMM   07 120 46 00:   DEEP INDUCTION RESISTIVITY
 ILM .OHMM   07 120 44 00:   INDUCTION LOG MEDIUM RESISTIVITY
 LL8 .OHMM   07 220 08 00:   LATEROLOG-8 RES.
 SPR .MV     07 010 01 00:   SPONTANEOUS POTENTIAL
 GRD .GAPI   45 310 01 00:   GAMMA RAY FROM DENSITY LOG
 CALD.IN     45 280 60 00:   CALIPER FROM DENSITY LOG
 RHOB.G/C3   45 350 01 00:   BULK DENSITY
 CORR.G/C3   45 356 01 00:   DENSITY CORRECTION
~PARAMETER INFORMATION
#MNEM.UNIT          VALUE    DESCRIPTION
#----------   ------------   ------------------------------
 EKB .F         5094.0000:   Kelly bushing
 EGL .F         5082.0000:   Ground level
 EDF .F            0.0000:   Drilling floor
 EPD .F            0.0000:   Permanent datum
 TD  .F         3051.0000:   Total depth
 DATE.        23-APR-1977:   Date logged
 CLNT.            A2DTECH:   Client Code
 SL  . 990' FWL & 1650' FNL:   Surface Location
 PD  .                 GL:   Permanent Datum
 DD  .F              3050:   Depth driller
 DL  .F              3051:   Depth logger
 BLI .F              3045:   Bottom log interval
 CS1 .IN            8.625:   Casing size
 CBD1.      8.625" @ 718':   Casing driller 1
 CBL1.F               717:   Casing logger 1
 BS1 .IN            7.875:   Bit size
 DFT .                FGM:   Type fluid in hole
 DFD .                8.8:   Density
 DFV .                 34:   Viscosity
 DFPH.                8.5:   pH
 DFL .                8.2:   Fluid loss
 MSS .           FLOWLINE:   Source of sample
 RMS .OHMM           .155:   Rm
 MST .F                66:   Rm Meas. temp.
 RMF .OHMM           .152:   Rmf
 MFST.F                66:   Rmf Meas. temp.
 MFSS.               MEAS:   Source Rmf.
 RMB .OHMM           .085:   Rm. at BHT
 BHT .F               120:   BHT.
 TCS .HRS            0230:   Time Circ. stopped
 MRT .F               120:   Maximum recorded temp.
 LUN .               5642:   Logging unit number
 LUL .               CSPR:   Logging unit location
 ENGI.             TAYLOR:   Recorded By
 WITN.         HARRINGTON:   Witnessed by
 ORIG.           5" PRINT:   Origin of data
 UWI .     49025103590000:   Unique Well ID
 DICO. A2D TECHNOLOGIES, INC.:   Digitizing Company
 DAPD.                 12:   Feet Above Permanent Datum
 BSD1.               3050:   Depth drilled with bit1
 TLI .                717:   Top log interval
 TLAB.               0530:   Time logger at bottom
~OTHER INFORMATION
~A   DEPT      ILD        ILM        LL8        SPR         GRD      CALD       RHOB       CORR   
# ...
 2239.5000     4.2610     3.7800     4.5040   -79.3770   136.6900    10.2100     2.5040     0.0170
 2240.0000     4.3080     3.7800     4.7520   -79.2200   136.8410    10.2880     2.4890     0.0170
 2240.5000     4.3630     3.7800     4.9850   -79.0630   135.2830    10.3650     2.5040     0.0310
 2241.0000     4.4180     3.8860     4.9140   -78.9060   133.7710    10.4420     2.4950     0.0450
 2241.5000     4.4720     4.0440     4.8040   -78.7500   135.7190    10.5190     2.5010     0.0580
 2242.0000     4.5270     4.2020     4.9830   -78.7070   139.9410    10.5860     2.4840     0.0640
 2242.5000     4.5820     4.3810     5.3670   -78.7750   143.6750    10.5710     2.4840     0.0260
 2243.0000     4.6370     4.3810     5.4170   -78.8440   142.5470    10.4900     2.4910     0.0210
 2243.5000     4.6730     4.3410     5.1720   -78.9130   141.4240    10.3970     2.4900     0.0360
 2244.0000     4.6040     4.2340     5.2850   -78.9820   140.2130    10.2990     2.4850     0.0140
 2244.5000     4.4320     4.0920     5.3670   -79.0460   137.4800    10.2600     2.4900     0.0190
 2245.0000     4.2590     3.9490     5.0310   -79.3010   135.7020    10.2220     2.4960     0.0250
 2245.5000     4.0870     3.8070     4.6030   -79.6000   138.6060    10.1830     2.4930     0.0360
 2246.0000     3.9150     3.6640     4.0000   -79.9020   141.0230    10.1550     2.4960     0.0500
 2246.5000     3.7430     3.5220     4.0230   -80.2030   140.7430    10.1560     2.5020     0.0420
 2247.0000     3.5710     3.3830     4.0690   -80.5050   138.6100    10.1560     2.5070     0.0300
 2247.5000     3.3980     3.2270     4.0260   -80.8070   138.6210    10.1560     2.4900     0.0220
 2248.0000     3.2260     3.0760     3.9750   -80.8220   140.4850    10.1560     2.4800     0.0140
 2248.5000     3.0520     2.9260     3.9230   -80.7870   142.1240    10.1560     2.4710     0.0120
 2249.0000     2.8770     2.7750     3.8860   -80.7500   143.0390    10.1560     2.4640     0.0130
 2249.5000     2.7020     2.6240     3.5350   -80.7140   146.1600    10.1560     2.4660     0.0230
 2250.0000     2.5890     2.4720     3.0280   -80.6780   150.1230    10.1560     2.4750     0.0390
 2250.5000     2.5650     2.4270     2.4720   -80.6410   149.5370    10.1560     2.4790     0.0520
 2251.0000     2.5650     2.4270     2.7800   -80.6050   153.6130    10.1550     2.4650     0.0400
 2251.5000     2.5800     2.4620     3.2180   -80.5690   147.9070    10.1360     2.4610     0.0270
 2252.0000     2.6270     2.5010     3.6760   -80.5320   143.3820    10.1180     2.4800     0.0250
 2252.5000     2.6750     2.5400     3.6110   -80.4950   139.6450    10.1000     2.5100     0.0320
 2253.0000     2.7230     2.5780     3.5020   -80.4600   137.6930    10.0830     2.5250     0.0420
 2253.5000     2.7710     2.6170     3.3580   -80.6510   140.2640    10.0650     2.5020     0.0500
 2254.0000     2.8180     2.6560     3.2010   -80.8680   144.0270    10.0470     2.5190     0.0460
 2254.5000     2.8660     2.6950     3.2010   -81.0860   147.1300    10.0290     2.5140     0.0430
 2255.0000     2.9140     2.7360     3.6430   -81.3030   148.4530    10.0110     2.5230     0.0460
 2255.5000     2.9730     2.7660     3.5080   -81.5190   149.8190     9.9930     2.5430     0.0610
 2256.0000     2.9730     2.7730     3.2610   -81.7350   149.6350     9.9770     2.5130     0.0500
 2256.5000     2.9730     2.7790     3.3370   -81.7710   147.4560     9.9730     2.4860     0.0280
 2257.0000     2.9730     2.7850     3.4800   -81.6280   143.3830     9.9700     2.4590     0.0070
 2257.5000     2.9730     2.7910     3.5760   -81.4840   140.9520     9.9660     2.4570     0.0050
 2258.0000     2.9730     2.7980     3.5110   -81.3400   140.1560     9.9630     2.4830     0.0120
 2258.5000     2.9730     2.8040     3.4780   -81.1960   138.5810     9.9590     2.4990     0.0380
 2259.0000     2.9730     2.8100     3.4870   -81.0520   135.7240     9.9530     2.4900     0.0450
 2259.5000     2.9730     2.8130     3.5530   -80.9070   138.2220     9.9380     2.5060     0.0460
 2260.0000     2.9730     2.7920     3.6090   -80.7630   141.8750     9.9230     2.4900     0.0280
 2260.5000     2.9730     2.7740     3.4840   -80.6190   144.2550     9.9080     2.4790     0.0160
 2261.0000     2.9730     2.7560     3.3510   -80.4760   142.9430     9.8930     2.4890     0.0180
 2261.5000     2.9730     2.7380     3.2910   -80.3320   142.5310     9.8780     2.4890     0.0150
 2262.0000     2.9730     2.7190     3.5540   -80.3880   142.4030     9.8800     2.4760     0.0070
 2262.5000     3.0490     2.7110     3.6430   -80.6430   141.7180     9.8840     2.4680     0.0060
 2263.0000     3.1290     2.8170     3.3390   -80.8980   141.5170     9.8870     2.4740     0.0180
 2263.5000     3.2090     2.9630     3.1720   -81.1540   140.6750     9.8910     2.4890     0.0210
 2264.0000     3.2910     3.0850     3.5680   -81.4100   137.3950     9.8940     2.5130     0.0250
 2264.5000     3.2160     3.0850     4.3810   -81.6650   134.6960     9.8980     2.5410     0.0400
 2265.0000     3.1160     2.9990     4.5040   -81.8490   137.1350     9.9010     2.5250     0.0330
 2265.5000     3.0160     2.8940     4.0980   -81.8360   138.0360     9.9050     2.5040     0.0160
 2266.0000     2.9170     2.7900     3.6650   -81.6870   139.2090     9.9080     2.4880     0.0300
 2266.5000     2.8170     2.6860     3.2320   -81.6330   140.9700     9.9120     2.4830     0.0360
 2267.0000     2.7170     2.5820     2.8000   -81.4240   145.9320     9.9150     2.4680     0.0260
 2267.5000     2.6170     2.4950     2.6130   -81.2210   150.3140     9.9190     2.4520     0.0140
 2268.0000     2.4950     2.4590     3.0720   -81.0180   151.7820     9.9220     2.4560     0.0080
 2268.5000     2.5060     2.4210     3.3620   -80.8150   152.8680     9.9250     2.4600     0.0200
 2269.0000     2.5360     2.3840     3.3830   -80.6120   154.2080     9.9290     2.4740     0.0380
 2269.5000     2.5660     2.3610     3.0100   -80.4090   155.1320     9.9320     2.4640     0.0310
 2270.0000     2.5960     2.3610     2.7620   -80.2060   155.0400     9.9360     2.4610     0.0240
 2270.5000     2.6260     2.3830     2.9930   -80.0050   152.3100     9.9370     2.4850     0.0410
 2271.0000     2.6560     2.4050     3.1890   -79.8870   148.8840     9.9660     2.5150     0.0640
 2271.5000     2.6860     2.4500     3.2310   -80.0010   145.2350    10.0230     2.4990     0.0480
 2272.0000     2.8560     2.4950     3.2310   -80.1080   138.3430    10.0810     2.5210     0.0520
 2272.5000     3.0410     2.6130     3.3880   -80.2150   133.2760    10.1420     2.5140     0.0570
 2273.0000     3.2250     2.9290     3.5480   -80.3220   130.6300    10.0900     2.5030     0.0260
 2273.5000     3.4100     3.2470     3.7100   -80.4300   127.9790    10.0000     2.5020     0.0120
 2274.0000     3.5950     3.5660     4.2090   -80.5390   125.3310     9.9200     2.5070     0.0130
 2274.5000     3.7800     3.8860     4.8710   -80.6470   123.9070     9.8780     2.5120     0.0170
 2275.0000     3.9460     4.0320     5.4170   -80.3580   125.4110     9.8930     2.5170     0.0230
 2275.5000     4.1120     4.0320     5.3210   -80.0270   127.4100     9.9050     2.5180     0.0280
 2276.0000     4.1830     3.8670     5.0810   -79.6960   129.5140     9.9170     2.5100     0.0340
 2276.5000     4.1770     3.7300     4.8090   -79.3650   131.5950     9.9280     2.5010     0.0350
 2277.0000     4.1710     3.6430     4.3980   -79.0340   133.8020     9.9330     2.4930     0.0330
 2277.5000     4.1650     3.6090     3.9870   -78.7040   135.6120     9.9180     2.4840     0.0220
 2278.0000     4.1590     3.7100     3.7450   -78.3730   132.7980     9.9040     2.4780     0.0070
 2278.5000     4.1530     3.8300     4.5860   -78.0420   130.0380     9.8900     2.5120     0.0040
 2279.0000     4.1440     3.9490     5.2690   -77.7120   127.9980     9.8760     2.5500     0.0370
 2279.5000     4.1430     4.0010     5.5180   -77.3830   129.0840     9.8610     2.5440     0.0540
