~VERSION INFORMATION
 VERS.                2.0:   CWLS LOG ASCII STANDARD - VERSION 2.0
 WRAP.                 NO:   ONE LINE PER DEPTH STEP
~WELL INFORMATION
#MNEM.UNIT      DATA TYPE    INFORMATION
#----------   ------------   ------------------------------
 STRT.F            5.0000:   START DEPTH
 STOP.F         4012.0000:   STOP DEPTH
 STEP.F            0.5000:   STEP LENGTH
 NULL.          -999.2500:   NO VALUE
 COMP.   LAWRENCE ALLISON:   COMPANY
 WELL. LAWRENCE "X" 51 #1-15:   WELL
 FLD .                NPR:   FIELD
 LOC .      S15 T38N R78W:   LOCATION
 CNTY.            NATRONA:   COUNTY
 STAT.            WYOMING:   STATE
 CTRY. UNITED STATES OF AMERICA:   COUNTRY
 SRVC.      DRESSER ATLAS:   SERVICE COMPANY
 DATE.        03-JUN-1985:   LOGDATE
 API .     49025110270000:   API NUMBER
~CURVE INFORMATION
#MNEM.UNIT       API CODE    CURVE DESCRIPTION
#----------   ------------   ------------------------------
 DEPT.F                  :   
 NPHI.DEC    42 890 03 00:   NEUTRON POROSITY SANDSTONE
 RHOB.G/C3   45 350 01 00:   BULK DENSITY
 CORR.G/C3   45 356 01 00:   DENSITY CORRECTION
 TEND.LBS    45 635 01 00:   TENSION FROM DENSITY LOG
 CALD.IN     45 280 60 00:   CALIPER FROM DENSITY LOG
 GRR .GAPI   07 310 01 00:   GAMMA RAY FROM RESISTIVITY
 SPR .MV     07 010 01 00:   SPONTANEOUS POTENTIAL
 RSFL.OHMM   07 220 01 00:   SPHERICALLY FOCUSED LOG RES.
 RILD.OHMM   07 120 46 00:   DEEP INDUCTION RESISTIVITY
 RILM.OHMM   07 120 44 00:   INDUCTION LOG MEDIUM RESISTIVITY
 TENR.LBS    07 635 01 00:   TENSION
~PARAMETER INFORMATION
#MNEM.UNIT          VALUE    DESCRIPTION
#----------   ------------   ------------------------------
 EKB .F         5235.0000:   Kelly bushing
 EGL .F         5222.0000:   Ground level
 EDF .F            0.0000:   Drilling floor
 TD  .F         4010.0000:   Total depth
 DATE.        03-JUN-1985:   Date logged
 CLNT.            A2DTECH:   Client Code
 SL  . 202' FNL & 2478' FEL:   Surface Location
 PD  .                 GL:   Permanent Datum
 EPD .F              5222:   Elevation Permanent Datum
 LMF .                 KB:   Log Measured From
 DMF .                 KB:   Drilling Measured From
 DAPD.F                13:   Feet Above Permanent Datum
 DD  .F              4010:   Depth driller
 DL  .F              4005:   Depth logger
 BLI .F              4003:   Bottom log interval
 CS1 .IN            8.625:   Casing size
 CBD1.      8.625" @ 605':   Casing driller 1
 CBL1.F               608:   Casing logger 1
 BS1 .IN            7.875:   Bit size
 BSD1.F              4010:   Depth drilled with bit1
 DFT .            KCL/GEL:   Type fluid in hole
 DFD .                  9:   Density
 DFV .                 45:   Viscosity
 DFPH.                  8:   pH
 DFL .                9.8:   Fluid loss
 MSS .           FLOWLINE:   Source of sample
 RMS .OHMM            .40:   Rm
 MST .F                65:   Rm Meas. temp.
 RMF .OHMM            .32:   Rmf
 MFST.F                65:   Rmf Meas. temp.
 RMC .OHMM            .50:   Rmc
 MCST.F                65:   Rmc Meas. temp.
 MFSS.               MEAS:   Source Rmf.
 MCSS.               CALC:   Source Rmc.
 RMB .OHMM            .20:   Rm. at BHT
 BHT .F               130:   BHT.
 TCS .HRS               3:   Time Circ. stopped
 MRT .F               130:   Maximum recorded temp.
 LUN .               6274:   Logging unit number
 LUL .               GLTE:   Logging unit location
 ENGI.             RAUTIO:   Recorded By
 WITN.             STRONG:   Witnessed by
 ORIG.     2.5", 5" PRINT:   Origin of data
 UWI .     49025110270000:   Unique Well ID
 DICO. A2D TECHNOLOGIES, INC.:   Digitizing Company
~OTHER INFORMATION
~A    DEPT    NPHI       RHOB       CORR       TEND       CALD        GRR        SPR       RSFL       RILD       RILM       TENR   
# ...
  828.5000  -999.2500  -999.2500  -999.2500  -999.2500  -999.2500    94.2290   -78.2670     8.3700    10.1630     8.9280   -91.9100
  829.0000  -999.2500  -999.2500  -999.2500  -999.2500  -999.2500    97.5770   -78.1370     8.4620    10.1340     8.9550   -91.7860
  829.5000  -999.2500  -999.2500  -999.2500  -999.2500  -999.2500    98.7680   -78.0100     8.5550    10.1120     8.9920   -91.6620
  830.0000  -999.2500  -999.2500  -999.2500  -999.2500  -999.2500    96.5680   -77.8840     8.6470    10.0910     9.0280   -91.5380
  830.5000  -999.2500  -999.2500  -999.2500  -999.2500  -999.2500    91.5530   -77.7590     8.7390    10.0700     9.0650   -91.4130
  831.0000  -999.2500  -999.2500  -999.2500  -999.2500  -999.2500    88.9050   -77.6330     8.8310    10.0480     9.1000   -91.2890
  831.5000  -999.2500  -999.2500  -999.2500  -999.2500  -999.2500    90.8400   -77.5070     8.9230    10.0270     9.0200   -91.1650
  832.0000  -999.2500  -999.2500  -999.2500  -999.2500  -999.2500    92.7300   -77.3810     9.0150    10.0060     8.9430   -91.0400
  832.5000  -999.2500  -999.2500  -999.2500  -999.2500  -999.2500    92.9680   -77.2560     9.1000     9.9840     8.8670   -90.9160
  833.0000  -999.2500  -999.2500  -999.2500  -999.2500  -999.2500    90.7280   -77.1300     9.1000     9.9820     8.7910   -90.7920
  833.5000  -999.2500  -999.2500  -999.2500  -999.2500  -999.2500    90.2140   -77.1260     9.0160     9.8310     8.7140   -90.6680
  834.0000  -999.2500  -999.2500  -999.2500  -999.2500  -999.2500    90.3990   -77.2250     8.9190     9.6190     8.6380   -90.5430
  834.5000  -999.2500  -999.2500  -999.2500  -999.2500  -999.2500    92.8860   -77.3230     8.7880     9.4070     8.5610   -90.4190
  835.0000  -999.2500  -999.2500  -999.2500  -999.2500  -999.2500    94.6600   -77.4220     8.6570     9.1960     8.4850   -90.2950
  835.5000  -999.2500  -999.2500  -999.2500  -999.2500  -999.2500    93.6450   -77.5200     8.5260     9.1010     8.4080   -90.1700
  836.0000  -999.2500  -999.2500  -999.2500  -999.2500  -999.2500    91.5770   -77.6190     8.3950     9.1050     8.3320   -90.0460
  836.5000  -999.2500  -999.2500  -999.2500  -999.2500  -999.2500    92.3800   -77.7180     8.2650     9.1080     8.2550   -89.9220
  837.0000  -999.2500  -999.2500  -999.2500  -999.2500  -999.2500    93.3740   -77.8160     8.1340     9.1110     8.1790   -89.7980
  837.5000  -999.2500  -999.2500  -999.2500  -999.2500  -999.2500    91.9970   -77.9150     8.0030     9.1140     8.1480   -89.6730
  838.0000  -999.2500  -999.2500  -999.2500  -999.2500  -999.2500    90.8200   -78.0130     7.9260     9.1170     8.1480   -89.5490
  838.5000  -999.2500  -999.2500  -999.2500  -999.2500  -999.2500    92.0340   -78.1110     7.9570     9.1200     8.1480   -89.4250
  839.0000  -999.2500  -999.2500  -999.2500  -999.2500  -999.2500    93.2480   -78.2010     7.9820     9.1230     8.1480   -89.3000
  839.5000  -999.2500  -999.2500  -999.2500  -999.2500  -999.2500    92.9980   -78.2210     8.0080     9.1260     8.1470   -89.1760
  840.0000  -999.2500  -999.2500  -999.2500  -999.2500  -999.2500    92.4370   -77.9110     8.0340     9.1290     8.1670   -89.0520
  840.5000  -999.2500  -999.2500  -999.2500  -999.2500  -999.2500    91.7880   -77.6080     8.0590     9.1320     8.1890   -88.9270
  841.0000  -999.2500  -999.2500  -999.2500  -999.2500  -999.2500    89.4530   -77.3080     8.0780     9.1350     8.2120   -88.8030
  841.5000  -999.2500  -999.2500  -999.2500  -999.2500  -999.2500    88.9230   -77.1150     8.0890     9.1380     8.2350   -88.6790
  842.0000  -999.2500  -999.2500  -999.2500  -999.2500  -999.2500    91.0000   -77.2870     8.0990     9.1420     8.2570   -88.5550
  842.5000  -999.2500  -999.2500  -999.2500  -999.2500  -999.2500    98.5180   -77.4500     8.1100     9.1450     8.2800   -88.4300
  843.0000  -999.2500  -999.2500  -999.2500  -999.2500  -999.2500    97.4620   -77.6120     8.1200     9.1480     8.3030   -88.3060
  843.5000  -999.2500  -999.2500  -999.2500  -999.2500  -999.2500    95.0750   -77.7750     8.1310     9.1510     8.3250   -88.1820
  844.0000  -999.2500  -999.2500  -999.2500  -999.2500  -999.2500    93.8150   -77.9370     8.1420     9.1540     8.3480   -88.0570
  844.5000  -999.2500  -999.2500  -999.2500  -999.2500  -999.2500    96.7780   -78.0610     8.1520     9.1570     8.3760   -87.9330
  845.0000  -999.2500  -999.2500  -999.2500  -999.2500  -999.2500    99.3560   -77.9210     8.1630     9.1600     8.3730   -87.8090
  845.5000  -999.2500  -999.2500  -999.2500  -999.2500  -999.2500    98.1400   -77.7840     8.1730     9.1630     8.3670   -87.6850
  846.0000  -999.2500  -999.2500  -999.2500  -999.2500  -999.2500    95.1730   -77.6480     8.1840     9.1660     8.3610   -87.5600
  846.5000  -999.2500  -999.2500  -999.2500  -999.2500  -999.2500    92.2220   -77.5120     8.1940     9.1690     8.3550   -87.4360
  847.0000  -999.2500  -999.2500  -999.2500  -999.2500  -999.2500    89.5640   -77.3760     8.2050     9.1720     8.3490   -87.3120
  847.5000  -999.2500  -999.2500  -999.2500  -999.2500  -999.2500    87.0380   -77.2390     8.2160     9.1760     8.3430   -87.1870
  848.0000  -999.2500  -999.2500  -999.2500  -999.2500  -999.2500    88.5420   -77.0970     8.2260     9.1790     8.3370   -87.0630
  848.5000  -999.2500  -999.2500  -999.2500  -999.2500  -999.2500    90.7510   -77.3060     8.2370     9.1800     8.3310   -86.9390
  849.0000  -999.2500  -999.2500  -999.2500  -999.2500  -999.2500    92.9700   -77.5690     8.2470     9.1880     8.3250   -86.8150
  849.5000  -999.2500  -999.2500  -999.2500  -999.2500  -999.2500    95.0640   -77.8340     8.2580     9.0890     8.3200   -86.6900
  850.0000  -999.2500  -999.2500  -999.2500  -999.2500  -999.2500    98.9920   -78.0980     8.2690     9.0770     8.3140   -86.5660
  850.5000  -999.2500  -999.2500  -999.2500  -999.2500  -999.2500    99.9690   -78.3620     8.2790     9.0650     8.3080   -86.4420
  851.0000  -999.2500  -999.2500  -999.2500  -999.2500  -999.2500    98.8150   -78.6260     8.2900     9.0530     8.3020   -86.3170
  851.5000  -999.2500  -999.2500  -999.2500  -999.2500  -999.2500    98.4970   -78.8850     8.2990     9.0410     8.2640   -86.1930
  852.0000  -999.2500  -999.2500  -999.2500  -999.2500  -999.2500    98.9780   -79.0040     8.1230     9.0280     8.1970   -86.0690
  852.5000  -999.2500  -999.2500  -999.2500  -999.2500  -999.2500    98.9960   -78.7830     7.9260     9.0160     8.1300   -85.9450
  853.0000  -999.2500  -999.2500  -999.2500  -999.2500  -999.2500    94.9300   -78.5680     7.9600     9.0040     8.0730   -85.8200
  853.5000  -999.2500  -999.2500  -999.2500  -999.2500  -999.2500    91.2990   -78.3520     8.0070     8.9920     8.0950   -85.6960
  854.0000  -999.2500  -999.2500  -999.2500  -999.2500  -999.2500    92.2370   -78.1370     8.0530     8.9800     8.1140   -85.5720
  854.5000  -999.2500  -999.2500  -999.2500  -999.2500  -999.2500    96.9490   -77.9220     8.1000     8.9680     8.1320   -85.4470
  855.0000  -999.2500  -999.2500  -999.2500  -999.2500  -999.2500   100.3810   -77.7070     8.1480     8.9560     8.1510   -85.3230
  855.5000  -999.2500  -999.2500  -999.2500  -999.2500  -999.2500    95.9290   -77.4910     8.1400     8.9430     8.1700   -85.1990
  856.0000  -999.2500  -999.2500  -999.2500  -999.2500  -999.2500    94.5180   -77.2750     8.1320     8.9270     8.1890   -85.0740
  856.5000  -999.2500  -999.2500  -999.2500  -999.2500  -999.2500    93.0880   -77.0600     8.1240     8.8940     8.2080   -85.0000
  857.0000  -999.2500  -999.2500  -999.2500  -999.2500  -999.2500    93.1260   -76.9260     8.1160     8.8600     8.2230   -85.0000
  857.5000  -999.2500  -999.2500  -999.2500  -999.2500  -999.2500    95.9740   -77.2050     8.1070     8.8260     8.2010   -85.0000
  858.0000  -999.2500  -999.2500  -999.2500  -999.2500  -999.2500    99.0440   -77.4790     8.0990     8.7930     8.1830   -85.0000
  858.5000  -999.2500  -999.2500  -999.2500  -999.2500  -999.2500    97.1650   -77.7510     8.0910     8.7590     8.1650   -85.0000
