~VERSION INFORMATION
 VERS.                2.0:   CWLS LOG ASCII STANDARD - VERSION 2.0
 WRAP.                 NO:   ONE LINE PER DEPTH STEP
~WELL INFORMATION
#MNEM.UNIT      DATA TYPE    INFORMATION
#----------   ------------   ------------------------------
 STRT.F          450.0000:   START DEPTH
 STOP.F         3098.0000:   STOP DEPTH
 STEP.F            0.5000:   STEP LENGTH
 NULL.          -999.2500:   NO VALUE
 COMP. FENIX & SCISSON - U.S NAVY:   COMPANY
 WELL. FENIX NPR 3 "AX" #11-33:   WELL
 FLD .              N P R:   FIELD
 LOC .      S33 T39N R78W:   LOCATION
 CNTY.            NATRONA:   COUNTY
 STAT.            WYOMING:   STATE
 CTRY. UNITED STATES OF AMERICA:   COUNTRY
 SRVC.              WELEX:   SERVICE COMPANY
 DATE.        12-MAR-1977:   LOGDATE
 API .     49025103210000:   API NUMBER
~CURVE INFORMATION
#MNEM.UNIT       API CODE    CURVE DESCRIPTION
#----------   ------------   ------------------------------
 DEPT.F                  :   
 CALD.IN     45 280 60 00:   CALIPER FROM DENSITY LOG
 GRD .GAPI   45 310 01 00:   GAMMA RAY FROM DENSITY LOG
 RHOB.G/C3   45 350 01 00:   BULK DENSITY
 CORR.G/C3   45 356 01 00:   DENSITY CORRECTION
 SPR .MV     07 010 01 00:   SPONTANEOUS POTENTIAL
 SGRD.MV     07 010 01 00:   SHALLOW GUARD RESISTIVITY
 ILD .OHMM   07 120 46 00:   DEEP INDUCTION RESISTIVITY
 ILM .OHMM   07 120 44 00:   INDUCTION LOG MEDIUM RESISTIVITY
~PARAMETER INFORMATION
#MNEM.UNIT          VALUE    DESCRIPTION
#----------   ------------   ------------------------------
 EKB .F         5133.0000:   Kelly bushing
 EGL .F         5122.0000:   Ground level
 TD  .F         3130.0000:   Total depth
 DATE.        12-MAR-1977:   Date logged
 CLNT.            A2DTECH:   Client Code
 SL  . 331' FNL & 430' FWL:   Surface Location
 PD  .                 GL:   Permanent Datum
 DD  .F              3130:   Depth driller
 DL  .F              3102:   Depth logger
 BLI .F              3100:   Bottom log interval
 CS1 .IN            8.625:   Casing size
 CBD1.      8.625" @ 459':   Casing driller 1
 CBL1.F               455:   Casing logger 1
 BS1 .IN            7.875:   Bit size
 DFT .                KCL:   Type fluid in hole
 DFD .                9.3:   Density
 DFV .                 36:   Viscosity
 DFL .               16.2:   Fluid loss
 MSS .           FLOWLINE:   Source of sample
 RMS .OHMM           0.37:   Rm
 MST .F                50:   Rm Meas. temp.
 RMF .OHMM           0.32:   Rmf
 MFST.F                55:   Rmf Meas. temp.
 RMC .OHMM           0.58:   Rmc
 MCST.F                55:   Rmc Meas. temp.
 MFSS.               MEAS:   Source Rmf.
 RMB .OHMM           .168:   Rm. at BHT
 BHT .F               110:   BHT.
 TCS .HRS               4:   Time Circ. stopped
 MRT .F               110:   Maximum recorded temp.
 LUN .               0716:   Logging unit number
 LUL .             VERNAT:   Logging unit location
 ENGI.        E. CALLAHAN:   Recorded By
 WITN.            K. JAPP:   Witnessed by
 ORIG.           5" PRINT:   Origin of data
 UWI .     49025103210000:   Unique Well ID
 DICO. A2D TECHNOLOGIES, INC.:   Digitizing Company
 DAPD.F                11:   Feet Above Permanent Datum
 BSD1.               3950:   Depth drilled with bit1
 MCSS.               CALC:   Source Rmc.
 EPD .F              5122:   Elevation Permanent Datum
 LMF .                 KB:   Log Measured From
 DMF .                 KB:   Drilling Measured From
 TLI .F               455:   Top log interval
~OTHER INFORMATION
~A   DEPT       CALD       GRD        RHOB      CORR       SPR       SGRD        ILD        ILM   
# ...
 2191.5000     8.9396   118.0296     2.4971     0.0845   -50.7168     8.1873     5.5645     6.0428
 2192.0000     8.9592   121.7975     2.4711     0.0466   -50.7847     8.5749     5.5146     5.9894
 2192.5000     8.9591   125.7638     2.4661     0.0326   -50.8525     8.5782     5.2693     5.9916
 2193.0000     8.9787   129.1352     2.5070     0.0645   -50.5345     8.5803     5.4182     6.1048
 2193.5000     8.9587   131.1183     2.4937     0.0665   -50.5305     8.2757     5.4700     6.1632
 2194.0000     8.9387   138.0606     2.4851     0.0685   -50.5368     8.3549     5.5223     6.2218
 2194.5000     8.9385   141.6302     2.5040     0.0625   -50.5431     8.3565     5.5240     6.2237
 2195.0000     8.9384   152.0041     2.4811     0.0545   -50.5494     8.4364     5.3753     6.2257
 2195.5000     8.9580   160.5192     2.4811     0.0525   -50.5557     8.4397     5.3277     6.1141
 2196.0000     8.9579   172.6324     2.4941     0.0764   -50.5620     8.5204     5.3297     6.0045
 2196.5000     8.9577   174.4169     2.5060     0.0764   -50.5684     8.5231     5.2335     5.8429
 2197.0000     8.9774   174.0194     2.4794     0.0664   -50.5747     8.4477     5.1397     5.7912
 2197.5000     8.9772   167.3662     2.4631     0.0783   -50.5810     8.4499     5.1410     5.7392
 2198.0000     8.9572   160.7130     2.4252     0.0763   -50.5873     8.1476     5.1905     5.7414
 2198.5000     8.9570   156.5539     2.4362     0.0664   -50.5936     7.7832     5.2401     5.8499
 2199.0000     8.9370   156.1552     2.4033     0.0643   -50.6000     7.7144     5.2414     5.9600
 2199.5000     8.9368   156.1529     2.4272     0.0603   -50.6063     8.1554     5.2915     6.1288
 2200.0000     8.9565   160.1191     2.4482     0.0922   -50.6126     8.6206     5.4417     6.3610
 2200.5000     8.9563   159.0385     2.4145     0.0774   -50.6189     9.1519     5.5898     6.3048
 2201.0000     8.9762   157.8700     2.3963     0.0463   -50.6310     9.3702     5.7535     6.4827
 2201.5000     8.9761   156.7015     2.4142     0.0563   -50.6431     9.7242     6.0264     6.6656
 2202.0000     8.9561   155.7501     2.4067     0.0563   -50.6552    10.5643     6.1397     6.9814
 2202.5000     8.9560   154.7571     2.3873     0.0483   -50.6672    10.7617     6.0855     7.1818
 2203.0000     8.9559   156.2058     2.3957     0.0363   -50.6793    10.2800     6.3154     7.0528
 2203.5000     8.9360   157.1360     2.4022     0.0302   -50.6914    11.2746     6.4345     7.1199
 2204.0000     8.9557   157.1358     2.4146     0.0442   -50.7035    11.3867     6.5558     7.1219
 2204.5000     8.9556   153.1658     2.4222     0.0522   -50.7156    10.1990     6.6791     7.1889
 2205.0000     8.9555   154.3551     2.4182     0.0542   -50.7276    10.5838     6.9318     7.1913
 2205.5000     8.9554   153.0675     2.4296     0.0721   -50.9338    11.0858     6.9337     7.1937
 2206.0000     8.9355   151.7798     2.4421     0.0701   -50.9369    11.1907     6.9357     7.2599
 2206.5000     8.9552   150.5826     2.3952     0.0441   -50.9399    11.1945     6.7483     7.1946
 2207.0000     8.9353   152.4280     2.4171     0.0620   -50.9429    10.4028     6.3879     7.0011
 2207.5000     8.9352   154.1520     2.3812     0.0461   -50.9460     9.7565     6.1587     6.8123
 2208.0000     8.9351   156.1347     2.3802     0.0321   -50.9490     9.6698     6.0478     6.5078
 2208.5000     8.9548   156.1345     2.4051     0.0500   -50.9520     9.7619     5.9944     6.3906
 2209.0000     8.9349   155.5098     2.3852     0.0480   -50.9551    10.0379     5.9411     6.4518
 2209.5000     8.9348   154.7428     2.4021     0.0639   -50.9581    10.3218     5.9424     6.7570
 2210.0000     8.9545   154.7424     2.3851     0.0739   -50.9611    10.5164     5.9437     7.2090
 2210.5000     8.9743   156.2212     2.3901     0.0679   -50.9642    10.9137     5.9457     7.1449
 2211.0000     8.9742   158.1128     2.4056     0.0399   -50.9672    11.1189     6.0581     6.8255
 2211.5000     8.9741   158.1126     2.4150     0.0359   -50.9702    11.1220     6.0598     6.5807
 2212.0000     8.9740   157.2134     2.3939     0.0379   -50.9733     9.6928     6.1172     6.5825
 2212.5000     8.9739   155.9272     2.3728     0.0359   -50.9763     9.4262     6.1758     6.8312
 2213.0000     8.9738   155.7285     2.3562     0.0219   -50.9793     9.8727     6.2346     7.2209
 2213.5000     8.9737   154.2060     2.3502     0.0199   -50.9824    11.0283     6.4109     7.3594
 2214.0000     8.9934   152.6835     2.3801     0.0019   -50.9854    11.5556     6.8393     7.3610
 2214.5000     8.9735   150.9634     2.3890     0.0119   -50.9884    11.4529     6.7165     7.3634
 2215.0000     8.9734   152.5494     2.3691     0.0139   -50.9915    10.6430     6.7183     7.3655
 2215.5000     8.9733   154.1359     2.3980     0.0338   -50.9945    10.3555     6.7202     7.3675
 2216.0000     8.9732   154.9023     2.4050     0.0338   -50.9975    10.7473     6.7842     7.3676
 2216.5000     8.9731   156.5151     2.3691     0.0098   -51.0006    10.7503     6.8488     7.2341
 2217.0000     8.9730   156.5149     2.3681     0.0098   -51.0036     8.7020     7.0424     7.1702
 2217.5000     8.9927   154.2036     2.3810     0.0457   -51.0066    10.0852     6.8526     7.6493
 2218.0000     8.9926   152.9405     2.4239     0.0716   -50.2151    11.0622     6.9178     8.2364
 2218.5000     8.9925   155.7175     2.4249     0.0596   -50.2102    11.1657     6.9837     8.0906
 2219.0000     8.9924   157.3039     2.4109     0.0356   -50.2052    11.3762     7.0498     8.0919
 2219.5000     8.9923   158.0594     2.4169     0.0376   -50.0027    12.1327     7.0525     8.0955
 2220.0000     8.9724   160.4763     2.3869     0.0177   -49.9977    12.7061     7.1189     8.0977
 2220.5000     8.9723   159.6819     2.3964     0.0296   -49.7952    12.8264     7.1859     8.0258
 2221.0000     8.9722   158.4906     2.3954     0.0356   -49.7902    12.8306     7.1887     8.0280
 2221.5000     8.9522   156.1080     2.4118     0.0415   -49.5877    12.2577     7.1907     7.7400
 2222.0000     8.9521   154.5199     2.4118     0.0515   -49.3851    10.8821     7.1923     7.6697
 2222.5000     8.9520   149.7087     2.3913     0.0315   -49.5778    10.4923     7.1947     7.5306
 2223.0000     8.9519   146.7315     2.3719     0.0275   -49.5728    10.4952     6.6250     7.3276
 2223.5000     8.9518   145.3415     2.3689     0.0235   -49.5679    10.4975     6.3285     7.1301
 2224.0000     8.9517   144.3485     2.3527     0.0255   -49.7606    10.5010     6.0459     6.9379
 2224.5000     8.9318   142.7602     2.3365     0.0354   -49.7557     5.9904     5.9366     6.8132
 2225.0000     8.9515   142.7592     2.3180     0.0394   -49.7507     7.3365     5.8303     6.6299
 2225.5000     8.9515   142.9574     2.3275     0.0613   -49.7458    10.2229     5.8319     6.6314
 2226.0000     8.9712   147.5191     2.3325     0.0872   -49.5432    10.7078     5.8335     6.9452
 2226.5000     8.9909   149.9474     2.3489     0.0413   -49.5383    11.0112     5.8894     6.9475
 2227.0000     8.9908   151.7327     2.4526     0.0413   -49.7310    11.0136     5.9455     6.9486
 2227.5000     8.9907   154.7076     2.4207     0.0393   -49.9237    11.2173     6.0021     6.9509
 2228.0000     8.9510   152.5239     2.4396     0.0413   -49.7211    11.4282     6.0593     7.0196
 2228.5000     8.9509   153.3166     2.4406     0.0452   -49.5185     9.7794     6.0609     6.7678
 2229.0000     8.9309   154.7045     2.4286     0.0432   -49.5136     9.6930     6.0623     6.5254
 2229.5000     8.9507   154.9021     2.4421     0.0552   -49.5086     9.4317     5.8451     6.0087
 2230.0000     8.9307   154.1072     2.4615     0.0831   -49.5037     8.8448     5.5327     6.0656
 2230.5000     8.9505   152.1224     2.4834     0.0691   -49.4988     6.8001     5.2853     6.0673
 2231.0000     8.9702   151.3277     2.4655     0.0651   -49.6915     5.3850     5.1904     6.0693
 2231.5000     8.9701   152.5170     2.4476     0.0730   -49.6865     5.0504     5.0966     5.9057
