~VERSION INFORMATION
 VERS.                2.0:   CWLS LOG ASCII STANDARD - VERSION 2.0
 WRAP.                 NO:   ONE LINE PER DEPTH STEP
~WELL INFORMATION
#MNEM.UNIT      DATA TYPE    INFORMATION
#----------   ------------   ------------------------------
 STRT.F          444.0000:   START DEPTH
 STOP.F         3018.0000:   STOP DEPTH
 STEP.F            0.5000:   STEP LENGTH
 NULL.          -999.2500:   NO VALUE
 COMP.    FENIX & SCISSON:   COMPANY
 WELL.  FENIX "AX" #25-28:   WELL
 FLD .             TEAPOT:   FIELD
 LOC .      S28 T39N R78W:   LOCATION
 CNTY.            NATRONA:   COUNTY
 STAT.            WYOMING:   STATE
 CTRY. UNITED STATES OF AMERICA:   COUNTRY
 SRVC.              WELEX:   SERVICE COMPANY
 DATE.        01-DEC-1979:   LOGDATE
 API .     49025107940000:   API NUMBER
~CURVE INFORMATION
#MNEM.UNIT       API CODE    CURVE DESCRIPTION
#----------   ------------   ------------------------------
 DEPT.F                  :   
 SPR .MV     07 010 01 00:   SPONTANEOUS POTENTIAL
 RILM.OHMM   07 120 44 00:   INDUCTION LOG MEDIUM RESISTIVITY
 RILD.OHMM   07 120 46 00:   DEEP INDUCTION RESISTIVITY
 SGRD.OHMM   07 220 05 00:   SHALLOW GUARD LOG RESISTIVITY
 TENR.LBS    07 635 01 00:   TENSION FROM RESISTIVITY
 NPHI.DEC    42 890 03 00:   NEUTRON POROSITY SANDSTONE
 GRD .GAPI   45 310 01 00:   GAMMA RAY FROM DENSITY LOG
 CALD.IN     45 280 60 00:   CALIPER FROM DENSITY LOG
 RHOB.G/C3   45 350 01 00:   BULK DENSITY
 DCOR.G/C3   45 356 01 00:   DENSITY CORRECTION
 TEND.LBS    45 635 01 00:   TENSION FROM DENSITY LOG
~PARAMETER INFORMATION
#MNEM.UNIT          VALUE    DESCRIPTION
#----------   ------------   ------------------------------
 EKB .F         5092.0000:   Kelly bushing
 EGL .F         5082.0000:   Ground level
 EDF .F            0.0000:   Drilling floor
 TD  .F         3013.5000:   Total depth
 DATE.        01-DEC-1979:   Date logged
 CLNT.            A2DTECH:   Client Code
 SL  . 2267' FSL & 1070' FWL:   Surface Location
 PD  .                 GL:   Permanent Datum
 EPD .F              5082:   Elevation Permanent Datum
 LMF .                 KB:   Log Measured From
 DMF .                 KB:   Drilling Measured From
 DAPD.F                10:   Feet Above Permanent Datum
 DD  .F              3000:   Depth driller
 DL  .F            3013.5:   Depth logger
 BLI .F              3013:   Bottom log interval
 TLI .F               350:   Top log interval
 CS1 .IN            8.625:   Casing size
 CBD1.      8.625" @ 465':   Casing driller 1
 CBL1.F               462:   Casing logger 1
 BS1 .IN            7.875:   Bit size
 BSD1.F              3000:   Depth drilled with bit1
 DFT .           CHEM GEL:   Type fluid in hole
 DFD .                8.8:   Density
 DFV .                 55:   Viscosity
 DFPH.                  9:   pH
 DFL .                6.4:   Fluid loss
 MSS .           FLOWLINE:   Source of sample
 RMS .OHMM           1.53:   Rm
 MST .F                75:   Rm Meas. temp.
 RMF .OHMM           1.24:   Rmf
 MFST.F                75:   Rmf Meas. temp.
 RMC .OHMM           1.83:   Rmc
 MCST.F                75:   Rmc Meas. temp.
 MFSS.               MEAS:   Source Rmf.
 MCSS.               MEAS:   Source Rmc.
 RMB .OHMM           1.09:   Rm. at BHT
 BHT .F               105:   BHT.
 TCS .HRS             2.5:   Time Circ. stopped
 MRT .F               105:   Maximum recorded temp.
 LUN .                965:   Logging unit number
 LUL .             CASPER:   Logging unit location
 ENGI.            BENTSEN:   Recorded By
 WITN.           P. AMEND:   Witnessed by
 ORIG.           5" PRINT:   Origin of data
 UWI .     49025107940000:   Unique Well ID
 DICO. A2D TECHNOLOGIES, INC.:   Digitizing Company
~OTHER INFORMATION
~A   DEPT      SPR       RILM       RILD       SGRD       TENR       NPHI         GRD      CALD       RHOB       DCOR       TEND   
# ...
 2304.5000   -36.4080     3.7520     3.5130     4.6240  1020.0100     0.2750    89.9410     8.0800     2.5140    -0.0450  1505.2810
 2305.0000   -36.3900     3.9610     3.6980     5.1030  1022.4580     0.2750    86.3490     8.0670     2.5090    -0.0520  1501.3440
 2305.5000   -36.3730     4.1700     3.8830     5.5820  1024.9070     0.2720    81.8860     8.0690     2.5000    -0.0470  1497.4070
 2306.0000   -36.3550     4.3790     4.0680     5.8010  1027.3560     0.2720    81.6630     8.0730     2.5020    -0.0520  1493.4700
 2306.5000   -36.3380     4.5930     4.3020     5.7470  1029.8040     0.2730    77.6200     8.0780     2.5070    -0.0420  1496.2450
 2307.0000   -36.3200     4.6050     4.4240     5.3500  1032.2531     0.2740    76.1980     8.0820     2.5180    -0.0320  1505.4720
 2307.5000   -36.3020     4.6200     4.3830     5.0900  1034.7020     0.2780    80.2920     8.0860     2.5280    -0.0240  1514.6990
 2308.0000   -36.2850     4.6360     4.3230     5.1380  1037.1510     0.2800    83.9860     8.0910     2.5340    -0.0180  1523.9250
 2308.5000   -36.2670     4.6030     4.2890     4.2230  1039.5990     0.2820    85.4830     8.0950     2.5260    -0.0230  1533.1520
 2309.0000   -36.2500     4.5700     4.2620     4.4450  1042.0480     0.2810    83.8760     8.0990     2.5200    -0.0280  1542.3790
 2309.5000   -36.2320     4.5500     4.3330     4.9920  1044.4969     0.2790    81.2450     8.1040     2.5270    -0.0220  1551.3831
 2310.0000   -36.2140     4.6050     4.3910     5.7180  1046.9449     0.2780    78.4770     8.1080     2.5240    -0.0270  1531.2250
 2310.5000   -36.1970     4.6510     4.4240     5.6010  1049.3940     0.2790    78.1990     8.1110     2.5360    -0.0230  1511.5420
 2311.0000   -36.1750     4.6960     4.4240     5.3650  1051.8430     0.2810    76.0620     8.1150     2.5520    -0.0120  1492.0950
 2311.5000   -36.1510     4.7420     4.4240     5.1860  1054.2910     0.2800    75.6730     8.1190     2.5600    -0.0070  1506.3240
 2312.0000   -36.1270     4.8120     4.4580     5.4430  1056.7400     0.2790    77.4410     8.1220     2.5570    -0.0110  1520.3840
 2312.5000   -36.1030     4.7870     4.5340     5.6410  1059.1890     0.2730    77.0890     8.1260     2.5500    -0.0070  1534.4440
 2313.0000   -36.0790     4.7310     4.6360     5.5470  1061.6370     0.2700    78.6320     8.1300     2.5510    -0.0130  1548.5040
 2313.5000   -36.0550     4.6750     4.5460     5.4360  1064.0861     0.2690    80.1020     8.1340     2.5510    -0.0210  1543.8101
 2314.0000   -36.0310     4.6190     4.4080     5.3330  1064.9091     0.2670    81.5720     8.1370     2.5540    -0.0180  1534.2850
 2314.5000   -36.0070     4.5620     4.2710     4.9380  1064.9091     0.2650    82.0250     8.1410     2.5670    -0.0010  1524.7610
 2315.0000   -35.9950     4.5060     4.1440     4.5670  1064.9091     0.2660    83.1770     8.1440     2.5800     0.0090  1515.2371
 2315.5000   -36.0350     4.4660     4.2700     4.3020  1064.9091     0.2660    83.9120     8.1430     2.5750     0.0100  1505.7120
 2316.0000   -36.0740     4.6420     4.4120     5.4500  1064.9091     0.2650    81.6010     8.1420     2.5680     0.0090  1496.1880
 2316.5000   -36.1130     4.7790     4.5550     6.1930  1064.9091     0.2640    77.8900     8.1400     2.5630     0.0000  1496.1040
 2317.0000   -36.1520     4.9160     4.6970     6.4890  1064.9091     0.2630    78.0880     8.1390     2.5580    -0.0090  1503.1340
 2317.5000   -36.1910     5.0530     4.8350     6.4190  1064.9091     0.2630    78.1260     8.1370     2.5530    -0.0110  1510.1639
 2318.0000   -36.2300     5.1900     4.9680     6.2820  1064.9091     0.2640    79.2950     8.1360     2.5500    -0.0200  1517.1940
 2318.5000   -36.2690     5.3320     5.1010     6.0780  1064.9091     0.2670    80.3760     8.1350     2.5550    -0.0060  1524.2240
 2319.0000   -36.3080     5.4840     5.2010     6.2940  1064.9091     0.2690    78.4780     8.1330     2.5630    -0.0080  1531.6210
 2319.5000   -36.3470     5.6350     5.2880     6.7050  1064.9091     0.2680    77.6570     8.1320     2.5570    -0.0150  1528.1660
 2320.0000   -36.3860     5.7860     5.3750     7.0180  1064.9091     0.2680    78.5860     8.1300     2.5460    -0.0280  1524.5210
 2320.5000   -36.4250     5.8800     5.4620     6.7280  1064.9091     0.2660    75.3730     8.1290     2.5390    -0.0410  1520.8750
 2321.0000   -36.4640     5.9210     5.5420     6.2930  1064.9091     0.2640    74.1700     8.1280     2.5440    -0.0360  1517.2300
 2321.5000   -36.5020     5.9530     5.5800     6.4020  1064.9091     0.2650    73.5510     8.1260     2.5550    -0.0290  1513.5850
 2322.0000   -36.5410     5.9840     5.6180     6.8280  1064.9091     0.2630    73.8190     8.1250     2.5650    -0.0210  1509.9399
 2322.5000   -36.5810     6.0150     5.6560     7.0580  1064.9091     0.2650    74.2420     8.1210     2.5700    -0.0140  1506.2950
 2323.0000   -36.5340     6.0470     5.6930     6.9930  1064.9091     0.2670    74.2420     8.1180     2.5680    -0.0150  1502.6500
 2323.5000   -36.4130     6.0780     5.7470     6.7260  1064.9091     0.2700    75.5920     8.1140     2.5700    -0.0070  1499.0050
 2324.0000   -36.2910     5.9860     5.6810     6.3100  1064.9091     0.2720    77.2650     8.1110     2.5800    -0.0070  1495.3590
 2324.5000   -36.1700     5.8870     5.5670     6.6110  1064.9091     0.2710    79.2900     8.1070     2.5850     0.0030  1493.0510
 2325.0000   -36.0490     5.7660     5.4540     6.4170  1064.9091     0.2720    80.6110     8.1030     2.5890     0.0080  1502.2061
 2325.5000   -36.0050     5.6450     5.3400     6.1720  1064.9091     0.2730    81.0770     8.1000     2.5830     0.0030  1511.3610
 2326.0000   -36.0380     5.5240     5.2270     5.9260  1064.9091     0.2710    81.6130     8.0960     2.5730    -0.0030  1520.5170
 2326.5000   -36.0710     5.3330     5.1380     5.6200  1064.0620     0.2700    80.6990     8.0920     2.5670    -0.0050  1529.6720
 2327.0000   -36.1050     5.3470     5.1770     5.8110  1063.2260     0.2670    81.0930     8.0890     2.5590    -0.0050  1538.8270
 2327.5000   -36.1380     5.3780     5.2080     6.1690  1062.3900     0.2650    82.1780     8.0850     2.5510    -0.0100  1547.9821
 2328.0000   -36.1710     5.4100     5.2400     6.5270  1061.5540     0.2650    80.5720     8.0660     2.5490    -0.0140  1557.1379
 2328.5000   -36.2050     5.4340     5.2800     6.7990  1060.7170     0.2680    80.6580     8.0460     2.5560    -0.0120  1566.2930
 2329.0000   -36.2380     5.4040     5.2190     6.4260  1059.8810     0.2700    82.7290     8.0270     2.5580    -0.0210  1565.5070
 2329.5000   -36.2720     5.3750     5.1180     6.1250  1059.0450     0.2720    81.7860     8.0070     2.5460    -0.0300  1553.5040
 2330.0000   -36.3050     5.3450     5.0430     5.5460  1058.2080     0.2740    84.4490     7.9870     2.5400    -0.0340  1541.5020
 2330.5000   -36.3380     5.3160     5.0960     4.8200  1057.3719     0.2750    85.9580     7.9910     2.5470    -0.0210  1529.5000
 2331.0000   -36.3720     5.2870     5.1180     6.0220  1056.5360     0.2740    84.0450     7.9950     2.5650    -0.0080  1517.4969
 2331.5000   -36.4050     5.4510     5.1380     6.5760  1055.6990     0.2680    83.8520     8.0000     2.5810     0.0050  1505.4950
 2332.0000   -36.4380     5.6430     5.3330     7.1470  1054.8630     0.2660    81.3050     8.0050     2.5870     0.0060  1493.4930
 2332.5000   -36.4720     5.8350     5.5360     7.7170  1054.0270     0.2690    80.5120     8.0100     2.5720    -0.0070  1481.4900
 2333.0000   -36.5050     6.0270     5.7260     8.1200  1053.1910     0.2720    80.4730     8.0150     2.5600    -0.0220  1474.8530
 2333.5000   -36.5380     6.2190     5.9000     7.9490  1052.3540     0.2750    80.1130     8.0190     2.5520    -0.0280  1485.4930
 2334.0000   -36.5710     6.4290     6.0730     7.8180  1051.5179     0.2740    78.8410     8.0250     2.5490    -0.0310  1496.1331
 2334.5000   -36.5450     6.4940     6.1930     7.6860  1050.6820     0.2760    76.1010     8.0160     2.5370    -0.0410  1506.7729
