~VERSION INFORMATION
 VERS.                2.0:   CWLS LOG ASCII STANDARD - VERSION 2.0
 WRAP.                 NO:   ONE LINE PER DEPTH STEP
~WELL INFORMATION
#MNEM.UNIT      DATA TYPE    INFORMATION
#----------   ------------   ------------------------------
 STRT.F           10.0000:   START DEPTH
 STOP.F         3180.0000:   STOP DEPTH
 STEP.F            0.5000:   STEP LENGTH
 NULL.          -999.2500:   NO VALUE
 COMP. LAWRENCE - ALLISON WEST:   COMPANY
 WELL. LAWRENCE ALLISON NPR 3 "AX" #17-2:   WELL
 FLD .                NPR:   FIELD
 LOC .       S2 T38N R78W:   LOCATION
 CNTY.            NATRONA:   COUNTY
 STAT.            WYOMING:   STATE
 CTRY. UNITED STATES OF AMERICA:   COUNTRY
 SRVC.      DRESSER ATLAS:   SERVICE COMPANY
 DATE.        16-FEB-1987:   LOGDATE
 API .     49025111210000:   API NUMBER
~CURVE INFORMATION
#MNEM.UNIT       API CODE    CURVE DESCRIPTION
#----------   ------------   ------------------------------
 DEPT.F                  :   
 DEN .LBS    45 350 01 00:   BULK DENSITY
 CORR.G/C3   45 356 01 00:   DENSITY CORRECTION
 TEND.LBS    45 635 01 00:   TENSION FROM DENSITY LOG
 CNC .DEC    42 890 01 00:   NEUTRON PORISITY LIMESTONE
 CALR.IN     07 280 01 00:   CALIPER FROM RESISTIVITY
 SPR .MV     07 010 01 00:   SPONTANEOUS POTENTIAL
 GRR .GAPI   07 310 01 00:   GAMMA RAY FROM RESISTIVITY
 RFOC.OHMM   07 220 04 00:   RESISTIVITY FOCUSED LOG RES.
 ILD .OHMM   07 120 46 00:   DEEP INDUCTION RESISTIVITY
 ILM .OHMM   07 120 44 00:   INDUCTION LOG MEDIUM RESISTIVITY
 TENR.LBS    07 635 01 00:   TENSION FROM RESISTIVITY
~PARAMETER INFORMATION
#MNEM.UNIT          VALUE    DESCRIPTION
#----------   ------------   ------------------------------
 EKB .F         5141.0000:   Kelly bushing
 EGL .F         5129.0000:   Ground level
 EDF .F            0.0000:   Drilling floor
 EPD .F            0.0000:   Permanent datum
 TD  .F         3161.0000:   Total depth
 DATE.        16-FEB-1987:   Date logged
 CLNT.            A2DTECH:   Client Code
 SL  . 1125' FSL & 220' FWL:   Surface Location
 PD  .                 GL:   Permanent Datum
 DAPD.F                12:   Feet Above Permanent Datum
 DD  .F              3161:   Depth driller
 DL  .F              3158:   Depth logger
 BLI .F              3156:   Bottom log interval
 TLI .F                12:   Top log interval
 CS1 .IN            8.625:   Casing size
 CBD1.      8.625" @ 626':   Casing driller 1
 CBL1.F               626:   Casing logger 1
 BS1 .IN            7.875:   Bit size
 BSD1.F              3161:   Depth drilled with bit1
 DFT .        KCL/POLYMER:   Type fluid in hole
 DFD .                8.8:   Density
 DFV .                 39:   Viscosity
 DFPH.                 10:   pH
 DFL .                8.4:   Fluid loss
 MSS .           FLOWLINE:   Source of sample
 RMS .OHMM           .292:   Rm
 MST .F                82:   Rm Meas. temp.
 RMF .OHMM           .231:   Rmf
 MFST.F                82:   Rmf Meas. temp.
 RMC .OHMM           .365:   Rmc
 MCST.F                82:   Rmc Meas. temp.
 MFSS.               MEAS:   Source Rmf.
 MCSS.               CALC:   Source Rmc.
 RMB .OHMM           .203:   Rm. at BHT
 BHT .F               118:   BHT.
 TCS .HRS               3:   Time Circ. stopped
 MRT .F               118:   Maximum recorded temp.
 LUN .            HL-6274:   Logging unit number
 LUL .           GALLETTE:   Logging unit location
 ENGI.            PANASUK:   Recorded By
 WITN.             STRONG:   Witnessed by
 ORIG.           5" PRINT:   Origin of data
 UWI .     49025111210000:   Unique Well ID
 DICO. A2D TECHNOLOGIES, INC.:   Digitizing Company
~OTHER INFORMATION
~A   DEPT      DEN       CORR       TEND        CNC       CALR        SPR          GRR     RFOC        ILD        ILM       TENR   
# ...
 1626.5000  -999.2500  -999.2500  -999.2500  -999.2500     9.3310   -19.9006   101.6882     8.0446     6.6721     6.9646   -89.7043
 1627.0000  -999.2500  -999.2500  -999.2500  -999.2500     9.3309   -19.7020    96.5114     8.0439     6.6714     6.9641   -89.6051
 1627.5000  -999.2500  -999.2500  -999.2500  -999.2500     9.3308   -19.5034    92.1309     8.1175     6.7947     6.9634   -89.5059
 1628.0000  -999.2500  -999.2500  -999.2500  -999.2500     9.3506   -19.5038    92.1288     8.1167     6.7941     6.9627   -89.4067
 1628.5000  -999.2500  -999.2500  -999.2500  -999.2500     9.3504   -19.1063    96.5053     8.0417     6.7312     7.0266   -89.3074
 1629.0000  -999.2500  -999.2500  -999.2500  -999.2500     9.3503   -19.1063    99.2897     7.9673     6.7306     7.0258   -89.2082
 1629.5000  -999.2500  -999.2500  -999.2500  -999.2500     9.3701   -19.1069   103.6665     7.8213     6.7300     7.0250   -89.1090
 1630.0000  -999.2500  -999.2500  -999.2500  -999.2500     9.3699   -19.1073   108.4409     7.8206     6.6677     7.0244   -89.0098
 1630.5000  -999.2500  -999.2500  -999.2500  -999.2500     9.3698   -19.1076   101.6722     7.8199     6.6672     7.0239   -88.9106
 1631.0000  -999.2500  -999.2500  -999.2500  -999.2500     9.3697   -19.1080    93.7079     7.8192     6.5454     7.0231   -88.8114
 1631.5000  -999.2500  -999.2500  -999.2500  -999.2500     9.3696   -19.1084    90.1228     7.8184     6.6659     6.8944   -88.7122
 1632.0000  -999.2500  -999.2500  -999.2500  -999.2500     9.3694   -19.1087    92.1129     7.7461     6.6653     6.8940   -88.6130
 1632.5000  -999.2500  -999.2500  -999.2500  -999.2500     9.3693   -19.1092    99.2749     7.9622     6.6647     6.8933   -88.5138
 1633.0000  -999.2500  -999.2500  -999.2500  -999.2500     9.3691   -19.1096    96.8389     8.1093     6.7879     6.8929   -88.4076
 1633.5000  -999.2500  -999.2500  -999.2500  -999.2500     9.3690   -19.3091    94.0955     8.1835     6.7873     6.8922   -88.3015
 1634.0000  -999.2500  -999.2500  -999.2500  -999.2500     9.3290   -19.3095    93.6952     8.4118     6.7865     6.9546   -88.2162
 1634.5000  -999.2500  -999.2500  -999.2500  -999.2500     9.3687   -19.3098    91.3042     8.1071     6.8487     6.9544   -88.1566
 1635.0000  -999.2500  -999.2500  -999.2500  -999.2500     9.3687   -19.3101    90.1075     8.1063     6.7231     6.9536   -88.0349
 1635.5000  -999.2500  -999.2500  -999.2500  -999.2500     9.3685   -19.3105    90.1053     8.0312     6.7225     6.9530   -87.9132
 1636.0000  -999.2500  -999.2500  -999.2500  -999.2500     9.3484   -18.5148    90.5013     7.8119     6.7219     6.8889   -87.8193
 1636.5000  -999.2500  -999.2500  -999.2500  -999.2500     9.3483   -18.5149    92.4901     7.8112     6.7213     6.8881   -87.7598
 1637.0000  -999.2500  -999.2500  -999.2500  -999.2500     9.3353   -18.7144    95.2753     7.8104     6.7828     6.8245   -87.6095
 1637.5000  -999.2500  -999.2500  -999.2500  -999.2500     9.3281   -19.3122    98.0607     7.9548     6.7822     6.8240   -87.5018
 1638.0000  -999.2500  -999.2500  -999.2500  -999.2500     9.3479   -19.3125    97.6604     8.1018     6.8443     6.8234   -87.4026
 1638.5000  -999.2500  -999.2500  -999.2500  -999.2500     9.3478   -19.7112    96.4637     8.1010     6.8437     6.8227   -87.3034
 1639.0000  -999.2500  -999.2500  -999.2500  -999.2500     9.3300   -19.7116    95.6652     8.1751     6.7803     6.8850   -87.2042
 1639.5000  -999.2500  -999.2500  -999.2500  -999.2500     9.3276   -20.1102    94.8667     8.4805     6.7801     6.8847   -87.1050
 1640.0000  -999.2500  -999.2500  -999.2500  -999.2500     9.2677   -20.5088    94.4664     8.4802     6.7186     6.8837   -87.0058
 1640.5000  -999.2500  -999.2500  -999.2500  -999.2500     9.3072   -19.9119    91.6761     8.0980     6.6577     6.8832   -86.9463
 1641.0000  -999.2500  -999.2500  -999.2500  -999.2500     9.3272   -19.5140    95.6569     8.0232     6.5974     6.8827   -86.8263
 1641.5000  -999.2500  -999.2500  -999.2500  -999.2500     9.3271   -19.5144    98.4427     7.8762     6.5321     6.8818   -86.7063
 1642.0000  -999.2500  -999.2500  -999.2500  -999.2500     9.3070   -19.3156    98.8390     7.6610     6.5316     6.8812   -86.6090
 1642.5000  -999.2500  -999.2500  -999.2500  -999.2500     9.3252   -18.7187    98.4387     7.6603     6.5310     6.8805   -86.5693
 1643.0000  -999.2500  -999.2500  -999.2500  -999.2500     9.3267   -18.7189    97.6401     7.6596     6.5306     6.8800   -86.4389
 1643.5000  -999.2500  -999.2500  -999.2500  -999.2500     9.3265   -18.7192    94.4517     7.7297     6.7585     6.8793   -86.3086
 1644.0000  -999.2500  -999.2500  -999.2500  -999.2500     9.3264   -18.9189    93.6530     8.0929     6.5896     6.8789   -86.2121
 1644.5000  -999.2500  -999.2500  -999.2500  -999.2500     9.3263   -19.5167    94.4475     8.1669     6.7114     6.8778   -96.1723
 1645.0000  -999.2500  -999.2500  -999.2500  -999.2500     9.3460   -19.5171    94.0471     8.7094     6.7729     6.8145   -96.0428
 1645.5000  -999.2500  -999.2500  -999.2500  -999.2500     9.3459   -19.7167    92.4516     8.4715     6.7723     6.8138   -95.9133
 1646.0000  -999.2500  -999.2500  -999.2500  -999.2500     9.3458   -19.7171    90.8557     8.1647     6.7717     6.8132   -85.8153
 1646.5000  -999.2500  -999.2500  -999.2500  -999.2500     9.2859   -19.9166    90.8536     8.0892     6.7710     6.8126   -95.7755
 1647.0000  -999.2500  -999.2500  -999.2500  -999.2500     9.2658   -19.9171    92.0464     7.9410     6.7704     6.8120   -91.5096
 1647.5000  -999.2500  -999.2500  -999.2500  -999.2500     9.2658   -19.7183    94.8333     7.7955     6.8324     6.8743   -87.2436
 1648.0000  -999.2500  -999.2500  -999.2500  -999.2500     9.2457   -19.5195    97.2214     7.8668     6.7072     6.7484   -85.4185
 1648.5000  -999.2500  -999.2500  -999.2500  -999.2500     9.2654   -19.5199    99.2116     8.0122     6.7065     6.7478   -95.3787
 1649.0000  -999.2500  -999.2500  -999.2500  -999.2500     9.2055   -19.5203    97.6153     8.0855     6.7058     6.8721   -90.2142
 1649.5000  -999.2500  -999.2500  -999.2500  -999.2500     9.2054   -19.5207    95.2229     8.0847     6.7052     6.8718   -85.1010
 1650.0000  -999.2500  -999.2500  -999.2500  -999.2500     9.2053   -19.5211    95.2208     7.9365     6.7046     6.9346   -85.0018
 1650.5000  -999.2500  -999.2500  -999.2500  -999.2500     9.1711   -19.5215    97.2510     7.8746     6.7567     7.0271   -87.8808
 1651.0000  -999.2500  -999.2500  -999.2500  -999.2500     9.1651   -19.5281    97.9979     7.9350     6.8911     7.1271   -86.6166
 1651.5000  -999.2500  -999.2500  -999.2500  -999.2500     9.1301   -19.7309    98.3903     8.0076     6.9541     7.1265   -85.3525
 1652.0000  -999.2500  -999.2500  -999.2500  -999.2500     9.1245   -19.7344    98.3844     8.2310     6.9535     6.8685   -84.6042
 1652.5000  -999.2500  -999.2500  -999.2500  -999.2500     9.1243   -19.3397    97.9802     8.4605     6.8260     6.8679   -84.5843
 1653.0000  -999.2500  -999.2500  -999.2500  -999.2500     9.1240   -19.3432    97.9743     8.3823     6.8885     6.9307   -84.4535
 1653.5000  -999.2500  -999.2500  -999.2500  -999.2500     9.1238   -19.5460    98.7651     8.1534     6.8248     6.8666   -84.3227
 1654.0000  -999.2500  -999.2500  -999.2500  -999.2500     9.1235   -19.7487    99.1575     8.0779     6.8873     6.9294   -84.2066
 1654.5000  -999.2500  -999.2500  -999.2500  -999.2500     9.1033   -19.9514    99.5499     8.0032     6.8235     6.8654   -84.1867
 1655.0000  -999.2500  -999.2500  -999.2500  -999.2500     9.0832   -19.9550   101.1372     8.0025     6.8229     6.8647   -74.0079
 1655.5000  -999.2500  -999.2500  -999.2500  -999.2500     9.0829   -19.9585   103.9194     8.0018     6.8854     6.9275   -83.9084
 1656.0000  -999.2500  -999.2500  -999.2500  -999.2500     9.0827   -19.9621   104.7100     8.0010     6.8848     7.0555   -83.8090
 1656.5000  -999.2500  -999.2500  -999.2500  -999.2500     9.0825   -19.7665    98.7296     8.0743     7.0120     7.0548   -93.7493
