~VERSION INFORMATION
 VERS.                2.0:   CWLS LOG ASCII STANDARD - VERSION 2.0
 WRAP.                 NO:   ONE LINE PER DEPTH STEP
~WELL INFORMATION
#MNEM.UNIT      DATA TYPE    INFORMATION
#----------   ------------   ------------------------------
 STRT.F           30.0000:   START DEPTH
 STOP.F         3240.0000:   STOP DEPTH
 STEP.F            0.5000:   STEP LENGTH
 NULL.          -999.2500:   NO VALUE
 COMP. LAWRENCE-ALLISON ASSOCIATES WES:   COMPANY
 WELL. LAWRENCE "AX" #87AX28:   WELL
 FLD .   TEAPOT N.P.R. #3:   FIELD
 LOC .      S28 T39N R78W:   LOCATION
 CNTY.            NATRONA:   COUNTY
 STAT.            WYOMING:   STATE
 CTRY. UNITED STATES OF AMERICA:   COUNTRY
 SRVC.       SCHLUMBERGER:   SERVICE COMPANY
 DATE.        28-MAY-1982:   LOGDATE
 API .     49025108860000:   API NUMBER
~CURVE INFORMATION
#MNEM.UNIT       API CODE    CURVE DESCRIPTION
#----------   ------------   ------------------------------
 DEPT.F                  :   
 TENR.LBS    07 635 01 00:   TENSION FROM RESISTIVITY
 GRR .GAPI   07 310 01 00:   GAMMA RAY FROM RESISTIVITY
 SPR .MV     07 010 01 00:   SPONTANEOUS POTENTIAL FROM RES.
 ILD .OHMM   07 120 46 00:   DEEP INDUCTION RESISTIVITY
 ILM .OHMM   07 120 44 00:   INDUCTION LOG MEDIUM RESISTIVITY
 SFL .OHMM   07 220 01 00:   SHALLOW FOCUSED LOG RESISITIVITY
 TEND.LBS    45 635 01 00:   TENSION FORM DENSITY LOG
 NPHI.DEC    42 890 03 00:   NEUTRON POROSITY SANDSTONE
 CALD.IN     45 280 60 00:   CALIPER FROM DENSITY LOG
 CORR.G/C3   45 356 01 00:   DENSITY CORRECTION
 RHOB.G/C3   45 350 01 00:   BULK DENSITY
~PARAMETER INFORMATION
#MNEM.UNIT          VALUE    DESCRIPTION
#----------   ------------   ------------------------------
 EKB .F         5070.0000:   Kelly bushing
 EGL .F         5060.0000:   Ground level
 TD  .F         3220.0000:   Total depth
 CLNT.            A2DTECH:   Client Code
 SL  . 1341' FSL & 162' FEL:   Surface Location
 PD  .                 GL:   Permanent Datum
 EPD .F              5060:   Elevation Permanent Datum
 LMF .                 KB:   Log Measured From
 DMF .                 KB:   Drilling Measured From
 DAPD.F                10:   Feet Above Permanent Datum
 DATE.        28-MAY-1982:   Date Logged [DD-MMM-YYYY]
 DD  .F              3220:   Depth driller
 DL  .F              3215:   Depth logger
 BLI .F              3212:   Bottom log interval
 TLI .F               489:   Top log interval
 CS1 .IN            9.625:   Casing size
 CBD1.      9.625" @ 461':   Casing driller 1
 CBL1.F               489:   Casing logger 1
 BS1 .IN            9.750:   Bit size
 BSD1.F              3220:   Depth drilled with bit1
 DFT .          POLY./KCL:   Type fluid in hole
 DFD .                8.8:   Density
 DFV .                 44:   Viscosity
 DFPH.                7.0:   pH
 DFL .                8.0:   Fluid loss
 MSS .           MUD TANK:   Source of sample
 RMS .OHMM          0.778:   Rm
 MST .F                65:   Rm Meas. temp.
 RMF .OHMM          0.710:   Rmf
 MFST.F                67:   Rmf Meas. temp.
 MFSS.               MEAS:   Source Rmf.
 RMB .OHMM          0.447:   Rm. at BHT
 BHT .F               118:   BHT.
 TCS .HRS            2000:   Time Circ. stopped
 TLAB.HRS            2430:   Time logger at bottom
 MRT .F               118:   Maximum recorded temp.
 LUN .               8043:   Logging unit number
 LUL .               CSPR:   Logging unit location
 ENGI.             DENNIS:   Recorded By
 WITN.             STRONG:   Witnessed by
 ORIG.           5" PRINT:   Origin of data
 UWI .     49025108860000:   Unique Well ID
 DICO. A2D TECHNOLOGIES, INC.:   Digitizing Company
~OTHER INFORMATION
~A   DEPT     TENR         GRR       SPR        ILD        ILM        SFL       TEND       NPHI       CALD       CORR       RHOB   
# ...
 1555.0000   977.6243    93.1873   -39.6327     7.9630     7.1098     7.9656  1199.3245    -0.0900    11.0780    -0.0002     2.5142
 1555.5000   982.8393    97.7828   -39.9287     7.9685     7.1142     7.8579  1197.6165    -0.0851    11.0775     0.0022     2.5181
 1556.0000   990.6018   101.6885   -40.0689     7.9739     7.1186     7.8630  1180.5857    -0.0779    11.0923     0.0053     2.5215
 1556.5000   990.9408   100.5483   -40.0585     7.9224     7.1229     7.8681  1178.8136    -0.0752    11.0762     0.0062     2.5260
 1557.0000   991.2798    97.3194   -40.0482     7.8717     7.1273     7.8735  1177.0415    -0.0733    11.0756     0.0037     2.5291
 1557.5000   991.6187    95.0587   -40.1935     7.8773     7.1318     7.9361  1174.9492    -0.0743    11.0750    -0.0007     2.5315
 1558.0000   991.9577    94.6049   -40.4869     7.8278     7.1373     7.9413  1189.0770    -0.0795    11.0744    -0.0022     2.5308
 1558.5000   992.2967    95.5307   -40.6297     7.7761     7.1417     7.8887  1186.9419    -0.0805    11.0738    -0.0038     2.5285
 1559.0000   992.6356    97.8309   -40.6167     7.6725     7.1461     7.9517  1185.2339    -0.0793    11.0884    -0.0045     2.5263
 1559.5000   992.9746   100.1311   -40.7621     7.6777     7.1505     7.9569  1183.5262    -0.0790    11.0878    -0.0044     2.5263
 1560.0000   993.3135   102.2019   -40.9023     7.6830     7.1030     7.9621  1197.2266    -0.0787    11.1027    -0.0028     2.5312
 1560.5000   993.6525   102.1536   -41.1982     7.6884     7.0580     7.9686  1210.9268    -0.0922    11.1174    -0.0012     2.5380
 1561.0000   993.9915    97.4004   -41.1879     7.6388     7.0122     7.9738  1208.7921    -0.0946    11.1321     0.0020     2.5389
 1561.5000   994.3304    94.1960   -41.0244     7.5910     6.9172     7.9222  1207.0841    -0.0883    11.1314     0.0028     2.5358
 1562.0000   994.6694    92.8248   -40.8606     7.5422     6.9225     7.8711  1236.6198    -0.0837    11.1461    -0.0010     2.5274
 1562.5000   995.0084    93.2918   -40.6948     7.4924     6.8287     7.8200  1249.8934    -0.0810    11.1455    -0.0041     2.5112
 1563.0000   995.3474    96.9682   -40.6635     7.4988     6.7834     7.6596  1248.1853    -0.0777    11.1448    -0.0071     2.4997
 1563.5000   995.6863    99.7271   -40.5856     7.5040     6.7886     7.4950  1246.4561    -0.0736    11.1596    -0.0087     2.4912
 1564.0000   996.0253   100.5244   -40.5077     7.5104     6.7928     7.3494  1244.3427    -0.0665    11.1895    -0.0070     2.4874
 1564.5000   996.3643    98.1366   -40.4298     7.5156     6.9450     7.3008  1242.6345    -0.0623    11.1889    -0.0046     2.4968
 1565.0000   996.7032    92.8680   -40.3519     7.5747     7.0491     7.3067  1240.9270    -0.0590    11.1730    -0.0007     2.5100
 1565.5000   997.0422    90.5810   -40.2740     7.5799     7.1547     7.6859  1223.8105    -0.0556    11.1571     0.0017     2.5232
 1566.0000   997.3812    91.7345   -40.1961     7.6394     7.1591     8.0273  1222.1025    -0.0517    11.1259    -0.0006     2.5302
 1566.5000   997.7202    92.8879   -40.3049     7.6447     7.1125     8.0901  1220.3949    -0.0522    11.1100    -0.0013     2.5272
 1567.0000   998.0591    92.8945   -40.2920     7.7049     7.0163     7.9819  1218.6440    -0.0713    11.1398    -0.0028     2.5226
 1567.5000   998.3981    93.8800   -40.2816     7.7666     6.9708     7.8727  1216.5518    -0.0853    11.1547    -0.0028     2.5180
 1568.0000   998.7371    97.2673   -40.2713     7.8277     6.9761     7.8218  1214.8441    -0.0887    11.1694    -0.0027     2.5206
 1568.5000   999.0760    99.7968   -40.2609     7.8892     6.9804     7.8843  1213.1361    -0.0827    11.1842    -0.0011     2.5328
 1569.0000   999.4150    99.3447   -40.4063     7.9512     6.9848     7.9459  1211.4280    -0.0766    11.1989    -0.0002     2.5383
 1569.5000   999.7540    97.9752   -40.3934     7.9000     6.9891     7.9522  1209.7205    -0.0681    11.1981     0.0029     2.5407
 1570.0000  1000.0930    97.0644   -40.3829     7.6811     6.9934     7.9565  1223.4207    -0.0579    11.1363     0.0061     2.5408
 1570.5000  1000.4319    95.9213   -40.3701     7.5792     6.9978     8.0198  1221.6486    -0.0505    11.1042     0.0093     2.5377
 1571.0000  1000.7709    94.7477   -40.3597     7.5857     7.0532     8.0825  1219.5780    -0.0624    11.0737     0.0109     2.5347
 1571.5000  1001.1099    93.4163   -40.3494     7.5909     7.1081     8.0878  1217.8699    -0.0765    11.0578     0.0101     2.5332
 1572.0000  1001.4488    92.9626   -40.3390     7.5961     7.1633     8.0342  1216.3328    -0.0826    11.0572     0.0055     2.5310
 1572.5000  1001.7878    93.4296   -40.3287     7.6013     7.1678     7.8705  1214.4542    -0.0827    11.0566     0.0017     2.5287
 1573.0000  1002.1268    93.8949   -40.3183     7.6066     7.1722     7.6512  1212.7462    -0.0786    11.0560     0.0026     2.5249
 1573.5000  1002.4657    94.3603   -40.3078     7.6119     7.1256     7.5506  1211.0168    -0.0729    11.0554     0.0111     2.5234
 1574.0000  1002.8047    95.2844   -40.4482     7.6183     7.1311     7.6108  1208.9034    -0.0666    11.0548     0.0143     2.5258
 1574.5000  1003.1436    94.8339   -40.4378     7.5680     7.0345     7.7805  1207.1954    -0.0590    11.0542     0.0128     2.5282
 1575.0000  1003.4826    93.0057   -40.2744     7.5745     7.0389     7.8975  1205.4878    -0.0499    11.0383     0.0097     2.5251
 1575.5000  1003.8216    91.6345   -40.2640     7.5797     6.9921     8.0736  1203.7798    -0.0472    11.0224     0.0036     2.5237
 1576.0000  1004.1605    91.4118   -40.2537     7.5849     6.9975     8.0804  1217.4800    -0.0707    11.0186    -0.0003     2.5253
 1576.5000  1004.4995    93.4843   -40.2433     7.6994     6.9521     7.7940  1215.7725    -0.0819    11.0058     0.0046     2.5292
 1577.0000  1004.8385    95.5552   -40.0796     7.8168     6.9070     7.6954  1222.1121    -0.0704    10.9898     0.0157     2.5339
 1577.5000  1005.1774    98.1768   -39.7606     7.8221     6.9123     7.7568  1242.7460    -0.0568    10.9739     0.0194     2.5378
 1578.0000  1005.5164   104.9738   -39.7503     7.7165     6.9166     7.8734  1241.0383    -0.0519    10.9733     0.0124     2.5410
 1578.5000  1005.8554   105.8962   -39.5868     7.6124     6.9208     7.9350  1239.5223    -0.0651    10.9727     0.0047     2.5410
 1579.0000  1006.1943   104.2995   -39.5764     7.6176     6.9747     7.9970  1237.6222    -0.0788    10.9875     0.0016     2.5388
 1579.5000  1006.5333    97.8842   -39.4129     7.6240     6.9790     8.0023  1235.9146    -0.0892    10.9867     0.0001     2.5365
 1580.0000  1006.8723    89.8633   -39.2494     7.6829     6.9834     8.0661  1234.2065    -0.0819    10.9861     0.0002     2.5350
 1580.5000  1007.2112    91.0167   -39.2391     7.6893     6.9380     8.1292  1232.3561    -0.0701    10.9855     0.0065     2.5328
 1581.0000  1007.5502    94.6931   -39.3819     7.7498     6.9433     8.0766  1230.3638    -0.0753    10.9849     0.0135     2.5328
 1581.5000  1007.8892    97.6813   -39.5247     7.8107     6.9973     7.9674  1228.6558    -0.0847    10.9843     0.0143     2.5352
 1582.0000  1008.2281    99.0642   -39.6649     7.8720     7.0016     7.8584  1226.9478    -0.0903    10.9838     0.0128     2.5407
 1582.5000  1008.5671    98.6137   -39.8103     7.9339     7.0561     7.8088  1225.2401    -0.0821    10.9832     0.0074     2.5446
 1583.0000  1008.9061    96.3268   -39.9530     7.9963     7.1110     7.8141  1223.5320    -0.0747    10.9825     0.0028     2.5385
 1583.5000  1009.2451    91.7463   -40.0934     8.0031     7.1155     7.8764  1237.2323    -0.0733    10.9971     0.0005     2.5316
 1584.0000  1009.5840    89.6887   -40.0827     7.9503     7.1208     8.0520  1235.0977    -0.0800    10.9965     0.0006     2.5285
 1584.5000  1009.9230    89.0056   -40.0700     7.8429     7.1252     8.2316  1249.2250    -0.0865    10.9959     0.0015     2.5317
 1585.0000  1010.2620    89.2432   -40.0596     7.7925     7.0779     8.2959  1247.0903    -0.0877    10.9954     0.0093     2.5434
