~VERSION INFORMATION
 VERS.                2.0:   CWLS LOG ASCII STANDARD - VERSION 2.0
 WRAP.                 NO:   ONE LINE PER DEPTH STEP
~WELL INFORMATION
#MNEM.UNIT      DATA TYPE    INFORMATION
#----------   ------------   ------------------------------
 STRT.F           10.5000:   START DEPTH
 STOP.F         5650.0000:   STOP DEPTH
 STEP.F            0.5000:   STEP LENGTH
 NULL.          -999.2500:   NO VALUE
 COMP.    FENIX & SCISSON:   COMPANY
 WELL. FENIX NPR 3 "LX" #56-3:   WELL
 FLD .              N P R:   FIELD
 LOC .       S3 T38N R78W:   LOCATION
 CNTY.            NATRONA:   COUNTY
 STAT.            WYOMING:   STATE
 CTRY. UNITED STATES OF AMERICA:   COUNTRY
 SRVC.              WELEX:   SERVICE COMPANY
 DATE.        13-JUN-1978:   LOGDATE
 API .     49025109250000:   API NUMBER
~CURVE INFORMATION
#MNEM.UNIT       API CODE    CURVE DESCRIPTION
#----------   ------------   ------------------------------
 DEPT.F                  :   
 NPHI.DEC    42 890 03 00:   NEUTRON POROSITY SANDSTONE
 SPR .MV     07 010 01 00:   SPONTANEOUS POTENTIAL
 ILD .OHMM   07 120 46 00:   DEEP INDUCTION RESISTIVITY
 ILM .OHMM   07 120 44 00:   INDUCTION LOG MEDIUM RESISTIVITY
 SFL .OHMM   07 220 01 00:   SHALLOW FOCUSED LOG RESISTIVITY
 GRD .GAPI   45 310 01 00:   GAMMA RAY FROM DENSITY LOG
 CALD.IN     45 280 60 00:   CALIPER FROM DENSITY LOG
 RHOB.G/C3   45 350 01 00:   BULK DENSITY
 CORR.G/C3   45 356 01 00:   DENSITY CORRECTION
~PARAMETER INFORMATION
#MNEM.UNIT          VALUE    DESCRIPTION
#----------   ------------   ------------------------------
 EKB .F         5181.0000:   Kelly bushing
 EGL .F         5171.0000:   Ground level
 EDF .F         5180.0000:   Drilling floor
 TD  .F         5644.0000:   Total depth
 DATE.        13-JUN-1978:   Date logged
 CLNT.            A2DTECH:   Client Code
 SL  . 1980' FSL & 2080' FEL:   Surface Location
 PD  .                 GL:   Permanent Datum
 EPD .F              5171:   Elevation Permanent Datum
 LMF .                 KB:   Log Measured From
 DMF .                 KB:   Drilling Measured From
 DD  .F              5640:   Depth driller
 DL  .F              5644:   Depth logger
 BLI .F              5638:   Bottom log interval
 TLI .F              3093:   Top log interval
 CS1 .IN            8.625:   Casing size
 CBD1.      8.625" @ 545':   Casing driller 1
 BS1 .IN            7.875:   Bit size
 DFT .                FGM:   Type fluid in hole
 DFD .                9.2:   Density
 DFV .                 52:   Viscosity
 DFPH.                 11:   pH
 DFL .                5.2:   Fluid loss
 MSS .           MUD/TANK:   Source of sample
 RMS .OHMM           0.59:   Rm
 MST .F                80:   Rm Meas. temp.
 RMF .OHMM           0.48:   Rmf
 MFST.F                80:   Rmf Meas. temp.
 MFSS.               MEAS:   Source Rmf.
 RMB .OHMM           0.29:   Rm. at BHT
 BHT .F               162:   BHT.
 TCS .HRS            1200:   Time Circ. stopped
 MRT .F               162:   Maximum recorded temp.
 LUN .               7675:   Logging unit number
 LUL .               CODY:   Logging unit location
 ENGI.               BOND:   Recorded By
 ORIG.           5" PRINT:   Origin of data
 UWI .     49025109250000:   Unique Well ID
 DICO. A2D TECHNOLOGIES, INC.:   Digitizing Company
 DAPD.F                10:   Feet Above Permanent Datum
 BSD1.F              5640:   Depth drilled with bit1
 TLAB.HRS            1630:   Time logger at bottom
~OTHER INFORMATION
~A  DEPTH     NPHI        SPR        ILD        ILM        SFL        GRD       CALD       RHOB       CORR
# ...
 1872.0000     0.3440   -25.2000     9.7200     8.7150    11.5330   140.8730     9.4610     2.5170     0.0390
 1872.5000     0.3390   -25.3250     9.7200     8.7770    11.8260   140.2560     9.4230     2.5160     0.0340
 1873.0000     0.3450   -25.4480     9.5390     8.8660    11.8980   141.2480     9.3900     2.5080     0.0260
 1873.5000     0.3520   -25.5420     9.4040     8.7740    11.7340   142.7410     9.3560     2.5000     0.0170
 1874.0000     0.3590   -25.4570     9.2700     8.6100    11.5920   142.5670     9.3540     2.5010     0.0150
 1874.5000     0.3660   -25.3750     9.1360     8.4460    11.4500   142.3940     9.3530     2.5030     0.0140
 1875.0000     0.3620   -25.2940     9.0010     8.2820    11.1390   143.9430     9.3540     2.5060     0.0130
 1875.5000     0.3570   -25.2140     8.9330     8.1180    10.5320   143.7090     9.3540     2.5020     0.0110
 1876.0000     0.3520   -25.1630     8.9090     8.0880     9.9250   141.9840     9.3540     2.4970     0.0100
 1876.5000     0.3560   -25.2410     8.8850     8.1640     9.4550   140.5640     9.3540     2.4910     0.0090
 1877.0000     0.3610   -25.3170     8.8660     8.2570    10.6130   140.2870     9.3540     2.4920     0.0110
 1877.5000     0.3680   -25.3920     9.0030     8.3500    11.6810   140.4850     9.3540     2.5070     0.0160
 1878.0000     0.3620   -25.4670     9.1130     8.4430    11.4580   140.6940     9.3540     2.5230     0.0200
 1878.5000     0.3540   -25.5410     9.2230     8.5350    11.2600   140.9190     9.3540     2.5330     0.0240
 1879.0000     0.3480   -25.4170     9.3340     8.6280    11.2600   139.9500     9.3540     2.5380     0.0290
 1879.5000     0.3450   -25.2630     9.4440     8.7210    11.4090   139.5520     9.3540     2.5440     0.0300
 1880.0000     0.3450   -25.1090     9.5540     8.8140    11.4690   140.1430     9.3540     2.5500     0.0290
 1880.5000     0.3450   -24.9550     9.6740     8.9070    11.8290   140.6800     9.3540     2.5390     0.0270
 1881.0000     0.3490   -24.8010     9.8140     9.0000    12.1570   141.1190     9.3540     2.5130     0.0260
 1881.5000     0.3490   -24.6470     9.9530     9.0930    12.5730   141.7120     9.3540     2.5050     0.0250
 1882.0000     0.3520   -24.4930    10.0930     9.1860    12.5490   140.9640     9.3540     2.5040     0.0240
 1882.5000     0.3560   -24.3390    10.2330     9.2830    12.5050   139.8490     9.3540     2.5050     0.0230
 1883.0000     0.3600   -24.1790    10.3730     9.2830    12.4600   139.6390     9.3540     2.5060     0.0220
 1883.5000     0.3610   -24.2590    10.4610     9.2830    12.4160   140.6160     9.3540     2.5140     0.0190
 1884.0000     0.3600   -24.4020    10.3750     9.2830    12.3710   140.8140     9.3540     2.5150     0.0180
 1884.5000     0.3550   -24.5470    10.3010     9.2830    12.3440   140.3800     9.3540     2.5170     0.0230
 1885.0000     0.3530   -24.6920    10.2270     9.2830    12.4590   139.5730     9.3540     2.5080     0.0260
 1885.5000     0.3520   -24.8370    10.1520     9.2820    12.5560   138.3050     9.3540     2.5030     0.0210
 1886.0000     0.3510   -24.9820    10.0780     9.2920    12.6770   137.0900     9.3540     2.4990     0.0170
 1886.5000     0.3530   -25.1300     9.9920     9.2010    12.4620   135.8420     9.3540     2.4960     0.0120
 1887.0000     0.3580   -25.0760    10.0180     9.2370    12.0990   135.1860     9.3540     2.5000     0.0100
 1887.5000     0.3630   -24.9870    10.0490     9.2720    11.6990   135.0270     9.3540     2.5020     0.0140
 1888.0000     0.3660   -24.8980    10.0800     9.3060    11.8270   134.8070     9.3540     2.5090     0.0220
 1888.5000     0.3680   -24.8080    10.1120     9.3390    11.9970   134.5950     9.3540     2.5160     0.0290
 1889.0000     0.3700   -24.7180    10.1430     9.3720    12.1680   134.5680     9.3540     2.5180     0.0370
 1889.5000     0.3700   -24.6280    10.1740     9.4060    12.3380   134.4250     9.3530     2.5220     0.0440
 1890.0000     0.3680   -24.5570    10.2060     9.4390    12.4580   135.5380     9.3600     2.5120     0.0420
 1890.5000     0.3650   -24.7250    10.2370     9.4840    12.3130   137.5090     9.3720     2.5020     0.0280
 1891.0000     0.3620   -24.8890    10.2710     9.5420    12.2690   138.8130     9.3840     2.5030     0.0160
 1891.5000     0.3560   -25.0520    10.2850     9.6000    12.2310   139.1370     9.3950     2.5070     0.0120
 1892.0000     0.3490   -25.2130    10.3010     9.6570    12.5250   139.6330     9.4060     2.5020     0.0080
 1892.5000     0.3430   -25.3300    10.3160     9.7150    12.8410   140.1550     9.4170     2.4970     0.0070
 1893.0000     0.3410   -25.1820    10.3310     9.7720    13.0440   140.5520     9.4280     2.4960     0.0090
 1893.5000     0.3410   -25.0330    10.3470     9.8300    12.9610   140.8520     9.4400     2.5020     0.0120
 1894.0000     0.3510   -24.8840    10.3660     9.9000    12.8060   139.4090     9.4510     2.4970     0.0120
 1894.5000     0.3580   -24.7360    10.2660     9.7710    12.7340   139.8440     9.4620     2.4960     0.0120
 1895.0000     0.3530   -24.5880    10.1380     9.6050    12.6890   140.0210     9.4730     2.4890     0.0120
 1895.5000     0.3480   -24.4400    10.0110     9.4400    12.3760   139.3480     9.4850     2.4880     0.0110
 1896.0000     0.3430   -24.2910     9.8830     9.2750    12.0640   137.1650     9.4960     2.4930     0.0110
 1896.5000     0.3490   -24.1500     9.8100     9.1140    11.7510   137.9270     9.5070     2.5000     0.0100
 1897.0000     0.3550   -24.1000     9.8820     9.1370    11.5750   138.7360     9.5180     2.4980     0.0160
 1897.5000     0.3560   -24.0550     9.9530     9.1590    11.9020   139.5530     9.5300     2.5090     0.0270
 1898.0000     0.3500   -24.0090    10.0230     9.1800    12.2170   137.9970     9.5410     2.5090     0.0360
 1898.5000     0.3430   -23.9580    10.0940     9.2020    12.5320   134.8550     9.5520     2.5020     0.0320
 1899.0000     0.3360   -24.0850    10.1650     9.2240    12.5730   133.6520     9.5560     2.4980     0.0280
 1899.5000     0.3330   -24.2860    10.2350     9.2460    12.5450   133.8400     9.5530     2.4960     0.0240
 1900.0000     0.3390   -24.4890    10.2710     9.2680    12.5240   135.4700     9.5510     2.4960     0.0240
 1900.5000     0.3480   -24.6910    10.1870     9.2830    12.5020   137.1850     9.5480     2.5150     0.0430
 1901.0000     0.3580   -24.8940    10.1220     9.1480    12.4810   138.7420     9.5460     2.5340     0.0600
 1901.5000     0.3640   -25.1040    10.0580     9.0440    12.4580   139.5390     9.5430     2.5370     0.0600
 1902.0000     0.3630   -25.0560     9.9930     8.9410    12.3420   140.3740     9.5410     2.5130     0.0480
 1902.5000     0.3600   -24.9320     9.9280     8.8370    12.1260   141.1890     9.5380     2.4980     0.0360
 1903.0000     0.3570   -24.8050     9.8630     8.7340    11.9100   142.0050     9.5360     2.5020     0.0240
 1903.5000     0.3540   -24.6770     9.7990     8.6300    11.6940   142.8240     9.5330     2.5030     0.0260
 1904.0000     0.3510   -24.5490     9.7340     8.5270    11.4780   143.6390     9.5310     2.5050     0.0290
 1904.5000     0.3560   -24.6540     9.6710     8.4230    11.2600   144.4530     9.5290     2.5070     0.0340
 1905.0000     0.3640   -24.7890     9.5440     8.3200    11.4690   145.2750     9.5260     2.5080     0.0330
 1905.5000     0.3730   -24.9210     9.3720     8.2380    11.3340   146.0840     9.5230     2.5040     0.0310
 1906.0000     0.3790   -25.0840     9.3840     8.2600    11.1920   146.8990     9.5220     2.4890     0.0140
 1906.5000     0.3740   -25.2530     9.4090     8.2870    11.0550   147.7660     9.5180     2.4730     0.0070
 1907.0000     0.3700   -25.1050     9.4330     8.3140    11.1330   148.2410     9.5140     2.4730     0.0040
 1907.5000     0.3680   -25.0120     9.4580     8.4090    11.2560   148.1900     9.4810     2.4770     0.0070
 1908.0000     0.3660   -24.9050     9.4820     8.4840    11.3790   148.1820     9.4470     2.4880     0.0100
