~VERSION INFORMATION
 VERS.                2.0:   CWLS LOG ASCII STANDARD - VERSION 2.0
 WRAP.                 NO:   ONE LINE PER DEPTH STEP
~WELL INFORMATION
#MNEM.UNIT      DATA TYPE    INFORMATION
#----------   ------------   ------------------------------
 STRT.F           16.0000:   START DEPTH
 STOP.F         4208.0000:   STOP DEPTH
 STEP.F            0.5000:   STEP LENGTH
 NULL.          -999.2500:   NO VALUE
 COMP.    FENIX & SCISSON:   COMPANY
 WELL. FENIX NPR 3 "MX" #41-10:   WELL
 FLD .                NPR:   FIELD
 LOC .      S10 T38N R78W:   LOCATION
 CNTY.            NATRONA:   COUNTY
 STAT.            WYOMING:   STATE
 CTRY. UNITED STATES OF AMERICA:   COUNTRY
 SRVC.       SCHLUMBERGER:   SERVICE COMPANY
 DATE.        04-NOV-1978:   LOGDATE
 API .     49025107260000:   API NUMBER
~CURVE INFORMATION
#MNEM.UNIT       API CODE    CURVE DESCRIPTION
#----------   ------------   ------------------------------
 DEPT.F                  :   
 TENR.LBS    07 635 01 00:   TENSION FROM RESISTIVITY
 SPR .MV     07 010 01 00:   SPONTANEOUS POTENTIAL
 SFL .OHMM   07 220 01 00:   SHALLOW FOCUSED LOG RESISTIVITY
 ILD .OHMM   07 120 46 00:   DEEP INDUCTION RESISTIVITY
 ILM .OHMM   07 120 44 00:   INDUCTION LOG MEDIUM RESISTIVITY
 CALD.IN     45 280 60 00:   CALIPER FROM DENSITY LOG
 GRD .GAPI   45 310 01 00:   GAMMA RAY FROM DENSITY LOG
 TEND.LBS    45 635 01 00:   TENSION FROM DENSITY LOG
 RHOB.G/C3   45 350 01 00:   BULK DENSITY
 CORR.G/C3   45 356 01 00:   DENSITY CORRECTION
 NPHI.DEC    42 890 03 00:   NEUTRON POROSITY SANDSTONE
~PARAMETER INFORMATION
#MNEM.UNIT          VALUE    DESCRIPTION
#----------   ------------   ------------------------------
 EKB .F         5237.0000:   Kelly bushing
 EGL .F         5227.0000:   Ground level
 EDF .F            0.0000:   Drilling floor
 TD  .F         4200.0000:   Total depth
 DATE.        04-NOV-1978:   Date logged
 CLNT.            A2DTECH:   Client Code
 SL  . 70' FNL & 2370' FWL:   Surface Location
 PD  .                 GL:   Permanent Datum
 EPD .F              5227:   Elevation Permanent Datum
 LMF .                 KB:   Log Measured From
 DMF .                 KB:   Drilling Measured From
 DAPD.F                10:   Feet Above Permanent Datum
 DD  .F              4200:   Depth driller
 DL  .F              4191:   Depth logger
 BLI .F              4185:   Bottom log interval
 TLI .F               506:   Top log interval
 CS1 .IN            9.625:   Casing size
 CBD1.      9.625" @ 500':   Casing driller 1
 CBL1.F               506:   Casing logger 1
 BS1 .IN             8.75:   Bit size
 BSD1.F              4200:   Depth drilled with bit1
 DFT .                FGM:   Type fluid in hole
 DFD .                9.3:   Density
 DFV .                 42:   Viscosity
 DFPH.               11.5:   pH
 DFL .                6.4:   Fluid loss
 MSS .               TANK:   Source of sample
 RMS .OHMM           1.08:   Rm
 MST .F                67:   Rm Meas. temp.
 RMF .OHMM           0.83:   Rmf
 MFST.F                67:   Rmf Meas. temp.
 MFSS.               MEAS:   Source Rmf.
 RMB .OHMM           0.58:   Rm. at BHT
 BHT .F               125:   BHT.
 TCS .HRS            0430:   Time Circ. stopped
 TLAB.HRS            0830:   Time logger at bottom
 MRT .F               125:   Maximum recorded temp.
 LUN .               8039:   Logging unit number
 LUL .               CSPR:   Logging unit location
 ENGI.          STADULLIS:   Recorded By
 WITN.              AMEND:   Witnessed by
 ORIG.           5" PRINT:   Origin of data
 UWI .     49025107260000:   Unique Well ID
 DICO. A2D TECHNOLOGIES, INC.:   Digitizing Company
~OTHER INFORMATION
~A   DEPT     TENR        SPR        SFL        ILD        ILM       CALD         GRD      TEND       RHOB       CORR       NPHI   
# ...
  748.0000   439.3940   -28.0410     6.2960     6.4980     5.7240    11.7570   116.1530   783.1330     2.5110     0.0260     0.3330
  748.5000   437.9160   -28.0200     6.2820     6.4760     5.7050    11.7670   116.1560   783.1330     2.5110     0.0240     0.3290
  749.0000   436.4370   -27.9990     6.2600     6.4540     5.6850    11.7770   116.3080   783.1330     2.5000     0.0190     0.3350
  749.5000   434.9590   -27.9770     6.2390     6.4310     5.6660    11.7870   115.0020   783.1330     2.4850     0.0140     0.3480
  750.0000   433.4800   -27.9560     6.2190     6.4090     5.6460    11.7970   111.4060   783.1330     2.4830     0.0080     0.3630
  750.5000   432.0020   -27.9350     6.1980     6.3870     5.6260    11.8070   108.1070   783.1330     2.4830     0.0080     0.3550
  751.0000   430.5230   -27.9130     6.1770     6.3650     5.6070    11.8170   104.3470   783.1330     2.4830     0.0080     0.3440
  751.5000   429.0450   -27.8910     6.1560     6.3420     5.5870    11.8270   104.3110   783.1330     2.4830     0.0090     0.3340
  752.0000   427.5660   -27.8840     6.1360     6.3200     5.5680    11.8370   107.9850   783.1330     2.4810     0.0100     0.3230
  752.5000   426.0880   -27.9100     6.1150     6.2980     5.5480    11.8470   109.7390   783.1330     2.4890     0.0140     0.3180
  753.0000   424.6090   -27.9350     6.0940     6.2760     5.5290    11.8580   107.7320   783.1330     2.4980     0.0180     0.3190
  753.5000   423.1310   -27.9600     6.0730     6.2540     5.5090    11.8700   105.7950   783.1330     2.5090     0.0210     0.3220
  754.0000   421.6870   -27.9860     6.0520     6.2310     5.4890    11.8810   105.8630   783.1330     2.5150     0.0210     0.3250
  754.5000   423.1140   -28.0110     6.0310     6.2090     5.4700    11.8930   109.0390   783.1330     2.5110     0.0210     0.3290
  755.0000   424.5090   -28.0370     6.0110     6.1800     5.4510    11.9040   111.9100   783.1330     2.5070     0.0200     0.3290
  755.5000   425.9040   -28.0640     5.9900     6.1960     5.4310    11.9160   110.2300   783.1330     2.5060     0.0200     0.3330
  756.0000   427.2980   -28.0750     5.9560     6.2190     5.4300    11.9270   108.6650   783.1330     2.5130     0.0230     0.3340
  756.5000   428.6930   -28.0880     5.9640     6.2410     5.5100    11.9310   106.6200   783.1330     2.5200     0.0270     0.3430
  757.0000   430.0880   -28.1100     5.9880     6.2640     5.5820    11.9320   107.3830   783.1330     2.5190     0.0310     0.3510
  757.5000   431.4830   -28.1300     6.0120     6.2870     5.6530    11.9250   108.4160   783.1330     2.5120     0.0310     0.3550
  758.0000   432.8770   -28.1500     6.0350     6.3720     5.7250    11.9150   109.4130   783.1330     2.5070     0.0310     0.3460
  758.5000   434.2720   -28.1710     6.0590     6.6910     5.7960    11.9060   110.3810   783.1330     2.5100     0.0310     0.3370
  759.0000   435.6670   -28.1910     6.2740     7.0100     5.9570    11.8970   108.5640   783.1330     2.5130     0.0310     0.3370
  759.5000   437.0620   -28.2110     6.5760     7.3290     6.3310    11.8870   106.5480   783.1330     2.5140     0.0310     0.3370
  760.0000   438.4570   -28.2320     6.9660     7.6470     6.7040    11.8780   104.4450   783.1330     2.5140     0.0310     0.3280
  760.5000   439.8510   -28.2520     7.3870     7.9660     7.0780    11.8680   102.4710   783.1330     2.5140     0.0310     0.3180
  761.0000   441.2460   -28.2730     7.8080     8.3320     7.4510    11.8590   101.2890   783.1330     2.5170     0.0310     0.3010
  761.5000   442.6410   -28.2690     8.2300     8.7660     7.8250    11.8510   100.1350   783.1330     2.5220     0.0320     0.2980
  762.0000   444.0360   -28.2580     8.6210     9.2000     8.1990    11.8500    99.0400   783.1330     2.5220     0.0290     0.2940
  762.5000   445.4300   -28.2470     8.7010     9.6340     8.5080    11.8500    97.8900   783.1330     2.5180     0.0220     0.2890
  763.0000   446.8250   -28.2370     8.7750    10.0680     8.6640    11.8500    97.6720   783.1330     2.5150     0.0160     0.2800
  763.5000   448.2200   -28.2260     8.8490    10.3730     8.8190    11.8500    97.8830   783.1330     2.5250     0.0200     0.2720
  764.0000   449.6150   -28.2150     8.9240    10.3730     8.9460    11.8500    98.0680   783.1330     2.5340     0.0270     0.2730
  764.5000   451.0090   -28.2050     8.9980    10.3730     8.9760    11.8500    98.2830   783.1330     2.5410     0.0340     0.2750
  765.0000   452.4040   -28.1940     9.1130    10.3730     9.0130    11.8500    98.2250   783.1330     2.5270     0.0350     0.2760
  765.5000   453.7990   -28.1830     9.0700    10.3730     9.0510    11.8500    97.6980   783.9310     2.5080     0.0310     0.2710
  766.0000   455.1940   -28.1730     8.9760    10.3730     9.0880    11.8500    97.3260   785.2440     2.4990     0.0260     0.2670
  766.5000   456.5890   -28.1620     8.8810    10.3730     9.1260    11.8500    96.8530   786.5560     2.5030     0.0250     0.2690
  767.0000   457.9830   -28.1520     8.7820    10.3730     9.1640    11.8500    98.8180   787.8690     2.5090     0.0230     0.2700
  767.5000   459.3780   -28.1410     8.8700    10.3720     9.2010    11.8500   101.3210   789.1820     2.5050     0.0180     0.2770
  768.0000   460.7730   -28.1310     8.9620    10.3720     9.2390    11.8500   102.5440   790.4950     2.5000     0.0130     0.2850
  768.5000   461.8470   -28.1200     9.0540    10.4170     9.2760    11.8500   102.4190   791.8080     2.5000     0.0060     0.2950
  769.0000   461.1750   -28.1100     9.1460    10.4900     9.3140    11.8500   102.4120   793.1210     2.5090     0.0090     0.2950
  769.5000   460.3750   -28.0990     9.2380    10.5630     9.3510    11.8500   103.1560   794.4340     2.5150     0.0180     0.2820
  770.0000   459.5750   -28.0880     9.3120    10.6370     9.3890    11.8500   103.9250   795.7470     2.5110     0.0190     0.2710
  770.5000   458.7750   -28.0790     9.3680    10.7100     9.4260    11.8500   104.6790   797.0600     2.5050     0.0120     0.2600
  771.0000   457.9750   -28.0630     9.4240    10.7830     9.4630    11.8500   101.7990   798.3730     2.5000     0.0120     0.2580
  771.5000   457.1740   -28.0280     9.4800    10.8560     9.5020    11.8510    98.8380   799.6860     2.5010     0.0200     0.2570
  772.0000   456.3740   -27.9940     9.5360    10.9300     9.5390    11.8540    97.7810   800.9990     2.5090     0.0260     0.2510
  772.5000   455.5740   -27.9600     9.6210    11.0030     9.5770    11.8560   101.8200   802.3120     2.5170     0.0330     0.2510
  773.0000   454.7740   -27.9260     9.6120    11.0760     9.6330    11.8590   105.5270   803.6250     2.5200     0.0350     0.2580
  773.5000   453.9740   -27.8930     9.5370    11.1490     9.5740    11.8610   108.6310   804.9380     2.5150     0.0300     0.2640
  774.0000   453.1740   -27.8590     9.4620    11.0410     9.4550    11.8640   106.1470   806.2510     2.5120     0.0230     0.2670
  774.5000   452.3740   -27.8250     9.3870    10.8630     9.3370    11.8660   104.0390   807.5640     2.5170     0.0170     0.2670
  775.0000   451.5740   -27.7910     9.3120    10.6860     9.2190    11.8690   101.6790   808.8770     2.5220     0.0200     0.2640
  775.5000   450.7740   -27.7570     9.1660    10.5090     9.1010    11.8710   101.2430   810.1890     2.5270     0.0270     0.2650
  776.0000   449.9740   -27.7230     8.9750    10.3310     8.9830    11.8740   100.9110   811.5020     2.5310     0.0330     0.2660
  776.5000   449.1730   -27.6890     8.7830    10.1540     8.8640    11.8760   102.2710   812.8150     2.5230     0.0360     0.2670
  777.0000   448.3730   -27.6780     8.5910     9.9960     8.7460    11.8790   103.5700   814.1280     2.5150     0.0300     0.2660
  777.5000   447.5730   -27.6780     8.4630     9.8840     8.6210    11.8810   105.1150   815.4410     2.5060     0.0250     0.2640
  778.0000   446.7730   -27.6790     8.4630     9.7290     8.3080    11.8840   105.1120   816.7540     2.4980     0.0200     0.2620
