~VERSION INFORMATION
 VERS.                2.0:   CWLS LOG ASCII STANDARD - VERSION 2.0
 WRAP.                 NO:   ONE LINE PER DEPTH STEP
~WELL INFORMATION
#MNEM.UNIT      DATA TYPE    INFORMATION
#----------   ------------   ------------------------------
 STRT.F            7.5000:   START DEPTH
 STOP.F         5700.0000:   STOP DEPTH
 STEP.F            0.5000:   STEP LENGTH
 NULL.          -999.2500:   NO VALUE
 COMP. FLUOR DANIEL (NPOSR):   COMPANY
 WELL.   FLOUR "X" #52-10:   WELL
 FLD .             NPR #3:   FIELD
 LOC .      S10 T38N R78W:   LOCATION
 CNTY.            NATRONA:   COUNTY
 STAT.            WYOMING:   STATE
 CTRY. UNITED STATES OF AMERICA:   COUNTRY
 SRVC.      WESTERN ATLAS:   SERVICE COMPANY
 DATE.        12-JAN-1996:   LOGDATE
 API .     49025227600000:   API NUMBER
~CURVE INFORMATION
#MNEM.UNIT       API CODE    CURVE DESCRIPTION
#----------   ------------   ------------------------------
 DEPT.F                  :   
 TENR.LBS    11 635 01 00:   TENSION
 GRR .GAPI   11 310 01 00:   GAMMA RAY FROM RESISTIVITY
 LLD .OHMM   11 220 10 00:   LATEROLOG DEEP
 LLS .OHMM   11 220 09 00:   LATEROLOG SHALLOW
 SPR .MV     11 010 01 00:   SPONTANEOUS POTENTIAL
 CALD.IN     45 280 60 00:   CALIPER FROM DENSITY LOG
 TEND.LBS    45 635 01 00:   TENSION FROM DENSITY LOG
 ZCOR.G/C3   45 356 01 00:   DENSITY CORRECTION
 ZDEN.G/C3   45 350 01 00:   BULK DENSITY
 CNC .DEC    42 890 03 00:   NEUTRON POROSITY SANDSTONE
~PARAMETER INFORMATION
#MNEM.UNIT          VALUE    DESCRIPTION
#----------   ------------   ------------------------------
 EKB .F         5196.0000:   Kelly bushing
 EGL .F         5186.0000:   Ground level
 EDF .F         5195.0000:   Drilling floor
 TD  .F         5699.0000:   Total depth
 DATE.        12-JAN-1996:   Date logged
 CLNT.            A2DTECH:   Client Code
 SL  . 1032' FNL & 2536' FEL:   Surface Location
 PD  .                 GL:   Permanent Datum
 EPD .F              5186:   Elevation Permanent Datum
 LMF .                 KB:   Log Measured From
 DMF .                 KB:   Drilling Measured From
 DAPD.F                11:   Feet Above Permanent Datum
 DD  .F              5699:   Depth driller
 DL  .F              5699:   Depth logger
 BLI .F              5687:   Bottom log interval
 CS1 .IN            9.625:   Casing size
 CBD1.      9.625" @ 520':   Casing driller 1
 CBL1.F               522:   Casing logger 1
 BS1 .IN             8.75:   Bit size
 BSD1.F              5699:   Depth drilled with bit1
 DFT .               CHEM:   Type fluid in hole
 DFD .                9.8:   Density
 DFV .                 50:   Viscosity
 DFPH.                9.5:   pH
 DFL .                8.4:   Fluid loss
 MSS .           FLOWLINE:   Source of sample
 RMS .OHMM          0.515:   Rm
 MST .F                66:   Rm Meas. temp.
 RMF .OHMM          0.499:   Rmf
 MFST.F                66:   Rmf Meas. temp.
 RMC .OHMM          0.761:   Rmc
 MCST.F                66:   Rmc Meas. temp.
 MFSS.               MEAS:   Source Rmf.
 MCSS.               MEAS:   Source Rmc.
 RMB .OHMM          0.233:   Rm. at BHT
 BHT .F               174:   BHT.
 TCS .HRS               6:   Time Circ. stopped
 MRT .F               174:   Maximum recorded temp.
 LUN .            HL 6530:   Logging unit number
 LUL .             CASPER:   Logging unit location
 ENGI.        VERN RAUTIO:   Recorded By
 WITN. LAFRENIERE/OPSAL/HARDY:   Witnessed by
 ORIG.     2.5", 5" PRINT:   Origin of data
 UWI .     49025227600000:   Unique Well ID
 DICO. A2D TECHNOLOGIES, INC.:   Digitizing Company
~OTHER INFORMATION
~A    DEPT    TENR         GRR       LLD        LLS        SPR       CALD       TEND       ZCOR       ZDEN        CNC   
# ...
 4262.0000   -42.2030    49.5880    24.7280    20.5610   -93.6760    10.3140   -44.1180     0.0990     2.6010     0.1000
 4262.5000   -29.3010    47.8100    25.6870    21.2140   -93.7960    10.3210   -44.1180     0.1020     2.6090     0.0960
 4263.0000   -23.6420    45.7310    26.6460    22.3690   -93.9160    10.3270   -44.1180     0.1060     2.6180     0.0950
 4263.5000   -23.6420    42.7570    27.7900    23.5210   -94.0350    10.3390   -44.1180     0.1070     2.6280     0.0940
 4264.0000   -49.1450    42.5860    27.1390    23.5210   -93.9970    10.3600   -45.2100     0.1080     2.6510     0.0940
 4264.5000   -62.0470    43.9580    25.5310    21.8400   -93.9490    10.3800   -48.7250     0.1090     2.6610     0.0960
 4265.0000   -58.1820    46.4290    21.4890    18.1130   -93.9020    10.3990   -52.2410     0.1110     2.6610     0.0980
 4265.5000   -49.5810    52.8640    17.4470    14.7230   -93.8530    10.4160   -55.7560     0.1160     2.6620     0.1050
 4266.0000   -45.7270    59.3840    14.8040    12.6520   -93.9300    10.4320   -59.2720     0.1220     2.6550     0.1220
 4266.5000   -51.7990    64.8060    12.8790    10.8480   -94.0660    10.4460   -62.7870     0.1390     2.6460     0.1450
 4267.0000   -57.8710    66.8640    13.1520    10.5040   -94.2100    10.4610   -63.7250     0.1590     2.6370     0.1530
 4267.5000   -63.8830    66.5010    13.6300    11.3860   -94.2140    10.4760   -63.7250     0.1470     2.6370     0.1470
 4268.0000   -50.2890    67.4260    14.2990    12.2830   -94.1770    10.4910   -63.7250     0.1330     2.6520     0.1380
 4268.5000   -36.8250    67.6650    15.6020    13.1790   -94.1380    10.5070   -45.1370     0.1170     2.6660     0.1270
 4269.0000   -23.3620    65.1110    16.5400    13.9990   -94.1000    10.5210   -25.4510     0.1030     2.6680     0.1270
 4269.5000    -9.8990    62.5970    15.9100    14.1290   -94.0630    10.5940    -5.7650     0.0870     2.6750     0.1280
 4270.0000    -6.2370    61.3560    14.2610    12.9220   -94.0950    10.6980    14.7060     0.0730     2.6540     0.1600
 4270.5000   -11.3980    62.3820    11.8090    10.6280   -94.2180    10.8420    14.7060     0.0630     2.5160     0.1960
 4271.0000    -6.9640    65.9730     9.2040     8.3340   -94.3390    11.0780    14.7060     0.1010     2.3430     0.2410
 4271.5000     4.5050    75.6330     6.5990     6.0800   -94.4380    11.3120    14.7060     0.1420     2.2300     0.2860
 4272.0000     3.0010    84.0090     6.0240     5.3900   -94.3580    11.5080    14.7060     0.2000     2.1760     0.3010
 4272.5000    -1.2990    86.5800     6.0480     5.3900   -94.2790    11.5320     5.9580     0.1680     2.2620     0.3060
 4273.0000   -11.1980    83.0400     6.0800     5.3900   -94.2020    11.5300    -9.1860     0.0820     2.3030     0.3100
 4273.5000   -27.0780    79.5720     5.5720     5.2320   -94.1240    11.7390   -24.3290     0.0460     2.2460     0.3140
 4274.0000   -43.7630    76.0780     4.9000     4.7280   -94.0470    12.2580   -39.4720     0.1020     2.1870     0.3180
 4274.5000   -48.2170    75.7760     4.3560     4.3960   -93.9690    12.6350   -54.6150     0.1770     2.1660     0.3540
 4275.0000   -52.9080    78.3760     4.3260     4.2650   -93.8920    12.8320   -57.1900     0.2180     2.2140     0.4000
 4275.5000   -38.5150    80.6820     4.1530     4.1310   -93.8330    13.0350   -40.7840     0.1970     2.2480     0.4060
 4276.0000   -19.5010    78.8220     3.7630     3.7610   -93.8180    13.8590   -24.3790     0.1770     2.2100     0.4220
 4276.5000    -0.4870    77.7920     3.3210     3.3320   -93.8010    14.6900    -4.9020     0.1870     2.1560     0.4700
 4277.0000    16.6000    78.7010     3.1990     3.1790   -93.7860    14.9930    -1.8250     0.1960     2.1610     0.5090
 4277.5000    16.6000    80.2620     3.1790     3.2580   -93.7700    14.7850     1.9610     0.2260     2.1840     0.5140
 4278.0000    16.6000    81.8360     3.6390     3.5280   -93.7540    14.3790     5.7470     0.2500     2.2040     0.4840
 4278.5000    21.4790    83.4120     3.9870     3.8970   -93.7380    13.9830     9.5320     0.2510     2.3160     0.4560
 4279.0000    24.2450    84.9920     4.1970     4.1360   -93.7220    13.8210    13.3180     0.2550     2.3620     0.4170
 4279.5000    18.1740    86.0380     4.1280     4.1590   -93.7060    13.8020    14.7060     0.2590     2.3530     0.3940
 4280.0000    12.1020    86.8780     3.9930     3.9750   -93.6900    13.7760    14.7060     0.2610     2.3170     0.4050
 4280.5000     6.5390    87.5220     3.8580     3.8450   -93.6740    13.7490    14.7060     0.2650     2.2600     0.4010
 4281.0000    13.8350    88.7300     3.7900     3.7560   -93.6580    13.6730    14.7060     0.2640     2.2130     0.3920
 4281.5000    20.5670    90.9990     3.8110     3.7650   -93.6420    13.4830    14.7060     0.2570     2.1890     0.3840
 4282.0000    27.2990    91.8530     3.8260     3.8100   -93.6240    13.2920    14.7060     0.2490     2.1800     0.3770
 4282.5000    34.0300    90.6530     3.9970     3.9350   -93.6050    13.1020    14.7060     0.2460     2.1740     0.3710
 4283.0000    32.5890    90.9700     4.1750     4.0600   -93.5860    12.8960    14.7060     0.2440     2.1820     0.3530
 4283.5000    25.7080    92.5930     4.8060     4.3560   -93.5670    12.6990    14.7060     0.2410     2.2350     0.3370
 4284.0000    18.8260    94.2480     6.0380     5.0010   -93.5480    12.0690    14.7060     0.2430     2.2940     0.3210
 4284.5000    21.5870    93.0360     7.2700     5.6200   -93.5290    11.5110    14.7060     0.2160     2.3740     0.2880
 4285.0000    28.9590    90.3060     8.5010     6.7050   -93.5100    11.0390    14.7060     0.2070     2.4640     0.2530
 4285.5000    36.7200    87.6520     9.7330     7.9890   -93.4900    10.8420    14.7060     0.1900     2.5550     0.2270
 4286.0000    33.8440    82.7510    10.9650     9.1850   -93.4710    10.8080    14.7060     0.1670     2.6080     0.1990
 4286.5000    30.8080    77.4110    12.1740     9.9530   -93.4520    10.8020    14.7060     0.1440     2.6270     0.1820
 4287.0000    27.7730    72.0470    13.2860    10.7210   -93.4370    10.8000    14.7060     0.1260     2.6270     0.1650
 4287.5000    26.6600    66.7110    14.3990    11.5200   -93.4910    10.8020    14.7060     0.1140     2.6250     0.1550
 4288.0000    26.6600    61.8620    15.5110    12.0940   -93.5440    10.8020    14.7060     0.1020     2.6270     0.1480
 4288.5000    26.6600    60.3530    15.7190    12.5260   -93.5970    10.8020    14.7060     0.1010     2.6390     0.1410
 4289.0000    25.8350    60.1090    15.8260    12.4750   -93.6500    10.8020    14.7060     0.1000     2.6520     0.1340
 4289.5000    23.2550    60.3010    15.9380    12.2720   -93.7040    10.8020    14.7060     0.0990     2.6510     0.1300
 4290.0000    20.6740    61.1680    15.6090    11.8730   -93.7570    10.8020    14.7060     0.0980     2.6470     0.1270
 4290.5000    18.0940    63.0540    15.2650    11.5700   -93.8090    10.8020    14.7060     0.1010     2.6440     0.1250
 4291.0000    13.4950    64.4010    14.9200    11.4150   -93.8150    10.8020    14.7060     0.1040     2.6400     0.1230
 4291.5000     6.5390    64.0470    14.5750    11.2600   -93.7630    10.8020    -3.7910     0.1070     2.6360     0.1220
 4292.0000   -20.7240    64.9580    14.4540    11.1810   -93.7120    10.8020   -20.1960     0.1100     2.6300     0.1240
 4292.5000   -23.6420    66.2580    14.3680    11.1400   -93.6590    10.8020   -36.6010     0.1080     2.6260     0.1270
 4293.0000    28.1490    68.1200    14.2830    11.0570   -93.6970    10.8020   -20.7840     0.1070     2.6250     0.1310
 4293.5000    87.0220    69.9710    13.9610    10.6990   -93.8050    10.8020    22.2790     0.1060     2.6240     0.1350
 4294.0000    87.0220    71.8410    13.5560    10.3770   -93.9140    10.8020    65.3430     0.1070     2.6270     0.1390
 4294.5000    76.6100    72.6690    13.1520    10.2160   -94.0230    10.8020    81.5030     0.1090     2.6310     0.1420
 4295.0000    56.8410    73.0670    12.7480    10.0540   -94.0800    10.8020    53.9220     0.1110     2.6340     0.1440
