~VERSION INFORMATION
 VERS.                2.0:   CWLS LOG ASCII STANDARD - VERSION 2.0
 WRAP.                 NO:   ONE LINE PER DEPTH STEP
~WELL INFORMATION
#MNEM.UNIT      DATA TYPE    INFORMATION
#----------   ------------   ------------------------------
 STRT.F          417.0000:   START DEPTH
 STOP.F         4133.0000:   STOP DEPTH
 STEP.F            0.5000:   STEP LENGTH
 NULL.          -999.2500:   NO VALUE
 COMP.    FENIX & SCISSON:   COMPANY
 WELL. FENIX  "LX" #18-11:   WELL
 FLD .              NPR 3:   FIELD
 LOC .      S11 T38N R78W:   LOCATION
 CNTY.            NATRONA:   COUNTY
 STAT.            WYOMING:   STATE
 CTRY. UNITED STATES OF AMERICA:   COUNTRY
 SRVC.       SCHLUMBERGER:   SERVICE COMPANY
 DATE.        14-JAN-1978:   LOGDATE
 API .     49025105590000:   API NUMBER
~CURVE INFORMATION
#MNEM.UNIT       API CODE    CURVE DESCRIPTION
#----------   ------------   ------------------------------
 DEPT.F                  :   
 SPR .MV     07 010 01 00:   SPONTANEOUS POTENTIAL
 SFL .OHMM   07 220 01 00:   SHALLOW FOCUSED LOG RESISTIVITY
 ILD .OHMM   07 120 46 00:   DEEP INDUCTION RESISTIVITY
 ILM .OHMM   07 120 44 00:   INDUCTION LOG MEDIUM RESISTIVITY
 CALD.IN     45 280 60 00:   CALIPER FROM DENSITY LOG
 GRD .GAPI   45 310 01 00:   GAMMA RAY FROM DENSITY LOG
 RHOB.G/C3   45 350 01 00:   BULK DENSITY
 CORR.G/C3   45 356 01 00:   DENSITY CORRECTION
 NPHI.DEC    42 890 03 00:   NEUTRON POROSITY SANDSTONE
~PARAMETER INFORMATION
#MNEM.UNIT          VALUE    DESCRIPTION
#----------   ------------   ------------------------------
 EKB .F         5220.0000:   Kelly bushing
 EGL .F         5210.0000:   Ground level
 EDF .F            0.0000:   Drilling floor
 TD  .F         4125.0000:   Total depth
 DATE.        14-JAN-1978:   Date logged
 CLNT.            A2DTECH:   Client Code
 SL  . 330' FSL & 530' FWL:   Surface Location
 PD  .                 GL:   Permanent Datum
 EPD .F              5210:   Elevation Permanent Datum
 LMF .                 KB:   Log Measured From
 DMF .                 KB:   Drilling Measured From
 DAPD.F                10:   Feet Above Permanent Datum
 DD  .F              4125:   Depth driller
 DL  .F              4121:   Depth logger
 BLI .F              4116:   Bottom log interval
 TLI .F               427:   Top log interval
 CS1 .IN            8.625:   Casing size
 CBD1.      8.625" @ 513':   Casing driller 1
 CBL1.F               427:   Casing logger 1
 BS1 .IN            7.875:   Bit size
 BSD1.F              4125:   Depth drilled with bit1
 DFT .                KCL:   Type fluid in hole
 DFD .                8.8:   Density
 DFV .                 40:   Viscosity
 DFPH.                 12:   pH
 DFL .                7.4:   Fluid loss
 MSS .           MUD TANK:   Source of sample
 RMS .OHMM           .418:   Rm
 MST .F                60:   Rm Meas. temp.
 RMF .OHMM           .343:   Rmf
 MFST.F                60:   Rmf Meas. temp.
 MFSS.               MEAS:   Source Rmf.
 RMB .OHMM            .20:   Rm. at BHT
 BHT .F               123:   BHT.
 TCS .HRS            0600:   Time Circ. stopped
 TLAB.HRS            0845:   Time logger at bottom
 MRT .F               123:   Maximum recorded temp.
 LUN .               8035:   Logging unit number
 LUL .               CSPR:   Logging unit location
 ENGI.             MARTIN:   Recorded By
 WITN.         HARRINGTON:   Witnessed by
 ORIG.      2.5" 5" PRINT:   Origin of data
 UWI .     49025105590000:   Unique Well ID
 DICO. A2D TECHNOLOGIES, INC.:   Digitizing Company
~OTHER INFORMATION
~A   DEPT      SPR        SFL        ILD        ILM       CALD         GRD      RHOB       CORR       NPHI   
# ...
 3629.0000   -24.4940     6.0790     4.5040     3.9200     8.2580   145.5470     2.3880     0.0310     0.4010
 3629.5000   -24.8490     8.7500     4.6640     4.1590     8.0260   126.7790     2.4060     0.0070     0.3990
 3630.0000   -25.1350    10.1360     4.8970     4.5710     8.0370   121.5170     2.4200     0.0040     0.2700
 3630.5000   -25.3260    10.1360     5.3490     5.0910     8.0470   123.8500     2.4220     0.0070     0.2810
 3631.0000   -25.3930     8.6080     5.8340     5.6110     8.0690   127.7160     2.4120     0.0190     0.2960
 3631.5000   -25.0310     7.5850     6.3190     5.8740     8.0850   131.3460     2.3970     0.0280     0.3090
 3632.0000   -24.6760     6.6940     6.7470     5.8860     8.1030   134.8660     2.3870     0.0480     0.3170
 3632.5000   -24.3210     6.2090     6.4870     5.9010     8.1200   138.7920     2.3860     0.0670     0.3240
 3633.0000   -24.0140     6.2090     6.2550     5.9150     8.1350   139.8870     2.3840     0.0800     0.3320
 3633.5000   -23.8630     6.7420     6.0220     5.9410     8.1120   139.1240     2.3770     0.0810     0.3380
 3634.0000   -23.7110     7.1160     5.8740     6.0540     8.0900   137.3020     2.3690     0.0710     0.3410
 3634.5000   -23.5590     7.4900     5.8190     6.1660     8.0660   137.6020     2.3670     0.0550     0.3280
 3635.0000   -23.4070     7.8230     5.8510     6.2660     8.0420   141.2660     2.3630     0.0410     0.3150
 3635.5000   -23.2560     7.4990     5.9140     6.2210     8.0200   145.2590     2.3660     0.0420     0.3040
 3636.0000   -23.1000     7.1490     5.9780     6.1600     7.9930   148.2100     2.3730     0.0610     0.3190
 3636.5000   -23.1850     6.7980     6.0420     6.1520     7.9720   150.0430     2.3800     0.0890     0.3360
 3637.0000   -23.3730     6.3250     6.0950     6.2670     7.9390   149.8130     2.3690     0.0790     0.3520
 3637.5000   -23.5640     6.8950     6.0950     6.3910     7.9480   145.4280     2.3500     0.0370     0.3390
 3638.0000   -23.7550     7.6110     5.9990     6.5020     7.9490   143.2430     2.3560     0.0290     0.3190
 3638.5000   -23.9460     8.3270     5.6300     6.5020     7.9530   142.0720     2.3740     0.0240     0.2980
 3639.0000   -24.1380     8.8150     5.2600     6.4430     7.9560   149.5630     2.3890     0.0310     0.2780
 3639.5000   -24.3270     8.9050     4.7920     5.9040     7.9590   161.6340     2.4010     0.0370     0.2730
 3640.0000   -24.4500     6.7830     4.8800     5.2540     7.9630   164.3040     2.3930     0.0450     0.2830
 3640.5000   -24.3540     5.2480     4.9730     4.5070     7.9660   152.4090     2.3810     0.0540     0.2970
 3641.0000   -24.2590     3.8740     4.8990     3.6650     7.9690   135.8410     2.3680     0.0420     0.3410
 3641.5000   -24.5980     5.0840     4.7870     4.2290     7.9720   120.1910     2.3530     0.0260     0.3780
 3642.0000   -24.9790     7.7660     4.6760     5.0020     7.9760   114.8500     2.3630     0.0140     0.3470
 3642.5000   -25.3000     9.9500     4.6180     5.4050     7.9790   117.7720     2.3860     0.0160     0.2700
 3643.0000   -25.4520     9.2430     5.0460     5.4050     7.9820   128.1380     2.4040     0.0180     0.2730
 3643.5000   -25.3320     7.9340     5.5130     5.4050     7.9860   141.2160     2.4090     0.0200     0.2690
 3644.0000   -25.0410     6.6250     5.9810     5.4050     7.9890   147.2430     2.4080     0.0150     0.2890
 3644.5000   -24.7540     6.2660     6.4480     5.6140     7.9920   152.2920     2.4050     0.0110     0.3010
 3645.0000   -24.4650     7.6300     6.8100     6.2100     7.9950   145.4290     2.3940     0.0070     0.3170
 3645.5000   -24.1770     9.0270     7.1420     6.7470     7.9990   136.7180     2.3870     0.0040     0.3280
 3646.0000   -23.8890    10.5760     7.4050     7.0180     8.0020   129.8800     2.3850     0.0070     0.3270
 3646.5000   -23.6010    11.8610     7.6670     7.3930     8.0050   131.3160     2.3860     0.0110     0.3260
 3647.0000   -23.3120    11.6420     7.9300     7.7670     8.0080   133.1440     2.3880     0.0150     0.2930
 3647.5000   -23.0270    10.5150     8.1920     8.1410     8.0120   136.8340     2.3860     0.0170     0.2960
 3648.0000   -22.9100     9.3890     8.4550     8.5020     8.0150   140.0080     2.3840     0.0190     0.3010
 3648.5000   -23.0560     8.5810     8.7420     9.0310     8.0180   143.5420     2.3740     0.0220     0.3060
 3649.0000   -23.1980     9.2800     8.2750     9.5420     8.0200   136.2010     2.3660     0.0280     0.3120
 3649.5000   -23.3410    10.9510     7.7600    10.0530     8.0200   121.3800     2.3570     0.0320     0.3190
 3650.0000   -23.4830    13.3910     6.3800    10.4210     8.0200   110.2590     2.3580     0.0350     0.3050
 3650.5000   -23.6180    14.9460     4.8400     9.1800     8.0200   109.2130     2.3580     0.0370     0.2830
 3651.0000   -24.0520    11.5370     3.4350     6.6850     8.0200   124.6430     2.3650     0.0330     0.2660
 3651.5000   -24.5460     6.3840     2.7900     5.0320     8.0200   143.2270     2.3770     0.0390     0.2860
 3652.0000   -25.0390     3.3240     2.3580     3.2060     8.0200   176.3720     2.3880     0.0520     0.3000
 3652.5000   -25.4820     2.3320     2.1240     1.9480     8.0200   201.0940     2.3860     0.0600     0.3380
 3653.0000   -25.6090     1.7820     2.0850     1.7820     8.0200   212.6740     2.3690     0.0470     0.3800
 3653.5000   -25.7450     1.9240     2.0850     1.9030     8.0200   229.2580     2.3510     0.0310     0.4230
 3654.0000   -25.8510     3.6080     2.1840     2.2000     8.0200   219.7690     2.3400     0.0170     0.4320
 3654.5000   -25.8470     6.9760     2.6180     2.4960     8.0200   186.4590     2.3590     0.0140     0.4280
 3655.0000   -25.8570    10.3440     3.1030     3.3440     8.0200   159.4230     2.3850     0.0220     0.3810
 3655.5000   -25.3370    13.5150     4.5450     4.3270     8.0200   134.1120     2.4070     0.0360     0.3250
 3656.0000   -24.6170    14.2710     5.8900     5.3110     8.0200   111.9470     2.4250     0.0460     0.2730
 3656.5000   -23.8900    13.3560     7.2660     6.2950     8.0200   103.8550     2.4300     0.0550     0.2640
 3657.0000   -23.3670    12.0580     8.1630     7.2780     8.0200   104.4300     2.4330     0.0640     0.2690
 3657.5000   -23.1650    10.7610     8.5810     8.4240     8.0200   108.5920     2.4330     0.0690     0.2960
 3658.0000   -22.9590     9.4630     8.4800     8.3340     8.0200   116.8560     2.4210     0.0580     0.3160
 3658.5000   -22.7540     8.9880     8.2430     8.1860     8.0190   124.3210     2.3990     0.0480     0.3310
 3659.0000   -22.5500     9.3230     8.0050     8.0380     8.0200   128.3710     2.3910     0.0360     0.3400
 3659.5000   -22.3430     9.6780     7.7670     7.8900     8.0200   128.8630     2.3910     0.0230     0.3270
 3660.0000   -22.3460     9.3250     7.5300     7.7430     8.0290   132.5310     2.3820     0.0150     0.3140
 3660.5000   -22.5000     8.7390     7.2920     7.5950     8.0370   137.4220     2.3700     0.0090     0.3020
 3661.0000   -22.6560     8.4240     7.0670     7.4470     8.0440   141.9630     2.3590     0.0070     0.3100
 3661.5000   -22.8120     8.6390     6.7860     7.2990     8.0540   146.0620     2.3510     0.0030     0.3170
 3662.0000   -22.9710     8.9050     6.5200     6.8760     8.0570   147.2280     2.3480     0.0010     0.3220
 3662.5000   -23.2200     8.4210     6.2530     6.3750     8.0590   147.9960     2.3430     0.0050     0.3150
 3663.0000   -23.5850     7.4550     6.0950     5.8740     8.0720   155.2860     2.3520     0.0140     0.3090
 3663.5000   -23.9490     6.2660     6.6520     5.6600     7.8710   163.3460     2.3570     0.0170     0.3240
 3664.0000   -24.3140     7.9040     7.0470     6.1060     7.3030   169.0550     2.3580     0.0150     0.3470
 3664.5000   -24.6820    10.0350     7.4430     7.2660     6.7320   160.9080     2.3580     0.0140     0.3730
 3665.0000   -25.0370    12.1660     8.1150     7.8800     6.5190   138.3560     2.3650     0.0200     0.3730
