~VERSION INFORMATION
 VERS.                2.0:   CWLS LOG ASCII STANDARD - VERSION 2.0
 WRAP.                 NO:   ONE LINE PER DEPTH STEP
~WELL INFORMATION
#MNEM.UNIT      DATA TYPE    INFORMATION
#----------   ------------   ------------------------------
 STRT.F          794.0000:   START DEPTH
 STOP.F         2828.0000:   STOP DEPTH
 STEP.F            0.5000:   STEP LENGTH
 NULL.          -999.2500:   NO VALUE
 COMP.           U S NAVY:   COMPANY
 WELL. U S NAVY NPR 3 "A" #10-33:   WELL
 FLD .        TEAPOT DOME:   FIELD
 LOC .      S33 T39N R78W:   LOCATION
 CNTY.            NATRONA:   COUNTY
 STAT.            WYOMING:   STATE
 CTRY. UNITED STATES OF AMERICA:   COUNTRY
 SRVC.         MCCULLOUGH:   SERVICE COMPANY
 DATE.        25-JUL-1968:   LOGDATE
 API .     49025102180000:   API NUMBER
~CURVE INFORMATION
#MNEM.UNIT       API CODE    CURVE DESCRIPTION
#----------   ------------   ------------------------------
 DEPT.F                  :   
 GRN .GAPI   35 310 01 00:   GAMMA RAY
 NEUT.NAPI   35 330 01 00:   NEUTRON
 TEMP.DEG    99 000 00 00:   TEMPERATURE AT TOOL
~PARAMETER INFORMATION
#MNEM.UNIT          VALUE    DESCRIPTION
#----------   ------------   ------------------------------
 EKB .F            0.0000:   Kelly bushing
 EGL .F            0.0000:   Ground level
 EDF .F            0.0000:   Drilling floor
 EPD .F            0.0000:   Permanent datum
 TD  .F         2829.0000:   Total depth
 DATE.        25-JUL-1968:   Date logged
 CLNT.            A2DTECH:   Client Code
 DL  .F              2829:   Depth logger
 BLI .F              2825:   Bottom log interval
 TLI .F               800:   Top log interval
 DFT .                DRY:   Type fluid in hole
 TCS .HRS               2:   Time Circ. stopped
 ENGI.           KIMBERRY:   Recorded By
 ORIG.        2" 5" PRINT:   Origin of data
 UWI .     49025102180000:   Unique Well ID
 DICO. A2D TECHNOLOGIES, INC.:   Digitizing Company
~OTHER INFORMATION
~A   DEPT       GRN      NEUT       TEMP   
# ...
 2614.0000    68.2310   668.3060   100.6510
 2614.5000    66.2680   669.1140   100.6240
 2615.0000    64.2890   664.5200   100.5970
 2615.5000    63.6590   659.9900   100.5700
 2616.0000    65.8710   655.4610   100.5420
 2616.5000    66.3880   650.9360   100.5320
 2617.0000    69.1470   646.4110   100.5280
 2617.5000    72.3100   641.8260   100.5240
 2618.0000    73.8390   637.9030   100.5200
 2618.5000    73.2450   642.3430   100.5160
 2619.0000    71.1540   626.8900   100.5050
 2619.5000    69.0230   628.9570   100.4880
 2620.0000    67.9650   621.1920   100.4710
 2620.5000    67.5130   609.9710   100.4550
 2621.0000    67.3310   604.3450   100.4380
 2621.5000    68.7650   609.4780   100.4210
 2622.0000    70.8360   592.5830   100.4150
 2622.5000    72.8000   597.5300   100.4170
 2623.0000    74.5070   595.6670   100.4190
 2623.5000    68.7240   606.4450   100.4210
 2624.0000    67.2320   620.9410   100.4240
 2624.5000    67.1000   637.4020   100.4260
 2625.0000    65.4560   637.1990   100.4280
 2625.5000    63.1730   632.4860   100.4300
 2626.0000    60.8610   635.2030   100.4330
 2626.5000    60.2010   639.8350   100.4310
 2627.0000    60.9100   643.8710   100.4260
 2627.5000    61.5470   636.2260   100.4210
 2628.0000    60.2060   627.8280   100.4160
 2628.5000    60.3440   626.7170   100.4150
 2629.0000    61.0060   665.4170   100.4190
 2629.5000    58.2700   656.1020   100.4230
 2630.0000    56.6010   648.7210   100.4270
 2630.5000    58.9730   670.0390   100.4300
 2631.0000    60.9020   669.3800   100.4340
 2631.5000    62.0760   668.9680   100.4380
 2632.0000    61.2060   668.4980   100.4420
 2632.5000    63.4700   668.0510   100.4460
 2633.0000    65.8440   667.4990   100.4500
 2633.5000    65.2880   666.0850   100.4540
 2634.0000    66.0490   657.6420   100.4570
 2634.5000    62.9030   662.6050   100.4610
 2635.0000    61.7560   667.4090   100.4650
 2635.5000    62.7710   665.6760   100.4690
 2636.0000    63.0830   663.0290   100.4730
 2636.5000    62.7410   663.3310   100.4770
 2637.0000    64.4580   664.6070   100.4820
 2637.5000    64.6720   662.3120   100.4860
 2638.0000    65.5170   617.8760   100.4910
 2638.5000    65.3320   598.4400   100.4910
 2639.0000    65.6450   603.2400   100.4830
 2639.5000    68.2210   602.4790   100.4750
 2640.0000    72.1120   588.5010   100.4670
 2640.5000    76.2250   617.5290   100.4590
 2641.0000    79.5980   590.1880   100.4500
 2641.5000    81.8580   590.3230   100.4420
 2642.0000    83.9880   575.1560   100.4340
 2642.5000    82.9350   569.2590   100.4260
 2643.0000    81.1120   571.3950   100.4180
 2643.5000    79.2880   567.6120   100.4020
 2644.0000    78.3570   553.5910   100.3750
 2644.5000    78.6090   548.1900   100.3490
 2645.0000    78.1420   535.7800   100.3220
 2645.5000    78.2250   532.9130   100.2950
 2646.0000    80.4930   524.5630   100.2690
 2646.5000    80.7250   535.9350   100.2420
 2647.0000    79.2170   533.8560   100.2150
 2647.5000    75.9900   535.6180   100.2100
 2648.0000    75.9750   550.8160   100.2080
 2648.5000    80.1540   551.1530   100.2060
 2649.0000    77.3670   545.7540   100.2040
 2649.5000    75.5110   548.4020   100.2010
 2650.0000    70.5200   578.1910   100.1990
 2650.5000    64.4000   612.3100   100.1970
 2651.0000    62.7350   632.5480   100.1950
 2651.5000    63.6060   648.6530   100.1930
 2652.0000    64.6200   656.1540   100.1930
 2652.5000    65.8640   642.2840   100.1980
 2653.0000    68.6570   633.0240   100.2030
 2653.5000    67.8130   625.1490   100.2070
 2654.0000    67.4610   637.0370   100.2160
 2654.5000    66.2240   621.7040   100.2520
 2655.0000    64.0150   619.0090   100.2870
 2655.5000    61.8790   641.4670   100.3230
 2656.0000    57.8210   669.9420   100.3600
 2656.5000    55.6830   683.5290   100.4060
 2657.0000    53.3450   696.3920   100.4520
 2657.5000    51.2110   716.4750   100.4990
 2658.0000    53.8060   700.0300   100.5450
 2658.5000    55.4960   708.9240   100.5920
 2659.0000    56.1520   714.9360   100.6380
 2659.5000    55.4110   715.7210   100.6840
 2660.0000    54.3080   697.4630   100.7310
 2660.5000    53.5670   698.4500   100.7770
 2661.0000    54.6290   699.4950   100.8210
 2661.5000    56.2400   703.4110   100.8620
 2662.0000    57.9300   707.1980   100.9040
 2662.5000    60.1200   710.6580   100.9450
 2663.0000    62.3340  -999.2500   100.9840
 2663.5000    65.0850  -999.2500   101.0230
 2664.0000    67.9570  -999.2500   101.0630
 2664.5000    68.3930  -999.2500   101.1020
 2665.0000    70.2320  -999.2500   101.1410
 2665.5000    70.7070  -999.2500   101.1800
 2666.0000    69.6950  -999.2500   101.2190
 2666.5000    66.8730  -999.2500   101.2580
 2667.0000    64.1760  -999.2500   101.3010
 2667.5000    63.9310  -999.2500   101.3500
 2668.0000    65.3300  -999.2500   101.3980
 2668.5000    63.8930  -999.2500   101.4470
 2669.0000    62.6990  -999.2500   101.4960
 2669.5000    62.6280  -999.2500   101.5480
 2670.0000    61.0600  -999.2500   101.6050
 2670.5000    60.5020   630.1160   101.6620
 2671.0000    59.7290   632.8020   101.7160
 2671.5000    57.9270   637.0180   101.7680
 2672.0000    56.9870   611.4370   101.8180
 2672.5000    56.9150   569.1560   101.8690
 2673.0000    56.4330   493.3120   101.9200
 2673.5000    54.7000   416.8730   101.9700
 2674.0000    47.7020   334.1430   102.0210
 2674.5000    47.1070   242.8140   102.0860
 2675.0000    47.7510   209.7940   102.1650
 2675.5000    48.1100   184.7780   102.2440
 2676.0000    49.2930   162.2650   102.3230
 2676.5000    48.9700   146.3970   102.4030
 2677.0000    48.8110   145.7920   102.4820
 2677.5000    49.3830   147.7190   102.5610
 2678.0000    50.7520   149.8200   102.6410
 2678.5000    52.2470   150.6850   102.7200
 2679.0000    52.6820   151.1980   102.7990
 2679.5000    51.9250   151.7630   102.8780
 2680.0000    51.9590   155.6890   102.9580
 2680.5000    51.3500   164.9410   103.0180
 2681.0000    53.4930   167.3570   103.0630
 2681.5000    54.4300   171.2930   103.1080
 2682.0000    53.7870   168.1530   103.1530
 2682.5000    53.3570   170.4390   103.1980
 2683.0000    53.1480   163.0070   103.2380
 2683.5000    53.4860   146.0620   103.2480
 2684.0000    54.8450   138.5530   103.2580
 2684.5000    54.4730   143.7810   103.2680
 2685.0000    54.7370   151.2400   103.2770
 2685.5000    54.6680   152.0000   103.2830
 2686.0000    54.6010   137.5280   103.2890
 2686.5000    53.8220   134.9840   103.2950
 2687.0000    52.9020   146.0490   103.3010
 2687.5000    52.1040   154.7200   103.3070
 2688.0000    51.5570   162.5260   103.3130
 2688.5000    55.1780   162.9320   103.3190
 2689.0000    56.9770   162.8330   103.3250
 2689.5000    57.3580   165.2830   103.3310
 2690.0000    61.4310   166.4920   103.3360
 2690.5000    67.5320   157.5330   103.3340
 2691.0000    70.7060   168.0420   103.3320
 2691.5000    71.3210   192.9340   103.3300
 2692.0000    74.0700   185.3920   103.3270
 2692.5000    75.7860   193.2010   103.3250
 2693.0000    75.4510   202.3830   103.3230
 2693.5000    75.9040   205.6420   103.3200
 2694.0000    75.8550   193.2230   103.3180
 2694.5000    74.5140   193.4650   103.3180
 2695.0000    74.0950   197.1790   103.3220
 2695.5000    75.4600   170.4990   103.3250
 2696.0000    76.2750   149.0880   103.3290
 2696.5000    73.5820   155.9850   103.3330
 2697.0000    74.3760   154.5810   103.3360
 2697.5000    74.7820   163.7020   103.3550
 2698.0000    74.7010   172.4140   103.3760
 2698.5000    75.3550   178.1910   103.3960
 2699.0000    75.3480   179.8120   103.4170
 2699.5000    76.1930   172.5150   103.4380
 2700.0000    75.6500   164.1300   103.4590
 2700.5000    79.4730   155.7680   103.4800
 2701.0000    80.1370   159.5180   103.5020
 2701.5000    81.7540   163.5820   103.5280
 2702.0000    82.4520   162.5430   103.5550
 2702.5000    79.8860   162.0350   103.5820
 2703.0000    79.0000   162.8350   103.6090
 2703.5000    80.1220   163.7020   103.6360
 2704.0000    79.3490   160.2510   103.6620
 2704.5000    81.7710   155.6190   103.6890
