~VERSION INFORMATION
 VERS.                2.0:   CWLS LOG ASCII STANDARD - VERSION 2.0
 WRAP.                 NO:   ONE LINE PER DEPTH STEP
~WELL INFORMATION
#MNEM.UNIT      DATA TYPE    INFORMATION
#----------   ------------   ------------------------------
 STRT.F            0.0000:   START DEPTH
 STOP.F         3440.0000:   STOP DEPTH
 STEP.F            0.5000:   STEP LENGTH
 NULL.          -999.2500:   NO VALUE
 COMP. FLOOR DANIEL (NPSOR):   COMPANY
 WELL. FLOOR DANIEL "SHX" #48-34:   WELL
 FLD .                NPR:   FIELD
 LOC .      S34 T39N R78W:   LOCATION
 CNTY.            NATRONA:   COUNTY
 STAT.            WYOMING:   STATE
 CTRY. UNITED STATES OF AMERICA:   COUNTRY
 SRVC.      WESTERN ATLAS:   SERVICE COMPANY
 DATE.        06-APR-1995:   LOGDATE
 API .     49025109220000:   API NUMBER
~CURVE INFORMATION
#MNEM.UNIT       API CODE    CURVE DESCRIPTION
#----------   ------------   ------------------------------
 DEPT.F                  :   
 TEND.LBS    45 635 01 00:   TENSION FROM DENSITY LOG
 ZCOR.G/C3   45 356 01 00:   DENSITY CORRECTION
 ZDEN.G/C3   45 350 01 00:   BULK DENSITY
 CALD.IN     45 280 60 00:   CALIPER FROM DENSITY LOG
 CNC .DEC    42 890 03 00:   NEUTRON POROSITY SANDSTONE
 GRR .GAPI   07 310 01 00:   GAMMA RAY FROM RESISTIVITY
 TENR.LBS    07 635 01 00:   TENSION FROM RESISTIVITY
 RFOC.OHMM   07 220 04 00:   RESISTIVITY FOCUSED LOG RES.
 RILD.OHMM   07 120 46 00:   DEEP INDUCTION RESISTIVITY
 RILM.OHMM   07 120 44 00:   INDUCTION LOG MEDIUM RESISTIVITY
~PARAMETER INFORMATION
#MNEM.UNIT          VALUE    DESCRIPTION
#----------   ------------   ------------------------------
 EKB .F         5182.0000:   Kelly bushing
 EGL .F         5172.0000:   Ground level
 EDF .F            0.0000:   Drilling floor
 EPD .F            0.0000:   Permanent datum
 TD  .F         3442.0000:   Total depth
 DATE.        06-APR-1995:   Date logged
 CLNT.            A2DTECH:   Client Code
 SL  . 97' FSL & 2256 FWL:   Surface Location
 PD  .                 GL:   Permanent Datum
 DD  .F              3442:   Depth driller
 DL  .F              3422:   Depth logger
 BLI .F              3420:   Bottom log interval
 CS1 .IN            8.625:   Casing size
 CBD1.      8.625" @ 667':   Casing driller 1
 BS1 .IN            7.875:   Bit size
 BSD1.F               AIR:   Depth drilled with bit1
 ENGI.      PAT RASMUSSEN:   Recorded By
 WITN.        GARY STRONG:   Witnessed by
 ORIG.           5" PRINT:   Origin of data
 UWI .     49025109220000:   Unique Well ID
 DICO. A2D TECHNOLOGIES, INC.:   Digitizing Company
 MRT .F               142:   Maximum recorded temp.
~OTHER INFORMATION
~A    DEPT    TEND       ZCOR       ZDEN       CALD        CNC         GRR      TENR       RFOC       RILD       RILM   
# ...
 1809.0000   -62.6230     0.0310     2.5490     9.8450     0.3000   148.6500   -42.8990  -999.2500     5.9000     6.0980
 1809.5000   -62.6230     0.0540     2.5430     9.8330     0.2980   150.0010   -42.8990  -999.2500     5.9310     6.1480
 1810.0000   -62.6230     0.0770     2.5380     9.8210     0.2920   151.3110   -42.8990  -999.2500     5.9620     6.1990
 1810.5000   -62.6230     0.0940     2.5410     9.8080     0.2930   152.8500   -42.8990  -999.2500     5.9940     6.2500
 1811.0000   -62.6230     0.0830     2.5430     9.8170     0.2960   154.0530   -42.8990  -999.2500     6.0300     6.3000
 1811.5000   -57.4750     0.0780     2.5460     9.8360     0.2940   156.5790   -42.8990  -999.2500     6.0540     6.3680
 1812.0000   -52.4060     0.0660     2.5520     9.8540     0.2930   156.3760   -42.8990  -999.2500     6.0820     6.3430
 1812.5000   -47.3370     0.0650     2.5670     9.8720     0.2910   154.4480   -42.8990  -999.2500     6.1100     6.3050
 1813.0000   -42.2680     0.0640     2.5640     9.8890     0.2900   149.9900   -42.8990  -999.2500     6.1410     6.2680
 1813.5000   -37.1990     0.0600     2.5650     9.9080     0.2920   150.9480   -42.8990  -999.2500     6.1130     6.2300
 1814.0000   -32.1300     0.0540     2.5620     9.9260     0.2970   151.8260   -42.8990  -999.2500     6.0830     6.1930
 1814.5000   -27.0610     0.0270     2.5320     9.9630     0.2990   152.4780   -42.8990  -999.2500     6.0540     6.1560
 1815.0000   -25.5420     0.0350     2.4730     9.9980     0.2910   152.4480   -42.8990  -999.2500     6.0240     6.1180
 1815.5000   -35.6800     0.0570     2.4150    10.0340     0.2790   155.3100   -42.8990  -999.2500     5.9950     6.0810
 1816.0000   -45.8190     0.1370     2.3930    10.0700     0.2820   157.6950   -42.8990  -999.2500     5.9650     6.0430
 1816.5000   -55.9570     0.1230     2.4390    10.1050     0.3000   157.8140   -42.8990  -999.2500     5.9350     6.0110
 1817.0000   -62.6230     0.0620     2.4940    10.1410     0.2980   155.1710   -42.8990  -999.2500     5.9060     5.9800
 1817.5000   -50.5420     0.0230     2.5130    10.1770     0.2900   153.2940   -42.8990  -999.2500     5.8760     5.9490
 1818.0000   -37.8700     0.0310     2.5020    10.2120     0.2870   153.4250   -42.8990  -999.2500     5.8460     5.9220
 1818.5000   -23.1760     0.0390     2.4930    10.2480     0.2860   154.0190   -42.8990  -999.2500     5.8150     5.9220
 1819.0000   -26.2190     0.0350     2.4950    10.2840     0.2890   154.6580   -42.8990  -999.2500     5.8090     5.9220
 1819.5000   -29.8390     0.0200     2.5020    10.3200     0.2920   155.2690   -42.8990  -999.2500     5.8000     5.9220
 1820.0000   -33.4600     0.0050     2.5170    10.3550     0.2950   155.8290   -42.8990  -999.2500     5.7900     5.9220
 1820.5000   -37.0810    -0.0030     2.5310    10.3910     0.2980   156.3670   -42.8990  -999.2500     5.7800     5.9210
 1821.0000   -40.7020     0.0070     2.5430    10.4280     0.2990   155.6980   -42.8990  -999.2500     5.7700     5.9210
 1821.5000   -41.5710     0.0140     2.5440    10.4600     0.2980   156.5490   -42.8990  -999.2500     5.7600     5.9210
 1822.0000   -38.1920     0.0010     2.5370    10.5410     0.2980   156.7590   -42.8990  -999.2500     5.7500     5.9220
 1822.5000   -34.8130    -0.0120     2.5260    10.6830     0.2990   155.5380   -42.8990  -999.2500     5.7380     5.9210
 1823.0000   -31.4330    -0.0020     2.5100    10.8200     0.2990   152.2100   -42.8990  -999.2500     5.7230     5.9210
 1823.5000   -28.0540     0.0060     2.4900    10.9560     0.3040   148.2790   -42.8990  -999.2500     5.7260     5.9220
 1824.0000   -24.6750     0.0100     2.4680    11.0980     0.3010   147.9420   -42.8990  -999.2500     5.7060     5.9190
 1824.5000   -28.4640     0.0410     2.4460    11.2280     0.2990   150.7320   -42.8990  -999.2500     5.8360     5.9500
 1825.0000   -37.9680     0.1010     2.4200    11.3830     0.2790   153.6170   -42.8990  -999.2500     5.8320     6.0020
 1825.5000   -47.4730     0.1430     2.3990    11.3560     0.2810   153.4300   -42.8990  -999.2500     5.8710     6.0540
 1826.0000   -56.9770     0.1330     2.4100    11.3080     0.2840   147.4620   -42.8990  -999.2500     5.8930     6.1060
 1826.5000   -66.4820     0.1100     2.4430    11.2530     0.2880   138.1890   -42.8990  -999.2500     5.9150     6.1580
 1827.0000   -75.9860     0.0980     2.4590    11.2050     0.2780   131.4270   -42.8990  -999.2500     5.9370     6.2090
 1827.5000   -80.3750     0.0860     2.4580    11.1530     0.2740   133.1410   -42.8990  -999.2500     5.9590     6.2610
 1828.0000   -74.4110     0.0720     2.4600    11.1020     0.2740   139.8990   -42.8990  -999.2500     5.9810     6.3130
 1828.5000   -68.4480     0.0570     2.4820    11.0530     0.2850   147.6190   -42.8990  -999.2500     6.0030     6.3680
 1829.0000   -62.4840     0.0390     2.5010    11.0020     0.2900   152.9330   -42.8990  -999.2500     6.0250     6.3680
 1829.5000   -56.5200     0.0220     2.5190    11.0170     0.2890   155.2360   -42.8990  -999.2500     5.9780     6.3680
 1830.0000   -50.5570     0.0000     2.5220    11.0470     0.2890   155.7730   -42.8990  -999.2500     5.9090     6.3680
 1830.5000   -44.5930     0.0100     2.5240    11.0780     0.2900   153.2290   -42.8990  -999.2500     5.8400     6.1410
 1831.0000   -40.4800     0.0210     2.5250    11.1040     0.2910   150.8720   -42.8990  -999.2500     5.6890     5.8800
 1831.5000   -37.1010     0.0120     2.5240    11.1350     0.2930   150.2840   -42.8990  -999.2500     5.4880     5.6240
 1832.0000   -33.7210     0.0000     2.5120    11.1710     0.2990   151.6610   -42.8990  -999.2500     5.2880     5.3690
 1832.5000   -30.3420     0.0230     2.4810    11.3300     0.3040   152.4170   -42.8990  -999.2500     5.0870     5.1130
 1833.0000   -26.9630     0.0660     2.4530    11.4690     0.3030   151.0590   -42.8990  -999.2500     5.0050     4.9380
 1833.5000   -23.1760     0.1070     2.3940    11.6260     0.2980   149.5210   -42.8990  -999.2500     4.9720     5.0090
 1834.0000   -23.1760     0.1460     2.3330    11.6570     0.2990   147.7250   -42.8990  -999.2500     4.9380     5.0870
 1834.5000   -23.1760     0.1880     2.2860    11.6010     0.3020   147.5320   -42.8990  -999.2500     4.9750     5.1980
 1835.0000   -23.1760     0.2100     2.3070    11.5590     0.3020   149.5440   -42.8990  -999.2500     5.0130     5.3340
 1835.5000   -23.1760     0.1970     2.3600    11.5270     0.3000   156.2530   -42.8990  -999.2500     5.1020     5.4700
 1836.0000   -23.1760     0.1470     2.4330    11.6230     0.2970   159.7710   -42.8990  -999.2500     5.2240     5.6070
 1836.5000   -23.1760     0.1020     2.4780    11.7130     0.2960   162.7160   -42.8990  -999.2500     5.3460     5.7430
 1837.0000   -39.7440     0.0660     2.4830    11.8080     0.2960   162.3380   -42.8990  -999.2500     5.4680     5.8330
 1837.5000   -62.6230     0.0730     2.4840    11.9060     0.2940   160.8920   -42.8990  -999.2500     5.5650     5.8720
 1838.0000   -62.6230     0.0840     2.4790    11.9600     0.2920   157.9800   -42.8990  -999.2500     5.6070     5.9150
 1838.5000   -62.6230     0.0820     2.4740    11.9400     0.2910   154.9950   -42.8990  -999.2500     5.5960     5.9020
 1839.0000   -60.5190     0.0680     2.4920    11.9290     0.2960   154.1940   -42.8990  -999.2500     5.5860     5.8750
 1839.5000   -54.8870     0.0560     2.5180    11.9150     0.3020   154.5680   -42.8990  -999.2500     5.5750     5.8470
 1840.0000   -49.2550     0.0440     2.5390    11.9010     0.3070   155.9960   -42.8990  -999.2500     5.5650     5.8160
 1840.5000   -42.8990     0.0300     2.5310    11.8880     0.3070   158.1970   -42.8990  -999.2500     5.5550     5.8160
 1841.0000   -49.2110     0.0260     2.5160    11.8790     0.3030   157.9840   -42.8990  -999.2500     5.5440     5.8150
 1841.5000   -56.4530     0.0300     2.4950    11.9090     0.3040   154.4610   -42.8990  -999.2500     5.5340     5.8150
 1842.0000   -62.6230     0.0330     2.4910    11.9350     0.3070   151.5390   -42.8990  -999.2500     5.5240     5.8150
