~VERSION INFORMATION
 VERS.                2.0:   CWLS LOG ASCII STANDARD - VERSION 2.0
 WRAP.                 NO:   ONE LINE PER DEPTH STEP
~WELL INFORMATION
#MNEM.UNIT      DATA TYPE    INFORMATION
#----------   ------------   ------------------------------
 STRT.F          200.0000:   START DEPTH
 STOP.F         3160.0000:   STOP DEPTH
 STEP.F            0.5000:   STEP LENGTH
 NULL.          -999.2500:   NO VALUE
 COMP.    FENIX & SCISSON:   COMPANY
 WELL. FENIX NPR 3 "AX" #72-3:   WELL
 FLD .             TEAPOT:   FIELD
 LOC .       S3 T38N R78W:   LOCATION
 CNTY.            NATRONA:   COUNTY
 STAT.            WYOMING:   STATE
 CTRY. UNITED STATES OF AMERICA:   COUNTRY
 SRVC.           BIRDWELL:   SERVICE COMPANY
 DATE.        10-JAN-1978:   LOGDATE
 API .     49025105530000:   API NUMBER
~CURVE INFORMATION
#MNEM.UNIT       API CODE    CURVE DESCRIPTION
#----------   ------------   ------------------------------
 DEPT.F                  :   
 CALD.IN     45 280 60 00:   CALIPER FROM DENSITY LOG
 GRD .GAPI   45 310 01 00:   GAMMA RAY FROM DENSITY LOG
 DEN .LBS    45 635 01 00:   BUCK DENSITY
 CORR.G/C3   45 356 01 00:   DENSITY CORRECTION
 SPR .MV     07 010 01 00:   SPONTANEOUS POTENTIAL
 ILD .OHMM   07 120 46 00:   DEEP INDUCTION RESISTIVITY
 ILM .OHMM   07 120 44 00:   INDUCTION LOG MEDIUM RESISTIVITY
~PARAMETER INFORMATION
#MNEM.UNIT          VALUE    DESCRIPTION
#----------   ------------   ------------------------------
 EKB .F         5164.0000:   Kelly bushing
 EGL .F         5153.0000:   Ground level
 TD  .F         3157.0000:   Total depth
 DATE.        10-JAN-1978:   Date logged
 CLNT.            A2DTECH:   Client Code
 SL  . 900' FNL & 900' FEL:   Surface Location
 PD  .                 GL:   Permanent Datum
 EPD .F              5153:   Elevation Permanent Datum
 LMF .                 KB:   Log Measured From
 DMF .                 KB:   Drilling Measured From
 DAPD.F                11:   Feet Above Permanent Datum
 DD  .F              3156:   Depth driller
 DL  .F              3157:   Depth logger
 BLI .F              3157:   Bottom log interval
 TLI .F               200:   Top log interval
 CS1 .IN            8.625:   Casing size
 CBD1.      8.625" @ 222':   Casing driller 1
 CBL1.F               220:   Casing logger 1
 BS1 .IN            7.875:   Bit size
 BSD1.F              3156:   Depth drilled with bit1
 DFT .                KCL:   Type fluid in hole
 DFD .                8.5:   Density
 DFV .                 36:   Viscosity
 DFPH.                 10:   pH
 DFL .                8.8:   Fluid loss
 MSS .           FLOWLINE:   Source of sample
 RMS .OHMM            1.4:   Rm
 MST .F                66:   Rm Meas. temp.
 RMF .OHMM            .85:   Rmf
 MFST.F                74:   Rmf Meas. temp.
 RMC .OHMM            1.4:   Rmc
 MCST.F                72:   Rmc Meas. temp.
 MFSS.               MEAS:   Source Rmf.
 MCSS.               MEAS:   Source Rmc.
 RMB .OHMM            .83:   Rm. at BHT
 BHT .F               112:   BHT.
 TCS .HRS               4:   Time Circ. stopped
 MRT .F               112:   Maximum recorded temp.
 LUN .               2958:   Logging unit number
 LUL .             CASPER:   Logging unit location
 ENGI.            POINTER:   Recorded By
 WITN.         HARRINGTON:   Witnessed by
 ORIG.           5" PRINT:   Origin of data
 UWI .     49025105530000:   Unique Well ID
 DICO. A2D TECHNOLOGIES, INC.:   Digitizing Company
~OTHER INFORMATION
~A   DEPT     CALD        GRD          DEN     CORR        SPR        ILD        ILM   
# ...
  791.5000    10.0417    93.1362     2.4918     0.0667   -48.1181    12.5165    13.4717
  792.0000    10.0411    93.3363     2.4878     0.0727   -47.9124    12.5200    13.6009
  792.5000    10.0406    93.7343     2.4878     0.0747   -47.7067    12.5236    13.7305
  793.0000    10.0400    93.9343     2.4858     0.0788   -47.7002    12.5271    13.8605
  793.5000    10.0395    94.3323     2.4898     0.0868   -47.4945    12.5298    13.4869
  794.0000    10.0389    93.9383     2.4988     0.0888   -47.4879    12.5341    13.3679
  794.5000    10.0384    93.5442     2.5049     0.0909   -47.2822    12.5376    13.2492
  795.0000    10.0378    93.1502     2.5079     0.0909   -47.2757    12.5412    13.2515
  795.5000    10.0373    93.3502     2.5109     0.0869   -47.2691    12.5447    13.2567
  796.0000    10.0367    93.7482     2.5119     0.0809   -47.2626    12.5483    13.2604
  796.5000    10.0362    94.7403     2.5139     0.0770   -47.2561    12.6678    13.2634
  797.0000    10.0356    95.9304     2.5149     0.0750   -47.4487    12.5553    13.2679
  797.5000    10.0351    95.3383     2.5130     0.0730   -47.6414    12.5589    13.2717
  798.0000    10.0345    94.1522     2.5070     0.0730   -47.8340    12.5624    13.3981
  798.5000    10.0340    93.7581     2.4994     0.0731   -48.2259    12.5660    13.6500
  799.0000    10.0334    93.7601     2.4918     0.0731   -48.2194    12.5695    14.4312
  799.5000    10.0329    94.3562     2.4842     0.0731   -48.2142    12.6893    14.5305
  800.0000    10.0323    94.9522     2.4766     0.0751   -48.2076    12.1222    14.5711
  800.5000    10.0318    96.0557     2.4690     0.0752   -48.3968    12.6049    14.5752
  801.0000    10.0320    97.1363     2.4619     0.0792   -48.3872    12.7036    14.5834
  801.5000    10.0322    97.5347     2.4580     0.0812   -48.3771    12.7095    14.5902
  802.0000    10.0324    97.9343     2.4550     0.0993   -48.5661    12.7155    14.5971
  802.5000    10.0327    98.1353     2.4520     0.1013   -48.3567    12.7215    14.6012
  803.0000    10.0329    98.1383     2.4480     0.0973   -48.5458    12.7274    14.6108
  803.5000    10.0331    94.9066     2.4480     0.0974   -48.5356    12.7334    14.6176
  804.0000    10.0333    90.2251     2.4771     0.0793   -48.5255    12.7394    14.3579
  804.5000    10.0335    89.8302     2.4871     0.0794   -48.5153    12.6286    14.1027
  805.0000    10.0338    89.6352     2.4911     0.0774   -48.3079    12.7514    14.2397
  805.5000    10.0340    89.2421     2.4861     0.0774   -47.8994    12.6405    13.9854
  806.0000    10.0342    88.4530     2.4831     0.0754   -47.6900    12.6453    13.9919
  806.5000    10.0344    87.8619     2.4781     0.0775   -47.4806    12.6512    13.7433
  807.0000    10.0346    87.8649     2.4752     0.0775   -47.6697    12.5412    13.7497
  807.5000    10.0349    89.2540     2.4762     0.0775   -47.4603    12.4322    13.6302
  808.0000    10.0351    90.0491     2.4772     0.0775   -47.4501    12.4380    13.5117
  808.5000    10.0353    90.2501     2.4772     0.0776   -47.0415    12.4439    13.5181
  809.0000    10.0548    91.0451     2.4742     0.0796   -47.2306    12.4497    13.5244
  809.5000    10.0551    92.6323     2.4722     0.0796   -47.2204    12.4556    13.5308
  810.0000    10.0542    93.4274     2.4722     0.0716   -47.2123    12.4614    13.5371
  810.5000    10.0534    94.2205     2.4803     0.0797   -47.4013    12.4673    13.5422
  811.0000    10.0525    94.2216     2.4873     0.0817   -47.7896    12.4720    13.6777
  811.5000    10.0516    94.2264     2.4873     0.0797   -47.9786    12.4790    13.2880
  812.0000    10.0507    95.8136     2.4873     0.0797   -48.3669    12.4837    13.1710
  812.5000    10.0498    98.9869     2.4873     0.0778   -48.7552    12.4895    13.0304
  813.0000    10.0489   101.3661     2.4874     0.0758   -48.7450    12.4954    12.8913
  813.5000    10.0481   103.9434     2.4874     0.0758   -48.7348    12.5001    12.7537
  814.0000    10.0472   104.7385     2.4854     0.0758   -49.3223    12.3926    12.6175
  814.5000    10.0463   104.1474     2.4854     0.0758   -48.7145    12.3984    12.4828
  815.0000    10.0454   101.5761     2.4844     0.0759   -48.7064    12.2906    12.3496
  815.5000    10.0445    98.2126     2.4834     0.0759   -48.6901    12.2953    12.1645
  816.0000    10.0437    95.2453     2.4834     0.0819   -48.6860    12.1884    12.1679
  816.5000    10.0428    94.2581     2.4835     0.0759   -48.2775    12.1941    11.9718
  817.0000    10.0419    94.8552     2.4835     0.0760   -47.6636    12.0881    11.8677
  817.5000    10.0410    95.8482     2.4835     0.0760   -47.6595    11.9830    11.7646
  818.0000    10.0401    97.2374     2.4825     0.0720   -47.8485    11.9875    11.6623
  818.5000    10.0392    99.4186     2.4805     0.0761   -47.6392    11.8844    11.5609
  819.0000    10.0384    99.4216     2.4755     0.0761   -47.8282    11.7811    11.5663
  819.5000    10.0375   100.0186     2.4705     0.0741   -47.8181    11.6787    11.5718
  820.0000    10.0366   100.0216     2.4736     0.0701   -47.8099    11.6842    11.5761
  820.5000    10.0357   100.0246     2.4746     0.0741   -47.6050    11.6897    11.5823
  821.0000    10.0348    99.8295     2.4746     0.0742   -47.5974    11.5819    11.5814
  821.5000    10.0339    99.6345     2.4716     0.0742   -47.5912    11.5842    11.5837
  822.0000    10.0331    99.0414     2.4786     0.0742   -47.7841    11.5865    11.5865
  822.5000    10.0322   100.6305     2.4786     0.0742   -47.7779    11.5888    11.5888
  823.0000    10.0313   103.0098     2.4817     0.0763   -47.9708    11.6978    11.5698
  823.5000    10.0304   104.9930     2.4837     0.0783   -47.9646    11.8082    11.4650
  824.0000    10.0295   106.3821     2.4827     0.0783   -48.1575    11.9197    11.3616
  824.5000    10.0286   107.3752     2.4787     0.0823   -48.1525    11.9221    11.1566
  825.0000    10.0278   108.3683     2.4697     0.0924   -48.1450    11.9246    10.8544
  825.5000    10.0269   108.3707     2.4657     0.0984   -48.1388    11.7095    10.5604
  826.0000    10.0260   106.9881     2.4567     0.1004   -48.1338    11.6045    10.3687
  826.5000    10.0256   106.1990     2.4557     0.0985   -48.1275    11.5001     9.9960
  827.0000    10.0281   105.2118     2.4567     0.0985   -48.5184    11.5028     9.6579
  827.5000    10.0306   105.2148     2.4688     0.0985   -48.5122    11.3998     9.3757
  828.0000    10.0331   105.6138     2.4808     0.1005   -48.9043    11.4020     9.3772
  828.5000    10.0356   105.4188     2.4818     0.0986   -48.4996    11.2997     9.3786
  829.0000    10.0381   105.6198     2.4818     0.0946   -48.4934    11.1985     9.2091
  829.5000    10.0406   105.0273     2.4839     0.0946   -48.4871    11.2007     8.8774
  830.0000    10.0431   103.8415     2.4849     0.0946   -48.4809    11.2029     9.0662
  830.5000    10.0456   102.0623     2.4839     0.0967   -48.4746    11.2051     8.5809
  831.0000    10.0284   101.6692     2.4829     0.0987   -48.2692    11.2074     8.4261
  831.5000    10.0287   101.4742     2.4709     0.0987   -48.2629    11.1069     8.2741
  832.0000    10.0290   102.2692     2.4639     0.1007   -47.6590    11.1091     8.2757
  832.5000    10.0293   105.6386     2.4529     0.1068   -48.2504    11.1127     8.0520
  833.0000    10.0296   107.6212     2.4469     0.1168   -47.8465    11.1141     8.0536
  833.5000    10.0298   106.6341     2.4419     0.1128   -48.6371    11.1158     8.0552
  834.0000    10.0301   105.2515     2.4409     0.0908   -49.2284    11.1176     8.0567
  834.5000    10.0304   105.0564     2.4410     0.0748   -49.6206    11.1202     8.0583
  835.0000    10.0307   106.0489     2.4540     0.0728   -49.6143    11.1220     8.0599
  835.5000    10.0310   107.2400     2.4680     0.0729   -49.6081    11.1247     8.1360
  836.0000    10.0313   108.2331     2.4680     0.0729   -49.6031    11.1269     8.2128
  836.5000    10.0316   109.4262     2.4620     0.0749   -49.5956    11.1291     8.4444
