~VERSION INFORMATION
 VERS.                2.0:   CWLS LOG ASCII STANDARD - VERSION 2.0
 WRAP.                 NO:   ONE LINE PER DEPTH STEP
~WELL INFORMATION
#MNEM.UNIT      DATA TYPE    INFORMATION
#----------   ------------   ------------------------------
 STRT.F          640.0000:   START DEPTH
 STOP.F         2792.0000:   STOP DEPTH
 STEP.F            0.5000:   STEP LENGTH
 NULL.          -999.2500:   NO VALUE
 COMP.    FENIX & SCISSON:   COMPANY
 WELL.   FENIX SHX #41-11:   WELL
 FLD .        TEAPOT DOME:   FIELD
 LOC .      S11 T38N R78W:   LOCATION
 CNTY.            NATRONA:   COUNTY
 STAT.            WYOMING:   STATE
 CTRY. UNITED STATES OF AMERICA:   COUNTRY
 SRVC.           BIRDWELL:   SERVICE COMPANY
 DATE.        07-JUL-1979:   LOGDATE
 API .     49025107880000:   API NUMBER
~CURVE INFORMATION
#MNEM.UNIT       API CODE    CURVE DESCRIPTION
#----------   ------------   ------------------------------
 DEPT.F                  :   
 CALD.IN     45 280 60 00:   CALIPER FROM DENSITY LOG
 RHOB.G/C3   45 350 01 00:   BULK DENSITY
 CORR.G/C3   45 356 01 00:   DENSITY CORRECTION
 GRD .GAPI   45 310 01 00:   GAMMA RAY FROM DENSITY LOG
~PARAMETER INFORMATION
#MNEM.UNIT          VALUE    DESCRIPTION
#----------   ------------   ------------------------------
 EKB .F         5168.0000:   Kelly bushing
 EGL .F         5158.0000:   Ground level
 EDF .F            0.0000:   Drilling floor
 EPD .F            0.0000:   Permanent datum
 TD  .F         2801.0000:   Total depth
 DATE.        07-JUL-1979:   Date logged
 CLNT.            A2DTECH:   Client Code
 SL  . 95' FNL & 2414' FWL:   Surface Location
 PD  .                 GL:   Permanent Datum
 DAPD.F                10:   Feet Above Permanent Datum
 DD  .F              2801:   Depth driller
 DL  .F              2791:   Depth logger
 BLI .F              2790:   Bottom log interval
 TLI .F               640:   Top log interval
 CS1 .IN            9.625:   Casing size
 CBD1.      9.625" @ 909':   Casing driller 1
 CBL1.F               910:   Casing logger 1
 BS1 .IN             8.75:   Bit size
 BSD1.F              2801:   Depth drilled with bit1
 DFT .                AIR:   Type fluid in hole
 LUN .               2959:   Logging unit number
 LUL .             CASPER:   Logging unit location
 ENGI.         B. RULLINS:   Recorded By
 WITN.           GINSMORE:   Witnessed by
 ORIG.           5" PRINT:   Origin of data
 UWI .     49025107880000:   Unique Well ID
 DICO. A2D TECHNOLOGIES, INC.:   Digitizing Company
~OTHER INFORMATION
~A   DEPT     CALD       RHOB       CORR         GRD  
# ...
 1516.0000     9.6580     2.5500     0.0130   111.2130
 1516.5000     9.6560     2.5440     0.0100   113.3590
 1517.0000     9.6550     2.5370     0.0060   115.1800
 1517.5000     9.6530     2.5310     0.0030   115.1200
 1518.0000     9.6520     2.5310     0.0020   116.4090
 1518.5000     9.6510     2.5310     0.0020   117.1520
 1519.0000     9.6490     2.5290     0.0020   116.0080
 1519.5000     9.6480     2.5270     0.0030   114.6740
 1520.0000     9.6470     2.5260     0.0030   113.5570
 1520.5000     9.6450     2.5260     0.0040   114.3200
 1521.0000     9.6440     2.5260     0.0040   115.8900
 1521.5000     9.6420     2.5300     0.0040   117.4460
 1522.0000     9.6430     2.5270     0.0030   118.7590
 1522.5000     9.6930     2.5240     0.0030   119.0760
 1523.0000     9.7460     2.5210     0.0030   119.4540
 1523.5000     9.7990     2.5190     0.0020   120.7990
 1524.0000     9.8530     2.5220     0.0020   122.8620
 1524.5000     9.9060     2.5400     0.0020   124.9100
 1525.0000     9.9590     2.5540     0.0030   126.9590
 1525.5000    10.0120     2.5540     0.0080   129.0120
 1526.0000    10.0650     2.5440     0.0150   131.0160
 1526.5000    10.1170     2.5130     0.0230   130.6660
 1527.0000    10.1660     2.4750     0.0390   127.2120
 1527.5000    10.4280     2.4600     0.0930   126.3820
 1528.0000    10.7390     2.4570     0.1850   125.7340
 1528.5000    11.0520     2.5750     0.2850   122.5920
 1529.0000    11.3650     2.5710     0.3060   119.2230
 1529.5000    11.6770     2.5000     0.2070   118.2940
 1530.0000    11.9920     2.4750     0.1450   116.4750
 1530.5000    12.3120     2.4740     0.1450   114.7240
 1531.0000    12.4000     2.4960     0.1450   113.5030
 1531.5000    12.4740     2.5200     0.1440   113.5920
 1532.0000    12.5480     2.5360     0.1310   117.5080
 1532.5000    12.5900     2.5230     0.0940   122.4210
 1533.0000    12.6440     2.5060     0.0630   127.3330
 1533.5000    12.6990     2.5020     0.0630   130.1300
 1534.0000    12.7530     2.5020     0.0690   126.5970
 1534.5000    12.8080     2.4970     0.0700   120.8510
 1535.0000    12.8630     2.4640     0.0570   119.2360
 1535.5000    12.8850     2.4440     0.0520   121.6780
 1536.0000    12.8760     2.4570     0.0580   124.7830
 1536.5000    12.8670     2.4860     0.0820   125.9180
 1537.0000    12.8580     2.5160     0.1550   123.0560
 1537.5000    12.8490     2.5290     0.1510   119.2760
 1538.0000    12.8480     2.5400     0.1380   115.4970
 1538.5000    12.8550     2.5490     0.1270   113.2980
 1539.0000    12.8670     2.5420     0.1270   112.8660
 1539.5000    12.8790     2.5330     0.1230   111.9220
 1540.0000    12.8880     2.5250     0.1150   111.6730
 1540.5000    12.8880     2.5230     0.1070   113.8120
 1541.0000    12.8880     2.5250     0.1050   116.4210
 1541.5000    12.8380     2.5300     0.1110   116.2510
 1542.0000    12.7480     2.5300     0.1220   112.4800
 1542.5000    12.6580     2.5240     0.1330   111.6550
 1543.0000    12.5850     2.5210     0.1620   115.8180
 1543.5000    12.5790     2.5350     0.2040   120.1730
 1544.0000    12.5710     2.5400     0.2110   124.5740
 1544.5000    12.5670     2.5110     0.1960   125.9850
 1545.0000    12.5690     2.5040     0.1680   126.1610
 1545.5000    12.5180     2.5120     0.1400   126.1620
 1546.0000    12.2850     2.5100     0.1070   125.9870
 1546.5000    12.0470     2.3990     0.0730   122.6300
 1547.0000    11.8790     2.3440     0.0620   116.4100
 1547.5000    11.7060     2.3500     0.0830   114.0560
 1548.0000    11.4480     2.5130     0.1120   116.7410
 1548.5000    11.2100     2.5580     0.1240   119.6430
 1549.0000    11.2030     2.5700     0.0560   122.5810
 1549.5000    11.2040     2.5720     0.0500   123.8590
 1550.0000    11.2040     2.5530     0.0320   125.8560
 1550.5000    11.2040     2.5330     0.0100   130.3770
 1551.0000    11.2040     2.5130     0.0110   135.5380
 1551.5000    11.2040     2.4980     0.0450   135.9600
 1552.0000    11.2040     2.4980     0.1120   133.9910
 1552.5000    11.2030     2.5130     0.1800   133.2960
 1553.0000    11.2710     2.5190     0.1910   136.4380
 1553.5000    11.3550     2.4830     0.1740   140.0410
 1554.0000    11.4390     2.4560     0.1360   141.6920
 1554.5000    11.4560     2.4420     0.1000   143.4750
 1555.0000    11.3210     2.4510     0.0970   145.2940
 1555.5000    11.1910     2.4790     0.0960   146.5660
 1556.0000    11.0550     2.5080     0.1070   144.4840
 1556.5000    11.0170     2.5370     0.1240   138.6660
 1557.0000    11.0060     2.5630     0.1320   132.9220
 1557.5000    10.9960     2.5640     0.1140   128.2110
 1558.0000    10.9860     2.5490     0.0920   131.5490
 1558.5000    10.9840     2.5340     0.0700   136.0110
 1559.0000    10.9860     2.5340     0.0680   136.8120
 1559.5000    10.9920     2.5290     0.0680   135.0790
 1560.0000    10.9980     2.5050     0.0660   133.9020
 1560.5000    11.0040     2.4810     0.0670   136.2650
 1561.0000    11.0090     2.4560     0.0830   134.4320
 1561.5000    11.0150     2.4320     0.1000   132.2210
 1562.0000    11.0210     2.4070     0.1080   130.0220
 1562.5000    11.0270     2.3890     0.1280   128.3210
 1563.0000    11.0320     2.3910     0.1660   128.3470
 1563.5000    11.0380     2.4350     0.2020   129.5470
 1564.0000    11.0440     2.4350     0.2370   131.5630
 1564.5000    11.0500     2.4120     0.2730   132.6160
 1565.0000    11.0550     2.3950     0.2950   130.2600
 1565.5000    11.0600     2.3780     0.2960   126.6780
 1566.0000    11.0130     2.3610     0.2860   123.3830
 1566.5000    10.9040     2.3590     0.2780   123.7250
 1567.0000    10.7960     2.3970     0.2760   124.1510
 1567.5000    10.7420     2.4480     0.2650   123.7900
 1568.0000    10.7370     2.4820     0.2270   123.3680
 1568.5000    10.7330     2.4790     0.1680   124.9660
 1569.0000    10.7290     2.4600     0.1300   126.6840
 1569.5000    10.7250     2.4600     0.1310   128.4040
 1570.0000    10.7210     2.4810     0.1310   130.1310
 1570.5000    10.7170     2.4960     0.1420   131.7280
 1571.0000    10.7130     2.5040     0.1510   130.6910
 1571.5000    10.7090     2.4970     0.1510   127.0280
 1572.0000    10.7050     2.4850     0.1380   127.5960
 1572.5000    10.6770     2.4740     0.1240   128.7580
 1573.0000    10.6390     2.4720     0.1110   125.3340
 1573.5000    10.6010     2.4740     0.0970   121.5970
 1574.0000    10.5630     2.4760     0.0830   119.0800
 1574.5000    10.5260     2.4690     0.0700   120.0510
 1575.0000    10.4880     2.4640     0.0650   120.7310
 1575.5000    10.4500     2.4650     0.0920   120.7650
 1576.0000    10.4120     2.4590     0.1090   126.7220
 1576.5000    10.3740     2.4470     0.1110   127.6810
 1577.0000    10.3360     2.4350     0.1130   126.1630
 1577.5000    10.2990     2.4230     0.1150   124.5930
 1578.0000    10.2610     2.4180     0.1280   124.4350
 1578.5000    10.2410     2.4180     0.1410   126.8270
 1579.0000    10.2360     2.4210     0.1540   126.7970
 1579.5000    10.2310     2.4270     0.1680   125.7150
 1580.0000    10.2260     2.4330     0.1760   125.6040
 1580.5000    10.2200     2.4390     0.1790   127.7090
 1581.0000    10.2150     2.4460     0.1810   128.1590
 1581.5000    10.2100     2.4680     0.1840   127.2090
 1582.0000    10.2050     2.4920     0.2090   124.9360
 1582.5000    10.2000     2.5150     0.2380   122.6820
 1583.0000    10.1950     2.5330     0.2600   120.3950
 1583.5000    10.1900     2.5330     0.2310   119.5310
 1584.0000    10.1850     2.5190     0.1960   120.7990
 1584.5000    10.1800     2.5030     0.1610   123.2930
 1585.0000    10.1760     2.4980     0.1320   123.3730
 1585.5000    10.1720     2.5010     0.1330   121.7220
 1586.0000    10.1680     2.5140     0.1280   120.0050
 1586.5000    10.1640     2.5110     0.1170   118.3530
 1587.0000    10.1600     2.5060     0.1060   117.9420
 1587.5000    10.1560     2.5010     0.0990   119.2250
 1588.0000    10.1520     2.4990     0.0970   122.2020
 1588.5000    10.1480     2.4980     0.0970   123.5710
