~VERSION INFORMATION
 VERS.                2.0:   CWLS LOG ASCII STANDARD - VERSION 2.0
 WRAP.                 NO:   ONE LINE PER DEPTH STEP
~WELL INFORMATION
#MNEM.UNIT      DATA TYPE    INFORMATION
#----------   ------------   ------------------------------
 STRT.F            0.0000:   START DEPTH
 STOP.F         4044.0000:   STOP DEPTH
 STEP.F            0.5000:   STEP LENGTH
 NULL.          -999.2500:   NO VALUE
 COMP. LAWRENCE-ALLISON & ASSOC.:   COMPANY
 WELL. LAWRENCE "X" #24-34:   WELL
 FLD .           N P R #3:   FIELD
 LOC .      S34 T39N R78W:   LOCATION
 CNTY.            NATRONA:   COUNTY
 STAT.            WYOMING:   STATE
 CTRY. UNITED STATES OF AMERICA:   COUNTRY
 SRVC.      DRESSER ATLAS:   SERVICE COMPANY
 DATE.        29-MAR-1984:   LOGDATE
 API .     49025109660000:   API NUMBER
~CURVE INFORMATION
#MNEM.UNIT       API CODE    CURVE DESCRIPTION
#----------   ------------   ------------------------------
 DEPT.F                  :   
 DT  .US/F   60 520 00 00:   DELTA TIME
 TENS.LBS    60 635 01 00:   TENSION FROM SONIC
 GRR .GAPI   07 310 01 00:   GAMMA RAY FROM RESISTIVITY
 SPR .MV     07 010 01 00:   SPONTANEOUS POTENTIAL
 CALR.IN     07 280 01 00:   CALIPER FROM RESISTIVITY
 TENR.LBS    07 635 01 00:   TENSION FROM RESISTIVITY
 RSFL.OHMM   07 221 01 00:   AMPPLIFIED SHALLOW FOCUSED LOG RESISTIVITY
 RILD.OHMM   07 120 46 00:   DEEP INDUCTION RESISTIVITY
 RILM.OHMM   07 120 44 00:   INDUCTION LOG MEDIUM RESISTIVITY
 RHOB.G/C3   45 350 01 00:   BULK DENSITY
 DRHO.G/C3   45 356 01 00:   DENSITY CORRECTION
 TEND.LBS    45 635 01 00:   TENSION FROM DENSITY LOG
 NPHI.DEC    42 890 03 00:   NEUTRON POROSITY SANDSTONE
~PARAMETER INFORMATION
#MNEM.UNIT          VALUE    DESCRIPTION
#----------   ------------   ------------------------------
 EKB .F         5101.0000:   Kelly bushing
 EGL .F         5089.0000:   Ground level
 EDF .F         5100.0000:   Drilling floor
 TD  .F         4050.0000:   Total depth
 DATE.        29-MAR-1984:   Date logged
 CLNT.            A2DTECH:   Client Code
 SL  . 2415' FNL & 839' FWL:   Surface Location
 PD  .                 GL:   Permanent Datum
 EPD .F              5089:   Elevation Permanent Datum
 LMF .                 KB:   Log Measured From
 DMF .                 KB:   Drilling Measured From
 DD  .F              4050:   Depth driller
 DL  .F              4043:   Depth logger
 BLI .F              4041:   Bottom log interval
 CS1 .IN            8.625:   Casing size
 CBD1.       8.625 @ 673':   Casing driller 1
 CBL1.F               671:   Casing logger 1
 BS1 .IN            7.875:   Bit size
 DFT .            GEL-KCL:   Type fluid in hole
 DFD .                8.9:   Density
 DFV .                 45:   Viscosity
 DFPH.                  8:   pH
 DFL .               12.8:   Fluid loss
 MSS .           MUD TANK:   Source of sample
 RMS .OHMM           0.46:   Rm
 MST .F                71:   Rm Meas. temp.
 RMF .OHMM           0.31:   Rmf
 MFST.F                71:   Rmf Meas. temp.
 RMC .OHMM           0.55:   Rmc
 MCST.F                71:   Rmc Meas. temp.
 MFSS.               MEAS:   Source Rmf.
 RMB .OHMM           0.25:   Rm. at BHT
 BHT .F               139:   BHT.
 TCS .HRS               4:   Time Circ. stopped
 MRT .F               139:   Maximum recorded temp.
 LUN .               6302:   Logging unit number
 LUL .               CODY:   Logging unit location
 ENGI.              GETTY:   Recorded By
 WITN.           JENNINGS:   Witnessed by
 ORIG.           5" PRINT:   Origin of data
 UWI .     49025109660000:   Unique Well ID
 DICO. A2D TECHNOLOGIES, INC.:   Digitizing Company
 DAPD.                 12:   Feet Above Permanent Datum
 BSD1.               4050:   Depth drilled with bit1
 MCSS.               MEAS:   Source Rmc.
~OTHER INFORMATION
~A  DEPTH       DT       TENS        GRR        SPR       CALR       TENR       RSFL       RILD       RILM       RHOB       DRHO       TEND       NPHI
# ...
 1352.0000  -999.2500  -999.2500    87.2400    -9.3030    10.1340  -200.9140     7.5090     8.0050     6.6980  -999.2500  -999.2500  -999.2500  -999.2500
 1352.5000  -999.2500  -999.2500    85.7940    -9.0530    10.2120  -200.5550     7.5100     7.8550     6.4470  -999.2500  -999.2500  -999.2500  -999.2500
 1353.0000  -999.2500  -999.2500    84.3620    -8.6330    10.3390  -200.1960     7.3260     7.7040     6.1960  -999.2500  -999.2500  -999.2500  -999.2500
 1353.5000  -999.2500  -999.2500    83.2170    -7.9370    10.4620  -199.8370     6.8730     7.5540     6.0010  -999.2500  -999.2500  -999.2500  -999.2500
 1354.0000  -999.2500  -999.2500    82.2420    -7.2440    10.7530  -199.4780     6.4200     7.4040     6.0730  -999.2500  -999.2500  -999.2500  -999.2500
 1354.5000  -999.2500  -999.2500    81.2680    -6.5480    11.0780  -199.1190     5.9670     7.2540     6.1440  -999.2500  -999.2500  -999.2500  -999.2500
 1355.0000  -999.2500  -999.2500    80.2920    -5.9110    11.2090  -198.7600     5.7280     7.1030     6.2140  -999.2500  -999.2500  -999.2500  -999.2500
 1355.5000  -999.2500  -999.2500    79.4230    -5.9390    11.2240  -198.4010     6.0150     6.9670     6.2840  -999.2500  -999.2500  -999.2500  -999.2500
 1356.0000  -999.2500  -999.2500    79.7280    -5.9830    11.1060  -198.0420     6.2110     6.9420     6.3480  -999.2500  -999.2500  -999.2500  -999.2500
 1356.5000  -999.2500  -999.2500    80.0460    -6.0240    10.9880  -197.6830     6.4070     6.9180     6.3610  -999.2500  -999.2500  -999.2500  -999.2500
 1357.0000  -999.2500  -999.2500    81.7670    -6.0640    10.8720  -197.3250     6.6020     6.9030     6.3740  -999.2500  -999.2500  -999.2500  -999.2500
 1357.5000  -999.2500  -999.2500    84.8340    -6.1390    10.7550  -196.9660     6.6500     6.9140     6.3860  -999.2500  -999.2500  -999.2500  -999.2500
 1358.0000  -999.2500  -999.2500    85.9390    -6.4240    10.6380  -196.6070     6.4410     6.9220     6.3990  -999.2500  -999.2500  -999.2500  -999.2500
 1358.5000  -999.2500  -999.2500    83.1750    -6.7100    10.5230  -196.2480     6.2610     6.9300     6.4120  -999.2500  -999.2500  -999.2500  -999.2500
 1359.0000  -999.2500  -999.2500    80.6890    -6.9950    10.4500  -195.8890     6.0820     6.9380     6.4240  -999.2500  -999.2500  -999.2500  -999.2500
 1359.5000  -999.2500  -999.2500    79.9200    -7.2800    10.4540  -195.5300     5.9450     6.9460     6.4370  -999.2500  -999.2500  -999.2500  -999.2500
 1360.0000  -999.2500  -999.2500    79.1130    -7.5650    10.4560  -195.1710     6.0320     6.9540     6.4500  -999.2500  -999.2500  -999.2500  -999.2500
 1360.5000  -999.2500  -999.2500    78.7700    -7.8500    10.4590  -194.8120     6.1340     6.9610     6.4620  -999.2500  -999.2500  -999.2500  -999.2500
 1361.0000  -999.2500  -999.2500    79.9640    -8.1360    10.4620  -194.4530     6.2360     6.9670     6.4660  -999.2500  -999.2500  -999.2500  -999.2500
 1361.5000  -999.2500  -999.2500    86.4600    -8.4210    10.4640  -193.6970     6.3380     6.7810     6.3140  -999.2500  -999.2500  -999.2500  -999.2500
 1362.0000  -999.2500  -999.2500    88.9550    -8.7060    10.4670  -192.5510     6.4060     6.6100     6.1750  -999.2500  -999.2500  -999.2500  -999.2500
 1362.5000  -999.2500  -999.2500    87.1260    -8.9940    10.4700  -191.4050     6.3540     6.4390     6.0350  -999.2500  -999.2500  -999.2500  -999.2500
 1363.0000  -999.2500  -999.2500    85.3090    -9.2860    10.4700  -190.2590     6.2970     6.2290     6.0010  -999.2500  -999.2500  -999.2500  -999.2500
 1363.5000  -999.2500  -999.2500    83.5010    -9.3020    10.4700  -189.1130     6.2410     6.2340     6.0010  -999.2500  -999.2500  -999.2500  -999.2500
 1364.0000  -999.2500  -999.2500    84.8390    -9.3000    10.4150  -187.9670     6.0380     6.2420     6.0160  -999.2500  -999.2500  -999.2500  -999.2500
 1364.5000  -999.2500  -999.2500    86.4050    -9.2980    10.3140  -186.8210     5.7950     6.2500     6.0530  -999.2500  -999.2500  -999.2500  -999.2500
 1365.0000  -999.2500  -999.2500    87.4570    -9.2990    10.2120  -185.6750     5.4660     6.2580     6.0910  -999.2500  -999.2500  -999.2500  -999.2500
 1365.5000  -999.2500  -999.2500    87.5610    -9.4250    10.1090  -184.5290     5.6220     6.2660     6.1280  -999.2500  -999.2500  -999.2500  -999.2500
 1366.0000  -999.2500  -999.2500    87.6750   -10.1570    10.0460  -184.4430     5.8630     6.2740     6.1660  -999.2500  -999.2500  -999.2500  -999.2500
 1366.5000  -999.2500  -999.2500    87.8410   -10.8780     9.9840  -185.0840     6.1040     6.2820     6.2030  -999.2500  -999.2500  -999.2500  -999.2500
 1367.0000  -999.2500  -999.2500    89.1140   -11.5980     9.9230  -185.7250     6.3450     6.3380     6.2400  -999.2500  -999.2500  -999.2500  -999.2500
 1367.5000  -999.2500  -999.2500    91.0290   -12.3210     9.8810  -186.3650     6.5860     6.5040     6.2780  -999.2500  -999.2500  -999.2500  -999.2500
 1368.0000  -999.2500  -999.2500    93.7650   -12.9500     9.8600  -187.0060     6.8390     6.6690     6.2880  -999.2500  -999.2500  -999.2500  -999.2500
 1368.5000  -999.2500  -999.2500    96.0960   -13.4830     9.8400  -187.6470     6.9030     6.7750     6.1370  -999.2500  -999.2500  -999.2500  -999.2500
 1369.0000  -999.2500  -999.2500    94.4010   -14.0150     9.8420  -188.2870     6.6810     6.6550     6.0240  -999.2500  -999.2500  -999.2500  -999.2500
 1369.5000  -999.2500  -999.2500    92.6800   -14.5410     9.8650  -188.9280     6.5180     6.5520     5.9120  -999.2500  -999.2500  -999.2500  -999.2500
 1370.0000  -999.2500  -999.2500    92.4180   -14.9060     9.8880  -189.5680     6.3540     6.4480     5.8900  -999.2500  -999.2500  -999.2500  -999.2500
 1370.5000  -999.2500  -999.2500    92.2560   -14.8990     9.9110  -190.2090     6.2290     6.3450     6.0090  -999.2500  -999.2500  -999.2500  -999.2500
 1371.0000  -999.2500  -999.2500    91.3380   -14.9000     9.9240  -190.8500     6.1950     6.2880     6.1250  -999.2500  -999.2500  -999.2500  -999.2500
 1371.5000  -999.2500  -999.2500    90.2230   -14.9000     9.8800  -191.4900     6.1720     6.4460     6.2410  -999.2500  -999.2500  -999.2500  -999.2500
 1372.0000  -999.2500  -999.2500    89.6410   -14.9000     9.8370  -192.1310     6.3460     6.5720     6.3570  -999.2500  -999.2500  -999.2500  -999.2500
 1372.5000  -999.2500  -999.2500    89.0780   -14.9000     9.7950  -192.7720     6.4840     6.6990     6.4740  -999.2500  -999.2500  -999.2500  -999.2500
 1373.0000  -999.2500  -999.2500    88.4930   -14.9000     9.7690  -193.4120     6.6220     6.8250     6.5900  -999.2500  -999.2500  -999.2500  -999.2500
 1373.5000  -999.2500  -999.2500    86.8190   -14.9000     9.7680  -194.0530     6.7600     6.9520     6.7120  -999.2500  -999.2500  -999.2500  -999.2500
 1374.0000  -999.2500  -999.2500    85.9260   -14.9000     9.7670  -194.6930     6.9030     7.0330     6.4520  -999.2500  -999.2500  -999.2500  -999.2500
 1374.5000  -999.2500  -999.2500    86.0720   -14.9000     9.7660  -195.3340     6.8390     6.8360     6.1720  -999.2500  -999.2500  -999.2500  -999.2500
 1375.0000  -999.2500  -999.2500    85.7350   -14.9000     9.7650  -195.9750     6.6770     6.7240     6.0860  -999.2500  -999.2500  -999.2500  -999.2500
 1375.5000  -999.2500  -999.2500    83.8530   -14.9000     9.7630  -196.6150     6.5120     6.6110     6.0510  -999.2500  -999.2500  -999.2500  -999.2500
 1376.0000  -999.2500  -999.2500    82.7290   -14.8990     9.7620  -197.2560     6.2880     6.4980     6.0150  -999.2500  -999.2500  -999.2500  -999.2500
 1376.5000  -999.2500  -999.2500    85.1180   -14.8180     9.7610  -197.8970     6.3090     6.3850     5.9790  -999.2500  -999.2500  -999.2500  -999.2500
 1377.0000  -999.2500  -999.2500    89.0010   -14.7290     9.7600  -198.5370     6.3430     6.3470     5.9440  -999.2500  -999.2500  -999.2500  -999.2500
 1377.5000  -999.2500  -999.2500    92.3500   -14.6410     9.7590  -199.1780     6.3760     6.3470     5.9080  -999.2500  -999.2500  -999.2500  -999.2500
