~VERSION INFORMATION
 VERS.                2.0:   CWLS LOG ASCII STANDARD - VERSION 2.0
 WRAP.                 NO:   ONE LINE PER DEPTH STEP
~WELL INFORMATION
#MNEM.UNIT      DATA TYPE    INFORMATION
#----------   ------------   ------------------------------
 STRT.F          602.0000:   START DEPTH
 STOP.F         5553.0000:   STOP DEPTH
 STEP.F            0.5000:   STEP LENGTH
 NULL.          -999.2500:   NO VALUE
 COMP.         U. S. NAVY:   COMPANY
 WELL. U. S. 1-TP-33 NPR #3-33:   WELL
 FLD . TEAPOT NAVAL RESERVE:   FIELD
 LOC .      S33 T39N R78W:   LOCATION
 CNTY.            NATRONA:   COUNTY
 STAT.            WYOMING:   STATE
 CTRY. UNITED STATES OF AMERICA:   COUNTRY
 SRVC.       SCHLUMBERGER:   SERVICE COMPANY
 DATE.        24-JUN-1952:   LOGDATE
 API .     49025065260000:   API NUMBER
~CURVE INFORMATION
#MNEM.UNIT       API CODE    CURVE DESCRIPTION
#----------   ------------   ------------------------------
 DEPT.F                  :   
 SPR .MV     01 010 01 00:   SPONTANEOUS POTENTIAL FROM RES.
 ASN .OHMM   01 041 16 00:   AMPLIFIED SHORT NORMAL 16"
 LAT .OHMM   01 070 08 00:   LATERAL 8'
 LN  .OHMM   01 060 64 00:   LONG NORMAL 64"
~PARAMETER INFORMATION
#MNEM.UNIT          VALUE    DESCRIPTION
#----------   ------------   ------------------------------
 EKB .F         5160.0000:   Kelly bushing
 EGL .F         5147.0000:   Ground level
 TD  .F         5553.0000:   Total depth
 CLNT.            A2DTECH:   Client Code
 DATE.        24-JUN-1952:   Date Logged [DD-MMM-YYYY]
 DD  .F              5549:   Depth driller
 DL  .F              5553:   Depth logger
 BLI .F              5553:   Bottom log interval
 TLI .F               602:   Top log interval
 CBL1.F               602:   Casing logger 1
 BSD1.F              5549:   Depth drilled with bit1
 DFT .           GYP BASE:   Type fluid in hole
 DFD .                9.8:   Density
 DFV .                 44:   Viscosity
 MSS .           FLOWLINE:   Source of sample
 RMS .OHMM            1.4:   Rm
 MST .F                60:   Rm Meas. temp.
 RMB .OHMM           0.48:   Rm. at BHT
 BHT .F               175:   BHT.
 TCS .HRS             1.5:   Time Circ. stopped
 MRT .F               175:   Maximum recorded temp.
 LUN .                563:   Logging unit number
 ENGI.             SANDER:   Recorded By
 WITN.            GRIBBIN:   Witnessed by
 ORIG.      1" 2.5" PRINT:   Origin of data
 UWI .     49025065260000:   Unique Well ID
 DICO. A2D TECHNOLOGIES, INC.:   Digitizing Company
~OTHER INFORMATION
~A  DEPTH      SPR        ASN        LAT         LN
# ...
 5493.0000   -31.7884    24.8083    67.1594    46.7697
 5493.5000   -32.4868    24.4783    67.1608    46.6292
 5494.0000   -32.9249    24.1667    65.7654    46.4888
 5494.5000   -33.2035    24.0278    64.3701    46.2079
 5495.0000   -33.6270    24.0278    60.1818    46.2079
 5495.5000   -34.0503    24.0278    57.3899    46.2079
 5496.0000   -34.4836    24.1667    54.5980    46.7697
 5496.5000   -34.7672    24.1667    51.6690    47.3315
 5497.0000   -34.7614    24.3546    49.0333    48.0337
 5497.5000   -34.7556    24.6318    47.2100    49.1573
 5498.0000   -35.0392    25.0480    44.8939    51.9663
 5498.5000   -35.0334    25.5596    43.0948    54.7753
 5499.0000   -34.9217    26.3913    42.1705    57.5843
 5499.5000   -34.7325    27.3166    41.4766    60.3933
 5500.0000   -34.7267    28.8426    40.7824    64.6067
 5500.5000   -34.3397    30.4067    39.8542    69.2837
 5501.0000   -33.7600    31.7829    39.3436    75.9039
 5501.5000   -33.4695    33.8786    39.0666    80.1456
 5502.0000   -32.8904    36.4983    38.8322    82.9828
 5502.5000   -32.5997    39.1201    38.8338    87.2245
 5503.0000   -32.3768    42.2644    38.8352    91.4662
 5503.5000   -32.3711    47.7984    39.2760    93.7321
 5504.0000   -32.3653    51.4769    40.7096    97.9600
 5504.5000   -32.3595    58.3308    42.8012   101.5918
 5505.0000   -32.3542    66.6639    46.6245   105.8062
 5505.5000   -32.3800    74.9969    50.2299   109.2378
 5506.0000   -32.3264    81.9411    56.0525   114.2348
 5506.5000   -32.0846    88.8853    63.7047   121.2580
 5507.0000   -32.0817    97.2183    72.0417   128.2788
 5507.5000   -32.0788   104.1625    78.9859   139.6138
 5508.0000   -32.0410   111.1066    88.0848   158.5534
 5508.5000   -31.7836   118.0508    93.0318   183.0209
 5509.0000   -31.7532   123.6061    95.8189   210.3441
 5509.5000   -31.4884   127.7725    98.6073   226.4528
 5510.0000   -31.7750   131.9388   101.3956   240.5394
 5510.5000   -31.7720   134.7164   103.6452   249.0627
 5511.0000   -31.7691   137.4939   105.5766   255.7691
 5511.5000   -32.0557   137.4936   108.3648   257.8489
 5512.0000   -32.0527   137.4933   109.7565   251.6879
 5512.5000   -32.0498   136.1041   112.5447   243.9148
 5513.0000   -32.0469   136.1039   115.3349   235.2400
 5513.5000   -32.0440   134.7147   118.1232   223.8085
 5514.0000   -31.4623   130.5477   120.9123   215.4505
 5514.5000   -31.1700   127.7697   125.0972   207.0926
 5515.0000   -30.2989   125.5472   131.0503   199.2500
 5515.5000   -30.0066   121.9736   136.9655   191.7864
 5516.0000   -29.7143   115.6599   143.9119   184.8330
 5516.5000   -29.4220   108.1573   151.9323   178.3523
 5517.0000   -29.1297   101.8801   158.5938   172.7915
 5517.5000   -29.1268    95.7321   162.7793   168.6334
 5518.0000   -28.8345    90.9339   165.5676   164.4753
 5518.5000   -28.8316    86.7858   166.9592   160.7344
 5519.0000   -28.8287    82.6378   168.1285   156.5627
 5519.5000   -28.8258    79.8786   166.3344   153.7974
 5520.0000   -28.8229    77.1180   162.3831   151.4007
 5520.5000   -28.8199    75.7477   159.7897   150.0245
 5521.0000   -29.1068    73.5994   159.8045   148.6482
 5521.5000   -29.1035    71.6170   159.8184   147.2719
 5522.0000   -29.1006    70.8211   164.3559   147.3034
 5522.5000   -28.8083    70.8208   172.6057   145.9239
 5523.0000   -28.8054    70.8206   179.5650   145.9551
 5523.5000   -28.8025    70.8203   185.1279   146.2613
 5524.0000   -28.7996    70.8200   192.0491   150.4870
 5524.5000   -28.7966    71.3025   196.2531   154.7150
 5525.0000   -28.7937    72.6722   201.8156   157.7734
 5525.5000   -28.7908    74.9859   207.4163   161.7663
 5526.0000   -29.0773    76.3745   208.8270   164.7965
 5526.5000   -29.0744    78.1722   210.2377   170.2217
 5527.0000   -29.0715    79.5393   211.6484   174.6242
 5527.5000   -29.0691    84.0570   213.0591   180.4066
 5528.0000   -29.2359    90.9634   214.4698   187.2614
 5528.5000   -29.3527    97.8698   215.8806   194.5524
 5529.0000   -29.6392   103.0745   220.0845   204.2371
 5529.5000   -29.9257   108.9091   227.0819   215.5667
 5530.0000   -30.2122   114.4267   234.0791   226.6827
 5530.5000   -30.2093   118.5554   242.4731   236.5013
 5531.0000   -30.2064   121.0561   249.4704   244.7846
 5531.5000   -30.3460   122.2047   255.0710   246.1517
 5532.0000   -30.4900   122.2044   260.6717   247.5843
 5532.5000   -30.4871   122.2042   264.8757   247.6123
 5533.0000   -30.4842   122.0370   266.2864   247.6404
 5533.5000   -30.4813   120.7406   270.4904   249.0731
 5534.0000   -30.4785   119.2961   271.9011   249.1013
 5534.5000   -30.4756   116.6475   273.3118   249.1295
 5535.0000   -30.4727   115.1666   260.7561   247.7528
 5535.5000   -30.4698   113.7963   248.2003   246.3770
 5536.0000   -30.1775   112.4235   237.0412   247.8097
 5536.5000   -30.1746   111.0908   225.8820   247.8380
 5537.0000   -30.1717   111.1094   217.5162   249.2707
 5537.5000   -30.1688   112.4792   209.1504   252.1079
 5538.0000   -30.1659   115.2567   202.1812   253.5406
 5538.5000   -30.1630   116.6453   192.4187   256.3779
 5539.0000   -30.1601   118.0339   189.6395   257.8106
 5539.5000   -30.1572   120.8114   188.2542   262.0523
 5540.0000   -30.1543   122.2000   189.1072   263.4850
 5540.5000   -30.1514   123.5886   191.8955   266.3222
 5541.0000   -30.1486   124.9772   195.4850   269.1595
 5541.5000   -30.2110   124.9769   200.2670   273.4012
 5542.0000   -30.4938   126.3655   205.2167   276.2384
 5542.5000   -30.7189   126.3653   210.7793   280.4801
 5543.0000   -31.0591   127.7539   217.0686   286.1263
 5543.5000   -31.3417   129.1425   224.0129   291.7725
 5544.0000   -31.8678   130.5311   232.3499   297.4187
 5544.5000   -32.1542   131.9197   240.0131   301.6605
 5545.0000   -32.4407   131.9194   246.2263   307.3067
 5545.5000   -32.4724   134.6969   252.5347   314.3574
 5546.0000   -33.0137   136.0856   259.4940   317.1946
 5546.5000   -33.0106   138.8630   265.8608   325.6498
 5547.0000   -32.6948   141.6405   272.5955   335.5095
 5547.5000   -32.4260   143.0291   278.6517   346.7737
 5548.0000   -32.1338   145.8066   283.7527   353.8244
 5548.5000   -32.4203   148.5841   288.8538   362.2796
 5549.0000   -32.4174   152.7505   293.9548   373.5438
 5549.5000   -32.1251   158.3058   299.0559   386.2124
 5550.0000   -32.1222   162.4722   304.1570   404.4991
 5550.5000   -32.1193   165.2497   305.8776   422.7857
 5551.0000   -32.1164   169.4161   304.0695   427.0275
 5551.5000   -32.4029   172.1936   299.0927   428.4602
 5552.0000   -32.3999   176.3599   292.1804   429.8929
 5552.5000   -32.3970   180.8042   280.7066   429.9211
 5553.0000   -32.6835   186.3217   269.9698   429.9494
