~VERSION INFORMATION
 VERS.                2.0:   CWLS LOG ASCII STANDARD - VERSION 2.0
 WRAP.                 NO:   ONE LINE PER DEPTH STEP
~WELL INFORMATION
#MNEM.UNIT      DATA TYPE    INFORMATION
#----------   ------------   ------------------------------
 STRT.F          212.0000:   START DEPTH
 STOP.F         3042.0000:   STOP DEPTH
 STEP.F            0.5000:   STEP LENGTH
 NULL.          -999.2500:   NO VALUE
 COMP.    FENIX & SCISSON:   COMPANY
 WELL.   FENIX "A" #74-28:   WELL
 FLD .             NPR #3:   FIELD
 LOC .      S28 T39N R78W:   LOCATION
 CNTY.            NATRONA:   COUNTY
 STAT.            WYOMING:   STATE
 CTRY. UNITED STATES OF AMERICA:   COUNTRY
 SRVC.              WELEX:   SERVICE COMPANY
 DATE.        03-AUG-1977:   LOGDATE
 API .     49025104080000:   API NUMBER
~CURVE INFORMATION
#MNEM.UNIT       API CODE    CURVE DESCRIPTION
#----------   ------------   ------------------------------
 DEPT.F                  :   
 SPR .MV     07 010 01 00:   SPONTANEOUS POTENTIAL
 ILD .OHMM   07 120 46 00:   INDUCTION LOG DEEP RESISTIVITY
 ILM .OHMM   07 120 44 00:   INDUCTION LOG MEDIUM RESISTIVITY
 SFLU.OHMM   07 220 01 00:   SPHERICALLY FOCUSED LOG UNAVERAGED RESISTIVITY
 CALD.IN     45 280 60 00:   CALIPER FROM DENSITY LOG
 GRD .GAPI   45 310 01 00:   GAMMA RAY FROM DENSITY LOG
 CORR.G/C3   45 356 01 00:   DENSITY CORRECTION
 RHOB.G/C3   45 350 01 00:   BULK DENSITY
~PARAMETER INFORMATION
#MNEM.UNIT          VALUE    DESCRIPTION
#----------   ------------   ------------------------------
 EKB .F         5050.0000:   Kelly bushing
 EGL .F         5040.0000:   Ground level
 EDF .F            0.0000:   Drilling floor
 TD  .F         3044.0000:   Total depth
 DATE.        03-AUG-1977:   Date logged
 CLNT.            A2DTECH:   Client Code
 SL  . 2310' FNL & 930' FEL:   Surface Location
 PD  .                 GL:   Permanent Datum
 EPD .F              5040:   Elevation Permanent Datum
 LMF .                 KB:   Log Measured From
 DMF .                 KB:   Drilling Measured From
 DAPD.F                10:   Feet Above Permanent Datum
 DD  .F              3044:   Depth driller
 DL  .F              3044:   Depth logger
 BLI .F              3042:   Bottom log interval
 TLI .F               238:   Top log interval
 CS1 .IN            8.625:   Casing size
 CBD1.      8.625" @ 220':   Casing driller 1
 CBL1.F               238:   Casing logger 1
 BS1 .IN            7.875:   Bit size
 BSD1.F              3044:   Depth drilled with bit1
 DFT .            KCL MUD:   Type fluid in hole
 DFV .                 35:   Viscosity
 DFPH.               10.5:   pH
 DFL .                7.2:   Fluid loss
 MSS .           FLOWLINE:   Source of sample
 RMS .OHMM           1.13:   Rm
 MST .F                84:   Rm Meas. temp.
 RMF .OHMM           0.77:   Rmf
 MFST.F                70:   Rmf Meas. temp.
 MFSS.           FANN KIT:   Source Rmf.
 MCSS.           FANN KIT:   Source Rmc.
 RMB .OHMM            .82:   Rm. at BHT
 BHT .F               118:   BHT.
 TCS .HRS               7:   Time Circ. stopped
 MRT .F               116:   Maximum recorded temp.
 LUN .               8611:   Logging unit number
 LUL .             CASPER:   Logging unit location
 ENGI.            C. DOAK:   Recorded By
 WITN.      W. PETTINGILL:   Witnessed by
 ORIG.         2.5" PRINT:   Origin of data
 UWI .     49025104080000:   Unique Well ID
 DICO. A2D TECHNOLOGIES, INC.:   Digitizing Company
~OTHER INFORMATION
~A   DEPT      SPR        ILD        ILM       SFLU         CALD       GRD       CORR        RHOB 
# ...
 2277.5000   -56.9120     5.3230     7.0490    10.0800     8.1680   171.0520     0.0260     2.4420
 2278.0000   -56.8000     5.3460     6.5960    10.9110     8.1670   168.4100     0.0260     2.4490
 2278.5000   -56.6880     5.3730     7.1080     6.1220     8.1660   170.6970     0.0250     2.4520
 2279.0000   -56.6020     5.7260     7.9270    10.6760     8.1650   174.8660     0.0250     2.4470
 2279.5000   -56.6010     6.1520     8.7460    17.0690     8.1640   179.4000     0.0250     2.4430
 2280.0000   -56.5990     6.5780     9.5650    17.7560     8.1620   183.2060     0.0240     2.4410
 2280.5000   -56.6000     7.0040    10.5120    22.5770     8.1610   187.2000     0.0240     2.4470
 2281.0000   -56.6000     7.2780    10.4210    21.1080     8.1600   190.6340     0.0240     2.4520
 2281.5000   -56.6000     7.3760    10.3140    17.8150     8.1590   190.7290     0.0240     2.4540
 2282.0000   -56.6000     7.3760    10.2070    13.3950     8.1580   190.6260     0.0230     2.4470
 2282.5000   -56.6010     7.3760     9.9620    17.9900     8.1560   192.4140     0.0230     2.4420
 2283.0000   -56.5940     7.2150     9.3250    21.7500     8.1550   194.6390     0.0230     2.4410
 2283.5000   -56.6690     6.8660     8.6880    19.0550     8.1540   193.4050     0.0220     2.4410
 2284.0000   -56.8550     6.5180     8.0970     7.6560     8.1530   192.5300     0.0230     2.4460
 2284.5000   -57.0380     6.1690     8.4040     8.8690     8.1520   191.4770     0.0260     2.4570
 2285.0000   -57.2160     5.8200     8.0720    13.2810     8.1510   185.2960     0.0290     2.4710
 2285.5000   -57.3900     5.4710     7.3770    15.8420     8.1480   177.9560     0.0310     2.4870
 2286.0000   -57.3980     5.1230     6.6820    11.9830     8.1580   170.8100     0.0340     2.5050
 2286.5000   -57.4020     4.7740     5.9870     6.0080     8.1840   167.1090     0.0370     2.5110
 2287.0000   -57.3990     4.4590     5.2910     7.3760     8.2090   163.5170     0.0370     2.5100
 2287.5000   -57.4000     4.2710     4.7280     6.9810     8.2340   159.7950     0.0340     2.5100
 2288.0000   -57.4000     4.1000     4.2960     6.4740     8.2590   157.6640     0.0310     2.5090
 2288.5000   -57.4000     3.9130     4.3390     4.2960     8.2700   158.4900     0.0280     2.5090
 2289.0000   -57.4000     3.8670     4.4810     5.8940     8.2690   158.9490     0.0250     2.5080
 2289.5000   -57.4000     3.8150     4.6230     7.8010     8.2690   159.2510     0.0220     2.5080
 2290.0000   -57.4000     3.7700     4.7640     7.5650     8.2690   157.0110     0.0190     2.5070
 2290.5000   -57.4000     3.8690     4.8610     7.1120     8.2690   156.2680     0.0180     2.5080
 2291.0000   -57.4000     3.9540     4.9390     6.6580     8.2690   157.2740     0.0200     2.5150
 2291.5000   -57.4000     4.0400     5.0180     6.3540     8.2690   158.1180     0.0210     2.5220
 2292.0000   -57.4000     4.1250     5.0970     6.7530     8.2690   159.0060     0.0220     2.5290
 2292.5000   -57.4000     4.2160     5.1750     7.3760     8.2690   160.0280     0.0240     2.5370
 2293.0000   -57.4000     4.2240     5.2540     7.3590     8.2690   161.1260     0.0250     2.5400
 2293.5000   -57.4000     4.2390     5.3330     7.3280     8.2690   162.4140     0.0260     2.5360
 2294.0000   -57.4000     4.2540     5.4110     7.2970     8.2690   161.6800     0.0280     2.5330
 2294.5000   -57.4000     4.2690     5.4900     7.2660     8.2690   159.9120     0.0290     2.5310
 2295.0000   -57.4000     4.2840     5.5690     7.2400     8.2690   158.3570     0.0310     2.5230
 2295.5000   -57.4000     4.2990     5.6470     7.1620     8.2690   156.7320     0.0320     2.5120
 2296.0000   -57.4000     4.3140     5.6820     7.1060     8.2690   156.5680     0.0330     2.5050
 2296.5000   -57.4000     4.3280     5.6240     7.2360     8.2690   158.1590     0.0350     2.5050
 2297.0000   -57.4000     4.3430     5.5500     7.3760     8.2690   159.5980     0.0360     2.5040
 2297.5000   -57.4000     4.3580     5.4740     6.7590     8.2690   160.8990     0.0380     2.5040
 2298.0000   -57.4000     4.3730     5.3730     6.2340     8.2690   160.1260     0.0390     2.5030
 2298.5000   -57.4000     4.3980     5.4750     7.5150     8.2690   159.3970     0.0410     2.5040
 2299.0000   -57.4000     4.4540     5.5610     7.5150     8.2690   157.7110     0.0430     2.5150
 2299.5000   -57.4000     4.5100     5.6470     7.4370     8.2690   154.2680     0.0440     2.5260
 2300.0000   -57.3990     4.5660     5.7890     7.3390     8.2690   150.1960     0.0460     2.5310
 2300.5000   -57.4000     4.6220     5.8870     7.2400     8.2690   150.0210     0.0450     2.5260
 2301.0000   -57.4040     4.6780     5.9700     7.7740     8.2690   150.2940     0.0410     2.5190
 2301.5000   -57.4560     4.7340     6.0520     8.7240     8.2690   150.8020     0.0380     2.5120
 2302.0000   -57.5000     4.7900     6.1220     8.1040     8.2690   153.8340     0.0350     2.5070
 2302.5000   -57.5470     4.7350     5.9910     7.3760     8.2690   157.0260     0.0310     2.5020
 2303.0000   -57.5930     4.6430     5.8160     7.5060     8.2690   160.3020     0.0280     2.4980
 2303.5000   -57.6390     4.5430     5.6420     7.6560     8.2690   162.4100     0.0250     2.4870
 2304.0000   -57.6850     4.3810     5.4670     7.6560     8.2690   164.0560     0.0230     2.4800
 2304.5000   -57.7320     4.2050     5.2730     7.6560     8.2690   165.7340     0.0280     2.4800
 2305.0000   -57.7780     4.0290     5.0570     6.9070     8.2690   165.1550     0.0330     2.4860
 2305.5000   -57.8240     3.8530     4.8140     6.0670     8.2690   165.6360     0.0380     2.5010
 2306.0000   -57.8700     3.6770     4.5710     5.2730     8.2690   167.2250     0.0430     2.5160
 2306.5000   -57.9160     3.5010     4.3290     6.2370     8.2690   168.7980     0.0440     2.5120
 2307.0000   -57.9630     3.3240     4.0860     6.2370     8.2690   170.5980     0.0390     2.5010
 2307.5000   -58.0050     3.1800     3.8430     5.3430     8.2690   170.9090     0.0330     2.5000
 2308.0000   -58.0610     3.1480     3.6850     4.4780     8.2690   168.7280     0.0280     2.5140
 2308.5000   -58.0930     3.1160     3.6460     3.6130     8.2690   166.2700     0.0220     2.5180
 2309.0000   -58.1440     3.0840     3.6080     4.0050     8.2690   163.4370     0.0220     2.5050
 2309.5000   -58.2730     3.0710     3.5700     4.7250     8.2690   162.5210     0.0210     2.4980
 2310.0000   -58.6540     3.0970     3.5320     5.4740     8.2690   162.4010     0.0210     2.4990
 2310.5000   -58.6310     3.1180     3.4990     4.9860     8.2690   162.2030     0.0210     2.4960
 2311.0000   -58.6860     3.1400     3.5200     4.9860     8.2690   161.9180     0.0200     2.4920
 2311.5000   -58.7150     3.1620     3.5380     4.9860     8.2690   162.3710     0.0200     2.4880
 2312.0000   -58.7450     3.1840     3.5560     4.2160     8.2690   164.0190     0.0190     2.4830
 2312.5000   -58.7810     3.2060     3.6340     4.7830     8.2690   165.7370     0.0190     2.4790
 2313.0000   -58.8130     3.2270     3.7700     5.5770     8.2690   165.6600     0.0180     2.4810
 2313.5000   -58.8460     3.2480     3.8540     5.1970     8.2690   165.3360     0.0180     2.4900
 2314.0000   -58.8790     3.2610     3.8810     4.5430     8.2690   163.7370     0.0180     2.4860
 2314.5000   -58.9120     3.2800     3.9090     4.7810     8.2690   160.4600     0.0170     2.4840
 2315.0000   -58.9450     3.2990     3.9360     5.1880     8.2690   160.2210     0.0170     2.4850
 2315.5000   -58.9810     3.3190     3.9630     5.2600     8.2690   160.0520     0.0160     2.4860
 2316.0000   -59.0010     3.3380     3.9900     4.8040     8.2690   160.0010     0.0160     2.4860
 2316.5000   -58.9810     3.3580     4.0180     4.8980     8.2690   159.8690     0.0150     2.4820
 2317.0000   -58.9620     3.3770     4.0450     5.1280     8.2690   159.7770     0.0150     2.4780
 2317.5000   -58.9420     3.3960     4.0620     4.8940     8.2690   159.6560     0.0150     2.4750
