~VERSION INFORMATION
 VERS.                2.0:   CWLS LOG ASCII STANDARD - VERSION 2.0
 WRAP.                 NO:   ONE LINE PER DEPTH STEP
~WELL INFORMATION
#MNEM.UNIT      DATA TYPE    INFORMATION
#----------   ------------   ------------------------------
 STRT.F            5.0000:   START DEPTH
 STOP.F         5604.0000:   STOP DEPTH
 STEP.F            0.5000:   STEP LENGTH
 NULL.          -999.2500:   NO VALUE
 COMP.   LAWRENCE ALLISON:   COMPANY
 WELL. LAWRENCE 62 TPX #10-10:   WELL
 FLD .           NPR NO 3:   FIELD
 LOC .      S10 T38N R78W:   LOCATION
 CNTY.            NATRONA:   COUNTY
 STAT.            WYOMING:   STATE
 CTRY. UNITED STATES OF AMERICA:   COUNTRY
 SRVC.      DRESSER ATLAS:   SERVICE COMPANY
 DATE.        08-NOV-1985:   LOGDATE
 API .     49025110490000:   API NUMBER
~CURVE INFORMATION
#MNEM.UNIT       API CODE    CURVE DESCRIPTION
#----------   ------------   ------------------------------
 DEPT.F                  :   
 TEND.LBS    45 635 01 00:   TENSION FORM DENSITY LOG
 CNC .DEC    42 890 03 00:   NEUTRON POROSITY SANDSTONE
 CORR.G/C3   45 356 01 00:   DENSITY CORRECTION
 RHOB.G/C3   45 350 01 00:   BULK DENSITY
 TENR.LBS    11 635 01 00:   TENSION FROM RESISTIVITY
 GRR .GAPI   11 310 01 00:   GAMMA RAY FROM RESISTIVITY
 SPR .MV     11 010 01 00:   SPONTANEOUS POTENTIAL FROM RES.
 CALR.IN     11 280 01 00:   CALIPER FROM RESISTIVITY
 RD  .OHMM   11 220 10 00:   RESISTIVITY DEEP
 RS  .OHMM   11 220 09 00:   RESISTIVITY SHALLOW
 RMLL.OHMM   11 270 04 00:   MICRO LATEROLOG
 TENS.LBS    60 635 01 00:   TENSION FROM SONIC
 DT  .US/F   60 520 00 00:   DELTA TIME
~PARAMETER INFORMATION
#MNEM.UNIT          VALUE    DESCRIPTION
#----------   ------------   ------------------------------
 EKB .F         5167.0000:   Kelly bushing
 EGL .F         5155.0000:   Ground level
 EDF .F            0.0000:   Drilling floor
 TD  .F         5600.0000:   Total depth
 CLNT.            A2DTECH:   Client Code
 PD  .                 GL:   Permanent Datum
 EPD .F              5155:   Elevation Permanent Datum
 LMF .                 KB:   Log Measured From
 DMF .                 KB:   Drilling Measured From
 DAPD.F                12:   Feet Above Permanent Datum
 DATE.        08-NOV-1985:   Date Logged [DD-MMM-YYYY]
 DD  .F              5600:   Depth driller
 DL  .F              5600:   Depth logger
 BLI .F              5597:   Bottom log interval
 TLI .F               467:   Top log interval
 CS1 .IN            9.625:   Casing size
 CBD1.      9.625" @ 467':   Casing driller 1
 CBL1.F               465:   Casing logger 1
 BS1 .IN             8.75:   Bit size
 BSD1.F              5600:   Depth drilled with bit1
 DFT .        KCL POLYMER:   Type fluid in hole
 DFD .                9.2:   Density
 DFV .                 38:   Viscosity
 DFPH.                8.5:   pH
 DFL .                8.6:   Fluid loss
 MSS .           FLOWLINE:   Source of sample
 RMS .OHMM           0.28:   Rm
 MST .F                75:   Rm Meas. temp.
 RMF .OHMM           0.21:   Rmf
 MFST.F                75:   Rmf Meas. temp.
 MFSS.               CALC:   Source Rmf.
 RMC .OHMM           0.35:   Rmc
 MCST.F                75:   Rmc Meas. temp.
 MCSS.               CALC:   Source Rmc.
 RMB .OHMM           0.13:   Rm. at BHT
 BHT .F               168:   BHT.
 TCS .HRS               7:   Time Circ. stopped
 MRT .F               168:   Maximum recorded temp.
 LUN .               6274:   Logging unit number
 LUL .               GLTE:   Logging unit location
 ENGI.               MACK:   Recorded By
 WITN.             STRONG:   Witnessed by
 ORIG.      2.5" 5" PRINT:   Origin of data
 UWI .     49025110490000:   Unique Well ID
 DICO. A2D TECHNOLOGIES, INC.:   Digitizing Company
~OTHER INFORMATION
~A  DEPTH     TEND        CNC       CORR       RHOB       TENR        GRR        SPR       CALR         RD         RS       RMLL       TENS         DT
# ...
 3203.0000   -35.4729     0.2293     0.1545     2.4826   -69.3065   123.3387   -81.4901    11.0116     5.3521     4.2572     4.5845   -37.8180    83.7498
 3203.5000   -33.9216     0.2231     0.1047     2.4779   -71.0406   122.4329   -81.7404    11.0042     5.6634     4.5362     4.7174   -37.4014    84.9556
 3204.0000   -32.3702     0.2171     0.0432     2.5011   -72.7747   118.9440   -81.8690    10.9968     6.0166     4.7133     3.6772   -37.0681    86.3116
 3204.5000   -30.8188     0.2092     0.0067     2.5171   -70.0469   110.0182   -81.8473    10.9894     6.4981     4.9517     5.0331   -44.2425    84.9629
 3205.0000   -29.2675     0.2024     0.0073     2.5268   -63.3718   108.7822   -81.6557    10.9820     7.1244     5.2812     6.2057   -43.9092    82.3370
 3205.5000   -27.7161     0.2002     0.0235     2.5265   -56.6968   111.9109   -81.6743    10.9784     7.9653     5.7038     5.5587   -43.5759    80.9132
 3206.0000   -26.1648     0.2052     0.0180     2.5205   -50.0218   111.3602   -81.7909    10.9820     8.4750     6.1659     5.0127   -50.7508    80.8408
 3206.5000   -24.6134     0.2168     0.0167     2.5189   -43.3468   107.2167   -81.9074    10.9691     9.0125     6.6423     5.5318   -50.4129    80.8574
 3207.0000   -23.0620     0.2223     0.0252     2.5234   -36.6718   101.8756   -81.8743    10.9727     9.3391     6.9261     8.1705   -50.0750    79.9475
 3207.5000   -21.8963     0.2211     0.0193     2.5308   -29.9967   101.6124   -81.9910    10.9756     9.8754     7.0342     9.7301   -49.7373    79.3501
 3208.0000   -21.3220     0.2117     0.0134     2.5276   -23.1855   102.2713   -82.1078    10.9785     9.6021     7.1423     9.2138   -41.8264    79.2545
 3208.5000   -35.3676     0.2123     0.0076     2.5115   -51.1991   102.6189   -82.2246    10.9663     9.1629     7.2959     8.6645   -41.4931    79.8583
 3209.0000   -34.7935     0.2146     0.0046     2.5041   -47.2994   103.5652   -82.4903    10.9688     8.6231     7.3517     8.4925   -41.1598    80.3865
 3209.5000   -34.2106     0.2147     0.0046     2.5043   -43.3998   103.9128   -82.6078    10.9721     8.6923     7.3085     8.5036   -40.8267    80.7643
 3210.0000   -33.6257     0.2135     0.0045     2.5106   -39.5002   104.2603   -82.5738    10.9749     8.8228     7.2154     8.5718   -40.4934    80.8411
 3210.5000   -33.0409     0.2117     0.0104     2.5225   -35.6006   105.2067   -82.3909    10.9778     8.7104     7.2732     8.8226   -32.6526    79.6418
 3211.0000   -32.4563     0.2082     0.0279     2.5339   -31.7010   106.7518   -81.9087    10.9807     8.7802     7.3315     8.8910   -32.3193    78.5922
 3211.5000   -31.8714     0.2023     0.0689     2.5349   -27.8014   107.0994   -82.1750    10.9678     8.9742     7.3902     8.7775   -31.9860    78.0685
 3212.0000   -49.0309     0.2023     0.0893     2.5205   -23.9017   106.5367   -82.7406    10.9668     8.9835     7.3468     8.7890   -31.6528    78.3712
 3212.5000   -63.5930     0.2077     0.0981     2.5158   -24.0212   106.5848   -83.0152    10.9584     8.9306     7.2532     8.7982   -23.8120    78.2983
 3213.0000   -88.6788     0.2120     0.0671     2.5250   -25.0449   106.3336   -82.8263    10.9616     9.0023     7.2104     8.7442   -23.4788    78.0000
 3213.5000   -88.0116     0.2188     0.0453     2.5375   -26.0687   106.6826   -82.6413    10.9645     9.0744     7.1187     8.5750   -23.1455    77.9271
 3214.0000   -67.5463     0.2132     0.0551     2.5477   -27.0924   107.0300   -82.6081    10.9673     8.7743     6.8357     8.2336   -30.3304    78.6216
 3214.5000   -37.1839     0.2091     0.0804     2.5509   -28.1161   107.9760   -82.8744    10.9702     8.3094     6.5185     7.5306   -29.9866    79.4727
 3215.0000   -27.7777     0.2061     0.0416     2.5421   -29.1399   108.0232   -82.9910    10.9730     7.7058     6.1731     6.8876   -22.1458    80.4137
 3215.5000   -20.3190     0.2047     0.0457     2.5480   -30.1636   106.5330   -83.2573    11.0058     8.0997     6.1366     7.0890   -21.5269    80.1153
 3216.0000   -11.9883     0.2041     0.0696     2.5531   -31.1873   102.4388   -83.3821    11.0087     8.5115     6.3601     8.0415    -6.4564    78.7652
 3216.5000   -11.4034     0.2062     0.0960     2.5596   -32.2111   100.6785   -83.6401    11.0267     8.8824     6.8240     8.8721   -13.6385    77.8658
 3217.0000   -10.8187     0.2310     0.0966     2.5596   -33.2348   103.4333   -83.9146    11.0444     8.6484     7.3217     8.4599   -28.3203    77.7172
 3217.5000   -10.1237     0.2665     0.0617     2.5479   -34.2585   105.2779   -83.8732    11.0772     7.5362     7.5355     7.2385   -35.4112    78.6216
 3218.0000    -9.5497     0.2589     0.0172     2.5185   -35.2823   106.8230   -83.8401    11.1251     6.7517     6.6121     5.9698   -27.5704    80.7854
 3218.5000    -8.9754     0.2494     0.0447     2.5039   -36.3060   106.5597   -83.5076    11.1430     6.0909     5.7219     5.1868   -27.2371    83.5803
 3219.0000   -23.0994     0.2453     0.0765     2.4569   -37.3297   106.0091   -83.1751    11.1608     5.6888     4.9515     4.1537   -34.4948    86.7754
 3219.5000   -22.4466     0.2436     0.1006     2.4686   -38.3535   107.8657   -82.9922    11.1786     5.6947     4.5926     3.3525   -34.0782    88.0321
 3220.0000   -21.8723     0.2406     0.0069     2.4862   -39.3772   109.7605   -82.8094    11.1816     5.7007     4.5329     3.1959   -41.3357    87.9493
 3220.5000   -35.9650     0.2389     0.0039     2.5009   -40.4009   112.3059   -82.7763    11.1844     5.7448     4.6665     3.4294   -48.5101    87.5759
 3221.0000   -49.9999     0.2389     0.0068     2.4979   -41.4247   115.5328   -82.7431    11.2023     5.7111     4.8699     2.5650   -48.0935    87.2025
 3221.5000   -78.6291     0.2412     0.0068     2.4935   -42.4484   115.1917   -82.8680    11.2201     5.6398     4.7746     1.9858   -47.7602    87.0539
 3222.0000   -92.6747     0.2621     0.0126     2.4965   -43.4721   113.7484   -83.1260    11.2230     5.4912     4.5848     1.2569   -47.4269    87.7328
 3222.5000  -106.7251     0.2733     0.0184     2.5024   -44.4959   112.6335   -83.5502    11.2409     5.3465     4.4025     1.0724   -47.0936    88.5615
 3223.0000   -91.2299     0.2773     0.0243     2.5068   -45.5196   114.5029   -84.1076    11.2438     5.1340     4.2569     0.7745   -46.7603    89.4653
 3223.5000   -46.2477     0.3007     0.0301     2.5066   -46.5433   116.6588   -84.2325    11.2466     5.1038     4.2026     0.6986   -46.4272    90.2188
 3224.0000   -17.2514     0.2913     0.0359     2.5049   -47.5671   117.2690   -84.4905    11.2495     4.9272     4.1769     0.7654   -46.0939    90.3708
 3224.5000   -33.1902     0.2719     0.0477     2.5055   -48.5908   116.1081   -84.6153    11.2374     4.7376     4.1236     1.1072   -45.7583    90.3735
 3225.0000   -50.1804     0.2601     0.0534     2.5066   -49.6145   114.0719   -84.2814    11.2402     4.5706     4.0160     2.2826   -45.4204    90.7514
 3225.5000   -76.9558     0.2624     0.0563     2.5066   -50.6383   109.6330   -83.9491    11.2281     4.3988     3.9102     3.5393   -45.0826    91.2795
 3226.0000  -102.7006     0.2636     0.0500     2.5070   -51.6620   110.2800   -83.6168    11.2160     4.8188     3.8863     4.6454   -37.1701    91.8828
 3226.5000  -120.7108     0.2613     0.0416     2.5086   -52.6857   113.9209   -83.2702    11.2189     4.3473     3.8913     4.5216   -44.3443    92.2625
 3227.0000  -130.7917     0.2583     0.0416     2.5156   -53.7095   119.0589   -83.1018    11.2217     4.5431     3.9225     4.8870   -44.0110    91.7174
 3227.5000  -109.6549     0.2542     0.0424     2.5267   -54.7332   123.5980   -83.0689    11.2246     4.7787     4.0092     5.3174   -43.6777    90.6195
 3228.0000    79.8257     0.2495     0.0484     2.5372   -55.7569   123.3468   -83.0359    11.2118     5.1532     4.1550     5.2118   -43.3444    89.2626
 3228.5000   169.6413     0.2376     0.0503     2.5417   -56.7807   117.7063   -83.0030    11.2154     5.2282     4.3360     5.3285   -35.5038    88.8141
