~VERSION INFORMATION
 VERS.                2.0:   CWLS LOG ASCII STANDARD - VERSION 2.0
 WRAP.                 NO:   ONE LINE PER DEPTH STEP
~WELL INFORMATION
#MNEM.UNIT      DATA TYPE    INFORMATION
#----------   ------------   ------------------------------
 STRT.F           10.0000:   START DEPTH
 STOP.F         3234.0000:   STOP DEPTH
 STEP.F            0.5000:   STEP LENGTH
 NULL.          -999.2500:   NO VALUE
 COMP. LAWRENCE ALLISON & ASSOSCIATES:   COMPANY
 WELL. 		  38-X-10:   WELL
 FLD .             NPR #3:   FIELD
 LOC .      S10 T38N R78W:   LOCATION
 CNTY.            NATRONA:   COUNTY
 STAT.            WYOMING:   STATE
 CTRY. UNITED STATES OF AMERICA:   COUNTRY
 SRVC.      DRESSER ATLAS:   SERVICE COMPANY
 DATE.        02-AUG-1986:   LOGDATE
 API .       490251120600:   API NUMBER
~CURVE INFORMATION
#MNEM.UNIT       API CODE    CURVE DESCRIPTION
#----------   ------------   ------------------------------
 DEPT.F                  :   
 GRR .GAPI   07 310 01 00:   GAMMA RAY FROM RESISTIVITY
 SPR .MV     07 010 01 00:   SPONTANEOUS POTENTIAL
 TENR.LBS    07 635 01 00:   TENSION FROM RESISTIVITY
 RILM.OHMM   07 120 44 00:   RESISTIVITY INDUCTION LOG MEDIUM
 CNC .DEC    42 890 03 00:   NEUTRON POROSITY SANDSTONE
 CALD.IN     45 280 60 00:   CALIPER FROM DENSITY LOG
 GRD .GAPI   45 310 01 00:   GAMMA RAY FROM DENSITY LOG
 RHOB.G/C3   45 350 01 00:   BULK DENSITY
 TEND.LBS    45 635 01 00:   TENSION FORM DENSITY LOG
 CORR.G/C3   45 356 01 00:   DENSITY CORRECTION
 RILD.OHMM   07 120 46 00:   RESISTIVITY INDUCTION LOG DEEP
 RFOC.OHMM   07 220 04 00:   RESISTIVITY FOCUSED
~PARAMETER INFORMATION
#MNEM.UNIT          VALUE    DESCRIPTION
#----------   ------------   ------------------------------
 EKB .F         5224.0000:   Kelly bushing
 EGL .F         5212.0000:   Ground level
 EDF .F            0.0000:   Drilling floor
 TD  .F         3231.0000:   Total depth
 CLNT.            A2DTECH:   Client Code
 SL  . 296' FSL & 1435' FWL:   Surface Location
 PD  .                 GL:   Permanent Datum
 EPD .F              5212:   Elevation Permanent Datum
 LMF .                 KB:   Log Measured From
 DMF .                 KB:   Drilling Measured From
 DAPD.F                12:   Feet Above Permanent Datum
 DATE.        02-AUG-1986:   Date Logged [DD-MMM-YYYY]
 DD  .F              3230:   Depth driller
 DL  .F              3231:   Depth logger
 BLI .F              3229:   Bottom log interval
 TLI .F                11:   Top log interval
 CS1 .IN            8.625:   Casing size
 CBD1.      8.625" @ 626':   Casing driller 1
 CBL1.F               626:   Casing logger 1
 BS1 .IN            7.875:   Bit size
 BSD1.F              3230:   Depth drilled with bit1
 DFT .            KCL-GEL:   Type fluid in hole
 DFD .                  9:   Density
 DFV .                 36:   Viscosity
 DFPH.               10.5:   pH
 DFL .                 12:   Fluid loss
 MSS .           FLOWLINE:   Source of sample
 RMS .OHMM          0.263:   Rm
 MST .F               100:   Rm Meas. temp.
 RMF .OHMM          0.197:   Rmf
 MFST.F               100:   Rmf Meas. temp.
 MFSS.               MEAS:   Source Rmf.
 RMC .OHMM          0.329:   Rmc
 MCST.F               100:   Rmc Meas. temp.
 MCSS.               CALC:   Source Rmc.
 RMB .OHMM          0.193:   Rm. at BHT
 BHT .F               136:   BHT.
 TCS .HRS               5:   Time Circ. stopped
 MRT .F               136:   Maximum recorded temp.
 LUN .            HL-6274:   Logging unit number
 LUL .           GILLETTE:   Logging unit location
 ENGI.            PANASUK:   Recorded By
 WITN.             STRONG:   Witnessed by
 ORIG.        2" 5" PRINT:   Origin of data
 UWI .       490251120600:   Unique Well ID
 DICO. A2D TECHNOLOGIES, INC.:   Digitizing Company
~OTHER INFORMATION
~A   DEPT       GRR       SPR       TENR       RILM        CNC       CALD        GRD       RHOB       TEND       CORR       RILD       RFOC   
# ...
 2418.0000   134.7434   -44.3570   -56.6273  -999.2500  -999.2500  -999.2500  -999.2500  -999.2500  -999.2500  -999.2500     9.5093    12.0483
 2418.5000   134.5034   -44.5143   -56.4472  -999.2500  -999.2500  -999.2500  -999.2500  -999.2500  -999.2500  -999.2500     9.4442    12.5316
 2419.0000   131.7081   -44.7229   -56.3158  -999.2500  -999.2500  -999.2500  -999.2500  -999.2500  -999.2500  -999.2500     9.2360    12.8783
 2419.5000   127.0521   -44.8260   -56.1654  -999.2500  -999.2500  -999.2500  -999.2500  -999.2500  -999.2500  -999.2500     9.0053    12.5718
 2420.0000   123.6079   -44.8320   -55.9970  -999.2500  -999.2500  -999.2500  -999.2500  -999.2500  -999.2500  -999.2500     8.6579    11.3388
 2420.5000   122.9214   -44.6274   -55.8647  -999.2500  -999.2500  -999.2500  -999.2500  -999.2500  -999.2500  -999.2500     8.1662    10.6702
 2421.0000   119.2411   -44.3871   -55.7143  -999.2500  -999.2500  -999.2500  -999.2500  -999.2500  -999.2500  -999.2500     7.6192    10.7434
 2421.5000   112.7125   -44.2419   -55.5468  -999.2500  -999.2500  -999.2500  -999.2500  -999.2500  -999.2500  -999.2500     7.1070    10.9773
 2422.0000   112.2629   -43.9715   -55.4136  -999.2500  -999.2500  -999.2500  -999.2500  -999.2500  -999.2500  -999.2500     6.7171    10.5844
 2422.5000   116.3032   -43.7846   -55.2632  -999.2500  -999.2500  -999.2500  -999.2500  -999.2500  -999.2500  -999.2500     6.7147     8.3838
 2423.0000   117.5270   -43.5005   -55.0965  -999.2500  -999.2500  -999.2500  -999.2500  -999.2500  -999.2500  -999.2500     6.7122     7.6853
 2423.5000   115.4044   -43.4389   -54.9624  -999.2500  -999.2500  -999.2500  -999.2500  -999.2500  -999.2500  -999.2500     6.7096     6.9377
 2424.0000   111.8447   -43.3582   -47.2932  -999.2500  -999.2500  -999.2500  -999.2500  -999.2500  -999.2500  -999.2500     6.8775     7.7693
 2424.5000   109.0483   -43.3642   -47.1275  -999.2500  -999.2500  -999.2500  -999.2500  -999.2500  -999.2500  -999.2500     7.0310     8.7592
 2425.0000   108.7386   -43.5199   -39.4737  -999.2500  -999.2500  -999.2500  -999.2500  -999.2500  -999.2500  -999.2500     7.3090    10.3709
 2425.5000   106.8643   -43.5460   -38.0477  -999.2500  -999.2500  -999.2500  -999.2500  -999.2500  -999.2500  -999.2500     7.5328    11.4036
 2426.0000   103.8118   -43.8331   -31.6397  -999.2500  -999.2500  -999.2500  -999.2500  -999.2500  -999.2500  -999.2500     7.7608    10.4143
 2426.5000    99.9579   -43.9118   -23.9850  -999.2500  -999.2500  -999.2500  -999.2500  -999.2500  -999.2500  -999.2500     8.0633    10.1088
 2427.0000    97.4408   -44.1452   -23.8346  -999.2500  -999.2500  -999.2500  -999.2500  -999.2500  -999.2500  -999.2500     8.2848    10.0304
 2427.5000    94.4902   -44.1508   -23.6707  -999.2500  -999.2500  -999.2500  -999.2500  -999.2500  -999.2500  -999.2500     8.5680    11.6966
 2428.0000    94.4210   -44.3851   -27.4465  -999.2500  -999.2500  -999.2500  -999.2500  -999.2500  -999.2500  -999.2500     8.8158    13.1903
 2428.5000    95.4680   -44.4923   -30.9194  -999.2500  -999.2500  -999.2500  -999.2500  -999.2500  -999.2500  -999.2500     9.0360    14.1959
 2429.0000    97.2565   -44.6197   -30.7392  -999.2500  -999.2500  -999.2500  -999.2500  -999.2500  -999.2500  -999.2500     9.2174    12.9030
 2429.5000    98.7107   -44.7756   -30.6015  -999.2500  -999.2500  -999.2500  -999.2500  -999.2500  -999.2500  -999.2500     9.4109    11.8355
 2430.0000    99.5686   -44.9319   -30.4511  -999.2500  -999.2500  -999.2500  -999.2500  -999.2500  -999.2500  -999.2500     9.4837    10.6473
 2430.5000   100.5423   -45.0886   -37.8078  -999.2500  -999.2500  -999.2500  -999.2500  -999.2500  -999.2500  -999.2500     9.6269    10.9228
 2431.0000   100.5041   -45.1801   -37.6692  -999.2500  -999.2500  -999.2500  -999.2500  -999.2500  -999.2500  -999.2500     9.7170    12.0762
 2431.5000    98.7460   -45.4009   -39.0997  -999.2500  -999.2500  -999.2500  -999.2500  -999.2500  -999.2500  -999.2500     9.8556    13.5471
 2432.0000    97.0569   -45.5575   -44.8872  -999.2500  -999.2500  -999.2500  -999.2500  -999.2500  -999.2500  -999.2500    10.0051    15.3159
 2432.5000    95.6509   -45.4110   -52.2556  -999.2500  -999.2500  -999.2500  -999.2500  -999.2500  -999.2500  -999.2500    10.0918    14.8899
 2433.0000    95.5028   -45.4160   -52.1053  -999.2500  -999.2500  -999.2500  -999.2500  -999.2500  -999.2500  -999.2500    10.0757    13.5454
 2433.5000    95.3366   -45.2699   -59.4638  -999.2500  -999.2500  -999.2500  -999.2500  -999.2500  -999.2500  -999.2500     9.8403    11.8182
 2434.0000    95.3295   -45.1236   -59.3233  -999.2500  -999.2500  -999.2500  -999.2500  -999.2500  -999.2500  -999.2500     9.5830    12.5694
 2434.5000    94.7237   -44.9311   -66.7124  -999.2500  -999.2500  -999.2500  -999.2500  -999.2500  -999.2500  -999.2500     9.3094    13.3068
 2435.0000    97.2810   -44.5285   -74.0511  -999.2500  -999.2500  -999.2500  -999.2500  -999.2500  -999.2500  -999.2500     9.1118    13.6316
 2435.5000   111.3222   -44.4341   -69.6230  -999.2500  -999.2500  -999.2500  -999.2500  -999.2500  -999.2500  -999.2500     8.9625    12.9300
 2436.0000   116.1761   -44.2350   -64.4376  -999.2500  -999.2500  -999.2500  -999.2500  -999.2500  -999.2500  -999.2500     8.7708    10.9206
 2436.5000   118.2592   -44.0897   -58.5633  -999.2500  -999.2500  -999.2500  -999.2500  -999.2500  -999.2500  -999.2500     8.5995     9.9063
 2437.0000   114.6261   -44.0958   -50.9023  -999.2500  -999.2500  -999.2500  -999.2500  -999.2500  -999.2500  -999.2500     8.3958    10.6539
 2437.5000   112.6242   -44.0998   -48.8706  -999.2500  -999.2500  -999.2500  -999.2500  -999.2500  -999.2500  -999.2500     8.0045    11.7795
 2438.0000   111.2913   -44.1049   -35.5567  -999.2500  -999.2500     9.4633  -999.2500  -999.2500  -999.2500     0.0089     7.7514    13.0096
 2438.5000   115.8153   -44.1108   -35.4135  -999.2500     0.2797     9.4633   113.1907     2.5084    16.3317     0.0130     7.4940    12.7790
 2439.0000   120.7152   -43.9637   -27.7443  -999.2500     0.2833     9.4535   116.3532     2.5014    16.3317     0.0198     7.0849    11.9060
 2439.5000   126.8902   -43.9687   -27.5877  -999.2500     0.2871     9.4379   124.8179     2.4962    -8.9259     0.0113     6.7800     9.7395
 2440.0000   133.3186   -43.9746   -22.9299  -999.2500     0.2891     9.4375   130.8620     2.4871    -9.0462     0.0098     6.5981    10.0400
 2440.5000   138.8601   -43.9158   -19.7987  -999.2500     0.2851     9.4219   136.3010     2.4713     5.8986     0.0235     6.4720     9.1290
 2441.0000   141.4641   -43.8185   -27.1429  -999.2500     0.2718     9.4214   140.6004     2.4645     5.7731     0.0265     7.0001     7.3800
 2441.5000   137.8310   -43.6863   -26.9925  -999.2500     0.2697     9.4211   138.7051     2.4710    -1.9068     0.0099     7.5464     8.5150
 2442.0000   134.0187   -43.6241   -28.9457  -999.2500     0.2768     9.4360   133.8567     2.4986    -2.0271     0.0372     7.9195    10.0442
 2442.5000   132.5168   -43.5448   -34.2105  -999.2500     0.2833     9.4662   132.3365     2.5115    -2.1473     0.0932     8.2065    14.9476
 2443.0000   133.5820   -43.3995   -34.0602  -999.2500     0.2854     9.4657   132.9344     2.5101     5.2926     0.1220     8.5680    18.2192
 2443.5000   141.6422   -43.4039   -33.9098  -999.2500     0.2796     9.4653   136.8605     2.5109    12.6725     0.0857     9.5208    19.7232
 2444.0000   150.2636   -43.3866   -26.2370  -999.2500     0.2721     9.4801   142.6021     2.5200     5.0201     0.0616     9.9441    18.0182
 2444.5000   159.5446   -43.2627   -21.3535  -999.2500     0.2699     9.5255   148.5085     2.5336     4.8718     0.0692     9.8679    16.1699
 2445.0000   162.3221   -43.1921   -16.1660  -999.2500     0.2662     9.5404   157.1091     2.5329     4.7515     0.0783     9.6864    13.9603
 2445.5000   164.9391   -43.0949    -3.2304  -999.2500     0.2696     9.5705   163.1532     2.5273    19.6915     0.0844     9.3296    12.3503
