~VERSION INFORMATION
 VERS.                2.0:   CWLS LOG ASCII STANDARD - VERSION 2.0
 WRAP.                 NO:   ONE LINE PER DEPTH STEP
~WELL INFORMATION
#MNEM.UNIT      DATA TYPE    INFORMATION
#----------   ------------   ------------------------------
 STRT.F          590.0000:   START DEPTH
 STOP.F         3123.0000:   STOP DEPTH
 STEP.F            0.5000:   STEP LENGTH
 NULL.          -999.2500:   NO VALUE
 COMP.         U. S. NAVY:   COMPANY
 WELL. U.S. NPR 3 "A" #402-33:   WELL
 FLD .             TEAPOT:   FIELD
 LOC .      S33 T39N R78W:   LOCATION
 CNTY.            NATRONA:   COUNTY
 STAT.            WYOMING:   STATE
 CTRY. UNITED STATES OF AMERICA:   COUNTRY
 SRVC.         MCCULLOUGH:   SERVICE COMPANY
 DATE.        23-OCT-1967:   LOGDATE
 API .     49025104460000:   API NUMBER
~CURVE INFORMATION
#MNEM.UNIT       API CODE    CURVE DESCRIPTION
#----------   ------------   ------------------------------
 DEPT.F                  :   
 GRN .GAPI   35 310 01 00:   GAMMA RAY FROM NEUTRON
 NEUT.NAPI   35 330 01 00:   NEUTRON
~PARAMETER INFORMATION
#MNEM.UNIT          VALUE    DESCRIPTION
#----------   ------------   ------------------------------
 EKB .F            0.0000:   Kelly bushing
 EGL .F         5160.5000:   Ground level
 EDF .F         5162.0000:   Drilling floor
 TD  .F         3123.5000:   Total depth
 CLNT.            A2DTECH:   Client Code
 PD  .                 GL:   Permanent Datum
 EPD .F            5160.5:   Elevation Permanent Datum
 LMF .                 DF:   Log Measured From
 DMF .                 DF:   Drilling Measured From
 DAPD.F               1.5:   Feet Above Permanent Datum
 DATE.        23-OCT-1967:   Date Logged [DD-MMM-YYYY]
 DL  .F            3123.5:   Depth logger
 BLI .F              3122:   Bottom log interval
 TLI .F               600:   Top log interval
 CS1 .IN           5.1875:   Casing size
 DFT .              WATER:   Type fluid in hole
 TCS .HRS             4.5:   Time Circ. stopped
 ENGI.         COWLTHORPE:   Recorded By
 WITN.           THOMASON:   Witnessed by
 ORIG.         2.5" PRINT:   Origin of data
 UWI .     49025104460000:   Unique Well ID
 DICO. A2D TECHNOLOGIES, INC.:   Digitizing Company
 LUN .               1498:   Logging unit number
~OTHER INFORMATION
~A   DEPT       GRN      NEUT   
# ...
  954.5000    33.7334   363.1586
  955.0000    36.0472   387.8374
  955.5000    37.8981   382.8722
  956.0000    39.2238   368.0258
  956.5000    38.6484   345.7684
  957.0000    37.6897   360.5659
  957.5000    35.2134   335.8381
  958.0000    37.5563   330.8730
  958.5000    39.3822   338.2595
  959.0000    36.2223   372.8196
  959.5000    34.2711   373.5466
  960.0000    32.2120   362.8893
  960.5000    30.1566   352.9835
  961.0000    28.6851   343.0778
  961.5000    28.2056   343.0533
  962.0000    32.9956   350.4398
  962.5000    34.5881   347.9450
  963.0000    35.4302   362.7425
  963.5000    35.1466   409.6541
  964.0000    32.8038   424.4516
  964.5000    33.2832   371.2253
  965.0000    33.7543   295.9451
  965.5000    30.8361   304.8537
  966.0000    31.2530   342.8330
  966.5000    30.0024   323.0459
  967.0000    28.4766   333.2060
  967.5000    31.4615   337.8188
  968.0000    32.9206   322.5754
  968.5000    33.1290   322.9479
  969.0000    35.0050   332.2752
  969.5000    37.0894   351.6625
  970.0000    35.6303   347.7380
  970.5000    36.2556   342.6127
  971.0000    34.3796   376.7002
  971.5000    33.7584   375.7206
  972.0000    36.2556   355.2815
  972.5000    36.6725   326.2059
  973.0000    35.8387   312.8421
  973.5000    34.5881   316.1812
  974.0000    32.0868   324.5515
  974.5000    29.5855   341.9099
  975.0000    32.0868   328.3879
  975.5000    33.5459   336.7794
  976.0000    33.3374   347.2785
  976.5000    34.1837   341.1480
  977.0000    34.3796   349.6994
  977.5000    33.6709   332.2168
  978.0000    32.4287   311.2942
  978.5000    32.0868   315.4850
  979.0000    33.1290   334.0136
  979.5000    32.9206   335.3839
  980.0000    34.2545   354.4869
  980.5000    35.3052   371.7547
  981.0000    36.0972   406.3148
  981.5000    35.6218   421.1165
  982.0000    33.6709   391.4439
  982.5000    32.7121   396.3601
  983.0000    33.9628   430.6029
  983.5000    32.0868   403.7221
  984.0000    32.9206   416.0493
  984.5000    29.8940   381.4402
  985.0000    29.5855   358.6500
  985.5000    31.4281   354.2177
  986.0000    32.2703   351.7229
  986.5000    33.4166   368.9907
  987.0000    34.2713   403.5508
  987.5000    34.1712   376.3527
  988.0000    36.2058   381.2689
  988.5000    40.4910   420.7696
  989.0000    42.5589   423.2163
  989.5000    42.1129   405.8987
  990.0000    38.5484   391.0523
  990.5000    36.2556   400.9091
  991.0000    37.0894   390.9777
  991.5000    39.5906   400.8601
  992.0000    40.4244   390.9543
  992.5000    40.4869   419.1124
  993.0000    37.7147   420.5493
  993.5000    38.7569   380.9996
  994.0000    39.2238   393.3268
  994.5000    38.5484   360.2112
  995.0000    37.2978   363.0149
  995.5000    34.1712   387.9212
  996.0000    35.0050   408.5098
  996.5000    38.1316   393.0789
  997.0000    36.2556   370.9469
  997.5000    35.2134   386.3385
  998.0000    35.6303   380.7793
  998.5000    37.0894   400.7928
  999.0000    37.5229   415.0392
  999.5000    35.4218   401.7835
 1000.0000    34.3796   403.7337
 1000.5000    35.4385   420.1821
 1001.0000    36.2674   391.2493
 1001.5000    36.8986   353.4344
 1002.0000    37.0894   373.5465
 1002.5000    36.1670   365.9997
 1003.0000    35.1070   364.7270
 1003.5000    34.3383   371.0967
 1004.0000    33.9628   386.4415
 1004.5000    33.7543   417.8458
 1005.0000    33.7543   385.7437
 1005.5000    33.7543   405.5185
 1006.0000    33.1956   420.3526
 1006.5000    32.7121   423.5167
 1007.0000    32.9206   408.0253
 1007.5000    32.9519   383.3342
 1008.0000    31.5198   368.5244
 1008.5000    29.5855   348.7740
 1009.0000    29.1604   331.4939
 1009.5000    27.2927   343.8577
 1010.0000    30.2038   373.5138
 1010.5000    31.1290   353.7633
 1011.0000    32.9206   306.8393
 1011.5000    35.4218   312.0224
 1012.0000    33.9628   332.0937
 1012.5000    31.6699   361.8406
 1013.0000    30.8361   349.9556
 1013.5000    30.4193   336.5440
 1014.0000    29.1686   339.0266
 1014.5000    31.6699   313.8342
 1015.0000    31.2530   316.0788
 1015.5000    30.8361   348.0413
 1016.0000    31.8783   390.9539
 1016.5000    35.8387   353.9094
 1017.0000    35.6303   377.9027
 1017.5000    33.3374   383.5776
 1018.0000    29.5771   362.6432
 1018.5000    29.1686   316.3701
 1019.0000    29.8419   288.7059
 1019.5000    32.9090   320.7303
 1020.0000    35.8387   368.9850
 1020.5000    35.0050   361.1089
 1021.0000    35.9074   357.4134
 1021.5000    37.9231   386.1514
 1022.0000    37.5062   405.9261
 1022.5000    37.2978   391.1163
 1023.0000    37.9231   415.8318
 1023.5000    37.7849   349.1451
 1024.0000    32.3034   331.8637
 1024.5000    29.8405   346.6992
 1025.0000    30.1933   371.4146
 1025.5000    33.2698   391.1894
 1026.0000    35.6414   376.3796
 1026.5000    34.2743   361.5698
 1027.0000    33.1040   351.7007
 1027.5000    32.9016   354.1832
 1028.0000    33.9266   366.6132
 1028.5000    32.9206   376.4404
 1029.0000    34.5881   350.4816
 1029.5000    33.9628   327.0582
 1030.0000    32.9206   340.0815
 1030.5000    32.7121   341.9045
 1031.0000    32.0868   353.6256
 1031.5000    32.2952   384.4769
 1032.0000    32.2952   379.5912
 1032.5000    32.0868   367.7281
 1033.0000    31.8783   355.5406
 1033.5000    31.2530   341.9775
 1034.0000    30.4193   346.9304
 1034.5000    32.2952   327.1799
 1035.0000    33.3374   347.6983
 1035.5000    30.3945   347.3320
 1036.0000    27.5011   339.5711
 1036.5000    28.0177   317.1203
 1037.0000    30.4193   325.3004
 1037.5000    30.0024   340.0194
 1038.0000    32.7121   334.6822
 1038.5000    32.0868   307.5208
 1039.0000    32.2952   298.5567
 1039.5000    29.5855   347.0703
 1040.0000    33.0316   332.2589
 1040.5000    33.7543   356.9760
 1041.0000    33.9565   386.6320
 1041.5000    36.4248   376.7629
 1042.0000    39.5697   366.8938
 1042.5000    40.2160   366.9059
 1043.0000    39.5528   354.5665
 1043.5000    36.7987   334.8160
 1044.0000    36.3584   337.2985
 1044.5000    37.0894   369.4935
 1045.0000    35.2450   381.7888
 1045.5000    34.3796   364.3523
 1046.0000    34.5881   359.3493
 1046.5000    32.9206   354.6517
 1047.0000    29.5855   406.7277
 1047.5000    28.3349   421.3748
 1048.0000    27.9180   396.6837
 1048.5000    28.3349   423.2038
 1049.0000    28.9602   431.9688
 1049.5000    28.1264   426.8116
 1050.0000    27.9180   378.6219
 1050.5000    30.4193   380.3518
 1051.0000    31.6699   390.3194
 1051.5000    31.2530   394.3011
 1052.0000    27.0842   377.7156
 1052.5000    25.4167   341.5884
 1053.0000    26.4632   298.9993
 1053.5000    28.3547   309.8062
 1054.0000    29.6105   341.4321
 1054.5000    28.6779   330.1492
 1055.0000    27.4524   332.6317
 1055.5000    27.0842   333.4734
 1056.0000    28.6517   312.8934
 1056.5000    28.2088   330.1979
 1057.0000    26.5399   342.5616
 1057.5000    24.0511   352.4551
 1058.0000    24.7960   342.5860
 1058.5000    30.1879   341.4367
 1059.0000    32.9333   377.1949
 1059.5000    35.2134   362.3851
 1060.0000    34.3796   394.5115
 1060.5000    35.1836   406.8753
 1061.0000    35.7255   392.0655
 1061.5000    36.0472   362.3764
 1062.0000    36.0472   372.4598
 1062.5000    37.3501   371.7227
 1063.0000    39.2324   358.8793
 1063.5000    38.5484   347.6605
 1064.0000    35.2134   362.4947
 1064.5000    33.7543   372.4347
 1065.0000    33.7543   385.3299
 1065.5000    33.1290   381.6441
 1066.0000    32.5037   372.7227
 1066.5000    33.3374   374.8369
 1067.0000    36.0472   382.3303
 1067.5000    36.0837   359.3676
 1068.0000    35.4218   332.7840
 1068.5000    35.2134   326.3685
 1069.0000    34.3796   347.5377
 1069.5000    33.7543   349.0209
 1070.0000    33.7543   335.3063
 1070.5000    33.7543   325.2904
 1071.0000    34.1712   324.6087
 1071.5000    34.3796   337.9800
 1072.0000    34.5881   341.3173
 1072.5000    34.3344   339.6901
 1073.0000    33.4604   350.3681
 1073.5000    32.2609   375.0836
 1074.0000    34.5738   383.6266
 1074.5000    36.0472   372.6376
 1075.0000    32.8163   380.0607
 1075.5000    32.0868   387.4839
