~VERSION INFORMATION
 VERS.                2.0:   CWLS LOG ASCII STANDARD - VERSION 2.0
 WRAP.                 NO:   ONE LINE PER DEPTH STEP
~WELL INFORMATION
#MNEM.UNIT      DATA TYPE    INFORMATION
#----------   ------------   ------------------------------
 STRT.F          200.0000:   START DEPTH
 STOP.F         3014.0000:   STOP DEPTH
 STEP.F            0.5000:   STEP LENGTH
 NULL.          -999.2500:   NO VALUE
 COMP.    FENIX & SCISSON:   COMPANY
 WELL. FENIX NPR 3 "AX" #45-28:   WELL
 FLD .                NPR:   FIELD
 LOC .      S28 T39N R78W:   LOCATION
 CNTY.            NATRONA:   COUNTY
 STAT.            WYOMING:   STATE
 CTRY. UNITED STATES OF AMERICA:   COUNTRY
 SRVC.              WELEX:   SERVICE COMPANY
 DATE.        30-SEP-1977:   LOGDATE
 API .     49025104230000:   API NUMBER
~CURVE INFORMATION
#MNEM.UNIT       API CODE    CURVE DESCRIPTION
#----------   ------------   ------------------------------
 DEPT.F                  :   
 SPR .MV     07 010 01 00:   SPONTANEOUS POTENTIAL
 TENR.LBS    07 635 01 00:   TENSION
 SFL .OHMM   07 220 01 00:   SHALLOW FOCUSED LOG RESISTIVITY
 ILD .OHMM   07 120 46 00:   INDUCTION LOG DEEP RESISTIVITY
 ILM .OHMM   07 120 44 00:   INDUCTION LOG MEDIUM RESISTIVITY
 TEND.LBS    45 635 01 00:   TENSION FROM DENSITY LOG
 CALD.IN     45 280 60 00:   CALIPER FROM DENSITY LOG
 RHOB.G/C3   45 350 01 00:   BULK DENSITY
 CORR.G/C3   45 356 01 00:   DENSITY CORRECTION
 GRD .GAPI   45 310 01 00:   GAMMA RAY FROM DENSITY LOG
~PARAMETER INFORMATION
#MNEM.UNIT          VALUE    DESCRIPTION
#----------   ------------   ------------------------------
 EKB .F         5075.0000:   Kelly bushing
 EGL .F         5065.0000:   Ground level
 EDF .F            0.0000:   Drilling floor
 E TD.F         3008.0000:   Total depth
 DATE.        30-SEP-1977:   Date logged
 CLNT.            A2DTECH:   Client Code
 SL  . 2210' FSL & 2310' FWL:   Surface Location
 PD  .                 GL:   Permanent Datum
 EPD .F              5065:   Elevation Permanent Datum
 LMF .                 KB:   Log Measured From
 DMF .                 KB:   Drilling Measured From
 DAPD.F                10:   Feet Above Permanent Datum
 DD  .F              3005:   Depth driller
 DL  .F              3008:   Depth logger
 BLI .F              3006:   Bottom log interval
 TLI .F               200:   Top log interval
 CS1 .IN            8.625:   Casing size
 CBD1.      8.625" @ 205':   Casing driller 1
 CBL1.F               220:   Casing logger 1
 BS1 .IN            7.875:   Bit size
 BSD1.F              3005:   Depth drilled with bit1
 DFT .            KCL/MUD:   Type fluid in hole
 DFD .                9.1:   Density
 DFV .                 38:   Viscosity
 DFPH.                 11:   pH
 DFL .                6.8:   Fluid loss
 MSS .           FLOWLINE:   Source of sample
 RMS .OHMM            .31:   Rm
 MST .F                78:   Rm Meas. temp.
 RMF .OHMM            .15:   Rmf
 MFST.F                78:   Rmf Meas. temp.
 RMC .OHMM           1.02:   Rmc
 MCST.F                78:   Rmc Meas. temp.
 MFSS.               FANN:   Source Rmf.
 MCSS.                KIT:   Source Rmc.
 RMB .OHMM            .20:   Rm. at BHT
 BHT .F               117:   BHT.
 TCS .HRS               3:   Time Circ. stopped
 MRT .F               117:   Maximum recorded temp.
 LUN .               8611:   Logging unit number
 LUL .             CASPER:   Logging unit location
 ENGI.         G. BENTSEN:   Recorded By
 WITN.         HARRINGTON:   Witnessed by
 ORIG.           5" PRINT:   Origin of data
 UWI .     49025104230000:   Unique Well ID
 DICO. A2D TECHNOLOGIES, INC.:   Digitizing Company
~OTHER INFORMATION
~A   DEPT      SPR        TENR       SFL        ILD        ILM       TEND       CALD       RHOB       CORR        GRD   
# ...
 1506.5000   -67.0660   617.3250    10.3500     9.3400     9.8870   789.4780     9.7010     2.4780    -0.0070    88.7130
 1507.0000   -67.1000   617.6500    10.1490     9.3790     9.9760   789.4410     9.7230     2.4800    -0.0060    89.8910
 1507.5000   -67.1350   617.9740    10.3800     9.4180    10.0650   789.4030     9.7460     2.4830    -0.0050    91.1080
 1508.0000   -67.1700   618.2980    10.5790     9.4570    10.1530   789.3660     9.7680     2.4850    -0.0040    89.2660
 1508.5000   -67.2040   618.6230    10.7780     9.5140    10.2420   789.3290     9.7910     2.4840    -0.0020    86.8940
 1509.0000   -67.2390   618.9470    10.9770     9.4400    10.3380   789.2920     9.8140     2.4830    -0.0010    88.1910
 1509.5000   -67.2730   619.2710    11.2340     9.2990    10.2370   789.2550     9.8360     2.4830     0.0000    89.8350
 1510.0000   -67.2820   619.5960    11.0220     9.0850    10.1270   789.2180     9.8590     2.4850     0.0010    91.4770
 1510.5000   -67.2310   619.9200    10.7230     9.0940    10.0160   789.1800     9.8820     2.4920     0.0030    93.0970
 1511.0000   -67.1820   620.2440    10.5310     9.1110     9.9060   789.1430     9.8700     2.4990     0.0040    94.2960
 1511.5000   -67.1340   620.5690    10.8010     9.1290     9.7960   789.1060     9.8430     2.5050     0.0050    95.5470
 1512.0000   -67.0860   620.8930    11.0510     9.1460     9.6850   789.0690     9.8160     2.5120     0.0060    96.3440
 1512.5000   -67.0370   621.2170    11.3380     9.1640     9.6030   789.0320     9.7880     2.5190     0.0070    94.3450
 1513.0000   -66.9890   621.5420    11.0320     9.2140     9.6950   788.9950     9.7600     2.5260     0.0080    91.7290
 1513.5000   -66.9400   621.8660    10.6700     9.2830     9.7690   788.9570     9.7330     2.5230     0.0080    89.1330
 1514.0000   -66.8920   622.1900    10.2440     9.3520     9.8430   788.9200     9.7050     2.5170     0.0070    86.5290
 1514.5000   -66.8430   622.5150    10.4930     9.4210     9.9160   788.8830     9.6780     2.5100     0.0060    85.6770
 1515.0000   -66.7950   622.8390    10.7990     9.4900     9.9900   788.8460     9.6500     2.5070     0.0050    87.9180
 1515.5000   -66.7460   623.1630    11.1040     9.5580    10.0640   788.8090     9.6220     2.5130     0.0040    89.5980
 1516.0000   -66.7030   623.4880    11.4100     9.6270    10.1380   788.7720     9.5950     2.5190     0.0030    90.4220
 1516.5000   -66.7640   623.8120    11.7150     9.6960    10.2110   788.7350     9.5670     2.5100     0.0030    88.2030
 1517.0000   -66.8260   624.1370    12.0950     9.7820    10.2760   788.6970     9.5400     2.5000     0.0020    86.5230
 1517.5000   -66.8870   624.4610    11.7740     9.7680    10.3650   788.6600     9.5120     2.4940     0.0010    85.7480
 1518.0000   -66.9490   624.7850    11.3510     9.7500    10.4540   788.6230     9.5090     2.4950     0.0010    87.6880
 1518.5000   -67.0100   625.1100    10.7270     9.7320    10.5280   788.5860     9.5090     2.4980     0.0020    89.5530
 1519.0000   -67.0720   625.4340    10.8820     9.7140    10.5040   788.5490     9.5070     2.5020     0.0040    90.8360
 1519.5000   -67.0450   625.7580    11.1760     9.6960    10.4800   788.5120     9.5050     2.5100     0.0050    89.6230
 1520.0000   -66.9590   626.0830    11.4700     9.6780    10.4560   788.4740     9.5030     2.5200     0.0060    88.5070
 1520.5000   -66.8730   626.4070    11.7650     9.6590    10.4340   788.4370     9.5010     2.5230     0.0080    90.1890
 1521.0000   -66.7870   626.7310    12.0590     9.6410    10.3570   788.4000     9.4990     2.5260     0.0090    91.8390
 1521.5000   -66.7000   627.0560    11.7010     9.6230    10.2870   788.3630     9.4970     2.5290     0.0100    93.4760
 1522.0000   -66.6140   627.3800    11.2520     9.6050    10.2160   788.3260     9.4950     2.5250     0.0110    95.1160
 1522.5000   -66.5270   627.7040    10.8270     9.4880    10.1460   788.2890     9.4930     2.5190     0.0090    96.7350
 1523.0000   -66.4410   628.0290    10.7250     9.3540    10.0750   788.2510     9.4900     2.5120     0.0080    97.6270
 1523.5000   -66.3540   628.3530    10.6280     9.2200    10.0040   788.2140     9.4870     2.5060     0.0070    94.4660
 1524.0000   -66.2670   628.6770    10.5310     9.1170     9.9170   788.1770     9.5180     2.5050     0.0050    91.3530
 1524.5000   -66.1810   629.0020    10.4340     9.0330     9.8070   788.1400     9.5610     2.5060     0.0040    88.2460
 1525.0000   -66.1080   629.3260    10.3360     8.9480     9.6970   788.1030     9.6050     2.5040     0.0040    87.1950
 1525.5000   -66.1830   629.6500    10.2390     8.8640     9.5860   788.0660     9.6490     2.5000     0.0040    88.9850
 1526.0000   -66.2570   629.9750    10.1420     8.7800     9.4760   788.0280     9.6920     2.5010     0.0040    91.0950
 1526.5000   -66.3300   630.2990    10.0450     8.6760     9.3660   787.9910     9.7290     2.5080     0.0040    92.9250
 1527.0000   -66.4030   630.6230     9.9640     8.7070     9.2550   787.9540     9.7500     2.5150     0.0040    93.2770
 1527.5000   -66.4780   630.9480    10.3260     8.7470     9.3550   787.9170     9.7540     2.5220     0.0040    91.8340
 1528.0000   -66.5450   631.2720    10.5310     8.7870     9.4590   787.8800     9.7590     2.5240     0.0040    89.9520
 1528.5000   -66.6140   631.5960    10.4410     8.8270     9.5630   787.8430     9.7650     2.5160     0.0050    88.0980
 1529.0000   -66.6820   631.9210    10.3740     8.8670     9.6680   787.8050     9.7700     2.5210     0.0060    87.2460
 1529.5000   -66.7500   632.2450    10.3070     8.9190     9.7820   787.7680     9.7760     2.5290     0.0070    89.8040
 1530.0000   -66.8180   632.5690    10.2390     8.8400     9.6560   787.7310     9.7810     2.5380     0.0090    92.3540
 1530.5000   -66.8840   632.8940    10.1720     8.7280     9.5180   787.6940     9.7860     2.5450     0.0100    94.9170
 1531.0000   -66.9610   633.2180    10.1050     8.6150     9.3810   787.6570     9.7920     2.5380     0.0100    97.4060
 1531.5000   -67.0350   633.5420    10.0560     8.5030     9.2430   787.6200     9.7970     2.5280     0.0110    96.1160
 1532.0000   -67.0940   633.8670    10.1210     8.3910     9.1050   787.5830     9.8030     2.5190     0.0110    94.4570
 1532.5000   -67.0600   634.1910    10.1710     8.2840     9.0020   787.5450     9.8080     2.5110     0.0110    94.1860
 1533.0000   -67.0280   634.5150    10.2220     8.4470     9.1530   787.5080     9.8130     2.5090     0.0110    95.2170
 1533.5000   -66.9960   634.8400    10.2720     8.6010     9.2740   787.4710     9.8190     2.5130     0.0110    96.2500
 1534.0000   -66.9640   635.1640    10.3230     8.7560     9.3950   787.4340     9.8240     2.5190     0.0110    97.3410
 1534.5000   -66.9320   635.4880    10.3740     9.0020     9.5140   787.3970     9.8270     2.5320     0.0110    96.8200
 1535.0000   -66.9010   635.8130    10.4340     8.9510     9.4290   787.3600     9.8230     2.5270     0.0110    95.6980
 1535.5000   -66.8690   636.1370    10.3610     8.8240     9.3450   787.3220     9.8200     2.5330     0.0110    94.5840
 1536.0000   -66.8370   636.4610    10.2690     8.6970     9.2610   787.2850     9.8170     2.5410     0.0110    95.6370
 1536.5000   -66.8050   636.7860    10.1770     8.5710     9.1770   787.2480     9.8140     2.5500     0.0110    95.8560
 1537.0000   -66.7730   637.1100    10.0850     8.4440     9.0930   787.2110     9.8100     2.5460     0.0120    95.6400
 1537.5000   -66.7420   637.4340     9.9930     8.3170     9.0090   787.1740     9.8070     2.5400     0.0120    95.7450
 1538.0000   -66.7070   637.7590     9.9020     8.2170     8.9190   787.1370     9.8040     2.5330     0.0120    98.8190
 1538.5000   -66.7820   638.0830     9.8100     8.2760     8.9900   787.0990     9.8000     2.5270     0.0120   101.9090
 1539.0000   -66.9000   638.4070     9.6920     8.3350     9.0660   787.0620     9.7970     2.5250     0.0120   104.9970
 1539.5000   -67.0180   638.7320     9.7290     8.3950     9.1410   787.0250     9.7940     2.5260     0.0120   107.4110
