~VERSION INFORMATION
 VERS.                2.0:   CWLS LOG ASCII STANDARD - VERSION 2.0
 WRAP.                 NO:   ONE LINE PER DEPTH STEP
~WELL INFORMATION
#MNEM.UNIT      DATA TYPE    INFORMATION
#----------   ------------   ------------------------------
 STRT.F           31.5000:   START DEPTH
 STOP.F         4204.0000:   STOP DEPTH
 STEP.F            0.5000:   STEP LENGTH
 NULL.          -999.2500:   NO VALUE
 COMP.   LAWRENCE ALLISON:   COMPANY
 WELL. LAWRENCE 3 "X" #32-10:   WELL
 FLD .                NPR:   FIELD
 LOC .      S10 T38N R78W:   LOCATION
 CNTY.            NATRONA:   COUNTY
 STAT.            WYOMING:   STATE
 CTRY. UNITED STATES OF AMERICA:   COUNTRY
 SRVC.      DRESSER ATLAS:   SERVICE COMPANY
 DATE.        05-NOV-1983:   LOGDATE
 API .     49025109460000:   API NUMBER
~CURVE INFORMATION
#MNEM.UNIT       API CODE    CURVE DESCRIPTION
#----------   ------------   ------------------------------
 DEPT.F                  :   
 CALD.IN     45 280 60 00:   CALIPER FROM DENSITY LOG
 CNC .DEC    42 890 01 00:   NEUTRON POROSITY LIMESTONE
 CORR.G/C3   45 356 01 00:   DENSITY CORRECTION
 TEND.LBS    45 635 01 00:   TENSION FORM DENSITY LOG
 RHOB.G/C3   45 350 01 00:   BULK DENSITY
 DT  .US/F   60 520 00 00:   DELTA TIME
 TENS.LBS    60 635 01 00:   TENSION FROM SONIC
 GRR .GAPI   07 310 01 00:   GAMMA RAY FROM RESISTIVITY
 TENR.LBS    06 635 01 00:   TENSION FROM RESISTIVITY
 RFOC.OHMM   07 220 04 00:   RESISTIVITY FOCUSED LOG RES.
 RILM.OHMM   07 120 44 00:   INDUCTION LOG MEDIUM RESISTIVITY
 RILD.OHMM   07 120 46 00:   DEEP INDUCTION RESISTIVITY
 SPR .MV     07 010 01 00:   SPONTANEOUS POTENTIAL
~PARAMETER INFORMATION
#MNEM.UNIT          VALUE    DESCRIPTION
#----------   ------------   ------------------------------
 EKB .F         5237.0000:   Kelly bushing
 EGL .F         5227.0000:   Ground level
 TD  .F         4202.0000:   Total depth
 CLNT.            A2DTECH:   Client Code
 SL  . 1871' FWL & 1152' FNL:   Surface Location
 PD  .                 GL:   Permanent Datum
 EPD .F              5227:   Elevation Permanent Datum
 LMF .                 KB:   Log Measured From
 DMF .                 KB:   Drilling Measured From
 DAPD.F                10:   Feet Above Permanent Datum
 DATE.        05-NOV-1983:   Date Logged [DD-MMM-YYYY]
 DD  .F              4200:   Depth driller
 DL  .F              4202:   Depth logger
 BLI .F              4200:   Bottom log interval
 TLI .F                30:   Top log interval
 CS1 .IN            8.625:   Casing size
 CBD1.      8.625" @ 545':   Casing driller 1
 CBL1.F               545:   Casing logger 1
 BS1 .IN            7.875:   Bit size
 BSD1.F              4200:   Depth drilled with bit1
 DFT .            GEL KCL:   Type fluid in hole
 DFD .                8.9:   Density
 DFV .                 42:   Viscosity
 DFPH.                8.5:   pH
 DFL .               12.4:   Fluid loss
 MSS .           FLOWLINE:   Source of sample
 RMS .OHMM           0.43:   Rm
 MST .F                97:   Rm Meas. temp.
 RMF .OHMM           0.42:   Rmf
 MFST.F                74:   Rmf Meas. temp.
 MFSS.               MEAS:   Source Rmf.
 RMC .OHMM           0.53:   Rmc
 MCST.F                97:   Rmc Meas. temp.
 MCSS.               CALC:   Source Rmc.
 RMB .OHMM           0.32:   Rm. at BHT
 BHT .F               131:   BHT.
 TCS .HRS               3:   Time Circ. stopped
 MRT .F               131:   Maximum recorded temp.
 LUN .               6307:   Logging unit number
 LUL .               GLTE:   Logging unit location
 ENGI.            DEYOUNG:   Recorded By
 WITN.             STRONG:   Witnessed by
 ORIG.        2" 5" PRINT:   Origin of data
 UWI .     49025109460000:   Unique Well ID
 DICO. A2D TECHNOLOGIES, INC.:   Digitizing Company
~OTHER INFORMATION
~A   DEPT     CALD        CNC       CORR       TEND       RHOB         DT       TENS         GRR      TENR       RFOC       RILM       RILD        SPR   
# ...
 3697.5000     8.7317     0.2787     0.0125   -13.8508     2.4908    95.8890   -29.7654   182.9809   -31.2833     5.8981     4.4045     4.1882   -23.2159
 3698.0000     8.7393     0.2871     0.0235   -12.5587     2.5067    94.8587   -29.7361   183.9217   -31.4751     5.9494     4.3484     4.1072   -23.1745
 3698.5000     8.7470     0.2889     0.0342   -12.8919     2.5214    94.1234   -29.7067   182.4589   -31.6669     6.0456     4.2376     4.0543   -23.2944
 3699.0000     8.7547     0.2873     0.0420   -13.1587     2.5329    93.5355   -29.6774   180.6875   -31.8587     6.0958     4.1850     3.9751   -23.4178
 3699.5000     8.7626     0.2867     0.0485   -13.6114     2.5368    93.2427   -29.6423   180.1208   -32.0505     5.9381     4.1623     3.9259   -23.5279
 3700.0000     8.7537     0.2912     0.0515   -16.8395     2.5169    93.0973   -29.6188   178.6505   -32.2423     5.4650     4.1706     3.8746   -23.7952
 3700.5000     8.7428     0.2930     0.0531   -17.1059     2.5070    93.3945   -29.5858   175.6742   -32.4541     5.3506     4.1773     3.8812   -24.0633
 3701.0000     8.7320     0.2880     0.0594   -20.4541     2.5039    93.7301   -29.5576   173.7522   -32.7262     5.2492     4.1523     3.8726   -24.4737
 3701.5000     8.7223     0.2810     0.0718   -20.7206     2.5063    94.1652   -29.5293   172.7337   -32.9940     5.2939     4.0705     3.8429   -24.7419
 3702.0000     8.7217     0.2772     0.0838   -24.0686     2.5102    94.4336   -29.5015   171.2635   -33.2625     5.2612     4.0757     3.8149   -25.1689
 3702.5000     8.7210     0.2781     0.0485   -27.3947     2.5140    93.9971   -29.4721   166.3293   -33.5311     5.3814     4.0809     3.7933   -25.5876
 3703.0000     8.7202     0.2808     0.0608   -26.4012     2.5172    93.0858   -29.4428   163.3530   -33.7996     5.5028     4.0861     3.7465   -25.2450
 3703.5000     8.7194     0.2943     0.0639   -29.5560     2.5157    92.3886   -29.4135   163.5394   -34.0682     5.5873     4.0914     3.5959   -24.9107
 3704.0000     8.7186     0.3006     0.0300   -29.6148     2.5111    92.0059   -35.2532   165.3824   -34.3367     5.4766     4.0665     3.4269   -24.4258
 3704.5000     8.7178     0.3092     0.0009   -29.6878     2.4919    91.9373   -35.2199   167.7722   -34.6053     5.2929     3.8498     3.2200   -23.7903
 3705.0000     8.7170     0.3080    -0.0052   -26.6501     2.4866    92.5299   -35.1906   171.2658   -34.8738     5.2603     3.3955     3.0043   -23.0042
 3705.5000     8.7162     0.3203     0.0102   -26.7232     2.4757    93.4170   -35.1613   176.7172   -35.1424     5.1940     3.0804     2.8229   -22.1489
 3706.0000     8.7154     0.3222     0.0317   -26.7818     2.4529    94.3234   -35.1261   180.3677   -35.4109     4.9495     2.8543     2.5968   -20.8692
 3706.5000     8.7146     0.3136     0.0379   -26.8404     2.4191    95.3752   -35.0979   182.2197   -35.6795     4.4264     2.6823     2.4573   -20.2372
 3707.0000     8.7139     0.3086     0.0363   -23.5405     2.4169    96.0679   -35.0109   183.6226   -35.9480     3.7946     2.5733     2.3752   -19.4545
 3707.5000     8.7131     0.3133     0.0333   -20.8012     2.4231    96.5168   -34.8062   184.3661   -36.2166     3.2507     2.5418     2.3451   -18.3707
 3708.0000     8.7123     0.3184     0.0625   -20.8629     2.4392    96.6607   -34.6016   179.7346   -36.4851     2.9676     2.5459     2.3318   -17.7386
 3708.5000     8.7115     0.2854     0.0794   -20.9259     2.4531    93.7476   -34.3969   171.4811   -36.7537     2.9125     2.6036     2.3187   -17.4077
 3709.0000     8.7107     0.2746     0.1094   -20.9861     2.4689    91.9639   -34.1922   162.4747   -37.0222     3.3823     2.7195     2.3384   -17.5361
 3709.5000     8.7099     0.2778     0.1393   -21.0479     2.4793    90.5207   -33.9876   154.5224   -37.2908     3.7113     2.8809     2.3920   -18.1014
 3710.0000     8.7091     0.2746     0.1608   -21.1162     2.4809    90.0293   -33.7829   152.1351   -37.5593     3.6884     3.0305     2.4648   -18.6742
 3710.5000     8.7083     0.2664     0.1486   -18.0894     2.4817    90.1785   -33.5782   153.6708   -37.8279     3.7461     2.9709     2.5391   -19.2470
 3711.0000     8.7075     0.2699     0.0963   -15.0693     2.4817    89.9794   -33.3736   152.3525   -38.0964     3.9962     2.8920     2.6342   -19.5185
 3711.5000     8.7067     0.2724    -0.0050   -12.0469     2.4833    89.4715   -33.1689   149.8220   -38.3650     4.4471     2.9162     2.7717   -19.9583
 3712.0000     8.7059     0.2664    -0.0035   -12.1109     2.4818    89.2173   -32.9642   151.9601   -38.6335     4.1199     3.0034     2.9372   -20.5134
 3712.5000     8.7051     0.2591     0.0104   -12.1787     2.4604    90.1106   -32.7596   158.1645   -38.9021     3.5820     3.1151     3.1347   -20.7850
 3713.0000     8.7043     0.2610     0.0211   -12.2372     2.4481    91.1514   -32.5549   159.3990   -39.1706     3.2490     3.3233     3.2984   -21.0491
 3713.5000     8.7036     0.2563     0.0227   -15.3775     2.4566    87.8277   -32.3502   156.5673   -39.4392     3.5650     3.7324     3.4219   -21.0195
 3714.0000     8.7027     0.2480     0.0058   -15.4391     2.4843    83.4044   -32.1994   145.9399   -39.7077     4.7323     3.9459     3.4510   -20.6886
 3714.5000     8.7023     0.2403    -0.0034   -18.5824     2.5250    80.0135   -32.0821   129.8244   -39.9763     6.3261     3.8422     3.4558   -20.5084
 3715.0000     8.7066     0.2357    -0.0095   -18.6441     2.5274    78.3925   -31.9648   122.4746   -40.2448     7.4621     3.6620     3.4606   -20.3281
 3715.5000     8.7118     0.2344    -0.0097   -18.7080     2.5210    78.0990   -31.8475   127.0223   -40.5134     7.8346     3.4413     3.4409   -19.8466
 3716.0000     8.7171     0.2480     0.0014   -18.7673     2.4991    78.5429   -31.7302   134.1304   -40.4636     5.2859     3.2568     3.4458   -19.6664
 3716.5000     8.7223     0.2677     0.0197   -21.9214     2.4814    80.3143   -31.6129   135.9673   -39.8258     4.7945     3.1481     3.3544   -19.3355
 3717.0000     8.7276     0.2651     0.0735   -21.9800     2.4738    84.0030   -31.4956   137.0512   -39.1880     4.3795     3.0216     3.1482   -19.1553
 3717.5000     8.7328     0.2493     0.1257   -25.1155     2.4354    87.8393   -34.7499   138.8881   -38.5502     3.4741     2.7607     2.8106   -18.8244
 3718.0000     8.7381     0.2514     0.1012   -22.0955     2.3717    91.0979   -37.1261   141.7793   -37.9124     3.3804     2.3506     2.4593   -18.3430
 3718.5000     8.7429     0.2803     0.0016   -22.1572     2.3370    92.6150   -36.9896   140.7548   -37.2746     3.8980     2.1935     2.2073   -17.7108
 3719.0000     8.7430     0.2842    -0.0586   -22.2288     2.3119    95.5021   -36.8749   143.6459   -36.6368     3.9568     2.1053     2.0887   -17.0562
 3719.5000     8.7439     0.2867    -0.0263   -19.1911     2.2789   100.6181   -36.7601   157.3812   -35.9990     3.1619     2.0494     2.0615   -16.4252
 3720.0000     8.7391     0.2975     0.0413   -15.7671     2.2155   105.1617   -36.6454   171.7198   -35.3612     2.4732     2.0521     2.0651   -16.1085
 3720.5000     8.6841     0.3013     0.0690   -13.1587     2.2174   108.0910   -36.5307   174.3098   -34.7234     2.3067     2.1051     2.0975   -16.5307
 3721.0000     8.6650     0.3124     0.1126   -11.4436     2.2852   106.2232   -36.4160   167.2612   -34.0856     2.5318     2.2874     2.1454   -18.7601
 3721.5000     8.6063     0.3170     0.1719   -10.1950     2.4242    95.7543   -36.3012   149.2186   -33.4477     2.9393     2.4232     2.1790   -19.6340
 3722.0000     8.5750     0.3114     0.1965   -10.2619     2.4988    93.0482   -36.1866   137.5013   -32.8099     3.1577     2.5490     2.2447   -19.9130
 3722.5000     8.5440     0.3003     0.2104   -10.3267     2.4911    92.6573   -36.0704   137.3091   -32.1721     3.1631     2.7194     2.3288   -19.8759
 3723.0000     8.5142     0.2880     0.1643   -10.3853     2.4850    92.0678   -35.9531   140.8739   -31.5343     3.5327     3.0478     2.4160   -19.8463
