~VERSION INFORMATION
 VERS.                2.0:   CWLS LOG ASCII STANDARD - VERSION 2.0
 WRAP.                 NO:   ONE LINE PER DEPTH STEP
~WELL INFORMATION
#MNEM.UNIT      DATA TYPE    INFORMATION
#----------   ------------   ------------------------------
 STRT.F           27.5000:   START DEPTH
 STOP.F         5889.0000:   STOP DEPTH
 STEP.F            0.5000:   STEP LENGTH
 NULL.          -999.2500:   NO VALUE
 COMP.   LAWRENCE ALLISON:   COMPANY
 WELL. LAWRENCE "X" #25-11:   WELL
 FLD .        N.P.R NO. 3:   FIELD
 LOC .      S11 T38N R78W:   LOCATION
 CNTY.            NATRONA:   COUNTY
 STAT.            WYOMING:   STATE
 CTRY. UNITED STATES OF AMERICA:   COUNTRY
 SRVC.      DRESSER ATLAS:   SERVICE COMPANY
 DATE.        09-FEB-1983:   LOGDATE
 API .     49025109170000:   API NUMBER
~CURVE INFORMATION
#MNEM.UNIT       API CODE    CURVE DESCRIPTION
#----------   ------------   ------------------------------
 DEPT.F                  :   
 CN  .DEC    42 890 03 00:   NEUTRON POROSITY
 GRD .GAPI   45 310 01 00:   GAMMA RAY FROM DENSITY LOG
 CORR.G/C3   45 356 01 00:   DENSITY CORRECTION
 DEN .G/C3   45 350 01 00:   BULK DENSITY
 CALD.IN     45 280 60 00:   CALIPER FROM DENSITY LOG
 TEND.LBS    45 635 01 00:   TENSION FORM DENSITY LOG
 GRS .GAPI   60 310 01 00:   GAMMA RAY FROM SONIC LOG
 TENS.LBS    60 635 01 00:   TENSION FROM SONIC
 DT  .US/F   60 520 00 00:   DELTA TIME
 SPR .MV     11 010 01 00:   SPONTANEOUS POTENTIAL FROM RES.
 RD  .OHMM   11 220 10 00:   RESISTIVITY DEEP
 RS  .OHMM   11 220 09 00:   RESISTIVITY SHALLOW
 RMLL.OHMM   11 270 04 00:   MICRO LATEROLOG
 TENR.LBS    11 635 01 00:   TENSION FROM RES.
~PARAMETER INFORMATION
#MNEM.UNIT          VALUE    DESCRIPTION
#----------   ------------   ------------------------------
 EKB .F         5196.0000:   Kelly bushing
 EGL .F         5186.0000:   Ground level
 TD  .F         5883.0000:   Total depth
 CLNT.            A2DTECH:   Client Code
 SL  . 1989' FSL & 1148' FWL:   Surface Location
 PD  .                 GL:   Permanent Datum
 EPD .F              5186:   Elevation Permanent Datum
 LMF .                 KB:   Log Measured From
 DMF .                 KB:   Drilling Measured From
 DAPD.F                10:   Feet Above Permanent Datum
 DATE.        09-FEB-1983:   Date Logged [DD-MMM-YYYY]
 DD  .F              5883:   Depth driller
 DL  .F              5882:   Depth logger
 BLI .F              5871:   Bottom log interval
 TLI .F               700:   Top log interval
 CS1 .IN            9.625:   Casing size
 CBD1.      9.625" @ 701':   Casing driller 1
 CBL1.F               700:   Casing logger 1
 BS1 .IN             8.75:   Bit size
 BSD1.F              5883:   Depth drilled with bit1
 DFT .    HEC/DRISPAC/KCL:   Type fluid in hole
 DFD .                  9:   Density
 DFV .                 35:   Viscosity
 DFPH.                  8:   pH
 DFL .                6.4:   Fluid loss
 MSS .           FLOWLINE:   Source of sample
 RMS .OHMM           0.23:   Rm
 MST .F                50:   Rm Meas. temp.
 RMF .OHMM           0.17:   Rmf
 MFST.F                54:   Rmf Meas. temp.
 MFSS.               MEAS:   Source Rmf.
 BHT .F               176:   BHT.
 TCS .HRS              10:   Time Circ. stopped
 MRT .F               176:   Maximum recorded temp.
 LUN .               6274:   Logging unit number
 LUL .               GLTE:   Logging unit location
 ENGI.          TOLLEFSON:   Recorded By
 WITN.           JENNINGS:   Witnessed by
 ORIG.           5" PRINT:   Origin of data
 UWI .     49025109170000:   Unique Well ID
 DICO. A2D TECHNOLOGIES, INC.:   Digitizing Company
 RMC .OHMM           0.41:   Rmc
 MCST.F                54:   Rmc Meas. temp.
 MCSS.               MEAS:   Source Rmc.
~OTHER INFORMATION
~A  DEPTH       CN        GRD       CORR        DEN       CALD       TEND        GRS       TENS         DT        SPR         RD         RS       RMLL       TENR
# ...
 3457.5000     0.2111   154.2456     0.0741     2.4826     9.7543   -15.5378   122.9836   -60.3587    79.9113   -89.1296     7.0038     5.9423     3.8564   -42.8893
 3458.0000     0.2081   150.8913     0.0695     2.5104     9.7576   -15.5378   127.0889   -60.4534    79.4603   -89.5856     7.7654     6.9186     6.3431   -43.2401
 3458.5000     0.2042   150.2782     0.0588     2.5194     9.7608   -15.5378   126.5158   -52.9459    79.1591   -89.8929     7.9796     7.8335     7.1804   -43.6785
 3459.0000     0.2036   151.1843     0.0497     2.5186     9.7639   -15.5378   118.9251   -45.4574    78.9306   -90.1988     8.4272     8.1619     7.4845   -44.0294
 3459.5000     0.2039   149.9595     0.0315     2.5248     9.7671   -17.5465   111.3345   -45.5521    78.3298   -90.3546     9.1500     8.5052     8.2925   -51.8990
 3460.0000     0.2000   147.2141     0.0495     2.5336     9.7702   -20.4626   104.3287   -53.1770    77.3563   -90.5105     9.5982     8.8604     9.1942   -60.2630
 3460.5000     0.1964   145.3818     0.0584     2.5373     9.7734   -23.3787   105.5099   -45.6847    76.7541   -90.6675     9.9989     8.9790     9.5784   -67.7259
 3461.0000     0.1946   145.3759     0.0643     2.5372     9.7765   -15.0670   109.6152   -45.7640    77.2763   -90.8232     9.9234     9.2264     9.5714   -68.0767
 3461.5000     0.1943   145.6748     0.0732     2.5362     9.7797    23.1076   112.5509   -45.8396    77.9485   -90.8288     9.7803     9.5453     9.5659   -60.9023
 3462.0000     0.1915   146.8854     0.0715     2.5311     9.7828    61.5040   110.8082   -45.9153    78.0210   -90.8358     9.9089     9.6062     9.5603   -61.3472
 3462.5000     0.1873   148.7061     0.0564     2.5280     9.7860    84.0637   110.5246   -45.9909    77.3438   -90.9916    10.2513     9.6674     9.5547   -54.0915
 3463.0000     0.1813   150.2225     0.0427     2.5272     9.7892    84.0637   110.8316   -46.0666    76.8915   -91.1473    10.6055     9.7291     9.6808   -46.9235
 3463.5000     0.1802   148.6933     0.0366     2.5362     9.7900    22.7234   109.6738   -46.1422    76.9639   -91.1543    10.5815     9.9957    10.0854   -39.8431
 3464.0000     0.1832   145.9478     0.0425     2.5422     9.7900   -45.4183   107.9311   -46.2179    77.1863   -91.4602     9.7455     9.6477    11.1820   -40.2817
 3464.5000     0.1871   145.0289     0.0454     2.5429     9.7900    -5.5777   107.9428   -46.2935    77.5586   -91.7661     9.0875     9.1213     9.3694   -40.6326
 3465.0000     0.1920   146.5438     0.0514     2.5413     9.7900    -5.5777   111.4633   -46.3691    78.0809   -92.0721     8.4740     8.6837     8.2360   -48.5020
 3465.5000     0.1965   147.7558     0.0632     2.5368     9.7900    -5.9047   115.1186   -46.4448    78.9029   -92.2292     7.8865     7.9839     7.5231   -49.6988
 3466.0000     0.2011   146.8368     0.0721     2.5292     9.7900    -7.8854   119.2183   -46.5204    80.3997   -92.3849     7.2658     7.5483     6.9196   -56.8103
 3466.5000     0.2071   146.5267     0.0750     2.5193     9.7900    -9.8662   125.2407   -54.1582    82.4961   -92.3905     6.8223     7.1861     6.1472   -57.1609
 3467.0000     0.2141   148.6504     0.0672     2.5139     9.7900   -11.8470   126.4221   -46.6697    83.0939   -92.6978     6.3617     6.7322     5.7328   -57.5187
 3467.5000     0.2153   149.8638     0.0522     2.5117     9.7900   -13.8277   123.8023   -46.7473    82.7160   -92.7034     7.5831     6.2033     5.4594   -50.4316
 3468.0000     0.2123   148.3346     0.0536     2.5229     9.7900   -15.8085   119.4281   -46.8230    81.3642   -92.7087     8.6152     6.8324     6.2941   -50.7822
 3468.5000     0.2085   141.8424     0.0564     2.5282     9.7900   -17.7892   111.8376   -46.8987    79.7874   -92.8649     9.2911     8.1788     8.2002   -51.1331
 3469.0000     0.2005   137.3628     0.0547     2.5326     9.7900   -19.7700   111.2616   -46.9743    79.2608   -92.8718     8.7846     9.0069     8.9668   -43.9651
 3469.5000     0.1941   137.9660     0.0472     2.5243     9.7900   -21.7507   115.3699   -47.0499    80.2322   -92.8774     7.3156     8.0555     8.4205   -44.4035
 3470.0000     0.2002   141.3088     0.0501     2.5145     9.7900   -23.7315   119.4753   -47.1256    82.3286   -92.8830     6.1617     7.2046     6.6045   -44.7544
 3470.5000     0.2095   149.1492     0.0500     2.5039     9.7900   -24.9303   121.2414   -47.2012    85.7744   -92.8900     5.8258     6.2520     5.7079   -45.1127
 3471.0000     0.2150   155.9078     0.0403     2.4925     9.7900   -19.6813   122.4228   -47.2768    88.0208   -92.7440     5.7023     5.6827     5.2864   -45.5436
 3471.5000     0.2224   157.7300     0.0226     2.4872     9.7900   -14.4346   123.6042   -54.9168    88.4687   -92.9012     5.5801     5.4477     5.1391   -53.4133
 3472.0000     0.2274   157.4184     0.0165     2.4879     9.7900    -9.1219   124.2008   -54.9924    86.8913   -92.9069     5.5002     5.4446     5.2795   -53.7641
 3472.5000     0.2301   157.1069     0.0284     2.4909     9.7899    -6.9727   120.9962   -55.0681    85.0147   -93.0639     5.4587     5.5174     5.3508   -54.2025
 3473.0000     0.2268   157.7100     0.0407     2.4953     9.7851   -11.3214   119.8384   -55.1437    84.2626   -93.0695     5.3801     5.5134     5.3469   -54.5534
 3473.5000     0.2278   158.0101     0.0492     2.4938     9.7798   -15.5378   120.1425   -55.2194    85.8343   -93.3754     5.2297     5.4343     5.3430   -54.9042
 3474.0000     0.2305   158.9162     0.0521     2.4899     9.7745   -15.5378   120.7391   -55.2950    89.1301   -93.3824     5.0827     5.2755     5.1583   -55.2631
 3474.5000     0.2305   159.8224     0.0610     2.4853     9.7699   -14.6881   121.5054   -55.3707    91.1516   -93.6883     4.7395     4.9246     4.8776   -55.6935
 3475.0000     0.2315   161.0343     0.0639     2.4808     9.7700   -13.0478   125.0487   -55.4463    91.4496   -93.6937     4.5123     4.5284     4.6123   -56.0443
 3475.5000     0.2351   162.5507     0.0517     2.4785     9.7699   -11.4075   129.7048   -55.5221    91.4464   -93.6997     4.4782     4.4634     4.5142   -56.3951
 3476.0000     0.2418   163.4582     0.0396     2.4814     9.7701    -9.7672   128.8461   -55.5978    91.7438   -93.7065     4.4437     4.5231     4.5436   -56.8336
 3476.5000     0.2493   161.6245     0.0335     2.4837     9.7781    -8.1269   125.6981   -55.6736    92.3410   -93.7121     4.2897     4.5198     4.4779   -49.5779
 3477.0000     0.2527   159.4879     0.0454     2.4836     9.8028    -6.4866   119.5830   -55.7494    92.9382   -93.7177     4.0000     4.2732     4.2530   -34.8911
 3477.5000     0.2539   158.8748     0.0603     2.4835     9.8280    -6.4609   116.4327   -55.8252    93.2355   -93.7247     3.6787     3.8941     3.7711   -42.8571
 3478.0000     0.2594   161.3522     0.0692     2.4805     9.7960    -8.4417   119.0761   -55.9009    92.7083   -93.7303     3.7791     3.6385     3.5909   -50.8057
 3478.5000     0.2651   162.8194     0.0601     2.4804     9.7735   -10.4225   122.0118   -55.9767    91.7312   -93.6709     4.1611     4.0068     3.5642   -58.6753
 3479.0000     0.2672   162.8122     0.0419     2.4804     9.7843   -12.4032   124.3628   -56.0524    91.2790   -93.5916     4.5528     4.2626     3.6945   -59.0225
 3479.5000     0.2620   162.5021     0.0207     2.4871     9.7900   -14.3840   125.8366   -56.1282    90.3769   -93.4468     4.8388     4.5657     4.0321   -59.3985
 3480.0000     0.2469   162.4962     0.0386     2.4953     9.7900   -16.3647   122.9244   -56.2040    89.3249   -93.6026     5.0758     4.8235     4.3486   -59.8154
 3480.5000     0.2415   161.8804     0.0626     2.4998     9.7900   -18.3455   117.3806   -48.7141    88.1230   -93.4594     5.3245     5.0960     4.6255   -60.1661
 3481.0000     0.2388   160.6570     0.0745     2.5020     9.7900   -20.3262   115.0532   -48.7912    86.6212   -93.4655     5.5093     5.4712     4.9880   -60.5263
 3481.5000     0.2352   157.9116     0.0729     2.5042     9.7886   -22.3070   112.1410   -48.8670    84.5198   -93.1717     5.7375     5.8472     5.2691   -60.9555
