~VERSION INFORMATION
 VERS.                2.0:   CWLS LOG ASCII STANDARD - VERSION 2.0
 WRAP.                 NO:   ONE LINE PER DEPTH STEP
~WELL INFORMATION
#MNEM.UNIT      DATA TYPE    INFORMATION
#----------   ------------   ------------------------------
 STRT.F            7.5000:   START DEPTH
 STOP.F         5700.0000:   STOP DEPTH
 STEP.F            0.5000:   STEP LENGTH
 NULL.          -999.2500:   NO VALUE
 COMP. FLUOR DANIEL (NPOSR):   COMPANY
 WELL.   FLOUR "X" #52-10:   WELL
 FLD .             NPR #3:   FIELD
 LOC .      S10 T38N R78W:   LOCATION
 CNTY.            NATRONA:   COUNTY
 STAT.            WYOMING:   STATE
 CTRY. UNITED STATES OF AMERICA:   COUNTRY
 SRVC.      WESTERN ATLAS:   SERVICE COMPANY
 DATE.        12-JAN-1996:   LOGDATE
 API .     49025227600000:   API NUMBER
~CURVE INFORMATION
#MNEM.UNIT       API CODE    CURVE DESCRIPTION
#----------   ------------   ------------------------------
 DEPT.F                  :   
 TENR.LBS    11 635 01 00:   TENSION
 GRR .GAPI   11 310 01 00:   GAMMA RAY FROM RESISTIVITY
 LLD .OHMM   11 220 10 00:   LATEROLOG DEEP
 LLS .OHMM   11 220 09 00:   LATEROLOG SHALLOW
 SPR .MV     11 010 01 00:   SPONTANEOUS POTENTIAL
 CALD.IN     45 280 60 00:   CALIPER FROM DENSITY LOG
 TEND.LBS    45 635 01 00:   TENSION FROM DENSITY LOG
 ZCOR.G/C3   45 356 01 00:   DENSITY CORRECTION
 ZDEN.G/C3   45 350 01 00:   BULK DENSITY
 CNC .DEC    42 890 03 00:   NEUTRON POROSITY SANDSTONE
~PARAMETER INFORMATION
#MNEM.UNIT          VALUE    DESCRIPTION
#----------   ------------   ------------------------------
 EKB .F         5196.0000:   Kelly bushing
 EGL .F         5186.0000:   Ground level
 EDF .F         5195.0000:   Drilling floor
 TD  .F         5699.0000:   Total depth
 DATE.        12-JAN-1996:   Date logged
 CLNT.            A2DTECH:   Client Code
 SL  . 1032' FNL & 2536' FEL:   Surface Location
 PD  .                 GL:   Permanent Datum
 EPD .F              5186:   Elevation Permanent Datum
 LMF .                 KB:   Log Measured From
 DMF .                 KB:   Drilling Measured From
 DAPD.F                11:   Feet Above Permanent Datum
 DD  .F              5699:   Depth driller
 DL  .F              5699:   Depth logger
 BLI .F              5687:   Bottom log interval
 CS1 .IN            9.625:   Casing size
 CBD1.      9.625" @ 520':   Casing driller 1
 CBL1.F               522:   Casing logger 1
 BS1 .IN             8.75:   Bit size
 BSD1.F              5699:   Depth drilled with bit1
 DFT .               CHEM:   Type fluid in hole
 DFD .                9.8:   Density
 DFV .                 50:   Viscosity
 DFPH.                9.5:   pH
 DFL .                8.4:   Fluid loss
 MSS .           FLOWLINE:   Source of sample
 RMS .OHMM          0.515:   Rm
 MST .F                66:   Rm Meas. temp.
 RMF .OHMM          0.499:   Rmf
 MFST.F                66:   Rmf Meas. temp.
 RMC .OHMM          0.761:   Rmc
 MCST.F                66:   Rmc Meas. temp.
 MFSS.               MEAS:   Source Rmf.
 MCSS.               MEAS:   Source Rmc.
 RMB .OHMM          0.233:   Rm. at BHT
 BHT .F               174:   BHT.
 TCS .HRS               6:   Time Circ. stopped
 MRT .F               174:   Maximum recorded temp.
 LUN .            HL 6530:   Logging unit number
 LUL .             CASPER:   Logging unit location
 ENGI.        VERN RAUTIO:   Recorded By
 WITN. LAFRENIERE/OPSAL/HARDY:   Witnessed by
 ORIG.     2.5", 5" PRINT:   Origin of data
 UWI .     49025227600000:   Unique Well ID
 DICO. A2D TECHNOLOGIES, INC.:   Digitizing Company
~OTHER INFORMATION
~A    DEPT    TENR         GRR       LLD        LLS        SPR       CALD       TEND       ZCOR       ZDEN        CNC   
# ...
  878.5000   -45.0370    95.3890    11.0350     8.0290   -82.3450  -999.2500  -999.2500  -999.2500  -999.2500  -999.2500
  879.0000   -53.8230    93.9340    11.1150     8.0290   -82.4120  -999.2500  -999.2500  -999.2500  -999.2500  -999.2500
  879.5000   -45.8980    92.2830    11.2080     8.0290   -82.2790  -999.2500  -999.2500  -999.2500  -999.2500  -999.2500
  880.0000   -37.8810    90.7720    11.1070     7.9970   -82.2610  -999.2500  -999.2500  -999.2500  -999.2500  -999.2500
  880.5000   -24.8490    90.4920    10.9850     7.9580   -82.3450  -999.2500  -999.2500  -999.2500  -999.2500  -999.2500
  881.0000   -29.0740    90.7490    10.8630     7.9190   -82.4300  -999.2500  -999.2500  -999.2500  -999.2500  -999.2500
  881.5000   -33.3000    91.1150    10.7410     7.8800   -82.5160  -999.2500  -999.2500  -999.2500  -999.2500  -999.2500
  882.0000   -37.5250    92.4840    10.6190     7.8410   -82.6010  -999.2500  -999.2500  -999.2500  -999.2500  -999.2500
  882.5000   -41.7510    94.2940    10.4970     7.8030   -82.6860  -999.2500  -999.2500  -999.2500  -999.2500  -999.2500
  883.0000   -45.9760    95.3100    10.4070     7.7640   -82.7680  -999.2500  -999.2500  -999.2500  -999.2500  -999.2500
  883.5000   -50.2010    94.9630    10.6240     7.7370   -82.7010  -999.2500  -999.2500  -999.2500  -999.2500  -999.2500
  884.0000   -53.0780    93.7910    10.7950     7.8790   -82.4110  -999.2500  -999.2500  -999.2500  -999.2500  -999.2500
  884.5000   -47.8670    94.2210    10.9660     7.9880   -82.4170  -999.2500  -999.2500  -999.2500  -999.2500  -999.2500
  885.0000   -42.6560    96.7560    11.0670     8.0970   -82.4130  -999.2500  -999.2500  -999.2500  -999.2500  -999.2500
  885.5000   -37.4450   100.7780    11.1490     8.1790   -82.6250  -999.2500  -999.2500  -999.2500  -999.2500  -999.2500
  886.0000   -36.0210   102.6240    11.2080     8.1390   -82.8190  -999.2500  -999.2500  -999.2500  -999.2500  -999.2500
  886.5000   -44.2500   100.4510    11.0710     8.0790   -82.7340  -999.2500  -999.2500  -999.2500  -999.2500  -999.2500
  887.0000   -52.4780    96.6280    10.9640     8.0140   -82.6520  -999.2500  -999.2500  -999.2500  -999.2500  -999.2500
  887.5000   -60.7060    93.7000    10.8570     7.9190   -82.5710  -999.2500  -999.2500  -999.2500  -999.2500  -999.2500
  888.0000   -62.0010    94.2070    10.7490     7.8250   -82.4900  -999.2500  -999.2500  -999.2500  -999.2500  -999.2500
  888.5000   -58.9360    96.1220    10.6420     7.7370   -82.4270  -999.2500  -999.2500  -999.2500  -999.2500  -999.2500
  889.0000   -55.8710    95.6260    10.5350     7.6830   -82.5160  -999.2500  -999.2500  -999.2500  -999.2500  -999.2500
  889.5000   -53.8230    95.0290    10.4280     7.6330   -82.6050  -999.2500  -999.2500  -999.2500  -999.2500  -999.2500
  890.0000   -53.8230    94.2250    10.3210     7.5820   -82.6520  -999.2500  -999.2500  -999.2500  -999.2500  -999.2500
  890.5000   -53.8230    94.3780    10.2160     7.5320   -82.6890  -999.2500  -999.2500  -999.2500  -999.2500  -999.2500
  891.0000   -53.8230    95.7730    10.2520     7.4820   -82.7270  -999.2500  -999.2500  -999.2500  -999.2500  -999.2500
  891.5000   -53.8230    98.4170    10.2870     7.4550   -82.7650  -999.2500  -999.2500  -999.2500  -999.2500  -999.2500
  892.0000   -51.7140    99.5150    10.3110     7.5950   -82.8000  -999.2500  -999.2500  -999.2500  -999.2500  -999.2500
  892.5000   -47.5450    97.4220    10.2470     7.5840   -82.7090  -999.2500  -999.2500  -999.2500  -999.2500  -999.2500
  893.0000   -43.3760    97.3360    10.1980     7.5650   -82.3920  -999.2500  -999.2500  -999.2500  -999.2500  -999.2500
  893.5000   -39.2070    98.1220    10.1490     7.5460   -82.2140  -999.2500  -999.2500  -999.2500  -999.2500  -999.2500
  894.0000   -35.0380    99.3190    10.1220     7.5250   -82.2160  -999.2500  -999.2500  -999.2500  -999.2500  -999.2500
  894.5000   -37.2430    97.5120    10.1940     7.5700   -82.2150  -999.2500  -999.2500  -999.2500  -999.2500  -999.2500
  895.0000   -42.4550    95.3440    10.2520     7.6220   -82.2150  -999.2500  -999.2500  -999.2500  -999.2500  -999.2500
  895.5000   -47.6660    95.4530    10.3110     7.6650   -82.2150  -999.2500  -999.2500  -999.2500  -999.2500  -999.2500
  896.0000   -52.8770    96.7080    10.2970     7.5990   -82.2150  -999.2500  -999.2500  -999.2500  -999.2500  -999.2500
  896.5000   -50.3920    98.3190    10.2820     7.5310   -82.2180  -999.2500  -999.2500  -999.2500  -999.2500  -999.2500
  897.0000   -44.9060    99.9150    10.2680     7.4630   -82.2710  -999.2500  -999.2500  -999.2500  -999.2500  -999.2500
  897.5000   -39.4210   101.4690    10.2530     7.4550   -82.3240  -999.2500  -999.2500  -999.2500  -999.2500  -999.2500
  898.0000   -33.7020   101.4340    10.2390     7.4550   -82.3760  -999.2500  -999.2500  -999.2500  -999.2500  -999.2500
  898.5000   -42.5080   101.7680    10.2250     7.4810   -82.4020  -999.2500  -999.2500  -999.2500  -999.2500  -999.2500
  899.0000   -51.7040   102.6520    10.2170     7.5510   -82.2940  -999.2500  -999.2500  -999.2500  -999.2500  -999.2500
  899.5000   -60.9010   101.8310    10.2550     7.6200   -82.1880  -999.2500  -999.2500  -999.2500  -999.2500  -999.2500
  900.0000   -61.6900    99.3400    10.2820     7.6900   -82.0830  -999.2500  -999.2500  -999.2500  -999.2500  -999.2500
  900.5000   -58.4440    92.9630    10.3100     7.7610   -81.9780  -999.2500  -999.2500  -999.2500  -999.2500  -999.2500
  901.0000   -55.1980    92.8630    10.2650     7.8090   -81.8740  -999.2500  -999.2500  -999.2500  -999.2500  -999.2500
  901.5000   -51.9530    92.8880    10.2160     7.5250   -81.8270  -999.2500  -999.2500  -999.2500  -999.2500  -999.2500
  902.0000   -48.7070    92.2200    10.1900     7.5360   -81.8770  -999.2500  -999.2500  -999.2500  -999.2500  -999.2500
  902.5000   -45.4610    91.3210    10.1640     7.5540   -81.9260  -999.2500  -999.2500  -999.2500  -999.2500  -999.2500
  903.0000   -43.7630    92.2760    10.1380     7.5720   -81.9750  -999.2500  -999.2500  -999.2500  -999.2500  -999.2500
  903.5000   -43.7630    93.2360    10.1110     7.5950   -82.0230  -999.2500  -999.2500  -999.2500  -999.2500  -999.2500
  904.0000   -43.7630    92.5810    10.0850     7.5450   -82.0720  -999.2500  -999.2500  -999.2500  -999.2500  -999.2500
  904.5000   -42.5430    91.4960    10.0590     7.4770   -82.1210  -999.2500  -999.2500  -999.2500  -999.2500  -999.2500
  905.0000   -39.2980    92.6470    10.0330     7.4090   -82.1690  -999.2500  -999.2500  -999.2500  -999.2500  -999.2500
  905.5000   -36.0540    95.0710    10.0280     7.3180   -82.2220  -999.2500  -999.2500  -999.2500  -999.2500  -999.2500
  906.0000   -34.7230    97.6290    10.0280     7.3450   -82.3760  -999.2500  -999.2500  -999.2500  -999.2500  -999.2500
  906.5000   -38.4310    99.4880    10.0440     7.3860   -82.5250  -999.2500  -999.2500  -999.2500  -999.2500  -999.2500
  907.0000   -42.1390    99.6590    10.0950     7.4270   -82.6010  -999.2500  -999.2500  -999.2500  -999.2500  -999.2500
  907.5000   -37.9280    99.2830    10.1460     7.4680   -82.4580  -999.2500  -999.2500  -999.2500  -999.2500  -999.2500
  908.0000   -39.2990    96.8850    10.2160     7.5090   -82.3180  -999.2500  -999.2500  -999.2500  -999.2500  -999.2500
  908.5000   -48.7380    94.5140    10.1850     7.5250   -82.2300  -999.2500  -999.2500  -999.2500  -999.2500  -999.2500
  909.0000   -50.6300    93.3590    10.1360     7.5250   -82.3100  -999.2500  -999.2500  -999.2500  -999.2500  -999.2500
  909.5000   -43.7090    90.6840    10.0870     7.4790   -82.3850  -999.2500  -999.2500  -999.2500  -999.2500  -999.2500
  910.0000   -36.7870    88.0070    10.0380     7.4120   -82.5880  -999.2500  -999.2500  -999.2500  -999.2500  -999.2500
  910.5000   -37.8130    86.8680     9.9890     7.3460   -82.8880  -999.2500  -999.2500  -999.2500  -999.2500  -999.2500
  911.0000   -45.2290    89.8550     9.9390     7.3050   -83.1890  -999.2500  -999.2500  -999.2500  -999.2500  -999.2500
  911.5000   -52.6440    93.0350     9.8900     7.2810   -83.2510  -999.2500  -999.2500  -999.2500  -999.2500  -999.2500
