~VERSION INFORMATION
 VERS.                2.0:   CWLS LOG ASCII STANDARD - VERSION 2.0
 WRAP.                 NO:   ONE LINE PER DEPTH STEP
~WELL INFORMATION
#MNEM.UNIT      DATA TYPE    INFORMATION
#----------   ------------   ------------------------------
 STRT.F          210.0000:   START DEPTH
 STOP.F         3128.0000:   STOP DEPTH
 STEP.F            0.5000:   STEP LENGTH
 NULL.          -999.2500:   NO VALUE
 COMP.    PENIX & SCISSON:   COMPANY
 WELL. FENIX NPR 3 "A" #14-27:   WELL
 FLD .                NPR:   FIELD
 LOC .      S27 T39N R78W:   LOCATION
 CNTY.            NATRONA:   COUNTY
 STAT.            WYOMING:   STATE
 CTRY. UNITED STATES OF AMERICA:   COUNTRY
 SRVC.      DRESSER ATLAS:   SERVICE COMPANY
 DATE.        31-AUG-1977:   LOGDATE
 API .     49025104280000:   API NUMBER
~CURVE INFORMATION
#MNEM.UNIT       API CODE    CURVE DESCRIPTION
#----------   ------------   ------------------------------
 DEPT.F                  :   
 GRD .GAPI   45 310 01 00:   GAMMA RAY FROM DENSITY LOG
 CALD.IN     45 280 60 00:   CALIPER FROM DENSITY LOG
 RHOB.G/C3   45 350 01 00:   BULK DENSITY
 CORR.G/C3   45 356 01 00:   DENSITY CORRECTION
 NPHI.DEC    42 890 03 00:   NEUTRON POROSITY SANDSTONE
 SPR .MV     11 010 01 00:   SPONTANEOUS POTENTIAL
 RXO .OHMM   11 220 01 00:   FLUSHED ZONE RESISTIVITY
 LLD .OHMM   11 220 10 00:   LATEROLOG LOG DEEP
 LLS .OHMM   11 220 09 00:   LATEROLOG LOG SHALLOW
 TENR.LBS    11 635 01 00:   TENSION FROM RESISTIVITY
 TEND.LBS    45 635 01 00:   TENSION FROM DENSITY LOG
~PARAMETER INFORMATION
#MNEM.UNIT          VALUE    DESCRIPTION
#----------   ------------   ------------------------------
 EKB .F         5046.0000:   Kelly bushing
 EGL .F         5036.0000:   Ground level
 TD  .F         3111.0000:   Total depth
 DATE.        31-AUG-1977:   Date logged
 CLNT.            A2DTECH:   Client Code
 SL  . 2310' FNL & 330' FWL:   Surface Location
 PD  .                 GL:   Permanent Datum
 EPD .F              5036:   Elevation Permanent Datum
 LMF .                 KB:   Log Measured From
 DMF .                 KB:   Drilling Measured From
 DAPD.F                10:   Feet Above Permanent Datum
 DD  .F              3109:   Depth driller
 DL  .F              3111:   Depth logger
 BLI .F              3109:   Bottom log interval
 TLI .F               217:   Top log interval
 CS1 .IN             8.75:   Casing size
 CBD1.       8.75" @ 215':   Casing driller 1
 CBL1.F               217:   Casing logger 1
 BS1 .IN            7.875:   Bit size
 BSD1.F              3109:   Depth drilled with bit1
 DFT .                GEL:   Type fluid in hole
 DFD .                8.8:   Density
 DFV .                 35:   Viscosity
 DFPH.                 10:   pH
 DFL .                8.8:   Fluid loss
 MSS .                PIT:   Source of sample
 RMS .OHMM            .36:   Rm
 MST .F                67:   Rm Meas. temp.
 RMF .OHMM            .24:   Rmf
 MFST.F                67:   Rmf Meas. temp.
 RMC .OHMM            .51:   Rmc
 MCST.F                67:   Rmc Meas. temp.
 MFSS.               MEAS:   Source Rmf.
 MCSS.               CALC:   Source Rmc.
 RMB .OHMM            .20:   Rm. at BHT
 BHT .F               121:   BHT.
 TCS .HRS               5:   Time Circ. stopped
 MRT .F               121:   Maximum recorded temp.
 LUN .               6080:   Logging unit number
 LUL .              WLSTN:   Logging unit location
 ENGI.               BALL:   Recorded By
 WITN.         PETTINGILL:   Witnessed by
 ORIG.      2.5" 5" PRINT:   Origin of data
 UWI .     49025104280000:   Unique Well ID
 DICO. A2D TECHNOLOGIES, INC.:   Digitizing Company
~OTHER INFORMATION
~A   DEPT      GRD         CALD     RHOB       CORR       NPHI        SPR        RXO        LLD        LLS        TENR      TEND   
# ...
 1552.0000    90.3642     9.9361     2.5557     0.0071     0.2666   -37.0101     5.8480     8.1041     7.6940    84.8658    90.8654
 1552.5000    88.3576     9.9362     2.5577     0.0071     0.2717   -37.4115     5.6379     8.1041     7.6940    84.9175    86.9166
 1553.0000    88.3586     9.9563     2.5587     0.0071     0.2733   -38.0144     5.6379     8.1041     7.6940    84.9692    90.9354
 1553.5000    87.9581     9.9564     2.5557     0.0072     0.2630   -38.0173     5.8480     8.1041     7.8360    85.0209    90.9821
 1554.0000    87.9591     9.9565     2.5488     0.0052     0.2575   -38.0193     5.8480     8.2538     7.8360    85.0726    98.9962
 1554.5000    87.5587     9.9566     2.5379    -0.0007     0.2591   -38.0223     5.8480     9.2118     8.2780    85.1243   103.0226
 1555.0000    85.9545     9.9566     2.5309    -0.0027     0.2591   -37.6244     5.8480    10.2809     8.7449    85.1760    91.0911
 1555.5000    84.3505     9.9567     2.5279    -0.0007     0.2595   -37.2275     5.8480    10.8611     8.9064    85.2277    95.1253
 1556.0000    83.9506     9.9568     2.5170    -0.0006     0.2520   -36.8297     6.0659    10.8611     8.4308    85.2794    95.1642
 1556.5000    84.7543     9.9569     2.5101    -0.0046     0.2465   -36.8327     5.9560     9.2118     7.9806    85.3311    83.2409
 1557.0000    84.7555     9.9570     2.5061    -0.0085     0.2449   -36.8347     5.8480     8.5615     7.5545    85.3828   103.2089
 1557.5000    85.1578     9.9771     2.5101    -0.0085     0.2497   -36.8357     5.8480     8.2538     7.4176    85.4344    91.2935
 1558.0000    86.3624     9.9973     2.5171    -0.0005     0.2568   -36.9346     5.8480     7.8129     7.4176    85.4861    95.3197
 1558.5000    88.7700    10.0174     2.5300     0.0075     0.2636   -37.0335     5.8480     7.8129     7.4176    85.5378    95.3585
 1559.0000    87.9688    10.0375     2.5419     0.0177     0.2640   -37.1323     5.9184     7.8129     7.2831    85.5895    87.4230
 1559.5000    87.1677    10.0375     2.5499     0.0217     0.2608   -37.2312     5.9184     7.8129     7.4176    85.6412    91.4491
 1560.0000    86.7678    10.0438     2.5310     0.0175     0.2609   -37.3301     5.9184     7.8129     7.1511    85.6929    79.5267
 1560.5000    87.1698    10.0500     2.5281     0.0096     0.2609   -37.4290     5.9184     7.8129     7.1511    85.7446    87.5399
 1561.0000    88.3735    10.0562     2.5350     0.0096     0.2621   -37.5278     5.9184     7.8129     7.1511    85.7963    91.5659
 1561.5000    89.1762    10.0625     2.5470     0.0176     0.2664   -37.6582     5.9184     7.6712     7.1511    85.8480    83.6308
 1562.0000    89.5779    10.0687     2.5430     0.0176     0.2641   -37.6592     5.7420     7.6712     7.1511    85.8997    87.6567
 1562.5000    87.9755    10.0749     2.5351     0.0157     0.2617   -37.6621     5.7420     7.5321     7.1511    85.9514    87.6957
 1563.0000    87.1750    10.0782     2.5271     0.0117     0.2609   -37.2645     5.7420     7.5321     7.1511    86.0031    87.7346
 1563.5000    87.1760    10.0783     2.5212     0.0078     0.2598   -37.2675     5.7420     7.5321     7.1511    86.0548    83.7867
 1564.0000    87.1770    10.0583     2.5122     0.0038     0.2566   -37.2695     5.7420     7.5321     7.1511    86.1065    79.8389
 1564.5000    87.1780    10.0384     2.5082    -0.0001     0.2519   -37.2725     5.8480     7.5321     7.1511    86.1582    91.8382
 1565.0000    87.5797     9.9984     2.5083    -0.0021     0.2487   -37.2745     5.8480     7.5321     7.1511    86.2099    83.9037
 1565.5000    87.5807     9.9985     2.5093    -0.0021     0.2495   -37.2775     5.8480     7.5321     7.1511    86.2616    87.9293
 1566.0000    87.5817     9.9785     2.5083    -0.0020     0.2523   -37.2795     5.8480     7.5321     7.1511    86.3133    99.9282
 1566.5000    85.1793     9.9586     2.5063    -0.0020     0.2579   -37.2825     5.8480     7.5321     7.1511    86.3650    91.9938
 1567.0000    85.1805     9.9587     2.5033    -0.0020     0.2614   -37.2845     5.8480     7.5321     7.1511    86.4167   103.9924
 1567.5000    86.7837     9.9587     2.4974    -0.0019     0.2658   -37.2875     5.8480     7.5321     7.1511    86.4684    96.0581
 1568.0000    87.9862     9.9588     2.4914    -0.0121     0.2694   -37.6879     5.9560     7.5321     7.1511    86.5201    84.1375
 1568.5000    89.1885     9.9589     2.4845    -0.0101     0.2742   -37.6909     6.2919     7.5321     7.1511    86.5718    92.1494
 1569.0000    89.9901     9.9790     2.4934    -0.0118     0.2750   -37.6399     6.2919     7.5321     7.1511    86.6235    88.2019
 1569.5000    89.1902     9.9991     2.4994    -0.0118     0.2766   -37.5890     6.2919     7.5321     7.2831    86.6752    88.2408
 1570.0000    88.7907    10.0192     2.5054    -0.0085     0.2762   -37.5380     6.2919     7.5321     7.4132    86.7269    88.2798
 1570.5000    88.3913    10.0193     2.5113    -0.0052     0.2813   -37.4870     6.1779     7.6712     7.4176    86.7786    88.3187
 1571.0000    89.1928    10.0193     2.5173    -0.0019     0.2806   -37.4361     5.9560     7.8129     7.4176    86.8303    92.3439
 1571.5000    90.3943    10.0194     2.5263     0.0003     0.2758   -37.3851     5.9560     7.8129     7.4176    86.8820    84.4104
 1572.0000    89.9949    10.0395     2.5273    -0.0017     0.2747   -37.7088     5.9560     7.8129     7.5545    86.9337    68.5047
 1572.5000    89.9957    10.0196     2.5273    -0.0016     0.2790   -37.7117     5.9560     7.9572     7.6940    86.9854    84.4883
 1573.0000    89.9966    10.0597     2.5283    -0.0036     0.2751   -37.7127     6.2919     8.2538     7.6940    87.0371    88.5133
 1573.5000    91.5978    10.0398     2.5283    -0.0056     0.2707   -37.8259     6.2919     8.4062     7.6940    87.0888    84.5662
 1574.0000    92.3986    10.0398     2.5263    -0.0055     0.2688   -37.9390     6.2919     8.4062     7.8360    87.1405    84.6052
 1574.5000    92.7993    10.0260     2.5254    -0.0075     0.2684   -38.0521     6.6468     8.4062     7.8360    87.1922    80.6582
 1575.0000    92.3998    10.0123     2.5313    -0.0015     0.2648   -38.1229     6.8945     8.4062     7.9806    87.2439    96.6409
 1575.5000    92.0004     9.9986     2.5403     0.0025     0.2613   -37.7266     7.0217     8.5615     7.9806    87.2956    80.7362
 1576.0000    91.2012     9.9848     2.5463     0.0085     0.2581   -38.1277     7.0217     8.5615     7.9806    87.3473   104.6903
 1576.5000    90.4020     9.9711     2.5483     0.0105     0.2574   -37.7315     7.0217     8.5615     8.1280    87.3990    96.7574
 1577.0000    89.2031     9.9603     2.5423     0.0066     0.2538   -37.7335     6.8945     8.5615     8.2780    87.4507    84.8312
 1577.5000    88.8041     9.9404     2.5354    -0.0013     0.2586   -36.9382     6.8945     8.7196     8.2780    87.4751    96.8351
 1578.0000    88.8051     9.9001     2.5314    -0.0033     0.2610   -36.5411     6.8945     8.7196     8.2780    87.4751    68.9742
 1578.5000    89.6056     9.8206     2.5364    -0.0001     0.2602   -36.5442     6.8945     8.7196     8.2780    87.4751    88.9415
 1579.0000    91.2054     9.8008     2.5424    -0.0001     0.2590   -36.5472     7.1514     8.7196     8.2780    87.4751   100.9372
 1579.5000    91.6059     9.8009     2.5474     0.0039     0.2586   -36.9483     7.2834     8.7196     8.2780    87.4297    89.0193
 1580.0000    91.2068     9.8809     2.5374     0.0039     0.2590   -36.9513     7.6942     8.7196     8.2780    87.3842   101.0148
 1580.5000    89.6089     9.9009     2.5225    -0.0041     0.2594   -37.3523     7.6942     8.7196     8.2780    87.3388    89.0972
 1581.0000    89.2101     9.9410     2.5195    -0.0081     0.2583   -37.7543     7.2834     8.5615     8.1280    87.2933   101.0924
 1581.5000    89.2109     9.9611     2.5215    -0.0100     0.2603   -37.7563     6.6468     8.5615     7.9806    87.2478    85.1896
 1582.0000    90.4105     9.9811     2.5235    -0.0120     0.2646   -37.7583     6.5263     8.5615     7.6940    87.2024    85.2286
