~VERSION INFORMATION
 VERS.                2.0:   CWLS LOG ASCII STANDARD - VERSION 2.0
 WRAP.                 NO:   ONE LINE PER DEPTH STEP
~WELL INFORMATION
#MNEM.UNIT      DATA TYPE    INFORMATION
#----------   ------------   ------------------------------
 STRT.F            0.5000:   START DEPTH
 STOP.F         4149.0000:   STOP DEPTH
 STEP.F            0.5000:   STEP LENGTH
 NULL.          -999.2500:   NO VALUE
 COMP. LAWRENCE ALLISON & ASSOSCIATES:   COMPANY
 WELL. LAWRENCE "X" #34-3:   WELL
 FLD .             NPR #3:   FIELD
 LOC .       S3 T38N R78W:   LOCATION
 CNTY.            NATRONA:   COUNTY
 STAT.            WYOMING:   STATE
 CTRY. UNITED STATES OF AMERICA:   COUNTRY
 SRVC.      DRESSER ATLAS:   SERVICE COMPANY
 DATE.        19-NOV-1983:   LOGDATE
 API .     49025109500000:   API NUMBER
~CURVE INFORMATION
#MNEM.UNIT       API CODE    CURVE DESCRIPTION
#----------   ------------   ------------------------------
 DEPT.F                  :   
 CALD.IN     45 280 60 00:   CALIPER FROM DENSITY LOG
 TEND.LBS    45 635 01 00:   TENSION FORM DENSITY LOG
 DEN .G/C3   45 350 01 00:   BULK DENSITY
 CNC .DEC    42 890 01 00:   NEUTRON POROSITY LIMESTONE
 CORR.G/C3   45 356 01 00:   DENSITY CORRECTION
 TENR.LBS    06 635 01 00:   TENSION FROM RESISTIVITY
 GRR .GAPI   07 310 01 00:   GAMMA RAY FROM RESISTIVITY
 RFOC.OHMM   07 220 04 00:   RESISTIVITY FOCUSED LOG RES.
 RILD.OHMM   07 120 46 00:   DEEP INDUCTION RESISTIVITY
 RILM.OHMM   07 120 44 00:   INDUCTION LOG MEDIUM RESISTIVITY
 SPR .MV     07 010 01 00:   SPONTANEOUS POTENTIAL
 TENS.LBS    60 635 01 00:   TENSION FROM SONIC
 DT  .US/F   60 520 00 00:   DELTA TIME
~PARAMETER INFORMATION
#MNEM.UNIT          VALUE    DESCRIPTION
#----------   ------------   ------------------------------
 EKB .F         5187.0000:   Kelly bushing
 EGL .F         5174.0000:   Ground level
 TD  .F         4140.0000:   Total depth
 CLNT.            A2DTECH:   Client Code
 SL  . 1621' FWL & 1958' FNL:   Surface Location
 PD  .                 GL:   Permanent Datum
 EPD .F              5174:   Elevation Permanent Datum
 LMF .                 KB:   Log Measured From
 DMF .                 KB:   Drilling Measured From
 DAPD.F                13:   Feet Above Permanent Datum
 DATE.        19-NOV-1983:   Date Logged [DD-MMM-YYYY]
 DD  .F              4136:   Depth driller
 DL  .F              4140:   Depth logger
 BLI .F              4138:   Bottom log interval
 TLI .F                 0:   Top log interval
 CS1 .IN            8.625:   Casing size
 CBD1.      8.625" @ 615':   Casing driller 1
 CBL1.F               615:   Casing logger 1
 BS1 .IN            7.875:   Bit size
 BSD1.F              4136:   Depth drilled with bit1
 DFT .            GEL-KCL:   Type fluid in hole
 DFD .                  9:   Density
 DFV .                 45:   Viscosity
 DFPH.                8.5:   pH
 DFL .                 12:   Fluid loss
 MSS .           FLOWLINE:   Source of sample
 RMS .OHMM          0.768:   Rm
 MST .F                74:   Rm Meas. temp.
 RMF .OHMM          0.576:   Rmf
 MFST.F                74:   Rmf Meas. temp.
 MFSS.               CALC:   Source Rmf.
 RMC .OHMM           0.96:   Rmc
 MCST.F                74:   Rmc Meas. temp.
 MCSS.               CALC:   Source Rmc.
 RMB .OHMM          0.418:   Rm. at BHT
 BHT .F               136:   BHT.
 TCS .HRS               4:   Time Circ. stopped
 MRT .F               136:   Maximum recorded temp.
 LUN .               6307:   Logging unit number
 LUL .               GLTE:   Logging unit location
 ENGI.           FAHLSING:   Recorded By
 WITN.           JENNINGS:   Witnessed by
 ORIG.      2.5" 5" PRINT:   Origin of data
 UWI .     49025109500000:   Unique Well ID
 DICO. A2D TECHNOLOGIES, INC.:   Digitizing Company
~OTHER INFORMATION
~A    DEPT    CALD       TEND        DEN        CNC       CORR       TENR         GRR      RFOC       RILD       RILM        SPR       TENS         DT   
# ...
 3874.5000     8.5150     0.0000     2.6163     0.2552     0.0552  -104.0553   125.6050     5.1932     3.7205     3.7374   -83.6760   -30.9375    87.9402
 3875.0000     8.5150     0.0000     2.6168     0.2561     0.0539   -95.5848   126.8617     5.1878     3.4083     3.5279   -83.3823   -31.2500    88.2427
 3875.5000     8.5150     0.0000     2.6173     0.2576     0.0569   -87.1140   130.0459     5.1094     3.2180     3.3779   -83.4008   -31.6212    88.4689
 3876.0000     8.5150     0.0000     2.6229     0.2596     0.0778   -94.0756   136.5003     4.9260     3.0063     3.2341   -83.4157   -31.8750    88.8498
 3876.5000     8.5150     0.0000     2.6340     0.2680     0.0928   -85.6048   139.6696     4.7156     2.8794     3.0966   -83.4305   -32.2353    89.6174
 3877.0000     8.5150     0.0000     2.6347     0.2751     0.0939   -84.8500   142.8389     4.5142     2.7579     2.9230   -83.4453   -32.5425    90.4624
 3877.5000     8.5150     0.0000     2.6234     0.2769     0.0928   -91.8210   143.2782     4.2605     2.6603     2.7964   -83.3077   -24.9603    91.6167
 3878.0000     8.5150     0.0000     2.6071     0.2793     0.0928   -98.7729   138.6912     4.0496     2.5300     2.6360   -83.1701   -17.5061    92.7710
 3878.5000     8.5150     0.0000     2.5858     0.2822     0.1826   -97.9940   134.3378     3.9321     2.3962     2.3893   -83.0362   -17.8389    94.2347
 3879.0000     8.5150     0.0000     2.5755     0.2882     0.2844   -97.2222   133.6317     3.9280     2.2881     2.2079   -83.2035   -18.1459    96.0078
 3879.5000     8.5186     0.0000     2.5920     0.2924     0.2365   -96.4505   135.6748     3.9238     2.1606     2.0991   -83.0659   -18.4375    97.3168
 3880.0000     8.5788     0.0000     2.6283     0.2983     0.1796   -95.5660   137.4926     3.9189     2.0971     2.0241   -83.2332   -18.7858    98.0844
 3880.5000     8.6092     0.0000     2.6325     0.2997     0.1257   -87.0951   138.1245     3.8871     1.9895     1.9796   -83.5529   -19.0624    98.3880
 3881.0000     8.6347     0.0000     2.6243     0.3013     0.1677   -78.6243   134.4493     3.8283     1.8450     1.9779   -84.0251   -19.3750    98.3048
 3881.5000     8.6647     0.0000     2.6032     0.3088     0.2126   -77.8699   130.3238     3.7704     1.8181     1.9902   -83.8872   -19.6875    98.2217
 3882.0000     8.6647     0.0000     2.5482     0.3176     0.2425   -77.1151   129.8513     3.6351     1.8432     2.0311   -83.4390   -20.0000    98.4479
 3882.5000     8.6347     0.0000     2.5023     0.3180     0.2575   -84.1050   131.6473     3.4552     1.8758     2.0880   -83.0025   -20.3726    99.0608
 3883.0000     8.6347     0.0000     2.4515     0.3152     0.2725   -91.0493   135.2725     3.2610     1.9491     2.1798   -82.7124   -20.6797    99.7511
 3883.5000     8.6279     0.0000     2.4261     0.3062     0.2725   -82.5619   135.7406     3.1889     2.0186     2.3340   -82.7310   -20.9375   100.5187
 3884.0000     8.5976     0.0000     2.4220     0.2914     0.2515   -74.0741   136.1400     3.1856     2.1357     2.4333   -82.7458   -22.3624   101.2089
 3884.5000     8.5373     0.0000     2.4774     0.2603     0.2096   -73.1534   136.1170     3.2050     2.2756     2.6099   -82.5618   -29.4137   101.7445
 3885.0000     8.5150     0.0000     2.5599     0.2490     0.1467   -72.3990   132.8987     3.3639     2.3413     2.7599   -82.4669   -26.0755   100.9653
 3885.5000     8.5066     0.0000     2.6078     0.2362     0.1168   -71.7592   126.0376     3.7381     2.4778     2.9184   -82.4855   -22.1387    98.9485
 3886.0000     8.4850     0.0000     2.6287     0.2329     0.1018   -70.8894   109.1461     4.4281     2.6463     3.0426   -82.3476   -22.5226    93.7607
 3886.5000     8.4850     0.0000     2.6078     0.2395     0.0928   -70.1350   100.9228     6.1324     2.9330     3.1721   -82.2103   -30.6250    88.5729
 3887.0000     8.4551     0.0000     2.5958     0.2492     0.0988   -69.3802   108.4179     7.1131     3.1031     3.2606   -82.2256   -23.1368    81.9156
 3887.5000     8.4551     0.0000     2.5868     0.2582     0.1078   -68.6258   115.4626     4.3521     3.2138     3.3992   -82.3961   -23.4375    80.7496
 3888.0000     8.4551     0.0000     2.5853     0.2598     0.1527   -67.8710   119.5438     4.2559     3.2355     3.4447   -82.2548   -23.7510    82.9094
 3888.5000     8.4659     0.0000     2.6452     0.2576     0.1287   -67.1166   120.4469     4.4681     3.1879     3.4137   -82.2733   -31.8750    86.2293
 3889.0000     8.4850     0.0000     2.7156     0.2493     0.1138   -66.2037   108.6942     5.0006     2.9259     3.2711   -82.2881   -24.3653    87.3851
 3889.5000     8.4850     0.0000     2.7111     0.2394     0.1078   -57.8703   101.0067     5.4785     2.6854     3.1098   -82.4554   -24.7491    83.2013
 3890.0000     8.4850     0.0000     2.6781     0.2494     0.1173   -56.9480   103.0362     5.0377     2.5000     2.9356   -82.6227   -25.0563    82.5768
 3890.5000     8.5150     0.0000     2.5928     0.2603     0.1329   -48.6111   108.4851     3.9989     2.3607     2.8107   -82.6375   -25.3634    82.7256
 3891.0000     8.5150     0.0000     2.5689     0.2602     0.1347   -55.4385   114.3900     3.5657     2.3090     2.6158   -82.6524   -25.6706    83.9573
 3891.5000     8.5150     0.0000     2.5599     0.2596     0.1113   -62.5886   123.0305     3.5620     2.2280     2.4344   -82.6876   -25.9777    85.9624
 3892.0000     8.5150     0.0000     2.5599     0.2612     0.0967   -61.6453   126.1998     3.6869     2.2109     2.3308   -82.9906   -26.2848    93.5362
 3892.5000     8.5150     0.0000     2.5629     0.2655     0.0709   -60.8909   126.4058     3.7103     2.2259     2.2959   -83.3103   -26.5920    94.5358
 3893.0000     8.5150     0.0000     2.5634     0.2681     0.0585   -60.1361   129.4538     3.7329     2.2889     2.2939   -83.6301   -26.8990    94.8394
 3893.5000     8.5150     0.0000     2.5524     0.2685     0.0683   -43.9496   135.7022     3.5980     2.3538     2.3427   -84.5595   -27.2061    95.2203
 3894.0000     8.5150     0.0000     2.5389     0.2555     0.1298   -43.1948   135.2241     3.3006     2.4548     2.4576   -85.0317   -27.5133    95.5253
 3894.5000     8.5150     0.0000     2.5299     0.2401     0.1602   -57.8721   130.6427     2.8404     2.6157     2.6359   -85.1989   -27.8204    95.8288
 3895.0000     8.5150     0.0000     2.5329     0.2347     0.1481   -57.0987   126.9731     2.7974     2.7871     2.8272   -85.2138   -38.4536    93.8880
 3895.5000     8.5150     0.0000     2.5659     0.2338     0.1270   -56.1744   115.7807     3.5028     2.9487     3.0757   -85.2287   -44.0624    90.0150
 3896.0000     8.5150     0.0000     2.6018     0.2350     0.1059   -64.3572   112.5671     5.4793     3.0323     3.2989   -85.2435   -44.3750    84.6725
 3896.5000     8.5150     0.0000     2.6078     0.2418     0.0911   -70.2858   114.5966     7.1184     3.1182     3.4884   -84.9534   -44.6875    79.0980
 3897.0000     8.5150     0.0000     2.6018     0.2531     0.0868   -69.3425   123.6929     8.0234     3.1631     3.5864   -84.6671   -45.0578    78.3188
 3897.5000     8.5150     0.0000     2.5734     0.2662     0.0898   -68.5881   133.8837     6.1195     3.2049     3.3920   -84.3770   -45.3649    78.0809
 3898.0000     8.5150     0.0000     2.5674     0.2696     0.0868   -52.4012   143.7038     4.1073     3.2030     3.1950   -84.2394   -45.6721    78.5391
 3898.5000     8.5150     0.0000     2.5719     0.2616     0.0838   -51.6464   145.9668     3.9319     3.1117     3.0150   -84.0981   -45.9792    81.7044
 3899.0000     8.5449     0.0000     2.5763     0.2584     0.0838   -50.8920   144.1154     4.3693     3.0017     2.9468   -84.1167   -46.2864    87.8860
 3899.5000     8.5449     0.0000     2.5719     0.2582     0.0928   -50.1543   144.5492     4.8553     2.9380     2.9472   -84.1315   -46.5935    88.6536
 3900.0000     8.5449     0.0000     2.5584     0.2655     0.1587   -49.3828   146.8067     4.8502     2.7729     3.0072   -84.1463   -46.8750    88.7266
