~VERSION INFORMATION
 VERS.                2.0:   CWLS LOG ASCII STANDARD - VERSION 2.0
 WRAP.                 NO:   ONE LINE PER DEPTH STEP
~WELL INFORMATION
#MNEM.UNIT      DATA TYPE    INFORMATION
#----------   ------------   ------------------------------
 STRT.F          200.0000:   START DEPTH
 STOP.F         3078.0000:   STOP DEPTH
 STEP.F            0.5000:   STEP LENGTH
 NULL.          -999.2500:   NO VALUE
 COMP.   FENIX & SCISSION:   COMPANY
 WELL. FENIX NPR 72 "A" #3-28:   WELL
 FLD .              NPR-3:   FIELD
 LOC .      S28 T39N R78W:   LOCATION
 CNTY.            NATRONA:   COUNTY
 STAT.            WYOMING:   STATE
 CTRY. UNITED STATES OF AMERICA:   COUNTRY
 SRVC.              WELEX:   SERVICE COMPANY
 DATE.        06-JUN-1977:   LOGDATE
 API .     49025103770000:   API NUMBER
~CURVE INFORMATION
#MNEM.UNIT       API CODE    CURVE DESCRIPTION
#----------   ------------   ------------------------------
 DEPT.F                  :   
 CORR.G/C3   45 356 01 00:   DENSITY CORRECTION
 RHOB.G/C3   45 350 01 00:   BULK DENSITY
 CALD.IN     45 280 60 00:   CALIPER FROM DENSITY LOG
 SPR .MV     07 010 01 00:   SPONTANEOUS POTENTIAL
 GURD.OHMM   07 220 05 00:   GUARD LOG RESISTIVITY
 ILM .OHMM   07 120 44 00:   INDUCTION LOG MEDIUM RESISTIVITY
 ILD .OHMM   07 120 46 00:   DEEP INDUCTION RESISTIVITY
 GRD .GAPI   45 310 01 00:   GAMMA RAY FROM DENSITY LOG
~PARAMETER INFORMATION
#MNEM.UNIT          VALUE    DESCRIPTION
#----------   ------------   ------------------------------
 EKB .F         5022.0000:   Kelly bushing
 EGL .F         5011.0000:   Ground level
 EDF .F            0.0000:   Drilling floor
 EPD .F         5011.0000:   Permanent datum
 TD  .F         3081.0000:   Total depth
 DATE.        06-JUN-1977:   Date logged
 CLNT.            A2DTECH:   Client Code
 SL  . 990' FNL & 990' FEL:   Surface Location
 PD  .                 GL:   Permanent Datum
 DAPD.F                11:   Feet Above Permanent Datum
 DD  .F              3041:   Depth driller
 DL  .F              3081:   Depth logger
 BLI .F              3079:   Bottom log interval
 TLI .F               200:   Top log interval
 CS1 .IN            8.625:   Casing size
 CBD1.      8.625" @ 200':   Casing driller 1
 CBL1.F               218:   Casing logger 1
 BS1 .IN            7.875:   Bit size
 BSD1.F              3041:   Depth drilled with bit1
 DFT .            KCL MUD:   Type fluid in hole
 DFD .                8.8:   Density
 DFV .                 38:   Viscosity
 DFPH.                7.5:   pH
 DFL .                5.8:   Fluid loss
 MSS .           FLOWLINE:   Source of sample
 RMS .OHMM           1.19:   Rm
 MST .F                89:   Rm Meas. temp.
 RMF .OHMM           1.05:   Rmf
 MFST.F                89:   Rmf Meas. temp.
 RMC .OHMM           2.17:   Rmc
 MCST.F                89:   Rmc Meas. temp.
 MFSS.               FANN:   Source Rmf.
 MCSS.                KIT:   Source Rmc.
 RMB .OHMM           0.98:   Rm. at BHT
 BHT .F               108:   BHT.
 TCS .HRS             2.5:   Time Circ. stopped
 MRT .F               108:   Maximum recorded temp.
 LUN .               8611:   Logging unit number
 LUL .             CASPER:   Logging unit location
 ENGI.          T. JOYNER:   Recorded By
 WITN.      W. PETTINGILL:   Witnessed by
 ORIG.           5" PRINT:   Origin of data
 UWI .     49025103770000:   Unique Well ID
 DICO. A2D TECHNOLOGIES, INC.:   Digitizing Company
~OTHER INFORMATION
~A   DEPT     CORR       RHOB         CALD      SPR       GURD        ILM        ILD         GRD  
# ...
 2832.5000     0.0130     2.4840     7.8560   -45.9800     7.1230     6.2240     6.5410   133.4450
 2833.0000     0.0120     2.4800     7.8530   -45.9800     7.0580     6.2000     6.4750   134.4120
 2833.5000     0.0110     2.4740     7.8490   -45.9800     6.9000     6.1210     6.4100   135.3980
 2834.0000     0.0100     2.4680     7.8460   -45.9800     6.7420     6.0190     6.3560   135.8880
 2834.5000     0.0100     2.4690     7.8420   -45.9800     6.5980     5.9170     6.3270   135.9070
 2835.0000     0.0090     2.4700     7.8240   -45.9800     6.5630     5.8070     6.2980   136.9940
 2835.5000     0.0080     2.4680     7.8040   -45.9800     6.5270     5.7960     6.2690   138.1770
 2836.0000     0.0080     2.4650     7.8050   -45.9800     6.4920     5.7830     6.2340   138.3910
 2836.5000     0.0080     2.4620     7.8080   -45.9790     6.4490     5.7700     6.1890   135.7810
 2837.0000     0.0090     2.4590     7.8100   -46.0370     6.4030     5.7570     6.1440   133.5880
 2837.5000     0.0090     2.4570     7.8130   -46.1070     6.3650     5.7320     6.1000   134.0760
 2838.0000     0.0090     2.4590     7.8150   -46.1730     6.4230     5.7020     6.0690   131.9510
 2838.5000     0.0100     2.4610     7.8180   -46.1310     6.3690     5.6710     6.0510   130.0470
 2839.0000     0.0100     2.4630     7.8200   -46.0850     6.2490     5.6410     6.0240   131.0490
 2839.5000     0.0110     2.4650     7.8220   -46.0390     6.3470     5.5980     6.0700   132.0420
 2840.0000     0.0120     2.4680     7.8180   -45.9930     6.4740     5.6220     6.1510   132.6280
 2840.5000     0.0120     2.4710     7.8140   -45.9470     6.6020     5.6630     6.2490   132.0880
 2841.0000     0.0130     2.4680     7.8110   -45.9020     6.5340     5.7040     6.2170   132.3730
 2841.5000     0.0130     2.4640     7.8070   -45.8560     6.4650     5.7460     6.1760   133.1990
 2842.0000     0.0130     2.4600     7.8030   -45.8100     6.4230     5.7870     6.1360   133.8580
 2842.5000     0.0130     2.4580     7.8010   -45.7550     6.7460     5.8280     6.2180   132.4960
 2843.0000     0.0130     2.4580     7.8000   -45.6860     7.1700     5.8800     6.3010   131.1230
 2843.5000     0.0130     2.4560     7.7980   -45.6170     7.0950     5.9710     6.3880   130.7770
 2844.0000     0.0130     2.4540     7.7970   -45.5480     6.8700     6.0610     6.4950   130.8010
 2844.5000     0.0130     2.4510     7.7950   -45.4800     6.9590     6.1520     6.6010   129.2110
 2845.0000     0.0170     2.4570     7.7940   -45.4110     7.1340     6.2420     6.7240   127.0190
 2845.5000     0.0200     2.4630     7.7920   -45.3420     7.3520     6.3330     6.7010   124.8400
 2846.0000     0.0240     2.4700     7.7910   -45.2730     7.2840     6.3800     6.6630   123.5790
 2846.5000     0.0270     2.4760     7.7890   -45.2050     7.1050     6.4040     6.7420   124.9080
 2847.0000     0.0310     2.4830     7.7880   -45.2240     7.3530     6.4270     6.8620   126.0430
 2847.5000     0.0350     2.4860     7.7860   -45.2550     7.7300     6.4510     6.9820   126.3260
 2848.0000     0.0330     2.4890     7.7850   -45.2870     8.1060     6.4820     7.1020   127.6280
 2848.5000     0.0320     2.4840     7.7830   -45.3190     8.3030     6.4640     7.2220   129.2890
 2849.0000     0.0300     2.4780     7.7720   -45.3510     8.0050     6.4370     7.0510   131.8850
 2849.5000     0.0280     2.4720     7.7620   -45.3840     7.4920     6.3720     6.8410   134.4310
 2850.0000     0.0250     2.4660     7.7510   -45.3920     6.9800     6.1950     6.6310   134.6160
 2850.5000     0.0220     2.4620     7.7410   -45.3920     6.6340     6.0180     6.4210   132.7670
 2851.0000     0.0190     2.4580     7.7300   -45.3920     6.3360     5.8610     6.1920   130.4110
 2851.5000     0.0160     2.4590     7.7560   -45.3920     6.2490     5.8610     6.1360   126.2880
 2852.0000     0.0130     2.4650     7.8150   -45.3920     6.6240     5.9380     6.2940   122.3060
 2852.5000     0.0100     2.4700     7.8410   -45.3920     6.9110     6.0470     6.4680   123.1040
 2853.0000     0.0070     2.4700     7.8370   -45.3940     7.1050     6.1550     6.6420   124.0450
 2853.5000     0.0080     2.4690     7.8330   -45.4990     7.0400     6.2640     6.7240   124.2940
 2854.0000     0.0090     2.4690     7.8300   -45.6150     7.1830     6.3730     6.7700   124.0150
 2854.5000     0.0100     2.4730     7.8260   -45.7310     7.3780     6.4830     6.9080   123.7600
 2855.0000     0.0100     2.4770     7.8220   -45.7840     7.5740     6.5940     7.0470   122.6130
 2855.5000     0.0110     2.4810     7.8160   -45.7840     7.8580     6.7060     7.1850   121.2650
 2856.0000     0.0120     2.4850     7.8110   -45.7840     7.7710     6.8170     7.2890   119.9160
 2856.5000     0.0140     2.4860     7.8060   -45.7840     7.6100     6.9120     7.1860   118.5790
 2857.0000     0.0170     2.4850     7.8000   -45.7560     7.4890     6.8860     7.0400   118.3140
 2857.5000     0.0190     2.4830     7.7950   -45.7060     7.4380     6.8630     7.1050   119.7020
 2858.0000     0.0220     2.4840     7.7900   -45.6570     7.5810     6.8490     7.2220   121.0660
 2858.5000     0.0240     2.4840     7.7830   -45.6060     7.7310     6.8490     7.3390   121.8760
 2859.0000     0.0270     2.4850     7.8170   -45.5560     7.8800     6.8490     7.5060   122.7840
 2859.5000     0.0290     2.4860     7.8560   -45.5060     8.0770     6.7620     7.3130   124.6400
 2860.0000     0.0310     2.4840     7.8620   -45.4560     8.0040     6.5370     6.9760   127.7040
 2860.5000     0.0330     2.4780     7.8620   -45.4060     7.5590     6.2120     6.6390   130.7660
 2861.0000     0.0350     2.4720     7.8620   -45.3560     6.9120     5.8870     6.3410   134.8300
 2861.5000     0.0370     2.4640     7.8570   -45.3060     6.6100     5.5210     6.2180   139.0570
 2862.0000     0.0400     2.4550     7.8520   -45.2560     6.3070     5.1250     5.8880   143.3880
 2862.5000     0.0420     2.4460     7.8470   -45.2130     5.7190     4.7300     5.3750   146.3740
 2863.0000     0.0430     2.4380     7.8460   -44.9620     5.0530     4.3340     4.8630   149.3500
 2863.5000     0.0420     2.4290     7.8750   -44.6770     4.3880     4.0200     4.3510   150.0840
 2864.0000     0.0420     2.4200     7.9060   -44.3910     3.7230     3.8180     3.8440   147.3750
 2864.5000     0.0320     2.4120     7.9360   -44.4030     3.1630     3.7060     3.7400   141.0090
 2865.0000     0.0210     2.4180     7.9670   -44.8610     2.6890     3.7060     3.8750   132.8560
 2865.5000     0.0110     2.4510     7.9960   -45.3150     4.3980     3.9530     4.3350   124.6360
 2866.0000     0.0110     2.4850     7.9550   -45.3910     6.4820     4.2960     4.7960   116.4970
 2866.5000     0.0120     2.4990     7.9100   -45.3930     6.4400     4.6390     5.2560   117.6690
 2867.0000     0.0140     2.4990     7.8800   -45.3920     6.3650     4.9690     5.7160   119.3900
 2867.5000     0.0170     2.4970     7.8700   -45.4410     6.6670     5.6040     6.1760   119.0000
 2868.0000     0.0200     2.4990     7.8460   -45.5160     6.9580     5.9170     6.4160   118.0800
 2868.5000     0.0230     2.5030     7.8450   -45.5880     7.2360     6.1730     6.6150   117.0760
 2869.0000     0.0250     2.5040     7.8490   -45.6170     7.2800     6.3650     6.8090   119.0330
 2869.5000     0.0260     2.5020     7.8530   -45.6440     7.3700     6.2990     6.9120   121.5710
 2870.0000     0.0260     2.5010     7.8570   -45.6720     7.1370     6.2490     6.6510   124.1300
 2870.5000     0.0270     2.4970     7.8600   -45.6990     6.7820     6.0740     6.4430   125.9250
 2871.0000     0.0270     2.4940     7.8700   -45.7260     6.6290     5.9080     6.2490   126.6320
 2871.5000     0.0280     2.4900     7.8830   -45.7540     6.5900     5.7540     6.2110   127.3440
 2872.0000     0.0280     2.4890     7.8970   -45.7810     6.5640     5.7860     6.1670   128.0040
 2872.5000     0.0290     2.4900     7.9100   -45.7340     6.5380     5.8160     6.1360   128.1860
