~VERSION INFORMATION
 VERS.                2.0:   CWLS LOG ASCII STANDARD - VERSION 2.0
 WRAP.                 NO:   ONE LINE PER DEPTH STEP
~WELL INFORMATION
#MNEM.UNIT      DATA TYPE    INFORMATION
#----------   ------------   ------------------------------
 STRT.F          670.0000:   START DEPTH
 STOP.F         3440.0000:   STOP DEPTH
 STEP.F            0.5000:   STEP LENGTH
 NULL.          -999.2500:   NO VALUE
 COMP.    FENIX & SCISSON:   COMPANY
 WELL.   FENIX "A" #57-33:   WELL
 FLD .             NPR #3:   FIELD
 LOC .      S33 T39N R78W:   LOCATION
 CNTY.            NATRONA:   COUNTY
 STAT.            WYOMING:   STATE
 CTRY. UNITED STATES OF AMERICA:   COUNTRY
 SRVC.       SCHLUMBERGER:   SERVICE COMPANY
 DATE.        27-APR-1977:   LOGDATE
 API .     49025103600000:   API NUMBER
~CURVE INFORMATION
#MNEM.UNIT       API CODE    CURVE DESCRIPTION
#----------   ------------   ------------------------------
 DEPT.F                  :   
 SPR .MV     11 010 01 00:   SPONTANEOUS POTENTIAL FROM RES.
 MSFL.OHMM   11 270 04 00:   MICRO SPHERICALLY FOCUSED
 LLD .OHMM   11 220 10 00:   LATEROLOG LOG DEEP
 LLS .OHMM   11 220 09 00:   LATEROLOG LOG SHALLOW
 CALD.IN     45 280 60 00:   CALIPER FROM DENSITY LOG
 DRHO.G/C3   45 356 01 00:   DENSITY CORRECTION
 NPHI.DEC    42 890 03 00:   NEUTRON POROSITY SANDSTONE
 RHOB.G/C3   45 350 01 00:   BULK DENSITY
 GRD .GAPI   45 310 01 00:   GAMMA RAY FROM RESISTIVITY
~PARAMETER INFORMATION
#MNEM.UNIT          VALUE    DESCRIPTION
#----------   ------------   ------------------------------
 EKB .F         5183.0000:   Kelly bushing
 EGL .F         5172.0000:   Ground level
 EDF .F            0.0000:   Drilling floor
 TD  .F         3424.0000:   Total depth
 DATE.        27-APR-1977:   Date logged
 CLNT.            A2DTECH:   Client Code
 SL  . 990' FSL & 2310' FEL:   Surface Location
 PD  .                 GL:   Permanent Datum
 EPD .F              5172:   Elevation Permanent Datum
 LMF .                 KB:   Log Measured From
 DMF .                 KB:   Drilling Measured From
 DAPD.F                11:   Feet Above Permanent Datum
 DD  .F              3421:   Depth driller
 DL  .F              3424:   Depth logger
 BLI .F              3423:   Bottom log interval
 TLI .F               764:   Top log interval
 CS1 .IN            8.625:   Casing size
 CBD1.      8.625" @ 711':   Casing driller 1
 BS1 .IN            7.875:   Bit size
 BSD1.F              3421:   Depth drilled with bit1
 DFT .            KCL MUD:   Type fluid in hole
 DFD .                9.5:   Density
 DFV .                 41:   Viscosity
 DFPH.                  8:   pH
 DFL .               10.8:   Fluid loss
 MSS .            MUD PIT:   Source of sample
 RMS .OHMM           0.26:   Rm
 MST .F                74:   Rm Meas. temp.
 RMF .OHMM           0.21:   Rmf
 MFST.F                74:   Rmf Meas. temp.
 RMC .OHMM            .09:   Rmc
 MCST.F                74:   Rmc Meas. temp.
 MFSS.               MEAS:   Source Rmf.
 MCSS.               CALC:   Source Rmc.
 RMB .OHMM           0.15:   Rm. at BHT
 BHT .F               126:   BHT.
 TCS .HRS            0900:   Time Circ. stopped
 TLAB.HRS            1430:   Time logger at bottom
 MRT .F               126:   Maximum recorded temp.
 LUN .               7711:   Logging unit number
 LUL .               CSPR:   Logging unit location
 ENGI.             SAYLER:   Recorded By
 WITN.         PETTINGILL:   Witnessed by
 ORIG.           5" PRINT:   Origin of data
 UWI .     49025103600000:   Unique Well ID
 DICO. A2D TECHNOLOGIES, INC.:   Digitizing Company
~OTHER INFORMATION
~A   DEPT      SPR       MSFL        LLD        LLS         CALD      DRHO        NPHI       RHOB      GRD   
# ...
 1582.5000   -38.3070     8.6110     7.2980     8.0740     9.6380     0.0010     0.3310     2.5730   121.1340
 1583.0000   -38.3420     8.6990     7.3750     8.1360     9.6370     0.0120     0.3350     2.5750   124.3210
 1583.5000   -38.3760     8.8050     7.5490     8.2780     9.6350     0.0160     0.3420     2.5910   128.0100
 1584.0000   -38.4840     8.9110     7.7240     8.4190     9.6330     0.0180     0.3350     2.5990   128.7750
 1584.5000   -38.6640     9.0160     7.8980     8.5610     9.6320     0.0260     0.3240     2.6030   128.2590
 1585.0000   -38.8440     9.1800     8.0730     8.7020     9.6300     0.0320     0.3130     2.6070   126.8180
 1585.5000   -39.0240     9.5450     8.2470     8.8440     9.6280     0.0230     0.3160     2.6000   124.5440
 1586.0000   -39.2050     9.9110     8.4220     8.9860     9.6270     0.0140     0.3180     2.5920   121.2000
 1586.5000   -39.3850    10.3480     8.5970     9.1270     9.6250     0.0110     0.3190     2.5950   117.9540
 1587.0000   -39.5650    10.1590     8.7700     9.2680     9.6230     0.0080     0.3170     2.6050   118.6260
 1587.5000   -39.7450     9.8480     8.5100     9.1360     9.6220     0.0080     0.3150     2.6010   118.2120
 1588.0000   -39.9330     9.5370     8.2500     9.0050     9.6200     0.0210     0.3040     2.6120   120.7950
 1588.5000   -39.9190     9.2260     7.9910     8.8750     9.6180     0.0140     0.2980     2.5960   124.2710
 1589.0000   -39.8360     9.0160     7.7310     8.7440     9.6170     0.0080     0.2970     2.5800   127.7770
 1589.5000   -39.7510     9.0860     7.5710     8.5470     9.6160     0.0030     0.3050     2.5670   131.2920
 1590.0000   -39.6660     9.2060     7.7210     8.6270     9.6180    -0.0010     0.3190     2.5730   135.8230
 1590.5000   -39.5810     9.3530     7.8230     8.9330     9.6190     0.0130     0.3300     2.5880   134.7080
 1591.0000   -39.4960     9.1220     7.9270     8.8400     9.6210     0.0170     0.3360     2.5890   133.1290
 1591.5000   -39.4060     8.8230     7.8000     8.7190     9.6230     0.0120     0.3330     2.5830   131.4420
 1592.0000   -39.4710     8.4540     7.5760     8.5990     9.6250     0.0070     0.3250     2.5790   130.1490
 1592.5000   -39.5900     8.5110     7.3520     8.4780     9.6270     0.0050     0.3170     2.5770   129.6090
 1593.0000   -39.7110     8.6690     7.2530     8.3770     9.6280     0.0090     0.3160     2.5820   130.6440
 1593.5000   -39.8330     8.8510     7.1920     8.2150     9.6300     0.0090     0.3150     2.5790   132.7600
 1594.0000   -39.9540     8.7140     7.1430     8.1570     9.6320    -0.0050     0.3130     2.5750   133.5690
 1594.5000   -40.0750     8.4640     7.0780     8.0980     9.6340     0.0010     0.3170     2.5790   131.7930
 1595.0000   -40.1960     8.3000     7.0140     8.0390     9.6350     0.0080     0.3250     2.5830   130.1810
 1595.5000   -40.3170     8.5320     6.9500     8.0010     9.6200     0.0060     0.3300     2.5870   130.0150
 1596.0000   -40.4520     8.9330     6.9070     8.0870     9.6050     0.0020     0.3330     2.5790   129.4480
 1596.5000   -40.6030     8.8520     7.1980     8.1800     9.5910    -0.0020     0.3320     2.5730   128.3330
 1597.0000   -40.7530     8.7410     7.4340     8.2240     9.5760    -0.0020     0.3310     2.5650   126.6870
 1597.5000   -40.9030     8.6300     7.3920     8.2100     9.5620    -0.0010     0.3290     2.5700   125.8570
 1598.0000   -41.0540     8.5200     7.3470     8.1990     9.5470     0.0000     0.3240     2.5710   128.9770
 1598.5000   -41.2060     8.4090     7.2980     8.1880     9.5320     0.0010     0.3230     2.5700   129.3840
 1599.0000   -41.3610     8.3000     7.2980     8.1780     9.5180     0.0030     0.3270     2.5770   129.7110
 1599.5000   -41.2920     8.4920     7.4480     8.1670     9.5040     0.0050     0.3390     2.5870   129.6480
 1600.0000   -41.2040     8.7040     7.6120     8.1560     9.4980     0.0080     0.3420     2.6030   127.3790
 1600.5000   -41.1170     8.9150     7.8550     8.1490     9.4760     0.0100     0.3340     2.6010   124.0930
 1601.0000   -41.0300     9.0160     7.7460     8.3040     9.4760     0.0130     0.3430     2.6000   121.8180
 1601.5000   -40.9410     8.9320     7.6350     8.4440     9.4760     0.0160     0.3450     2.6000   120.5910
 1602.0000   -40.8510     8.8590     7.5240     8.5320     9.4760     0.0170     0.3370     2.6070   124.7240
 1602.5000   -40.8130     8.7700     7.4340     8.5140     9.4760     0.0130     0.3280     2.5980   125.4730
 1603.0000   -40.8610     8.8810     7.4780     8.4820     9.4760     0.0100     0.3240     2.5930   128.0010
 1603.5000   -40.7530     9.0990     7.5330     8.4500     9.4760     0.0060     0.3310     2.5990   129.8180
 1604.0000   -40.6350     9.0620     7.5890     8.4190     9.4760     0.0040     0.3360     2.5780   130.5980
 1604.5000   -40.5160     9.0180     7.6410     8.3870     9.4760     0.0100     0.3390     2.5810   131.1980
 1605.0000   -40.3960     8.9730     7.5350     8.3760     9.4760     0.0130     0.3410     2.5770   130.8980
 1605.5000   -40.4540     8.8510     7.4810     8.3920     9.4760     0.0060     0.3420     2.5810   129.5280
 1606.0000   -40.5730     8.9450     7.4340     8.4070     9.4760     0.0020     0.3430     2.5870   128.4820
 1606.5000   -40.6940     9.0770     7.6110     8.4220     9.4760     0.0020     0.3400     2.5740   127.4400
 1607.0000   -40.8140     9.2090     7.8040     8.4360     9.4880     0.0030     0.3250     2.5610   128.1210
 1607.5000   -40.9350     9.2680     7.9270     8.4510     9.5010     0.0030     0.3190     2.5720   127.7500
 1608.0000   -41.0550     9.1520     8.0360     8.5260     9.5140     0.0030     0.3120     2.5840   127.2560
 1608.5000   -41.1760     9.0290     8.1280     8.6520     9.5270     0.0030     0.3070     2.5880   128.6480
 1609.0000   -41.2960     9.3400     8.2200     8.7770     9.5410     0.0040     0.3000     2.5870   130.1080
 1609.5000   -41.4170     9.8690     8.3130     8.9030     9.5540     0.0050     0.2960     2.5880   131.2410
 1610.0000   -41.5400    10.1590     8.4050     9.0280     9.5670     0.0130     0.2920     2.6050   130.8300
 1610.5000   -41.5670    10.0350     8.4540     9.1540     9.5800     0.0090     0.3020     2.6000   129.0930
 1611.0000   -41.5680     9.7930     8.3820     9.2680     9.5940     0.0070     0.2980     2.5940   126.2260
 1611.5000   -41.5680     9.8220     8.3150     9.2680     9.6070     0.0070     0.3010     2.5980   124.6070
 1612.0000   -41.5690     9.8800     8.2480     9.1810     9.6200     0.0100     0.3000     2.5920   125.4060
 1612.5000   -41.5140     9.9660     8.1810     9.0860     9.6350     0.0110     0.2970     2.5860   126.6080
 1613.0000   -41.4370     9.8570     8.1140     8.9910     9.6080     0.0100     0.3080     2.5920   126.5420
 1613.5000   -41.3600     9.5310     8.0470     8.8960     9.5930     0.0080     0.3170     2.5950   125.0590
 1614.0000   -41.2820     9.2060     7.9800     8.8020     9.5770     0.0130     0.3260     2.6050   124.8130
 1614.5000   -41.2050     8.9330     7.9270     8.7070     9.5610     0.0200     0.3190     2.6120   126.4370
 1615.0000   -41.1270     9.1310     7.9520     8.6900     9.5560     0.0250     0.3160     2.6040   128.6070
 1615.5000   -41.0490     9.4470     8.0090     8.8140     9.5580     0.0140     0.3130     2.5960   129.8270
 1616.0000   -40.9720     9.6260     8.0660     8.9140     9.5600     0.0190     0.3000     2.6170   129.5130
 1616.5000   -40.8940     9.6690     8.1240     9.0150     9.5610     0.0290     0.2940     2.6360   127.3380
 1617.0000   -40.8170     9.7130     8.1810     9.1150     9.5630     0.0200     0.2880     2.6160   124.2670
 1617.5000   -40.7390     9.7560     8.2380     9.2680     9.5650     0.0150     0.2860     2.6030   124.2780
 1618.0000   -40.6610     9.7880     8.2950     9.2560     9.5670     0.0140     0.3000     2.5970   125.9800
 1618.5000   -40.5860     9.6560     8.3520     9.2340     9.5690     0.0130     0.2990     2.5950   127.7130
