~VERSION INFORMATION
 VERS.                2.0:   CWLS LOG ASCII STANDARD - VERSION 2.0
 WRAP.                 NO:   ONE LINE PER DEPTH STEP
~WELL INFORMATION
#MNEM.UNIT      DATA TYPE    INFORMATION
#----------   ------------   ------------------------------
 STRT.F          500.0000:   START DEPTH
 STOP.F         2517.0000:   STOP DEPTH
 STEP.F            0.5000:   STEP LENGTH
 NULL.          -999.2500:   NO VALUE
 COMP.    FENIX & SCISSON:   COMPANY
 WELL. FENIX & SCISSON SHX #46-33:   WELL
 FLD .  TEAPOT DOME NPR-3:   FIELD
 LOC .      S33 T39N R78W:   LOCATION
 CNTY.            NATRONA:   COUNTY
 STAT.            WYOMING:   STATE
 CTRY. UNITED STATES OF AMERICA:   COUNTRY
 SRVC.           BIRDWELL:   SERVICE COMPANY
 DATE.        04-APR-1979:   LOGDATE
 API .     49025107670000:   API NUMBER
~CURVE INFORMATION
#MNEM.UNIT       API CODE    CURVE DESCRIPTION
#----------   ------------   ------------------------------
 DEPT.F                  :   
 GRD .GAPI   45 310 01 00:   GAMMA RAY FROM DENSITY LOG
 CALD.IN     45 280 60 00:   CALIPER FROM DENSITY LOG
 CORR.G/C3   45 356 01 00:   DENSITY CORRECTION
 RHOB.G/C3   45 350 01 00:   BULK DENSITY
~PARAMETER INFORMATION
#MNEM.UNIT          VALUE    DESCRIPTION
#----------   ------------   ------------------------------
 EKB .F         5217.0000:   Kelly bushing
 EGL .F         5207.0000:   Ground level
 EDF .F            0.0000:   Drilling floor
 TD  .F         2630.0000:   Total depth
 CLNT.            A2DTECH:   Client Code
 SL  . 1955' FSL & 1970' FWL:   Surface Location
 PD  .                 GL:   Permanent Datum
 EPD .F              5207:   Elevation Permanent Datum
 LMF .                 KB:   Log Measured From
 DMF .                 KB:   Drilling Measured From
 DAPD.                 10:   Feet Above Permanent Datum
 DATE.        04-APR-1979:   Date Logged [DD-MMM-YYYY]
 DD  .F              2630:   Depth driller
 DL  .F              2517:   Depth logger
 BLI .F              2517:   Bottom log interval
 TLI .F               504:   Top log interval
 CS1 .              9.625:   Casing size
 CBD1.      9.625" @ 300':   Casing driller 1
 CBL1.IN              306:   Casing logger 1
 BS1 .IN            7.875:   Bit size
 BSD1.F              2630:   Depth drilled with bit1
 DFT .                OIL:   Type fluid in hole
 LUL .             CASPER:   Logging unit location
 ENGI.            ROLLINS:   Recorded By
 ORIG.           5" PRINT:   Origin of data
 UWI .     49025107670000:   Unique Well ID
 DICO. A2D TECHNOLOGIES ,INC.:   Digitizing Company
 WITN.              AMUND:   Witnessed by
~OTHER INFORMATION
~A   DEPT      GRD       CALD       CORR       RHOB   
# ...
 1522.0000    18.4206    10.0511  -999.2500     2.5031
 1522.5000    18.8795     9.9029  -999.2500     2.5629
 1523.0000    17.4069     9.7397  -999.2500     2.5932
 1523.5000    16.5285     9.7259  -999.2500     2.5698
 1524.0000    16.0960     9.8924  -999.2500     2.5782
 1524.5000    18.6352     9.9986  -999.2500     2.6396
 1525.0000    20.4315    10.0450  -999.2500     2.7116
 1525.5000    20.8904    10.0315  -999.2500     2.7329
 1526.0000    19.5663     9.8833  -999.2500     2.7610
 1526.5000    18.8366     9.8398     0.3791     2.7202
 1527.0000    19.0035     9.9162     0.2908     2.6188
 1527.5000    20.1269    10.0075     0.2863     2.5932
 1528.0000    25.3354    10.0391     0.3002     2.6561
 1528.5000    30.4945     9.8584     0.2378     2.6456
 1529.0000    32.2789     9.8024     0.2135     2.6162
 1529.5000    27.8345     9.8787     0.2121     2.6072
 1530.0000    25.4703     9.7757     0.2168     2.6201
 1530.5000    21.1744     9.6724     0.2245     2.6240
 1531.0000    21.0357     9.7488     0.2292     2.6294
 1531.5000    21.0522     9.8850     0.2339     2.6318
 1532.0000    20.9168    10.0062     0.2248     2.6197
 1532.5000    20.9301    10.0376     0.2173     2.6030
 1533.0000    20.0517    10.0541     0.2296     2.5818
 1533.5000    19.0215    10.1154     0.2572     2.5723
 1534.0000    23.1985    10.4313     0.3167     2.5958
 1534.5000    21.4286    10.5671     0.3519     2.6528
 1535.0000    20.5503    10.0450     0.3068     2.6566
 1535.5000    20.4145    10.0311     0.2249     2.6310
 1536.0000    20.7253    10.0779     0.2009     2.6122
 1536.5000    21.3329    10.0810     0.1936     2.6009
 1537.0000    21.3461     9.9761     0.1908     2.5942
 1537.5000    21.0621     9.9177     0.2108     2.5905
 1538.0000    22.0070     9.9649     0.2658     2.6118
 1538.5000    22.2773    10.0270     0.2963     2.6361
 1539.0000    23.0367    10.0742     0.3010     2.6430
 1539.5000    24.5325    10.1186     0.2889     2.6234
 1540.0000    20.3885    10.1350     0.2814     2.6008
 1540.5000    19.0644    10.1365     0.3059     2.5956
 1541.0000    18.4833    10.1529     0.3350     2.5926
 1541.5000    19.5366    10.1694     0.4052     2.6003
 1542.0000    21.7787    10.1409     0.4495     2.6284
 1542.5000    21.9372    10.1121     0.4694     2.7117
 1543.0000    20.1706    10.0986     0.4650     2.7566
 1543.5000    18.4007    10.0851     0.3187     2.7694
 1544.0000    16.0365    10.0869     0.2594     2.7072
 1544.5000    13.9662    10.0731     0.2473     2.6098
 1545.0000    14.4285    10.0899     0.2688     2.5661
 1545.5000    14.6073    10.0914     0.2978     2.5495
 1546.0000    12.6718    10.0928     0.3162     2.5451
 1546.5000    12.0906    10.0943     0.2624     2.4990
 1547.0000    15.4214    10.1110     0.2002     2.3431
 1547.5000    19.7571    10.1272     0.1761     2.2438
 1548.0000    23.4138     9.8503     0.2034     2.1869
 1548.5000    25.8143     9.7260     0.3457     2.3692
 1549.0000    26.1273     9.7125     0.3519     2.4525
 1549.5000    26.7349     9.6545     0.3094     2.4640
 1550.0000    27.6396     9.4613     0.2836     2.4625
 1550.5000    24.3839     9.3430     0.2806     2.4383
 1551.0000    22.3169     9.2697     0.3051     2.4198
 1551.5000    22.3301     9.2408     0.3082     2.3756
 1552.0000    22.4968     9.2124     0.2946     2.2638
 1552.5000    22.2139     9.3040     0.2963     2.1731
 1553.0000    20.1488     9.4253     0.3055     2.1354
 1553.5000    22.3923     9.1840     0.3529     2.1309
 1554.0000    25.3910     9.0802     0.4917     2.2262
 1554.5000    25.9878     9.0975  -999.2500     2.2980
 1555.0000    26.2308     9.1422  -999.2500     2.3215
 1555.5000    29.6376     9.1759  -999.2500     2.3722
 1556.0000    29.3045     9.1894  -999.2500     2.4529
 1556.5000    28.4240     9.4000  -999.2500     2.5056
 1557.0000    28.1415     9.5358  -999.2500     2.5208
 1557.5000    28.4570     9.6117  -999.2500     2.5217
 1558.0000    30.4033     9.6576  -999.2500     2.5634
 1558.5000    33.5384     9.4641  -999.2500     2.6248
 1559.0000    32.0672     9.4052  -999.2500     2.6446
 1559.5000    30.2988     9.3314     0.5000     2.6485
 1560.0000    29.7192     9.3624     0.4259     2.6229
 1560.5000    28.2480     9.4981     0.4398     2.6207
 1561.0000    25.4395     9.5890     0.4583     2.6677
 1561.5000    24.7112     9.6200     0.4707     2.7413
 1562.0000    24.1279     9.6510     0.4465     2.7474
 1562.5000    26.5236     9.6670     0.3400     2.6597
 1563.0000    27.0014     9.6680     0.3432     2.6424
 1563.5000    24.1756     9.6690     0.3556     2.6418
 1564.0000    21.3671     9.6701     0.3588     2.6404
 1564.5000    22.1248     9.6711     0.3574     2.6253
 1565.0000    22.4368     9.6721     0.3134     2.6035
 1565.5000    19.5745     9.6582     0.2648     2.5550
 1566.0000    16.2021     9.6419     0.2513     2.5225
 1566.5000    18.0267     9.5557     0.3240     2.5243
 1567.0000    21.0131     9.4520     0.3564     2.5570
 1567.5000    21.3250     9.4378     0.3891     2.5753
 1568.0000    22.2312     9.4391     0.4106     2.6473
 1568.5000    24.9205     9.4401     0.4275     2.7307
 1569.0000    25.8267     9.4259     0.3957     2.7550
 1569.5000    25.9863     9.3823     0.3181     2.6991
 1570.0000    25.4103     9.3534     0.2070     2.5977
 1570.5000    23.1962     9.3545     0.1310     2.5327
 1571.0000    22.9100     9.3705     0.1083     2.4662
 1571.5000    24.7115     9.4014     0.0978     2.3558
 1572.0000    28.2923     9.4474     0.0889     2.3007
 1572.5000    30.0900     9.4784     0.1683     2.4128
 1573.0000    31.4420     9.4494     0.3255     2.5424
 1573.5000    32.3482     9.3457     0.3287     2.5667
 1574.0000    29.9855     9.2868     0.3335     2.5819
 1574.5000    25.6911     9.2879     0.3443     2.5866
 1575.0000    23.9227     9.2889     0.3552     2.5905
 1575.5000    23.6402     9.2900     0.3631     2.5959
 1576.0000    27.1418     9.2910     0.3728     2.5968
 1576.5000    28.7430     9.2920     0.3915     2.5938
 1577.0000    29.0342     9.3231     0.4261     2.5720
 1577.5000    28.0117     9.3692     0.4598     2.5372
 1578.0000    24.7575     9.4152     0.4966     2.4944
 1578.5000    21.5032     9.4910     0.4982     2.4860
 1579.0000    21.3656     9.5669     0.4984     2.5558
 1579.5000    25.3959     9.6428     0.4986     2.6558
 1580.0000    26.7479     9.7187     0.4987     2.6922
 1580.5000    29.1400     9.7646     0.4989     2.6711
 1581.0000    28.7089     9.8106     0.4382     2.5554
 1581.5000    27.2377     9.8266     0.4292     2.5321
 1582.0000    27.2524     9.8426     0.4508     2.5405
 1582.5000    27.4157     9.8436     0.4403     2.6314
 1583.0000    27.1332     9.8447     0.4313     2.6293
 1583.5000    25.0676     9.8305     0.4330     2.6278
 1584.0000    20.3275     9.8018     0.4469     2.7006
 1584.5000    18.4105     9.8029     0.4852     2.8188
 1585.0000    18.2764     9.8189     0.4960     2.8000
 1585.5000    18.2913     9.8499     0.3514     2.7502
 1586.0000    18.4547     9.9415     0.2601     2.6935
 1586.5000    19.3828     9.9867     0.2405     2.6766
 1587.0000    19.8217     9.9542     0.2331     2.6786
 1587.5000    19.9358     9.8989     0.2271     2.6779
 1588.0000    24.6091     9.8850     0.2043     2.6651
 1588.5000    28.0413     9.8710     0.2016     2.6668
 1589.0000    28.7990     9.8424     0.2033     2.6699
 1589.5000    29.4080     9.8132     0.1989     2.6668
 1590.0000    31.0572     9.8145     0.1975     2.6561
 1590.5000    27.0600     9.8156     0.1978     2.6442
 1591.0000    25.7374     9.8166     0.1980     2.6378
 1591.5000    23.9690     9.8176     0.2027     2.6409
 1592.0000    20.7147     9.8187     0.2044     2.6554
 1592.5000    17.6091     9.8197     0.1985     2.6578
 1593.0000    14.8006     9.8207     0.1956     2.6473
 1593.5000    15.2610     9.8367     0.1927     2.6444
 1594.0000    20.1791     9.8378     0.2112     2.6437
 1594.5000    22.8684     9.8238     0.2312     2.6446
