~VERSION INFORMATION
 VERS.                2.0:   CWLS LOG ASCII STANDARD - VERSION 2.0
 WRAP.                 NO:   ONE LINE PER DEPTH STEP
~WELL INFORMATION
#MNEM.UNIT      DATA TYPE    INFORMATION
#----------   ------------   ------------------------------
 STRT.F          200.0000:   START DEPTH
 STOP.F         3078.0000:   STOP DEPTH
 STEP.F            0.5000:   STEP LENGTH
 NULL.          -999.2500:   NO VALUE
 COMP.   FENIX & SCISSION:   COMPANY
 WELL. FENIX NPR 72 "A" #3-28:   WELL
 FLD .              NPR-3:   FIELD
 LOC .      S28 T39N R78W:   LOCATION
 CNTY.            NATRONA:   COUNTY
 STAT.            WYOMING:   STATE
 CTRY. UNITED STATES OF AMERICA:   COUNTRY
 SRVC.              WELEX:   SERVICE COMPANY
 DATE.        06-JUN-1977:   LOGDATE
 API .     49025103770000:   API NUMBER
~CURVE INFORMATION
#MNEM.UNIT       API CODE    CURVE DESCRIPTION
#----------   ------------   ------------------------------
 DEPT.F                  :   
 CORR.G/C3   45 356 01 00:   DENSITY CORRECTION
 RHOB.G/C3   45 350 01 00:   BULK DENSITY
 CALD.IN     45 280 60 00:   CALIPER FROM DENSITY LOG
 SPR .MV     07 010 01 00:   SPONTANEOUS POTENTIAL
 GURD.OHMM   07 220 05 00:   GUARD LOG RESISTIVITY
 ILM .OHMM   07 120 44 00:   INDUCTION LOG MEDIUM RESISTIVITY
 ILD .OHMM   07 120 46 00:   DEEP INDUCTION RESISTIVITY
 GRD .GAPI   45 310 01 00:   GAMMA RAY FROM DENSITY LOG
~PARAMETER INFORMATION
#MNEM.UNIT          VALUE    DESCRIPTION
#----------   ------------   ------------------------------
 EKB .F         5022.0000:   Kelly bushing
 EGL .F         5011.0000:   Ground level
 EDF .F            0.0000:   Drilling floor
 EPD .F         5011.0000:   Permanent datum
 TD  .F         3081.0000:   Total depth
 DATE.        06-JUN-1977:   Date logged
 CLNT.            A2DTECH:   Client Code
 SL  . 990' FNL & 990' FEL:   Surface Location
 PD  .                 GL:   Permanent Datum
 DAPD.F                11:   Feet Above Permanent Datum
 DD  .F              3041:   Depth driller
 DL  .F              3081:   Depth logger
 BLI .F              3079:   Bottom log interval
 TLI .F               200:   Top log interval
 CS1 .IN            8.625:   Casing size
 CBD1.      8.625" @ 200':   Casing driller 1
 CBL1.F               218:   Casing logger 1
 BS1 .IN            7.875:   Bit size
 BSD1.F              3041:   Depth drilled with bit1
 DFT .            KCL MUD:   Type fluid in hole
 DFD .                8.8:   Density
 DFV .                 38:   Viscosity
 DFPH.                7.5:   pH
 DFL .                5.8:   Fluid loss
 MSS .           FLOWLINE:   Source of sample
 RMS .OHMM           1.19:   Rm
 MST .F                89:   Rm Meas. temp.
 RMF .OHMM           1.05:   Rmf
 MFST.F                89:   Rmf Meas. temp.
 RMC .OHMM           2.17:   Rmc
 MCST.F                89:   Rmc Meas. temp.
 MFSS.               FANN:   Source Rmf.
 MCSS.                KIT:   Source Rmc.
 RMB .OHMM           0.98:   Rm. at BHT
 BHT .F               108:   BHT.
 TCS .HRS             2.5:   Time Circ. stopped
 MRT .F               108:   Maximum recorded temp.
 LUN .               8611:   Logging unit number
 LUL .             CASPER:   Logging unit location
 ENGI.          T. JOYNER:   Recorded By
 WITN.      W. PETTINGILL:   Witnessed by
 ORIG.           5" PRINT:   Origin of data
 UWI .     49025103770000:   Unique Well ID
 DICO. A2D TECHNOLOGIES, INC.:   Digitizing Company
~OTHER INFORMATION
~A   DEPT     CORR       RHOB         CALD      SPR       GURD        ILM        ILD         GRD  
# ...
 1334.0000     0.0010     2.4620     9.0120   -51.0780     9.0280     8.6130     8.2530   100.5790
 1334.5000     0.0010     2.4640     9.0120   -51.0780     9.1000     8.5630     8.3030   101.2320
 1335.0000     0.0010     2.4650     9.0120   -51.0780     8.9930     8.4620     8.1920   101.8790
 1335.5000     0.0010     2.4640     9.0240   -51.0780     8.9110     8.3620     8.0910   101.4090
 1336.0000     0.0010     2.4620     9.0370   -51.0780     8.8290     8.2620     7.9900   100.8170
 1336.5000     0.0010     2.4660     9.0490   -51.0780     8.7720     8.1520     7.8580   101.1680
 1337.0000     0.0010     2.4710     9.0390   -51.0780     8.7720     8.1410     7.8730   101.5460
 1337.5000     0.0000     2.4720     9.0260   -51.0780     8.7720     8.1240     7.8950   101.9170
 1338.0000    -0.0010     2.4650     9.0120   -51.0780     8.7720     8.1080     7.9160   102.2450
 1338.5000    -0.0010     2.4590     9.0180   -51.0780     8.7290     8.0920     7.9310   104.0880
 1339.0000    -0.0020     2.4550     9.0240   -51.0780     8.5850     8.0780     7.9240   106.0630
 1339.5000    -0.0020     2.4570     9.0300   -51.0780     8.4560     8.0930     7.9030   106.5430
 1340.0000    -0.0020     2.4630     9.0360   -51.0780     8.4840     8.1080     7.8820   107.0710
 1340.5000    -0.0010     2.4680     9.0430   -51.0780     8.5090     8.1220     7.8590   106.7630
 1341.0000     0.0000     2.4680     9.0490   -51.0780     8.5350     8.1360     7.8710   106.3940
 1341.5000     0.0010     2.4650     9.0440   -51.0780     8.5600     8.1510     7.8850   106.0020
 1342.0000     0.0010     2.4640     9.0320   -51.0780     8.5850     8.1650     7.8990   106.5220
 1342.5000     0.0020     2.4670     9.0190   -51.0780     8.6130     8.1800     7.9130   107.3640
 1343.0000     0.0020     2.4700     9.0070   -51.0780     8.5900     8.1940     7.9270   108.2170
 1343.5000     0.0030     2.4720     8.9940   -51.0780     8.5650     8.2080     7.9310   108.6430
 1344.0000     0.0040     2.4740     8.9810   -51.0780     8.5400     8.2270     7.9310   107.8260
 1344.5000     0.0050     2.4770     8.9690   -51.0780     8.5140     8.1930     7.9310   107.0060
 1345.0000     0.0050     2.4750     8.9560   -51.0780     8.4890     8.1440     7.9310   107.0090
 1345.5000     0.0050     2.4710     8.9440   -51.0780     8.4640     8.0960     7.9300   107.7170
 1346.0000     0.0040     2.4680     8.9330   -51.0780     8.4160     8.0470     7.9310   108.4260
 1346.5000     0.0040     2.4640     8.9370   -51.0780     8.3590     8.0040     7.7870   109.1420
 1347.0000     0.0030     2.4650     8.9400   -51.0780     8.3010     8.0490     7.8580   109.8200
 1347.5000     0.0030     2.4710     8.9420   -51.0780     8.2440     8.0770     7.7120   109.0730
 1348.0000     0.0030     2.4760     8.9450   -51.0780     8.2270     7.9530     7.5490   108.2450
 1348.5000     0.0020     2.4750     8.9480   -51.0780     8.2270     7.8400     7.3700   107.4230
 1349.0000     0.0020     2.4740     8.9510   -51.0780     8.2270     7.7160     7.3850   106.6580
 1349.5000     0.0020     2.4730     8.9460   -51.0780     8.2270     7.7680     7.4160   106.2660
 1350.0000     0.0030     2.4720     8.9210   -51.0780     8.2270     7.8250     7.4720   105.8840
 1350.5000     0.0040     2.4710     8.9200   -51.0780     8.2270     7.8830     7.5840   105.4730
 1351.0000     0.0060     2.4740     8.9290   -51.0780     8.2880     7.9400     7.6970   104.2800
 1351.5000     0.0070     2.4760     8.9370   -51.0780     8.3540     7.9980     7.8100   103.1310
 1352.0000     0.0080     2.4780     8.9450   -51.0780     8.4210     8.0560     7.9310   101.9990
 1352.5000     0.0100     2.4810     8.9540   -51.0780     8.4880     8.1130     7.9460   101.2160
 1353.0000     0.0100     2.4830     8.9670   -51.0780     8.5550     8.1770     7.9630   101.4360
 1353.5000     0.0110     2.4860     8.9800   -51.0780     8.6220     8.2540     7.9800   101.6320
 1354.0000     0.0120     2.4900     8.9930   -51.0780     8.6890     8.3310     7.9960   101.8500
 1354.5000     0.0130     2.4930     9.0160   -51.0780     8.7720     8.4450     8.0220   102.6710
 1355.0000     0.0130     2.4970     9.0390   -51.0820     8.6730     8.4160     8.0730   104.9850
 1355.5000     0.0150     2.5010     9.0610   -51.0880     8.5410     8.3050     8.0230   105.7480
 1356.0000     0.0160     2.5000     9.0840   -51.0940     8.4090     8.1940     7.8750   106.5210
 1356.5000     0.0170     2.5030     9.1060   -51.1000     8.3350     8.0820     7.7260   107.0040
 1357.0000     0.0190     2.5070     9.1030   -51.1060     8.2780     7.9710     7.5750   106.5380
 1357.5000     0.0200     2.5100     9.0950   -51.1120     8.2210     7.8580     7.5270   105.5370
 1358.0000     0.0210     2.5140     9.0880   -51.1180     8.1630     7.8410     7.4770   103.8960
 1358.5000     0.0230     2.5140     9.0800   -51.1240     8.1410     7.8230     7.4360   102.2580
 1359.0000     0.0220     2.5130     9.0730   -51.1300     8.1230     7.8050     7.4260   100.6180
 1359.5000     0.0200     2.5160     9.0540   -51.1360     8.1060     7.7870     7.4160    98.9800
 1360.0000     0.0170     2.5140     9.0300   -51.1420     8.0770     7.7690     7.4060    97.3470
 1360.5000     0.0150     2.5090     9.0050   -51.1480     8.1040     7.7510     7.3960    95.6320
 1361.0000     0.0120     2.5040     8.9810   -51.1540     8.1670     7.7330     7.3860    95.2270
 1361.5000     0.0110     2.4980     8.9570   -51.1600     8.2270     7.7160     7.3760    98.2020
 1362.0000     0.0100     2.4920     8.9330   -51.1660     8.1100     7.7160     7.3660   102.6420
 1362.5000     0.0090     2.4870     8.9130   -51.1720     8.0040     7.7160     7.3560   107.2820
 1363.0000     0.0080     2.4860     8.8960   -51.1780     8.0210     7.7160     7.3470   109.1990
 1363.5000     0.0080     2.4840     8.8780   -51.1840     8.0380     7.7160     7.3380   110.1030
 1364.0000     0.0090     2.4810     8.8850   -51.1900     8.0550     7.7160     7.3280   110.9500
 1364.5000     0.0090     2.4830     8.8960   -51.1960     8.0770     7.7160     7.3190   110.9490
 1365.0000     0.0090     2.4830     8.9070   -51.2020     8.0360     7.7160     7.3090   109.8430
 1365.5000     0.0090     2.4840     8.9180   -51.2080     7.9740     7.7160     7.3030   108.7460
 1366.0000     0.0090     2.4830     8.9290   -51.2140     7.9310     7.7160     7.3410   107.6500
 1366.5000     0.0080     2.4820     8.9400   -51.2200     8.0200     7.7160     7.3700   106.5590
 1367.0000     0.0080     2.4810     8.9520   -51.2260     8.0900     7.7160     7.4000   106.2710
 1367.5000     0.0080     2.4790     8.9490   -51.2320     8.1530     7.7150     7.4290   107.0870
 1368.0000     0.0080     2.4770     8.9440   -51.2380     8.1660     7.7160     7.4590   107.9000
 1368.5000     0.0070     2.4730     8.9390   -51.2440     8.1790     7.7560     7.4890   108.6220
 1369.0000     0.0050     2.4690     8.9350   -51.2500     8.1920     7.8000     7.5190   107.4770
 1369.5000     0.0020     2.4650     8.9280   -51.2560     8.2050     7.8440     7.5480   106.2780
 1370.0000     0.0000     2.4600     8.9210   -51.2620     8.2180     7.8880     7.5780   105.1760
 1370.5000    -0.0020     2.4570     8.9150   -51.2680     8.2420     7.9320     7.6080   105.7840
 1371.0000    -0.0040     2.4560     8.9270   -51.2740     8.2870     7.9750     7.6380   106.4660
 1371.5000    -0.0040     2.4580     8.9410   -51.2660     8.3310     8.0220     7.6910   105.8080
 1372.0000    -0.0040     2.4610     8.9520   -51.2550     8.3750     8.0750     7.7510   104.3760
 1372.5000    -0.0030     2.4640     8.9230   -51.2450     8.4200     8.1270     7.8120   102.9280
 1373.0000    -0.0030     2.4660     8.8940   -51.2350     8.4700     8.1790     7.8720   102.8290
 1373.5000    -0.0020     2.4620     8.8820   -51.2240     8.5460     8.2320     7.9320   103.9560
 1374.0000    -0.0020     2.4590     8.8970   -51.2140     8.6220     8.2840     7.9930   105.0800
