~VERSION INFORMATION
 VERS.                2.0:   CWLS LOG ASCII STANDARD - VERSION 2.0
 WRAP.                 NO:   ONE LINE PER DEPTH STEP
~WELL INFORMATION
#MNEM.UNIT      DATA TYPE    INFORMATION
#----------   ------------   ------------------------------
 STRT.F           61.5000:   START DEPTH
 STOP.F         4220.0000:   STOP DEPTH
 STEP.F            0.5000:   STEP LENGTH
 NULL.          -999.2500:   NO VALUE
 COMP.   LAWRENCE ALLISON:   COMPANY
 WELL. ALLISON NPR 3 "LX" #28-34:   WELL
 FLD .                NPR:   FIELD
 LOC .      S34 T39N R78W:   LOCATION
 CNTY.            NATRONA:   COUNTY
 STAT.            WYOMING:   STATE
 CTRY. UNITED STATES OF AMERICA:   COUNTRY
 SRVC.       DRESER ATLAS:   SERVICE COMPANY
 DATE.        23-MAR-1983:   LOGDATE
 API .     49025109190000:   API NUMBER
~CURVE INFORMATION
#MNEM.UNIT       API CODE    CURVE DESCRIPTION
#----------   ------------   ------------------------------
 DEPT.F                  :   
 TEND.LBS    45 635 01 00:   TENSION FROM DENSITY LOG
 CORR.G/C3   45 356 01 00:   DENSITY CORRECTION
 RHOB.G/C3   45 350 01 00:   BULK DENSITY
 CN  .DEC    42 890 00 00:   Neutron Porosity
 SPR .MV     07 010 01 00:   SPONTANEOUS POTENTIAL
 GRR .GAPI   07 310 01 00:   GAMMA RAY FROM RESISTIVITY
 TENR.LBS    07 635 01 00:   TENSION FROM RESISTIVITY
 RILD.OHMM   07 120 46 00:   DEEP INDUCTION RESISTIVITY
 RILM.OHMM   07 120 44 00:   INDUCTION LOG MEDIUM RESISTIVITY
 RFOC.OHMM   07 220 01 00:   RESISTIVITY FOCUSED LOG RES.
 TENS.LBS    60 635 01 00:   TENSION FROM SONIC LOG
 DT  .US/F   60 520 00 00:   DELTA TIME
 CALS.IN     60 280 50 00:   CALIPER FROM SONIC LOG
~PARAMETER INFORMATION
#MNEM.UNIT          VALUE    DESCRIPTION
#----------   ------------   ------------------------------
 EKB .F         5184.0000:   Kelly bushing
 EGL .F         5174.0000:   Ground level
 EDF .F            0.0000:   Drilling floor
 TD  .F         4397.0000:   Total depth
 DATE.        23-MAR-1983:   Date logged
 CLNT.            A2DTECH:   Client Code
 SL  . 942' FWL & 645' FSL:   Surface Location
 PD  .                 GL:   Permanent Datum
 EPD .F              5174:   Elevation Permanent Datum
 LMF .                 KB:   Log Measured From
 DMF .                 KB:   Drilling Measured From
 DAPD.F                10:   Feet Above Permanent Datum
 DD  .F              4397:   Depth driller
 DL  .F              4203:   Depth logger
 BLI .F              4201:   Bottom log interval
 CS1 .IN            9.625:   Casing size
 CBD1.      9.625" @ 659':   Casing driller 1
 CBL1.F               658:   Casing logger 1
 BS1 .IN             8.75:   Bit size
 BSD1.F              4397:   Depth drilled with bit1
 DFT .   GEL/DRISPACK/KCL:   Type fluid in hole
 DFD .                8.6:   Density
 DFV .                 36:   Viscosity
 DFPH.                8.5:   pH
 DFL .                 18:   Fluid loss
 MSS .               TANK:   Source of sample
 RMS .OHMM           0.55:   Rm
 MST .F                74:   Rm Meas. temp.
 RMF .OHMM           0.43:   Rmf
 MFST.F                66:   Rmf Meas. temp.
 RMC .OHMM           0.69:   Rmc
 MCST.F                74:   Rmc Meas. temp.
 MFSS.               MEAS:   Source Rmf.
 MCSS.               CALC:   Source Rmc.
 RMB .OHMM           0.33:   Rm. at BHT
 BHT .F               122:   BHT.
 TCS .HRS             5.5:   Time Circ. stopped
 MRT .F               122:   Maximum recorded temp.
 LUN .               6270:   Logging unit number
 LUL .              WLSTN:   Logging unit location
 ENGI.             REEVES:   Recorded By
 WITN.             STRONG:   Witnessed by
 ORIG.           5" PRINT:   Origin of data
 UWI .     49025109190000:   Unique Well ID
 DICO. A2D TECHNOLOGIES, INC.:   Digitizing Company
~OTHER INFORMATION
~A   DEPT     TEND       CORR       RHOB         CN        SPR         GRR      TENR       RILD       RILM       RFOC       TENS         DT       CALS   
# ...
 1595.5000   -84.0330     0.2130     2.4050     0.3180   -29.8690   104.8310   -56.2940     4.7150     4.8280     5.1030   -71.5150    91.9080    15.4200
 1596.0000   -85.9270     0.1950     2.4160     0.3050   -29.8500   106.0030   -56.0930     4.5990     4.8280     4.9180   -71.6260    93.7150    15.4200
 1596.5000   -87.8210     0.1050     2.4980     0.2910   -29.8310   107.1810   -55.8930     4.7280     4.9970     5.0240   -71.7370    94.1460    15.4200
 1597.0000   -89.7140     0.0970     2.5710     0.2790   -29.8090   108.5550   -55.6920     4.9440     5.1460     5.1030   -71.8480    93.5970    15.4200
 1597.5000   -91.6080     0.0980     2.5990     0.2730   -29.8160   109.0290   -55.4920     5.1600     5.2950     5.3580   -71.9590    92.2810    15.4200
 1598.0000   -93.5020     0.1190     2.5970     0.2690   -29.8690   108.1590   -55.2920     5.3750     5.4440     5.5800   -72.0700    90.9650    15.4200
 1598.5000   -94.6890     0.1300     2.5770     0.2700   -29.9190   105.5160   -55.0910     5.5970     5.5970     5.8070   -72.1810    89.6500    15.4200
 1599.0000   -94.6890     0.0930     2.5290     0.2690   -29.9690   103.7770   -54.8910     5.6100     5.6170     5.7900   -72.2920    89.0960    15.4200
 1599.5000   -94.6890     0.0700     2.5080     0.2690   -30.0200   104.6250   -54.6900     5.6340     5.6380     5.7720   -72.4030    89.0960    15.4200
 1600.0000   -94.6890     0.0480     2.5140     0.2680   -30.0690   105.5310   -54.6090     5.6570     5.6590     5.7540   -72.5140    89.7490    15.4200
 1600.5000   -94.6890     0.0630     2.5230     0.2920   -30.1190   105.8550   -54.6090     5.6800     5.6800     5.7360   -72.6250    90.4070    15.4200
 1601.0000   -94.6890     0.0670     2.5330     0.3150   -30.1760   104.4540   -54.6090     5.7040     5.7010     5.7180   -72.7360    91.0650    15.4200
 1601.5000   -94.6890     0.0600     2.5420     0.3160   -30.1750   101.6340   -54.6090     5.7270     5.7220     5.7010   -72.8470    91.7070    15.4200
 1602.0000   -94.6890     0.0590     2.5470     0.3060   -30.0980    98.3230   -54.6090     5.7510     5.7440     5.7600   -72.9580    91.7070    15.4200
 1602.5000   -94.6890     0.0700     2.5520     0.2950   -30.0280    99.2470   -55.2220     5.7740     5.7650     5.8180   -73.0690    91.1450    15.4200
 1603.0000   -93.5670     0.0710     2.5550     0.2810   -29.9540   100.6410   -55.9730     5.7970     5.7860     5.8760   -73.1800    90.4700    15.4200
 1603.5000   -88.5370     0.0660     2.5520     0.2730   -29.8860   102.3830   -56.7240     5.8210     5.8070     5.9340   -73.2910    89.9370    15.4200
 1604.0000   -83.5070     0.0600     2.5480     0.2780   -29.8040   102.0700   -57.4750     5.8440     5.8280     5.9930   -73.4020    89.5750    15.4200
 1604.5000   -78.4770     0.0290     2.5420     0.2880   -29.8210   100.5620   -58.2250     5.8680     5.8490     6.0250   -73.5120    89.2140    15.4200
 1605.0000   -75.1500     0.0110     2.5350     0.2880   -29.8710    99.7580   -58.9760     5.8910     5.8700     5.9840   -73.6230    89.1890    15.4200
 1605.5000   -77.2460    -0.0070     2.5350     0.2770   -29.9230   100.1940   -59.7270     5.9140     5.8910     5.9250   -73.7340    89.3270    15.4200
 1606.0000   -79.3420    -0.0010     2.5400     0.2500   -29.9720   100.6770   -60.4780     5.9380     5.9150     5.9280   -73.8450    89.4650    15.4200
 1606.5000   -81.4380     0.0100     2.5460     0.2530   -30.0230    99.2900   -61.2280     5.9610     5.9610     5.9810   -73.9560    89.6040    15.4200
 1607.0000   -83.5340     0.0170     2.5480     0.2590   -30.0730    98.7870   -61.9790     5.9850     6.0150     6.0340   -74.0670    89.5250    15.4200
 1607.5000   -82.1090     0.0180     2.5460     0.2690   -30.1230    98.7840   -62.7300     6.0080     6.0700     6.0870   -74.1780    88.9630    15.4200
 1608.0000   -76.5200     0.0160     2.5450     0.2870   -30.1760    98.8120   -63.4810     6.0410     6.1240     6.1400   -74.2970    88.4000    15.4200
 1608.5000   -70.9310     0.0040     2.5440     0.2830   -30.2020    98.7750   -64.2310     6.0990     6.1780     6.1920   -75.1360    87.8380    15.4200
 1609.0000   -64.6290     0.0020     2.5420     0.2750   -30.2000    98.8200   -64.9820     6.1570     6.2320     6.2520   -76.0400    87.6570    15.4200
 1609.5000   -64.4580     0.0060     2.5410     0.2670   -30.2000    98.8680   -65.7330     6.2140     6.2860     6.3680   -76.9430    87.6110    15.4200
 1610.0000   -64.2610    -0.0010     2.5400     0.2630   -30.2000   100.1260   -66.4840     6.2720     6.3400     6.2570   -77.8470    87.5650    15.4200
 1610.5000   -64.0650    -0.0130     2.5400     0.2620   -30.2000   101.2940   -67.2340     6.3300     6.3680     6.1540   -78.7510    87.5190    15.4200
 1611.0000   -63.8680    -0.0050     2.5450     0.2590   -30.2000   103.4040   -67.9850     6.3880     6.4260     6.0500   -79.6540    87.5090    15.4200
 1611.5000   -63.6720     0.0140     2.5510     0.2560   -30.2000   105.3210   -68.7360     6.4460     6.4800     5.9150   -80.5580    87.5590    15.4200
 1612.0000   -63.4750     0.0310     2.5490     0.2530   -30.2000   107.5840   -69.4870     6.4870     6.5340     5.9800   -81.4620    87.6100    15.4200
 1612.5000   -63.2790     0.0480     2.5430     0.2500   -30.2000   107.4180   -70.2370     6.6080     6.5870     6.0740   -82.3650    87.6610    15.4200
 1613.0000   -63.0820     0.0490     2.5430     0.2530   -30.2000   104.9380   -70.9880     6.6190     6.6410     6.1680   -83.2690    87.6220    15.4200
 1613.5000   -62.8860     0.0390     2.5450     0.2580   -30.2000   102.7050   -71.7390     6.6340     6.6940     6.2520   -84.3370    87.4540    15.4200
 1614.0000   -62.6890     0.0370     2.5480     0.2630   -30.2000   101.8540   -72.4900     6.6490     6.7310     6.3250   -84.8360    87.2890    15.4200
 1614.5000   -62.4930     0.0370     2.5580     0.2640   -30.2000   103.2850   -73.2410     6.6640     6.7420     6.3900   -85.4450    86.7710    15.4200
 1615.0000   -62.2960     0.0370     2.5680     0.2620   -30.2000   106.4190   -73.9910     6.6790     6.7620     6.4870   -86.0550    86.2650    15.4200
 1615.5000   -62.1000     0.0430     2.5800     0.2610   -30.2000   107.4120   -74.6490     6.6950     6.7830     6.4100   -86.6650    85.9670    15.4200
 1616.0000   -61.9030     0.0550     2.5880     0.2600   -30.2000   106.5180   -71.5100     6.7100     6.8030     6.2520   -87.2740    86.3040    15.4200
 1616.5000   -61.7070     0.0660     2.5920     0.2530   -30.2000   105.8850   -68.7150     6.7250     6.8240     6.2520   -87.8840    86.6870    15.4200
 1617.0000   -61.5110     0.0750     2.5940     0.2460   -30.2000   103.8770   -65.9210     6.7400     6.8440     6.2520   -88.4940    86.6870    15.4200
 1617.5000   -61.3140     0.0830     2.5920     0.2470   -30.2000   102.1040   -64.6290     6.7560     6.8650     6.4770   -89.1030    86.5460    15.4200
 1618.0000   -61.1180     0.0830     2.5850     0.2580   -30.2000   100.2480   -65.1520     6.7710     6.8850     6.7310   -89.7130    86.0400    15.4200
 1618.5000   -60.9210     0.0780     2.5780     0.2680   -30.2000    98.2510   -66.6760     6.7860     6.9060     6.6730   -90.3230    85.4820    15.4200
 1619.0000   -60.7250     0.0720     2.5730     0.2710   -30.2000    97.2790   -68.2000     6.8030     6.9260     6.6120   -90.9320    85.3310    15.4200
 1619.5000   -60.5280     0.0670     2.5720     0.2620   -30.2000    97.9800   -69.7240     6.8190     6.9470     6.5510   -91.5420    85.6390    15.4200
 1620.0000   -60.3320     0.0660     2.5720     0.2510   -30.2000    98.4620   -71.2490     6.8480     6.9670     6.4870   -92.1520    85.8840    15.4200
 1620.5000   -60.1350     0.0680     2.5690     0.2530   -30.2000    99.0460   -72.7730     6.8340     6.9840     6.5520   -92.7610    85.8840    15.4200
 1621.0000   -59.9390     0.0700     2.5690     0.2530   -30.2000    99.6530   -74.2970     6.9680     6.8680     6.6200   -93.3710    84.9440    15.4200
