~VERSION INFORMATION
 VERS.                2.0:   CWLS LOG ASCII STANDARD - VERSION 2.0
 WRAP.                 NO:   ONE LINE PER DEPTH STEP
~WELL INFORMATION
#MNEM.UNIT      DATA TYPE    INFORMATION
#----------   ------------   ------------------------------
 STRT.F         2933.0000:   START DEPTH
 STOP.F         5494.0000:   STOP DEPTH
 STEP.F            0.5000:   STEP LENGTH
 NULL.          -999.2500:   NO VALUE
 COMP.    FENIX & SCISSON:   COMPANY
 WELL. FENIX "TPX" #56-10:   WELL
 FLD .        TEAPOT DOME:   FIELD
 LOC .      S10 T38N R78W:   LOCATION
 CNTY.            NATRONA:   COUNTY
 STAT.            WYOMING:   STATE
 CTRY. UNITED STATES OF AMERICA:   COUNTRY
 SRVC.       SCHLUMBERGER:   SERVICE COMPANY
 DATE.        22-MAY-1978:   LOGDATE
 API .     49025106100000:   API NUMBER
~CURVE INFORMATION
#MNEM.UNIT       API CODE    CURVE DESCRIPTION
#----------   ------------   ------------------------------
 DEPT.F                  :   
 NPHI.DEC    42 890 03 00:   NEUTRON POROSITY SANDSTONE
 GRD .GAPI   45 310 01 00:   GAMMA RAY FROM DENSITY LOG
 CALD.IN     45 280 60 00:   CALIPER FROM DENSITY LOG
 CORR.G/C3   45 356 01 00:   DENSITY CORRECTION
 RHOB.G/C3   45 350 01 00:   BULK DENSITY
 SPR .MV     07 010 01 00:   SPONTANEOUS POTENTIAL
 ILD .OHMM   07 120 46 00:   INDUCTION LOG DEEP RESISTIVITY
 ILM .OHMM   07 120 44 00:   INDUCTION LOG MEDIUM RESISTIVITY
 SFL .OHMM   07 220 01 00:   SHALLOW FOCUSED LOG RESISITIVITY
 DT  .US/F   60 520 00 00:   DELTA TIME
~PARAMETER INFORMATION
#MNEM.UNIT          VALUE    DESCRIPTION
#----------   ------------   ------------------------------
 EKB .F         5212.0000:   Kelly bushing
 EGL .F         5202.0000:   Ground level
 TD  .F         5500.0000:   Total depth
 CLNT.            A2DTECH:   Client Code
 SL  . 1270' FSL & 2130' FEL:   Surface Location
 PD  .                 GL:   Permanent Datum
 EPD .F              5202:   Elevation Permanent Datum
 LMF .                 KB:   Log Measured From
 DMF .                 KB:   Drilling Measured From
 DAPD.F                10:   Feet Above Permanent Datum
 DATE.        22-MAY-1978:   Date Logged [DD-MMM-YYYY]
 DD  .F              5500:   Depth driller
 DL  .F              5499:   Depth logger
 BLI .F              5497:   Bottom log interval
 TLI .F              2971:   Top log interval
 CS1 .IN            8.625:   Casing size
 CBD1.     8.625" @ 2972':   Casing driller 1
 CBL1.F              2971:   Casing logger 1
 BS1 .IN            7.875:   Bit size
 BSD1.F              5500:   Depth drilled with bit1
 DFT .                FGM:   Type fluid in hole
 DFD .                9.3:   Density
 DFV .                 57:   Viscosity
 DFPH.               10.5:   pH
 DFL .                  6:   Fluid loss
 MSS .           MUD TANK:   Source of sample
 RMS .OHMM           0.93:   Rm
 MST .F                58:   Rm Meas. temp.
 RMF .OHMM           0.71:   Rmf
 MFST.F                61:   Rmf Meas. temp.
 MFSS.               MEAS:   Source Rmf.
 RMB .OHMM           0.27:   Rm. at BHT
 BHT .F               198:   BHT.
 TCS .HRS            1500:   Time Circ. stopped
 TLAB.HRS            0100:   Time logger at bottom
 MRT .F               198:   Maximum recorded temp.
 LUN .               8039:   Logging unit number
 LUL .               CSPR:   Logging unit location
 ENGI.          CHALUPSKY:   Recorded By
 WITN.            RHOADES:   Witnessed by
 ORIG.      2.5" 5" PRINT:   Origin of data
 UWI .     49025106100000:   Unique Well ID
 DICO. A2D TECHNOLOGIES, INC.:   Digitizing Company
~OTHER INFORMATION
~A  DEPTH     NPHI        GRD       CALD       CORR       RHOB        SPR        ILD        ILM        SFL         DT
# ...
 4273.0000     0.2393    46.1553     9.4950     0.0397     2.3452   -55.2002     6.1858     5.9973     5.8847    79.1290
 4273.5000     0.2399    45.2447     9.5559     0.0276     2.3260   -55.0567     6.0985     5.9120     5.6402    79.1353
 4274.0000     0.2375    46.2109     9.5868     0.0193     2.3139   -54.7641     6.0127     5.7877     5.2951    79.2168
 4274.5000     0.2274    47.7145     9.5877     0.0148     2.3114   -54.6208     5.9280     5.6659     5.1827    79.8245
 4275.0000     0.2251    48.9465     9.5886     0.0157     2.3164   -54.4774     5.8848     5.5854     5.1437    79.5301
 4275.5000     0.2304    49.5743     9.6195     0.0192     2.3181   -54.3340     5.8830     5.5060     5.0696    79.5364
 4276.0000     0.2305    49.5978     9.6204     0.0177     2.3143   -54.7891     5.8405     5.4278     4.9620    79.2199
 4276.5000     0.2257    49.0172     9.6213     0.0132     2.3091   -55.3920     5.7184     5.3506     4.9246    79.4753
 4277.0000     0.2234    49.0407     9.6222     0.0058     2.3039   -55.9948     5.6771     5.2746     4.9559    80.5342
 4277.5000     0.2228    49.6685     9.6231     0.0028     2.2980   -56.2992     5.7149     5.3105     5.0222    80.0142
 4278.0000     0.2281    50.9005     9.6240     0.0028     2.2906   -56.3051     5.7132     5.4948     5.1597    78.5167
 4278.5000     0.2281    51.5287     9.6249     0.0057     2.2980   -56.3110     5.7114     5.5694     5.3018    78.0718
 4279.0000     0.2279    51.4972     9.6258     0.0086     2.3098   -56.6153     5.7097     5.5665     5.4487    77.7758
 4279.5000     0.2249    50.9711     9.6267     0.0086     2.3127   -56.9197     5.7079     5.5257     5.5979    77.7836
 4280.0000     0.2221    53.6541     9.6276     0.0086     2.3112   -57.5226     5.7859     5.5235     5.5173    78.6921
 4280.5000     0.2226    56.1601     9.6285     0.0070     2.3097   -57.8270     5.9119     5.4835     5.3628    78.9992
 4281.0000     0.2242    58.2487     9.6294     0.0040     2.3127   -57.9821     6.1975     5.5574     5.3595    79.9077
 4281.5000     0.2247    62.8175     9.6303     0.0026     2.3216   -57.9762     6.5494     5.7118     5.3935    79.9175
 4282.0000     0.2221    71.4764     9.6480     0.0011     2.3355   -57.5024     7.1656     6.2930     5.5421    78.4791
 4282.5000     0.2154    92.8520     9.6623     0.0013     2.3717   -56.3594     7.9494     7.4325     6.3200    76.2556
 4283.0000     0.2043   102.2375     9.6632     0.0025     2.4296   -55.6190     8.4007     8.9632     7.8883    73.5123
 4283.5000     0.1846   100.9581     9.6641     0.0025     2.4605   -55.1771     8.6947    10.2246     9.3896    70.3166
 4284.0000     0.1643    84.4273     9.6650     0.0024     2.4798   -55.0322     9.9173    11.5826    11.4039    67.9169
 4284.5000     0.1501    71.7621     9.6357     0.0024     2.4749   -55.0395    12.0410    13.2361    15.6237    67.1697
 4285.0000     0.1468    66.3475     9.6367     0.0009     2.4762   -55.0454    15.1357    14.8168    17.4887    67.0256
 4285.5000     0.1476    62.7457     9.6376     0.0009     2.4828   -54.9006    19.2917    17.5534    18.8658    66.8079
 4286.0000     0.1382    57.3312     9.6385     0.0023     2.4904   -54.3109    23.4622    21.0220    23.5472    64.6337
 4286.5000     0.1150    49.4997     9.6093     0.0052     2.5051   -54.0168    26.7877    26.6157    31.7238    63.1362
 4287.0000     0.0990    45.2937     9.6403     0.0067     2.5270   -54.3226    29.0257    37.1420    61.7605    61.7891
 4287.5000     0.0907    51.3595     9.6411     0.0037     2.5330   -54.3285    28.8161    37.3896    82.0587    61.6322
 4288.0000     0.0931    56.9525     9.6444     0.0007     2.5446   -54.6329    28.4101    34.8610    67.5139    62.8543
 4288.5000     0.1038    59.8658     9.7054     0.0125     2.5551   -55.2536    27.6238    30.5354    38.9776    64.4395
 4289.0000     0.1388    55.4679     9.7640     0.0184     2.5225   -55.5401    26.6734    26.9330    26.9569    66.1986
 4289.5000     0.1654    52.4074     9.7997     0.0154     2.5003   -55.3967    25.4007    24.4255    24.4439    67.7045
 4290.0000     0.1763    49.9498     9.8619     0.0080     2.4870   -55.5533    23.5264    22.6182    22.7896    68.2945
 4290.5000     0.1692    48.2896     9.8940     0.0006     2.4737   -55.5592    21.7904    21.0907    22.1516    68.6015
 4291.0000     0.1668    47.6781     9.9562    -0.0039     2.4603   -56.1621    20.7506    20.5040    22.7617    69.1341
 4291.5000     0.1668    46.8074    10.0087    -0.0084     2.4514   -56.7649    19.8981    20.0724    23.5745    69.0652
 4292.0000     0.1685    45.8490    10.0096    -0.0099     2.4499   -57.0693    19.4783    19.9032    24.0327    68.6203
 4292.5000     0.1712    46.5252    10.0225    -0.0069     2.4603   -57.0752    19.1932    19.5042    22.0938    68.5499
 4293.0000     0.1751    49.6671    10.0715    -0.0040     2.4694   -56.7826    18.9357    19.3612    20.5986    69.0840
 4293.5000     0.1821    52.8622    10.1024    -0.0007     2.4814   -56.7884    18.7989    19.3532    19.2046    69.6166
 4294.0000     0.1883    55.3027    10.1333     0.0023     2.4932   -56.1970    18.7932    19.2113    18.6669    69.8484
 4294.5000     0.1923    57.7432    10.1342     0.0066     2.4972   -55.4569    18.7874    19.2034    18.6554    69.8547
 4295.0000     0.1954    54.1413    10.1353     0.0129     2.4868   -55.3134    18.9139    19.1956    18.6440    69.8610
 4295.5000     0.1918    51.1437    10.1362     0.0208     2.4891   -55.3194    19.0398    19.4563    18.8960    69.8673
 4296.0000     0.1838    48.1461    10.1371     0.0254     2.4956   -55.3254    19.3001    19.9967    19.2791    69.5728
 4296.5000     0.1763    46.3570    10.1380     0.0213     2.4976   -55.3047    19.8358    20.5521    19.6735    69.3305
 4297.0000     0.1747    45.7763    10.1388     0.0167     2.4930   -54.7414    20.2472    21.2702    20.7843    68.3839
 4297.5000     0.1744    52.1226    10.1397     0.0121     2.4855   -54.4473    20.9555    22.0135    21.6555    67.7135
 4298.0000     0.1741    60.6169    10.1406     0.0068     2.4823   -53.8576    21.5401    22.9479    21.6420    67.1935
 4298.5000     0.1704    62.1611    10.1415     0.0022     2.4951   -53.5635    22.3061    23.7615    22.2570    66.7486
 4299.0000     0.1633    58.1515    10.1123     0.0062     2.5070   -54.0186    23.1000    24.4340    23.7876    66.4526
 4299.5000     0.1528    55.5617    10.1132     0.0074     2.5178   -54.4722    24.0447    24.9042    26.6047    66.0845
 4300.0000     0.1504    61.6278    10.1141     0.0030     2.5207   -55.0751    24.5431    24.8940    28.1104    66.1654
 4300.5000     0.1588    69.9328    10.0740    -0.0015     2.5281   -55.0810    24.5356    25.0600    26.9400    67.0830
 4301.0000     0.1648    76.0335    10.0587    -0.0009     2.5443   -55.0868    24.3585    24.7013    24.0899    67.5278
 4301.5000     0.1659    78.6345    10.0433     0.0014     2.5636   -55.0927    23.8492    24.1816    22.4580    67.4580
 4302.0000     0.1605    76.8338    10.0265     0.0014     2.5709   -55.0986    23.5132    23.8380    23.3978    66.2594
 4302.5000     0.1558    77.4669    10.0271     0.0021     2.5739   -55.4030    23.0217    23.6632    25.2383    65.3616
 4303.0000     0.1654    79.9074    10.0277     0.0029     2.5754   -55.7075    22.6974    23.3269    26.4821    65.0642
 4303.5000     0.1798    82.9521    10.0283     0.0014     2.5768   -55.9686    22.3776    23.5195    26.0945    65.4457
 4304.0000     0.1856    82.3714    10.0288     0.0014     2.5814   -56.3167    22.2160    22.8623    24.6672    66.5027
 4304.5000     0.1767    77.5611     9.9994     0.0013     2.5871   -56.0240    22.0555    22.6925    23.1565    66.8079
 4305.0000     0.1606    73.3550     9.9700     0.0013     2.5871   -55.4328    22.3571    23.1555    22.6635    66.3612
 4305.5000     0.1487    70.0474     9.9405     0.0013     2.5874   -54.8335    22.9777    23.7919    23.2962    65.3130
 4306.0000     0.1393    68.8554     9.9392     0.0013     2.5963   -54.2365    23.9474    24.4459    25.0076    64.1144
