~VERSION INFORMATION
 VERS.                2.0:   CWLS LOG ASCII STANDARD - VERSION 2.0
 WRAP.                 NO:   ONE LINE PER DEPTH STEP
~WELL INFORMATION
#MNEM.UNIT      DATA TYPE    INFORMATION
#----------   ------------   ------------------------------
 STRT.F           46.0000:   START DEPTH
 STOP.F         2736.5000:   STOP DEPTH
 STEP.F            0.5000:   STEP LENGTH
 NULL.          -999.2500:   NO VALUE
 COMP.          INTEX OIL:   COMPANY
 WELL. INTEX NPR 3 "AX" #72-20:   WELL
 FLD .             TEAPOT:   FIELD
 LOC .      S20 T39N R78W:   LOCATION
 CNTY.            NATRONA:   COUNTY
 STAT.            WYOMING:   STATE
 CTRY. UNITED STATES OF AMERICA:   COUNTRY
 SRVC.       SCHLUMBERGER:   SERVICE COMPANY
 DATE.        11-MAY-1966:   LOGDATE
 API .     49025095110000:   API NUMBER
~CURVE INFORMATION
#MNEM.UNIT       API CODE    CURVE DESCRIPTION
#----------   ------------   ------------------------------
 DEPT.F                  :   
 SPR .MV     05 010 01 00:   SPONTANEOUS POTENTIAL FROM RES.
 ILD .OHMM   05 120 46 00:   INDUCTION LOG DEEP
 ASN .OHMM   05 041 16 00:   AMPLIFIED SHORT NORMAL 16"
 CALD.IN     45 280 60 00:   CALIPER FROM DENSITY LOG
 CORR.G/C3   45 356 01 00:   DENSITY CORRECTION
 RHOB.G/C3   45 350 01 00:   BULK DENSITY
 GRD .GAPI   45 310 01 00:   GAMMA RAY FROM DENSITY LOG
~PARAMETER INFORMATION
#MNEM.UNIT          VALUE    DESCRIPTION
#----------   ------------   ------------------------------
 EKB .F         5042.3000:   Kelly bushing
 EGL .F         5032.0000:   Ground level
 EDF .F            0.0000:   Drilling floor
 EPD .F         5032.0000:   Permanent datum
 TD  .F         2740.0000:   Total depth
 DATE.        11-MAY-1966:   Date logged
 CLNT.            A2DTECH:   Client Code
 DAPD.F              10.3:   Feet Above Permanent Datum
 DD  .F              2740:   Depth driller
 DL  .F              2737:   Depth logger
 BLI .F              2736:   Bottom log interval
 TLI .F                88:   Top log interval
 CS1 .IN            10.75:   Casing size
 CBD1.       10.75" @ 24':   Casing driller 1
 BS1 .IN            7.875:   Bit size
 BSD1.F              2740:   Depth drilled with bit1
 DFT .           OIL EMUL:   Type fluid in hole
 DFD .                9.8:   Density
 DFV .                 58:   Viscosity
 MSS .         CIRCULATED:   Source of sample
 RMS .OHMM           3.04:   Rm
 MST .F                54:   Rm Meas. temp.
 RMF .OHMM           1.95:   Rmf
 MFST.F                55:   Rmf Meas. temp.
 MFSS.                 FR:   Source Rmf.
 RMB .OHMM           1.64:   Rm. at BHT
 BHT .F               100:   BHT.
 TCS .HRS               4:   Time Circ. stopped
 MRT .F               100:   Maximum recorded temp.
 LUN .               4507:   Logging unit number
 LUL .               CSPR:   Logging unit location
 ENGI.               HAUG:   Recorded By
 WITN.             TUTTLE:   Witnessed by
 ORIG.        2" 5" PRINT:   Origin of data
 UWI .     49025095110000:   Unique Well ID
 DICO. A2D TECHNOLOGIES, INC.:   Digitizing Company
~OTHER INFORMATION
~A   DEPT      SPR        ILD        ASN       CALD       CORR       RHOB         GRD  
# ...
  956.0000   -53.8350     8.1830    10.6860     8.3820     0.0110     2.4390   112.0010
  956.5000   -53.8860     8.1950    10.6870     8.3820     0.0180     2.4470   113.1270
  957.0000   -53.9340     8.2060    10.6860     8.3820     0.0330     2.4500   113.3620
  957.5000   -53.9830     8.2170    10.6870     8.3820     0.0390     2.4380   113.5050
  958.0000   -54.0320     8.2290    10.6860     8.3820     0.0400     2.4290   114.4480
  958.5000   -54.0810     8.2400    10.6860     8.3820     0.0570     2.4450   116.7590
  959.0000   -54.1290     8.2520    10.6860     8.3820     0.0650     2.4680   117.3180
  959.5000   -54.1780     8.2630    10.6860     8.3820     0.0600     2.4590   115.4730
  960.0000   -54.2270     8.2740    10.6860     8.3820     0.0570     2.4490   113.9000
  960.5000   -54.2760     8.2860    10.6860     8.3820     0.0540     2.4440   112.5440
  961.0000   -54.3250     8.2970    10.6860     8.3820     0.0630     2.4520   112.5210
  961.5000   -54.3730     8.3090    10.6860     8.3820     0.0570     2.4470   112.5480
  962.0000   -54.4240     8.3200    10.6860     8.3820     0.0440     2.4350   113.8740
  962.5000   -54.4700     8.3310    10.6860     8.3820     0.0540     2.4520   113.5970
  963.0000   -54.5200     8.3090    10.6860     8.3820     0.0640     2.4730   112.4190
  963.5000   -54.4650     8.2810    10.6850     8.3820     0.0730     2.4920   113.7360
  964.0000   -54.3940     8.2530    10.6870     8.3820     0.0670     2.4980   116.9960
  964.5000   -54.3220     8.2250    10.6840     8.3820     0.0620     2.4970   116.6960
  965.0000   -54.2520     8.1970    10.6830     8.3820     0.0560     2.4900   116.1650
  965.5000   -54.1800     8.1700    10.5750     8.3820     0.0500     2.4830   115.5480
  966.0000   -54.1100     8.1420    10.4490     8.3820     0.0470     2.4790   114.9240
  966.5000   -54.0380     8.1140    10.3060     8.3820     0.0530     2.4760   114.8650
  967.0000   -53.9690     8.0860    10.2950     8.3820     0.0570     2.4730   114.8560
  967.5000   -53.8950     8.0580    10.2930     8.3820     0.0500     2.4610   114.8610
  968.0000   -53.8270     8.0310    10.2960     8.3820     0.0520     2.4560   114.8500
  968.5000   -53.7490     8.0020    10.2940     8.3820     0.0610     2.4650   114.2550
  969.0000   -53.7760     7.9760    10.2950     8.3820     0.0610     2.4630   113.4310
  969.5000   -53.8190     7.9450    10.2940     8.3820     0.0550     2.4590   112.6140
  970.0000   -53.8640     7.9610    10.2940     8.3820     0.0490     2.4530   111.9220
  970.5000   -53.9060     7.9850    10.2940     8.3820     0.0460     2.4540   111.6330
  971.0000   -53.9500     8.0100    10.2940     8.3820     0.0550     2.4670   111.4040
  971.5000   -53.9930     8.0340    10.2940     8.3820     0.0550     2.4700   111.1480
  972.0000   -54.0370     8.0590    10.2940     8.3820     0.0490     2.4680   110.8710
  972.5000   -54.0790     8.0840    10.2940     8.3820     0.0580     2.4640   111.1630
  973.0000   -54.1220     8.1070    10.2950     8.3820     0.0530     2.4590   112.4550
  973.5000   -54.1100     8.1330    10.2950     8.3820     0.0440     2.4550   114.5170
  974.0000   -54.0760     8.1400    10.2950     8.3820     0.0360     2.4500   117.1930
  974.5000   -54.0430     8.2200    10.2960     8.3820     0.0270     2.4480   118.1560
  975.0000   -54.0110     8.3340    10.2940     8.3820     0.0300     2.4510   114.6390
  975.5000   -53.9780     8.4450    10.2980     8.3820     0.0350     2.4600   112.0000
  976.0000   -53.9460     8.5550    10.2970     8.3740     0.0400     2.4740   112.4270
  976.5000   -53.9130     8.6680    10.4910     8.3640     0.0440     2.4840   113.8820
  977.0000   -53.8810     8.7760    10.7680     8.3530     0.0500     2.4770   113.4630
  977.5000   -53.8490     8.8880    11.0450     8.3430     0.0490     2.4830   112.1890
  978.0000   -53.8140     8.8490    11.3040     8.3330     0.0440     2.4890   113.0500
  978.5000   -53.7870     8.7380    11.6350     8.3230     0.0410     2.4800   113.0620
  979.0000   -53.7410     8.6340    11.5270     8.3120     0.0530     2.4780   111.3930
  979.5000   -53.8370     8.5300    11.2690     8.3040     0.0630     2.4870   110.5310
  980.0000   -54.0110     8.4240    11.0480     8.3100     0.0570     2.4890   110.4140
  980.5000   -54.1660     8.3200    10.8210     8.3150     0.0510     2.4790   110.2600
  981.0000   -54.3160     8.2150    10.5950     8.3210     0.0440     2.4690   112.6420
  981.5000   -54.4830     8.1100    10.3670     8.3270     0.0470     2.4590   113.6310
  982.0000   -54.4830     8.0060  -999.2500     8.3320     0.0510     2.4620   113.1960
  982.5000   -54.3920     7.9010  -999.2500     8.3380     0.0570     2.4680   113.8840
  983.0000   -54.3160     7.7950  -999.2500     8.3410     0.0530     2.4700   116.4470
  983.5000   -54.2390     7.6930  -999.2500     8.3370     0.0490     2.4670   116.2190
  984.0000   -54.1590     7.5840  -999.2500     8.3320     0.0450     2.4670   115.9370
  984.5000   -54.0820     7.5600  -999.2500     8.3270     0.0370     2.4580   115.4490
  985.0000   -54.0040     7.5870  -999.2500     8.3220     0.0280     2.4250   116.5680
  985.5000   -53.9260     7.6070  -999.2500     8.3170     0.0200     2.4010   118.8670
  986.0000   -53.8480     7.6290  -999.2500     8.3120     0.0120     2.4040   118.1730
  986.5000   -53.7690     7.6510  -999.2500     8.3070     0.0190     2.4110   116.4590
  987.0000   -53.6920     7.6720  -999.2500     8.3040     0.0340     2.4300   116.6890
  987.5000   -53.6130     7.6940  -999.2500     8.3080     0.0480     2.4490   115.2640
  988.0000   -53.5340     7.7150  -999.2500     8.3120     0.0630     2.4670   113.7570
  988.5000   -53.4610     7.7370  -999.2500     8.3170     0.0750     2.4850   115.4220
  989.0000   -53.3690     7.7580  -999.2500     8.3210     0.0800     2.4910   117.0540
  989.5000   -53.4300     7.7800  -999.2500     8.3260     0.0810     2.4870   115.5350
  990.0000   -53.6020     7.8020  -999.2500     8.3300     0.0790     2.4830   114.6460
  990.5000   -53.7560     7.8230  -999.2500     8.3350     0.0780     2.4790   114.5500
  991.0000   -53.9090     7.8450  -999.2500     8.3390     0.0770     2.4780   116.0440
  991.5000   -54.0720     7.8660  -999.2500     8.3430     0.0750     2.4860   115.4780
  992.0000   -54.1380     7.8880  -999.2500     8.3480     0.0720     2.4820   113.2140
  992.5000   -54.1310     7.9100  -999.2500     8.3520     0.0670     2.4680   111.4420
  993.0000   -54.1330     7.9300  -999.2500     8.3570     0.0620     2.4590   112.4190
  993.5000   -54.1310     7.9450  -999.2500     8.3610     0.0570     2.4580   113.1530
  994.0000   -54.1370     7.9010  -999.2500     8.3660     0.0520     2.4690   114.8410
  994.5000   -54.0840     7.8170  -999.2500     8.3700     0.0630     2.4790   116.1970
  995.0000   -53.9790     7.7410  -999.2500     8.3740     0.0660     2.4920   117.6780
  995.5000   -53.8830     7.6630  -999.2500     8.3790     0.0660     2.5000   117.0750
  996.0000   -53.7860     7.5850  -999.2500     8.3830     0.0650     2.5060   114.9070
  996.5000   -53.6880     7.5080  -999.2500     8.3860     0.0630     2.4840   113.2650
  997.0000   -53.5900     7.4290     9.9850     8.3890     0.0630     2.4900   112.6710
  997.5000   -53.4950     7.3510     9.9350     8.3930     0.0710     2.4870   113.9440
  998.0000   -53.3880     7.2760     9.9110     8.3960     0.0730     2.4800   115.5930
  998.5000   -53.3770     7.1910     9.8800     8.3990     0.0640     2.4730   117.1690
  999.0000   -53.4580     7.1760     9.8420     8.4020     0.0550     2.4790   117.1880
  999.5000   -53.5270     7.2280     9.8220     8.4060     0.0590     2.4860   117.2390
 1000.0000   -53.5980     7.2710     9.8380     8.4090     0.0660     2.4890   117.2790
 1000.5000   -53.6700     7.3160     9.8680     8.4120     0.0700     2.4910   117.0300
 1001.0000   -53.7410     7.3610     9.8990     8.4150     0.0610     2.4830   118.8850
