~VERSION INFORMATION
 VERS.                2.0:   CWLS LOG ASCII STANDARD - VERSION 2.0
 WRAP.                 NO:   ONE LINE PER DEPTH STEP
~WELL INFORMATION
#MNEM.UNIT      DATA TYPE    INFORMATION
#----------   ------------   ------------------------------
 STRT.F          210.5000:   START DEPTH
 STOP.F         3234.0000:   STOP DEPTH
 STEP.F            0.5000:   STEP LENGTH
 NULL.          -999.2500:   NO VALUE
 COMP.    FENIX & SCISSON:   COMPANY
 WELL.   FENIX "A" #21-10:   WELL
 FLD .              NPR-3:   FIELD
 LOC .      S10 T38N R78W:   LOCATION
 CNTY.            NATRONA:   COUNTY
 STAT.            WYOMING:   STATE
 CTRY. UNITED STATES OF AMERICA:   COUNTRY
 SRVC.      DRESSER ATLAS:   SERVICE COMPANY
 DATE.        31-AUG-1977:   LOGDATE
 API .     49025104260000:   API NUMBER
~CURVE INFORMATION
#MNEM.UNIT       API CODE    CURVE DESCRIPTION
#----------   ------------   ------------------------------
 DEPT.F                  :   
 GRD .GAPI   45 310 01 00:   GAMMA RAY FROM DENSITY LOG
 CALD.IN     45 280 60 00:   CALIPER FROM DENSITY LOG
 RHOB.G/C3   45 350 01 00:   BULK DENSITY
 CORR.G/C3   45 356 01 00:   DENSITY CORRECTION
 SPR .MV     11 010 01 00:   SPONTANEOUS POTENTIAL
 LLS .OHMM   11 220 09 00:   LATEROLOG SHALLOW
 LLD .OHMM   11 220 10 00:   LATEROLOG DEEP
 TEND.LBS    45 635 01 00:   TENSION FROM DENSITY LOG
 TENR.LBS    07 635 01 00:   TENSION
~PARAMETER INFORMATION
#MNEM.UNIT          VALUE    DESCRIPTION
#----------   ------------   ------------------------------
 EKB .F         5258.0000:   Kelly bushing
 EGL .F         5248.0000:   Ground level
 EDF .F            0.0000:   Drilling floor
 TD  .F         3222.0000:   Total depth
 DATE.        31-AUG-1977:   Date logged
 CLNT.            A2DTECH:   Client Code
 SL  . 330' FNL & 990' FWL:   Surface Location
 PD  .                 GL:   Permanent Datum
 EPD .F              5248:   Elevation Permanent Datum
 LMF .                 KB:   Log Measured From
 DMF .                 KB:   Drilling Measured From
 DAPD.F                10:   Feet Above Permanent Datum
 DD  .F              3222:   Depth driller
 DL  .F              3219:   Depth logger
 BLI .F              3218:   Bottom log interval
 TLI .F               221:   Top log interval
 CS1 .IN             8.75:   Casing size
 CBD1.       8.75" @ 219':   Casing driller 1
 CBL1.F               221:   Casing logger 1
 BS1 .IN            7.875:   Bit size
 BSD1.F              3222:   Depth drilled with bit1
 DFT .                KCL:   Type fluid in hole
 DFD .                9.1:   Density
 DFV .                 36:   Viscosity
 DFPH.                 11:   pH
 DFL .                  8:   Fluid loss
 MSS .           FLOWLINE:   Source of sample
 RMS .OHMM           0.14:   Rm
 MST .F                72:   Rm Meas. temp.
 RMF .OHMM           0.08:   Rmf
 MFST.F                72:   Rmf Meas. temp.
 RMC .OHMM           0.20:   Rmc
 MCST.F                72:   Rmc Meas. temp.
 MFSS.               CALC:   Source Rmf.
 MCSS.               CALC:   Source Rmc.
 RMB .OHMM           0.08:   Rm. at BHT
 BHT .F               125:   BHT.
 TCS .HRS               3:   Time Circ. stopped
 MRT .F               125:   Maximum recorded temp.
 LUN .               6080:   Logging unit number
 LUL .              WLSTN:   Logging unit location
 ENGI.               RALL:   Recorded By
 WITN.         PETTINGILL:   Witnessed by
 ORIG.           5" PRINT:   Origin of data
 UWI .     49025104260000:   Unique Well ID
 DICO. A2D TECHNOLOGIES, INC.:   Digitizing Company
~OTHER INFORMATION
~A   DEPT      GRD       CALD       RHOB       CORR        SPR        LLS        LLD       TEND        TENR  
# ...
  794.5000    87.8360    11.0840     2.5410     0.0490   -60.7410     8.0870     8.9690   412.8840   529.6350
  795.0000    85.6880    11.1160     2.5410     0.0490   -60.8320     8.1630     9.0500   419.0590   529.4380
  795.5000    83.4120    11.1480     2.5400     0.0490   -61.2070     8.2680     9.1300   425.7430   529.2420
  796.0000    81.9990    11.1570     2.5400     0.0480   -61.5290     8.3720     9.2090   405.9410   529.0460
  796.5000    83.1740    11.1640     2.5390     0.0480   -61.5290     8.4770     9.2890   407.6210   528.8500
  797.0000    84.3280    11.1720     2.5400     0.0480   -61.4230     8.5820     9.3680   409.4550   528.6530
  797.5000    85.4510    11.1790     2.5410     0.0480   -61.0150     8.6870     9.4470   411.2900   528.4570
  798.0000    85.7980    11.1870     2.5420     0.0490   -60.7300     8.7660     9.5340   413.1240   528.2610
  798.5000    84.0420    11.1940     2.5430     0.0490   -60.7380     8.6130     9.5140   414.9590   528.0650
  799.0000    82.3020    11.2040     2.5440     0.0490   -60.9700     8.4630     9.4850   416.7930   527.8680
  799.5000    82.3270    11.2140     2.5440     0.0500   -61.4320     8.3120     9.4560   418.6280   527.6720
  800.0000    82.9230    11.2230     2.5430     0.0500   -61.8940     8.2360     9.4270   420.4620   527.4760
  800.5000    83.5440    11.2330     2.5430     0.0520   -62.1880     8.3220     9.3980   422.2970   527.2800
  801.0000    83.3610    11.2430     2.5430     0.0530   -62.3130     8.3880     9.3690   424.1310   527.0830
  801.5000    82.3600    11.2520     2.5430     0.0550   -62.4380     8.2470     9.3400   425.9660   526.8870
  802.0000    81.9430    11.2620     2.5460     0.0570   -62.5620     8.1540     9.3110   427.8000   526.6910
  802.5000    81.8960    11.2710     2.5470     0.0580   -62.6880     8.0610     9.2820   429.6350   526.4950
  803.0000    82.5840    11.2810     2.5480     0.0600   -62.7220     8.0130     9.2530   431.4690   526.3160
  803.5000    83.0240    11.2910     2.5490     0.0620   -62.4030     8.0130     9.2240   433.3040   525.8570
  804.0000    83.7480    11.3000     2.5500     0.0640   -62.0710     8.0130     9.1950   435.1380   525.4350
  804.5000    84.4280    11.3100     2.5510     0.0660   -61.7870     8.0130     9.1730   436.9730   525.0130
  805.0000    85.0290    11.3200     2.5520     0.0650   -61.5030     8.0330     9.1080   438.8070   524.5920
  805.5000    85.6280    11.3290     2.5500     0.0650   -61.2090     8.0610     9.0430   440.6420   524.1700
  806.0000    86.2110    11.3290     2.5460     0.0640   -61.1340     8.0870     8.9770   442.4760   523.7480
  806.5000    86.3670    11.3310     2.5410     0.0620   -61.1420     7.9420     8.9430   444.3110   523.3270
  807.0000    85.1300    11.3340     2.5360     0.0580   -61.3570     7.8070     8.9010   439.3590   522.9050
  807.5000    83.9390    11.3370     2.5300     0.0550   -61.5650     7.6550     8.8540   420.4620   522.4830
  808.0000    83.0730    11.3400     2.5280     0.0510   -61.7700     7.7750     8.8060   401.5650   522.0610
  808.5000    83.7710    11.3430     2.5260     0.0490   -61.9760     7.9530     8.7810   382.6690   521.6400
  809.0000    84.4310    11.3450     2.5270     0.0460   -62.1900     8.0130     8.8210   366.6820   521.2180
  809.5000    85.0890    11.3480     2.5280     0.0440   -62.4900     8.0720     8.8680   369.2260   520.7960
  810.0000    84.3400    11.3510     2.5290     0.0420   -62.5300     8.1280     8.9140   371.7690   520.3740
  810.5000    81.7800    11.3540     2.5300     0.0420   -62.5240     8.1840     8.9610   374.3130   519.9530
  811.0000    82.5400    11.3570     2.5300     0.0420   -62.2620     8.2360     9.0080   376.8570   519.5310
  811.5000    84.7370    11.3600     2.5310     0.0420   -61.9700     7.7960     9.0540   379.4010   519.1090
  812.0000    87.3690    11.3620     2.5310     0.0420   -61.6770     7.8620     9.1080   381.9450   518.6880
  812.5000    87.5870    11.3650     2.5300     0.0420   -61.5340     8.0070     9.0350   384.4880   518.2660
  813.0000    86.5930    11.3700     2.5290     0.0420   -61.6260     8.0870     8.9220   387.0320   517.8440
  813.5000    86.6320    11.3510     2.5280     0.0410   -61.9280     7.9560     8.8100   389.5760   517.4220
  814.0000    87.7830    11.3600     2.5280     0.0410   -62.2130     7.8320     8.6970   392.1200   517.0010
  814.5000    86.0890    11.3680     2.5270     0.0410   -62.4960     7.7070     8.5850   394.6640   516.5790
  815.0000    86.4720    11.3770     2.5260     0.0410   -62.7790     7.5830     8.4720   397.2070   516.1570
  815.5000    88.1330    11.3850     2.5250     0.0410   -62.9220     7.4580     8.3600   399.7510   515.7350
  816.0000    87.2940    11.3940     2.5230     0.0410   -62.9200     7.3130     8.2470   402.2950   515.3140
  816.5000    86.5210    11.4030     2.5220     0.0410   -62.8590     7.3800     8.1610   404.8390   514.8920
  817.0000    85.7550    11.4110     2.5200     0.0410   -62.6150     7.3420     8.1610   407.3830   514.4700
  817.5000    84.9820    11.4200     2.5190     0.0410   -62.3770     7.3780     8.1720   409.9260   514.0480
  818.0000    84.2010    11.4290     2.5180     0.0410   -62.1400     7.4130     8.1830   412.4700   513.6270
  818.5000    83.5340    11.4370     2.5160     0.0400   -61.9350     7.4480     8.1940   415.0140   513.2050
  819.0000    85.0840    11.4460     2.5170     0.0400   -62.0310     7.5360     8.2040   417.5580   512.7830
  819.5000    86.6910    11.4540     2.5170     0.0400   -62.1270     7.6220     8.2150   420.1020   512.3620
  820.0000    88.2250    11.4620     2.5160     0.0390   -62.2220     7.7090     8.2260   422.6450   511.9400
  820.5000    88.7390    11.4520     2.5140     0.0380   -62.3170     7.7950     8.2360   425.1890   511.5180
  821.0000    89.2120    11.4440     2.5120     0.0360   -62.4110     7.8810     8.3290   424.4910   511.0960
  821.5000    89.6910    11.4400     2.5100     0.0350   -62.5060     7.9670     8.4790   422.8900   510.6750
  822.0000    90.1790    11.4350     2.5100     0.0340   -62.6010     8.0860     8.6290   421.2900   510.2530
  822.5000    90.5730    11.4290     2.5100     0.0340   -62.6980     8.0810     8.7790   419.6900   509.8310
  823.0000    88.8640    11.4460     2.5110     0.0340   -62.7220     8.0720     8.9290   418.0900   509.4090
  823.5000    87.0960    11.4660     2.5110     0.0350   -62.7230     8.0620     9.1080   416.4900   508.9880
  824.0000    85.3530    11.4880     2.5130     0.0350   -62.6120     8.0530     9.0500   414.8900   508.5660
  824.5000    85.0200    11.5090     2.5150     0.0350   -62.3920     8.0440     8.9540   413.2900   508.1440
  825.0000    86.9160    11.5300     2.5170     0.0350   -62.1720     8.0340     8.8580   411.6900   507.7230
  825.5000    88.7870    11.5510     2.5170     0.0350   -61.9510     8.0250     8.7010   410.0890   507.3010
  826.0000    90.6770    11.5720     2.5160     0.0350   -61.7290     8.0180     8.5070   408.4890   506.8790
  826.5000    91.2730    11.5930     2.5150     0.0350   -61.5080     7.9000     8.3120   406.8890   506.4570
  827.0000    90.4910    11.6150     2.5140     0.0350   -61.2880     7.7580     8.1610   405.6180   506.0360
  827.5000    90.1310    11.6290     2.5140     0.0350   -61.1320     7.6150     8.2060   404.8260   505.6140
  828.0000    91.8920    11.6340     2.5130     0.0350   -61.2310     7.4580     8.2630   404.0340   505.1920
  828.5000    91.9560    11.6400     2.5130     0.0350   -61.6040     7.3080     8.3190   403.2420   504.7700
  829.0000    91.0440    11.6450     2.5130     0.0360   -61.9260     7.2460     8.3760   402.4500   504.3490
  829.5000    89.7410    11.6510     2.5140     0.0360   -61.9350     7.4490     8.4650   401.6580   503.9270
  830.0000    88.4030    11.6570     2.5150     0.0360   -61.6810     7.6820     8.5770   400.8660   503.5050
  830.5000    88.0470    11.6620     2.5170     0.0360   -61.3320     7.9150     8.6660   400.0740   503.0840
