~VERSION INFORMATION
 VERS.                2.0:   CWLS LOG ASCII STANDARD - VERSION 2.0
 WRAP.                 NO:   ONE LINE PER DEPTH STEP
~WELL INFORMATION
#MNEM.UNIT      DATA TYPE    INFORMATION
#----------   ------------   ------------------------------
 STRT.F           48.5000:   START DEPTH
 STOP.F         3509.0000:   STOP DEPTH
 STEP.F            0.5000:   STEP LENGTH
 NULL.          -999.2500:   NO VALUE
 COMP.   TESORO PETROLEUM:   COMPANY
 WELL. TESORO "TX" #45-33:   WELL
 FLD .        TEAPOT DOME:   FIELD
 LOC .      S33 T39N R78W:   LOCATION
 CNTY.            NATRONA:   COUNTY
 STAT.            WYOMING:   STATE
 CTRY. UNITED STATES OF AMERICA:   COUNTRY
 SRVC.      DRESSER ATLAS:   SERVICE COMPANY
 DATE.        03-OCT-1976:   LOGDATE
 API .     49025102700000:   API NUMBER
~CURVE INFORMATION
#MNEM.UNIT       API CODE    CURVE DESCRIPTION
#----------   ------------   ------------------------------
 DEPT.F                  :   
 SPR .MV     07 010 01 00:   SPONTANEOUS POTENTIAL
 TENR.LBS    07 635 01 00:   TENSION FROM RESISTIVITY
 SFL .OHMM   07 220 01 00:   SHALLOW FOCUSED LOG RESISTIVITY
 ILM .OHMM   07 120 44 00:   INDUCTION LOG MEDIUM RESISTIVITY
 ILD .OHMM   07 120 46 00:   DEEP INDUCTION RESISTIVITY
 GRD .GAPI   45 310 01 00:   GAMMA RAY FROM DENSITY LOG
 CALD.IN     45 280 60 00:   CALIPER FROM DENSITY LOG
 NPHI.DEC    42 890 03 00:   NEUTRON POROSITY SANDSTONE
 DPHI.DEC    45 890 12 00:   DENSITY POROSITY SANDSTONE
 TEND.LBS    45 635 01 00:   TENSION FROM DENSITY LOG
~PARAMETER INFORMATION
#MNEM.UNIT          VALUE    DESCRIPTION
#----------   ------------   ------------------------------
 EKB .F         5217.0000:   Kelly bushing
 EGL .F         5206.0000:   Ground level
 EDF .F         5216.0000:   Drilling floor
 EPD .F         5206.0000:   Permanent datum
 TD  .F         3491.0000:   Total depth
 DATE.        03-OCT-1976:   Date logged
 CLNT.            A2DTECH:   Client Code
 SL  . 2030' FWL & 2145' FSL:   Surface Location
 PD  .                 GL:   Permanent Datum
 DD  .F              3491:   Depth driller
 DL  .F              3487:   Depth logger
 BLI .F              3485:   Bottom log interval
 TLI .F               813:   Top log interval
 CS1 .IN            8.625:   Casing size
 CBD1.      8.625" @ 823':   Casing driller 1
 CBL1.F               819:   Casing logger 1
 BS1 .IN            7.875:   Bit size
 BSD1.F              3491:   Depth drilled with bit1
 DFT .           CHEM GEL:   Type fluid in hole
 DFD .                9.4:   Density
 DFV .                 47:   Viscosity
 DFPH.                 10:   pH
 DFL .                5.8:   Fluid loss
 MSS .           FLOWLINE:   Source of sample
 RMS .OHMM           1.09:   Rm
 MST .F                68:   Rm Meas. temp.
 RMF .OHMM              1:   Rmf
 MFST.F                68:   Rmf Meas. temp.
 RMC .OHMM           1.24:   Rmc
 MCST.F                68:   Rmc Meas. temp.
 MFSS.               MEAS:   Source Rmf.
 MCSS.               MEAS:   Source Rmc.
 RMB .OHMM            .62:   Rm. at BHT
 BHT .F               119:   BHT.
 TCS .HRS              12:   Time Circ. stopped
 MRT .F               119:   Maximum recorded temp.
 LUN .               6134:   Logging unit number
 LUL .              GLTTE:   Logging unit location
 ENGI.            VAUGHIN:   Recorded By
 WITN.        WOLF-CARTER:   Witnessed by
 ORIG.     2.5", 5" PRINT:   Origin of data
 UWI .     49025102700000:   Unique Well ID
 DICO. A2D TECHNOLOGIES, INC.:   Digitizing Company
 DAPD.                 11:   Feet Above Permanent Datum
~OTHER INFORMATION
~A   DEPT      SPR        TENR       SFL        ILM        ILD        GRD       CALD       NPHI       DPHI       TEND   
# ...
 2561.0000   -25.5370  -999.2500     6.0390     5.8070     5.5970   126.0710     8.4450     0.2510     0.0400   255.7600
 2561.5000   -25.5970  -999.2500     5.9200     5.7120     5.5050   126.3590     8.4450     0.2480     0.0360   256.8830
 2562.0000   -25.6700  -999.2500     5.8020     5.6320     5.4280   126.7080     8.4450     0.2460     0.0310   260.3380
 2562.5000   -25.7480  -999.2500     5.6840     5.5530     5.3510   127.0290     8.4450     0.2470     0.0280   263.7930
 2563.0000   -25.7560  -999.2500     5.4940     5.4730     5.2750   127.3590     8.4450     0.2500     0.0250   267.2480
 2563.5000   -25.4010  -999.2500     5.5750     5.3940     5.1980   128.2020     8.4450     0.2510     0.0270   270.7030
 2564.0000   -25.0420  -999.2500     5.7760     5.5530     5.3520   129.0170     8.4450     0.2510     0.0320   274.1590
 2564.5000   -25.0240  -999.2500     5.9770     5.8190     5.6080   130.2140     8.4450     0.2540     0.0400   271.3900
 2565.0000   -25.0580  -999.2500     6.2080     6.1380     5.9150   131.5810     8.4450     0.2560     0.0430   266.6190
 2565.5000   -25.0970  -999.2500     6.1350     6.0910     5.8700   132.7340     8.4450     0.2570     0.0470   261.8480
 2566.0000   -25.1250  -999.2500     5.9890     5.9740     5.7570   131.6310     8.4450     0.2590     0.0470   257.0760
 2566.5000   -25.1620  -999.2500     5.8420     5.8570     5.6450   130.5450     8.4450     0.2560     0.0500   255.0000
 2567.0000   -25.1940  -999.2500     5.6960     5.7400     5.5320   129.5740     8.4450     0.2520     0.0500   255.0000
 2567.5000   -25.2270  -999.2500     5.5500     5.6230     5.4190   129.3050     8.4450     0.2480     0.0510   255.0000
 2568.0000   -25.2600  -999.2500     5.4030     5.5060     5.3060   129.0600     8.4480     0.2450     0.0500   255.0000
 2568.5000   -25.2920  -999.2500     5.2570     5.3890     5.1930   129.0250     8.4510     0.2460     0.0540   255.0000
 2569.0000   -25.3270  -999.2500     5.1980     5.2950     5.1030   129.1950     8.4530     0.2490     0.0600   255.0000
 2569.5000   -25.3570  -999.2500     5.5000     5.2950     5.1030   129.8210     8.4560     0.2510     0.0590   255.0000
 2570.0000   -25.3930  -999.2500     5.7010     5.2860     5.0950   130.6510     8.4590     0.2530     0.0580   255.0000
 2570.5000   -25.3080  -999.2500     5.5020     5.2770     5.0860   130.7450     8.4610     0.2490     0.0630   255.0000
 2571.0000   -25.1920  -999.2500     5.1030     5.2680     5.0770   130.5830     8.4640     0.2450     0.0570   255.0000
 2571.5000   -25.0760  -999.2500     5.1580     5.2590     5.0690   130.7980     8.4670     0.2430     0.0500   255.0000
 2572.0000   -24.9620  -999.2500     5.2950     5.2500     5.0600   131.1490     8.4690     0.2420     0.0460   255.0000
 2572.5000   -24.8460  -999.2500     5.4320     5.2410     5.0510   131.4980     8.4720     0.2440     0.0460   255.0000
 2573.0000   -24.7320  -999.2500     5.5970     5.2320     5.0430   131.8930     8.4750     0.2530     0.0430   255.6400
 2573.5000   -24.6160  -999.2500     5.5250     5.2230     5.0340   133.3350     8.4770     0.2610     0.0450   258.9800
 2574.0000   -24.5010  -999.2500     5.3470     5.2140     5.0250   134.7280     8.4800     0.2620     0.0510   262.3200
 2574.5000   -24.3900  -999.2500     5.1680     5.2050     5.0170   136.0410     8.4830     0.2610     0.0520   263.2530
 2575.0000   -24.2580  -999.2500     4.9900     5.1980     5.0100   137.2920     8.4850     0.2590     0.0470   254.4120
 2575.5000   -24.2590  -999.2500     4.8110     5.0770     4.8930   137.7990     8.4880     0.2570     0.0420   245.5710
 2576.0000   -24.4390  -999.2500     4.7400     4.9260     4.7470   137.5510     8.4900     0.2570     0.0360   236.7290
 2576.5000   -24.5980  -999.2500     4.7400     4.7740     4.6010   137.1640     8.4930     0.2590     0.0380   239.0300
 2577.0000   -24.7680  -999.2500     4.7400     4.6530     4.4850   137.9330     8.4950     0.2610     0.0430   244.0400
 2577.5000   -24.9310  -999.2500     4.7400     4.5720     4.4060   139.1660     8.4980     0.2620     0.0470   249.0500
 2578.0000   -25.1000  -999.2500     4.7400     4.4700     4.3080   139.4330     8.5010     0.2640     0.0600   254.0600
 2578.5000   -25.2670  -999.2500     4.7400     4.3690     4.2100   139.7450     8.5030     0.2720     0.0690   253.9820
 2579.0000   -25.3790  -999.2500     4.7400     4.2670     4.1120   140.5870     8.5050     0.2810     0.0680   252.7300
 2579.5000   -25.2080  -999.2500     4.7400     4.1660     4.0150   142.0630     8.5050     0.2900     0.0660   251.4770
 2580.0000   -25.0640  -999.2500     4.7400     3.9900     3.8450   141.6470     8.5050     0.2990     0.0610   250.2250
 2580.5000   -24.9040  -999.2500     4.5950     3.8140     3.6760   140.2120     8.5050     0.2910     0.0640   248.9730
 2581.0000   -24.7540  -999.2500     4.2320     3.6390     3.5070   140.2070     8.5050     0.2830     0.0690   247.7200
 2581.5000   -24.6000  -999.2500     3.8690     3.4630     3.3380   140.1280     8.5050     0.2760     0.0760   246.4680
 2582.0000   -24.4460  -999.2500     3.9160     3.4000     3.2770   138.5940     8.5050     0.2680     0.0730   245.2150
 2582.5000   -24.2960  -999.2500     3.9950     3.4060     3.2820   137.9310     8.4930     0.2640     0.0680   245.0000
 2583.0000   -24.1360  -999.2500     4.0890     3.4200     3.2960   137.5140     8.4770     0.2640     0.0630   245.0000
 2583.5000   -23.9920  -999.2500     4.2300     3.4350     3.3100   137.2900     8.4600     0.2630     0.0580   245.0000
 2584.0000   -23.8220  -999.2500     4.4070     3.4490     3.3240   136.9470     8.4450     0.2610     0.0550   245.0000
 2584.5000   -23.9520  -999.2500     4.6530     3.4630     3.3380   136.6930     8.4520     0.2600     0.0520   245.0000
 2585.0000   -24.1430  -999.2500     4.4420     3.5260     3.3980   137.3410     8.4600     0.2620     0.0520   245.0000
 2585.5000   -24.3370  -999.2500     4.0150     3.5890     3.4590   137.9690     8.4670     0.2630     0.0530   245.0000
 2586.0000   -24.5230  -999.2500     4.2590     3.6520     3.5200   138.5920     8.4740     0.2610     0.0530   245.0000
 2586.5000   -24.7150  -999.2500     4.8280     3.7150     3.5800   138.4420     8.4810     0.2600     0.0560   245.0000
 2587.0000   -24.9050  -999.2500     4.7800     3.7780     3.6410   137.6470     8.4820     0.2580     0.0590   245.0000
 2587.5000   -25.0910  -999.2500     4.6980     3.8410     3.7010   137.9810     8.4750     0.2580     0.0600   245.0000
 2588.0000   -25.2960  -999.2500     4.6170     3.9030     3.7620   138.2000     8.4690     0.2610     0.0590   245.0000
 2588.5000   -25.4090  -999.2500     4.5360     3.9410     3.7980   137.0400     8.4630     0.2620     0.0590   245.0000
 2589.0000   -25.3950  -999.2500     4.4540     3.9750     3.8310   137.6450     8.4560     0.2600     0.0570   245.0000
 2589.5000   -25.4000  -999.2500     4.3730     4.0310     3.8850   138.8740     8.4500     0.2570     0.0540   245.0000
 2590.0000   -25.3990  -999.2500     4.2430     4.0870     3.9390   140.5120     8.4430     0.2550     0.0520   245.0000
 2590.5000   -25.3980  -999.2500     4.3220     4.1430     3.9930   140.5280     8.4370     0.2590     0.0550   245.0000
 2591.0000   -25.4010  -999.2500     4.4150     4.2650     4.1110   140.5200     8.4310     0.2620     0.0590   245.0000
 2591.5000   -25.3960  -999.2500     4.5690     4.4310     4.2710   140.5330     8.4240     0.2650     0.0550   245.0000
 2592.0000   -25.4030  -999.2500     4.7230     4.5970     4.4310   140.8440     8.4180     0.2630     0.0490   245.0000
 2592.5000   -25.4010  -999.2500     4.8770     4.7640     4.5910   142.0800     8.4110     0.2610     0.0430   245.0000
 2593.0000   -25.3580  -999.2500     5.0320     4.9300     4.7510   142.3280     8.4050     0.2580     0.0410   245.0000
 2593.5000   -24.9060  -999.2500     5.1860     5.0960     4.9110   142.6320     8.4040     0.2570     0.0450   245.0000
 2594.0000   -24.6310  -999.2500     5.3400     5.2950     5.1030   143.2950     8.4040     0.2570     0.0480   245.0000
