~VERSION INFORMATION
 VERS.                2.0:   CWLS LOG ASCII STANDARD - VERSION 2.0
 WRAP.                 NO:   ONE LINE PER DEPTH STEP
~WELL INFORMATION
#MNEM.UNIT      DATA TYPE    INFORMATION
#----------   ------------   ------------------------------
 STRT.F          404.0000:   START DEPTH
 STOP.F         2919.0000:   STOP DEPTH
 STEP.F            0.5000:   STEP LENGTH
 NULL.          -999.2500:   NO VALUE
 COMP.    FENIX & SCISSON:   COMPANY
 WELL. FENIX & SCISSON "AX" #27-21:   WELL
 FLD .             NPR #3:   FIELD
 LOC .      S21 T39N R78W:   LOCATION
 CNTY.            NATRONA:   COUNTY
 STAT.            WYOMING:   STATE
 CTRY. UNITED STATES OF AMERICA:   COUNTRY
 SRVC.       SCHLUMBERGER:   SERVICE COMPANY
 DATE.        21-APR-1977:   LOGDATE
 API .     49025103730000:   API NUMBER
~CURVE INFORMATION
#MNEM.UNIT       API CODE    CURVE DESCRIPTION
#----------   ------------   ------------------------------
 DEPT.F                  :   
 SPR .MV     07 010 01 00:   SPONTANEOUS POTENTIAL
 ILM .OHMM   07 120 44 00:   INDUCTION LOG MEDIUM RESISTIVITY
 ILD .OHMM   07 120 46 00:   DEEP INDUCTION RESISTIVITY
 LL8 .OHMM   07 220 08 00:   LATEROLOG-8 RES.
 GRN .GAPI   35 310 01 00:   GAMMA RAY
 CALD.IN     45 280 60 00:   CALIPER FROM DENSITY LOG
 GRD .GAPI   45 310 01 00:   GAMMA RAY FROM DENSITY LOG
 CORR.G/C3   45 356 01 00:   DENSITY CORRECTION
 RHOB.G/C3   45 350 01 00:   BULK DENSITY
~PARAMETER INFORMATION
#MNEM.UNIT          VALUE    DESCRIPTION
#----------   ------------   ------------------------------
 EKB .F         5004.0000:   Kelly bushing
 EGL .F         4994.0000:   Ground level
 TD  .F         2920.0000:   Total depth
 CLNT.            A2DTECH:   Client Code
 SL  . 991' FWL & 1090' FSL:   Surface Location
 DATE.        21-APR-1977:   Date Logged [DD-MMM-YYYY]
 DD  .F              2920:   Depth driller
 DL  .F              2920:   Depth logger
 BLI .F              2914:   Bottom log interval
 TLI .F               419:   Top log interval
 CS1 .              8.625:   Casing size
 CBD1.      8.625" @ 425':   Casing driller 1
 CBL1.IN              419:   Casing logger 1
 BS1 .IN            7.875:   Bit size
 BSD1.F              2920:   Depth drilled with bit1
 DFT .                FGM:   Type fluid in hole
 DFD .                9.0:   Density
 DFV .                 34:   Viscosity
 DFPH.                8.0:   pH
 DFL .                8.0:   Fluid loss
 MSS .                PIT:   Source of sample
 RMS .OHMM          0.158:   Rm
 MST .F                72:   Rm Meas. temp.
 RMF .OHMM          0.158:   Rmf
 MFST.F                72:   Rmf Meas. temp.
 MFSS.               MEAS:   Source Rmf.
 RMB .OHMM          0.102:   Rm. at BHT
 BHT .F               112:   BHT.
 TCS .HRS            0500:   Time Circ. stopped
 TLAB.HRS            0700:   Time logger at bottom
 MRT .F               112:   Maximum recorded temp.
 LUN .               5642:   Logging unit number
 LUL .               CSPR:   Logging unit location
 ENGI.             TAYLOR:   Recorded By
 WITN.          PETTINGIL:   Witnessed by
 ORIG.      2.5" 5" PRINT:   Origin of data
 UWI .     49025103730000:   Unique Well ID
 DICO. A2D TECHNOLOGIES, INC.:   Digitizing Company
 PD  .                 GL:   Permanent Datum
 EPD .F              4994:   Elevation Permanent Datum
 LMF .                 KB:   Log Measured From
 DMF .                 KB:   Drilling Measured From
 DAPD.F                10:   Feet Above Permanent Datum
~OTHER INFORMATION
~A   DEPT      SPR        ILM        ILD        LL8        GRN       CALD         GRD      CORR       RHOB   
# ...
 2375.0000   -62.9464     6.8104     6.4563     8.4973   129.4234     8.8190    82.5663     0.0304     2.5382
 2375.5000   -62.6458     6.8118     6.4567     8.2703   124.9771     8.8196    85.1752     0.0265     2.5413
 2376.0000   -62.6428     6.8132     6.4572     8.0170   123.2119     8.8202    85.3995     0.0235     2.5337
 2376.5000   -62.6398     6.8146     6.4405     7.6209   125.9501     8.7911    84.2200     0.0182     2.5335
 2377.0000   -62.6368     6.8161     6.1822     7.4172   130.2482     8.7917    86.3045     0.0131     2.5367
 2377.5000   -62.6338     6.7242     6.0165     7.2190   134.0979     8.7923    83.8428     0.0116     2.5278
 2378.0000   -62.6308     6.7257     5.9476     7.0260   137.0508     8.7632    83.0551     0.0117     2.5203
 2378.5000   -62.6278     6.6351     6.0303     6.9513   137.9762     8.7638    84.6529     0.0140     2.5233
 2379.0000   -62.6248     6.5457     6.1142     7.2640   129.2794     8.7644    85.1470     0.0239     2.5248
 2379.5000   -62.6218     6.3693     6.1147     7.5702   127.0658     8.7353    82.1417     0.0352     2.5203
 2380.0000   -62.3212     6.2835     6.1208     7.8894   130.7008     8.7359    77.5076     0.0472     2.5308
 2380.5000   -61.7230     6.1141     6.2002     8.0966   131.6357     8.7365    78.0711     0.0599     2.5443
 2381.0000   -61.1248     5.9493     6.1159     7.9673   131.0011     8.7074    80.9408     0.0673     2.5519
 2381.5000   -60.5265     5.7098     6.0309     7.6425   129.0212     8.7080    83.2076     0.0703     2.5608
 2382.0000   -59.9283     5.7110     5.7895     7.1408   127.4016     8.7086    85.0325     0.0657     2.5562
 2382.5000   -59.0324     5.5570     5.4801     6.7643   123.3272     8.6795    85.0593     0.0544     2.5487
 2383.0000   -58.4342     5.4820     5.2591     6.5005   117.7748     8.6801    84.4688     0.0410     2.5397
 2383.5000   -57.5383     5.4833     5.1168     6.6836   115.0415     8.6807    82.3859     0.0238     2.5291
 2384.0000   -56.3449     5.6055     5.0473     7.1621   115.3317     8.6813    80.9259     0.0207     2.5202
 2384.5000   -55.4490     5.7617     5.1884     7.5698   114.1657     8.6522    81.9866     0.0312     2.5211
 2385.0000   -54.2556     6.0504     5.6349     7.5714   111.7332     8.6503    83.0266     0.0358     2.5310
 2385.5000   -52.7645     6.5280     6.1197     7.6781   108.5983     8.6237    83.1677     0.0344     2.5280
 2386.0000   -50.3805     7.1330     6.7384     8.1152   105.9417     8.6243    81.1272     0.0225     2.5310
 2386.5000   -47.4013     7.8537     7.5222     8.5771   103.8412     8.6249    75.2497     0.0268     2.5110
 2387.0000   -44.1245     8.7022     8.5135     9.7123   101.1887     8.5958    67.4643     0.0232     2.4680
 2387.5000   -41.1453     9.6395     9.6354    10.8472    98.0877     8.5964    59.4599     0.0233     2.4335
 2388.0000   -38.1661    10.7532    10.9051    13.3423    95.2110     8.5931    54.1259     0.0528     2.4053
 2388.5000   -34.2941    11.9241    11.8435    16.8701    92.5584     8.5679    50.2757     0.0466     2.4532
 2389.0000   -31.3149    13.1229    13.0408    19.9097    93.2691     8.5388    46.4255     0.0376     2.4448
 2389.5000   -29.2286    14.3236    13.7789    22.5448    95.3251     8.5097    44.3557     0.0448     2.4048
 2390.0000   -28.0949    15.9784    14.7603    24.4944    93.7937     8.5103    42.8795     0.0850     2.3949
 2390.5000   -26.0211    17.3235    15.8116    24.1633    90.6927     8.5110    43.4803     0.0821     2.4566
 2391.0000   -24.2442    18.0532    16.4784    24.1690    91.8519     8.5116    46.4550     0.0653     2.4410
 2391.5000   -22.1695    18.2233    17.4111    23.8431    95.4773     8.5122    48.8363     0.0447     2.4219
 2392.0000   -20.5556    16.7471    16.0006    23.1994    94.3943     8.5128    48.2501     0.0427     2.4324
 2392.5000   -18.7548    15.2828    14.6551    23.8530    92.1807     8.4836    43.5097     0.0366     2.4354
 2393.0000   -16.9941    14.5787    13.9760    24.8656    97.6094     8.4843    39.9563     0.0244     2.3920
 2393.5000   -15.6617    14.1893    13.7415    25.0102   100.1139     8.4849    32.8419     0.0286     2.4039
 2394.0000   -14.4723    14.0436    13.4133    24.6795   100.3761     8.4855    28.9917     0.0397     2.4085
 2394.5000   -13.4374    14.2812    13.4143    24.2033    96.3783     8.4789    28.6528     0.0325     2.3999
 2395.0000   -12.3908    14.4787    13.6355    23.8768    85.2056     8.4569    29.0065     0.0256     2.3914
 2395.5000   -12.0943    15.1235    14.0455    24.0520    79.6383     8.4576    29.6073     0.0232     2.3937
 2396.0000   -11.4999    16.1629    14.6001    25.0661    77.8826     8.4284    29.6147     0.0288     2.4041
 2396.5000   -11.2034    16.1052    14.7732    26.2957    75.4448     8.4291    29.3253     0.0307     2.3999
 2397.0000   -10.9068    15.4837    12.9973    27.2240    77.2861     8.4297    28.7392     0.0246     2.3932
 2397.5000   -10.6101    15.2372    12.3573    26.0128    75.3062     8.4303    27.2629     0.0187     2.3921
 2398.0000   -10.1309    14.6602    12.1772    24.6362    75.7927     8.4309    23.4127     0.0263     2.3975
 2398.5000    -9.8303    14.4519    12.0149    23.3315    77.6244     8.4315    19.2657     0.0308     2.4012
 2399.0000    -9.7203    14.0659    11.8605    22.2090    82.1468     8.4321    18.9763     0.0197     2.3933
 2399.5000    -9.2292    13.6833    11.8614    21.5119    83.7544     8.4029    19.5772     0.0128     2.3847
 2400.0000    -9.2262    12.7853    11.8622    20.8439    83.7924     8.4036    20.7715     0.0173     2.3762
 2400.5000    -9.2232    12.4406    11.8630    20.9397    84.4300     8.4042    23.1878     0.0123     2.3703
 2401.0000    -9.5183    13.1477    12.0280    22.2166    86.4719     8.4047    28.4133     0.0182     2.3801
 2401.5000    -9.8129    14.2828    12.5353    23.5581    91.6482     8.4053    34.0580     0.0233     2.4130
 2402.0000   -10.1076    16.1702    13.4281    24.8790    98.3916     8.4059    40.6713     0.0272     2.4314
 2402.5000   -10.4813    18.3071    14.5837    26.6375   103.5678     8.4065    48.3908     0.0422     2.4474
 2403.0000   -11.0694    21.3049    16.2802    29.0960   108.0725     8.4185    51.3626     0.0458     2.4597
 2403.5000   -12.0267    24.4546    21.1408    34.6860   114.3681     8.4374    51.7378     0.0275     2.4750
 2404.0000   -13.2065    30.0702    31.9342    45.4711   117.9772     8.4499    49.5911     0.0179     2.4946
 2404.5000   -14.3224    31.8515    28.2199    53.5611   108.1535     8.4682    46.9249     0.0128     2.5083
 2405.0000   -14.9701    29.2658    25.2827    52.5121   102.3596     8.4688    44.8521     0.0152     2.5166
 2405.5000   -15.7968    25.5070    22.0370    38.4501    93.6552     8.4991    48.1207     0.0232     2.5066
 2406.0000   -16.6824    22.8516    20.2937    31.2240   100.3986     8.4997    51.3891     0.0317     2.4680
 2406.5000   -17.3185    21.0442    18.6883    24.9293   106.0227     8.5003    52.5805     0.0381     2.4535
 2407.0000   -18.1133    19.6485    17.2100    22.9737   112.5422     8.5009    52.8817     0.0445     2.4429
 2407.5000   -18.1101    18.3453    15.6322    21.4742   120.6289     8.5014    51.6991     0.0579     2.4309
 2408.0000   -18.1071    17.3659    15.0016    20.0589   118.1932     8.5020    50.1322     0.0466     2.4318
 2408.5000   -18.1041    16.6865    15.2103    18.9935   119.5635     8.5026    52.3015     0.0234     2.4142
 2409.0000   -18.3989    17.8805    16.2937    18.2277   124.2920     8.5032    55.5700     0.0155     2.3915
 2409.5000   -18.4196    18.6396    15.8529    17.2532   125.4316     8.5038    57.9483     0.0129     2.3794
 2410.0000   -19.0080    19.1653    15.4241    16.5576   124.5631     8.5044    59.4364     0.0148     2.3951
 2410.5000   -19.8939    19.7057    15.0068    16.5411   122.1342     8.5073    55.8800     0.0211     2.4288
 2411.0000   -20.7915    20.2614    15.0077    17.5037   117.2291     8.5108    56.7747     0.0274     2.4196
