~VERSION INFORMATION
 VERS.                2.0:   CWLS LOG ASCII STANDARD - VERSION 2.0
 WRAP.                 NO:   ONE LINE PER DEPTH STEP
~WELL INFORMATION
#MNEM.UNIT      DATA TYPE    INFORMATION
#----------   ------------   ------------------------------
 STRT.F          620.0000:   START DEPTH
 STOP.F         4350.5000:   STOP DEPTH
 STEP.F            0.5000:   STEP LENGTH
 NULL.          -999.2500:   NO VALUE
 COMP.    FENIX & SCISSON:   COMPANY
 WELL. FENIX NPR 3 "LX" #25-10:   WELL
 FLD .                NPR:   FIELD
 LOC .      S10 T38N R78W:   LOCATION
 CNTY.            NATRONA:   COUNTY
 STAT.            WYOMING:   STATE
 CTRY. UNITED STATES OF AMERICA:   COUNTRY
 SRVC.              WELEX:   SERVICE COMPANY
 DATE.        06-MAR-1980:   LOGDATE
 API .     49025108070000:   API NUMBER
~CURVE INFORMATION
#MNEM.UNIT       API CODE    CURVE DESCRIPTION
#----------   ------------   ------------------------------
 DEPT.F                  :   
 CALD.IN     45 280 60 00:   CALIPER FROM DENSITY LOG
 GRD .GAPI   45 310 01 00:   GAMMA RAY FROM DENSITY LOG
 RHOB.G/C3   45 350 01 00:   BULK DENSITY
 CORR.G/C3   45 356 01 00:   DENSITY CORRECTION
 NPHI.DEC    42 890 03 00:   NEUTRON POROSITY SANDSTONE
 SPR .MV     07 010 01 00:   SPONTANEOUS POTENTIAL
 ILD .OHMM   07 120 46 00:   DEEP INDUCTION RESISTIVITY
 ILM .OHMM   07 120 44 00:   INDUCTION LOG MEDIUM RESISTIVITY
 SGRD.OHMM   07 220 05 00:   SHALLOW SHORT GUARD RESISTIVITY
~PARAMETER INFORMATION
#MNEM.UNIT          VALUE    DESCRIPTION
#----------   ------------   ------------------------------
 EKB .F         5247.0000:   Kelly bushing
 EGL .F         5237.0000:   Ground level
 EDF .F            0.0000:   Drilling floor
 TD  .F         4352.0000:   Total depth
 DATE.        06-MAR-1980:   Date logged
 CLNT.            A2DTECH:   Client Code
 SL  . 1075' FWL & 2450' FSL:   Surface Location
 PD  .                 GL:   Permanent Datum
 EPD .F              5237:   Elevation Permanent Datum
 LMF .                 KB:   Log Measured From
 DMF .                 KB:   Drilling Measured From
 DAPD.F                10:   Feet Above Permanent Datum
 DD  .F              4350:   Depth driller
 DL  .F              4352:   Depth logger
 BLI .F              4350:   Bottom log interval
 TLI .F               630:   Top log interval
 CS1 .IN            8.625:   Casing size
 CBD1.      8.625" @ 600':   Casing driller 1
 CBL1.F               632:   Casing logger 1
 BS1 .IN            7.875:   Bit size
 BSD1.F              4350:   Depth drilled with bit1
 DFT .           CHEM/GEL:   Type fluid in hole
 DFD .                8.9:   Density
 DFV .                 47:   Viscosity
 DFPH.               10.3:   pH
 DFL .                 10:   Fluid loss
 MSS .           FLOWLINE:   Source of sample
 RMS .OHMM            .89:   Rm
 MST .F                90:   Rm Meas. temp.
 RMF .OHMM            .71:   Rmf
 MFST.F                90:   Rmf Meas. temp.
 RMC .OHMM           1.06:   Rmc
 MCST.F                90:   Rmc Meas. temp.
 MFSS.               MEAS:   Source Rmf.
 MCSS.               MEAS:   Source Rmc.
 RMB .OHMM            .60:   Rm. at BHT
 BHT .F               112:   BHT.
 TCS .HRS               1:   Time Circ. stopped
 MRT .F               132:   Maximum recorded temp.
 LUN .               1892:   Logging unit number
 LUL .             CASPER:   Logging unit location
 ENGI.               REIN:   Recorded By
 WITN.           DINSMORE:   Witnessed by
 ORIG.           5" PRINT:   Origin of data
 UWI .     49025108070000:   Unique Well ID
 DICO. A2D TECHNOLOGIES, INC.:   Digitizing Company
~OTHER INFORMATION
~A   DEPT     CALD        GRD       RHOB       CORR       NPHI         SPR       ILD        ILM         SGRD 
# ...
 4270.0000     9.2570  -999.2500     2.6920     0.1710  -999.2500   -26.7360     8.1450    10.9040    13.5080
 4270.5000     9.2520  -999.2500     2.6980     0.1710  -999.2500   -26.6270     8.1080    10.4430    11.5310
 4271.0000     9.2480  -999.2500     2.7040     0.1710  -999.2500   -26.5030     7.9590     9.9180    10.7670
 4271.5000     9.2430  -999.2500     2.7080     0.1710  -999.2500   -26.6860     7.7550    10.0390    10.4830
 4272.0000     9.2390  -999.2500     2.7060     0.1710  -999.2500   -26.9050     7.5190    10.3040    10.9700
 4272.5000     9.2340  -999.2500     2.7020     0.1710  -999.2500   -27.1390     7.5540    10.5680    12.8420
 4273.0000     9.2290  -999.2500     2.7000     0.1740  -999.2500   -27.3750     7.6320    10.8770    12.3710
 4273.5000     9.2250  -999.2500     2.7030     0.1780  -999.2500   -27.5550     7.7100    10.2380    11.9280
 4274.0000     9.2200  -999.2500     2.7130     0.1820  -999.2500   -28.0990     7.8020    10.6560    12.9100
 4274.5000     9.2160  -999.2500     2.7290     0.1850  -999.2500   -28.8840     7.9980    12.1510    15.3580
 4275.0000     9.2110  -999.2500     2.7350     0.1890  -999.2500   -29.6030     8.4750    12.6060    16.6290
 4275.5000     9.2060  -999.2500     2.7430     0.1930  -999.2500   -30.3820     8.9510    13.0590    17.6950
 4276.0000     9.2030  -999.2500     2.7470     0.1960  -999.2500   -30.5070     9.4280    13.5110    19.6100
 4276.5000     9.1970  -999.2500     2.7480     0.2000  -999.2500   -30.1250     9.9040    13.9630    22.3420
 4277.0000     9.1870  -999.2500     2.7440     0.2040  -999.2500   -29.8050    10.3810    14.4150    21.6430
 4277.5000     9.1500  -999.2500     2.7390     0.2070  -999.2500   -29.4820    10.8770    14.8860    20.3730
 4278.0000     9.1580  -999.2500     2.7340     0.2110  -999.2500   -29.1470    10.5980    14.2500    17.1360
 4278.5000     9.1530  -999.2500     2.7290     0.2150  -999.2500   -28.8230    10.2910    13.7980    13.5740
 4279.0000     9.1490  -999.2500     2.7260     0.2200  -999.2500   -28.4940     9.8630    13.4160    13.2710
 4279.5000     9.0390  -999.2500     2.7240     0.2240  -999.2500   -28.1650     9.4090    13.0340    12.9500
 4280.0000     8.9190  -999.2500     2.7290     0.2290  -999.2500   -27.8370     8.9550    12.6520    12.6290
 4280.5000     8.7990  -999.2500     2.7430     0.2330  -999.2500   -27.5090     8.5020    12.2700    12.3080
 4281.0000     8.6790  -999.2500     2.7510     0.2370  -999.2500   -27.1790     8.0960    11.9280    11.7490
 4281.5000     8.5490  -999.2500     2.7580     0.2420  -999.2500   -26.8570     8.1410    10.4830    10.8770
 4282.0000     8.5160  -999.2500     2.7620     0.2460  -999.2500   -26.5170     8.1830    10.8230    12.3600
 4282.5000     8.6280  -999.2500     2.7580     0.2500  -999.2500   -26.2020     8.2250    11.2040    14.0170
 4283.0000     8.4590  -999.2500  -999.2500     0.2550  -999.2500   -25.9330     8.2460    11.5840    16.5040
 4283.5000  -999.2500  -999.2500  -999.2500  -999.2500  -999.2500   -26.3350     9.0550    14.3370    20.3730
 4284.0000  -999.2500  -999.2500  -999.2500  -999.2500  -999.2500   -26.7190     9.8090    18.2600    46.4620
 4284.5000  -999.2500  -999.2500  -999.2500  -999.2500  -999.2500   -27.1300    10.6780    22.1840    81.3300
 4285.0000  -999.2500  -999.2500  -999.2500  -999.2500  -999.2500   -27.5370    13.3040    26.1080    97.8160
 4285.5000  -999.2500  -999.2500  -999.2500  -999.2500  -999.2500   -27.6890    16.4060    30.0320    95.4130
 4286.0000  -999.2500  -999.2500  -999.2500  -999.2500  -999.2500   -27.6770    19.5070    33.9550    85.1400
 4286.5000  -999.2500  -999.2500  -999.2500  -999.2500  -999.2500   -27.6780    22.3920    37.6560    74.8660
 4287.0000  -999.2500  -999.2500  -999.2500  -999.2500  -999.2500   -27.6800    24.5000    41.2190    64.5930
 4287.5000  -999.2500  -999.2500  -999.2500  -999.2500  -999.2500   -27.6780    27.8820    45.3730    58.5320
 4288.0000  -999.2500  -999.2500  -999.2500  -999.2500  -999.2500   -27.6790    27.1140    49.9130    55.1970
 4288.5000  -999.2500  -999.2500  -999.2500  -999.2500  -999.2500   -27.6790    25.1720    57.2720    44.8450
 4289.0000  -999.2500  -999.2500  -999.2500  -999.2500  -999.2500   -27.6780    23.1820    53.4190    34.4090
 4289.5000  -999.2500  -999.2500  -999.2500  -999.2500  -999.2500   -27.6800    20.2960    43.2520    23.9730
 4290.0000  -999.2500  -999.2500  -999.2500  -999.2500  -999.2500   -27.6790    17.3380    32.0840    20.7500
 4290.5000  -999.2500  -999.2500  -999.2500  -999.2500  -999.2500   -27.6750    15.5380    21.1390    19.7280
 4291.0000  -999.2500  -999.2500  -999.2500  -999.2500  -999.2500   -27.6930    14.6610    18.8440    18.7060
 4291.5000  -999.2500  -999.2500  -999.2500  -999.2500  -999.2500   -27.5320    13.7830    16.8550    17.6980
 4292.0000  -999.2500  -999.2500  -999.2500  -999.2500  -999.2500   -27.2210    12.8420    16.2960    16.3250
 4292.5000  -999.2500  -999.2500  -999.2500  -999.2500  -999.2500   -26.9320    12.5170    16.2570    17.0840
 4293.0000  -999.2500  -999.2500  -999.2500  -999.2500  -999.2500   -26.6210    12.1660    16.2180    18.5330
 4293.5000  -999.2500  -999.2500  -999.2500  -999.2500  -999.2500   -26.4950    11.8150    16.1800    19.9810
 4294.0000  -999.2500  -999.2500  -999.2500  -999.2500  -999.2500   -26.5570    11.4270    16.1410    21.4300
 4294.5000  -999.2500  -999.2500  -999.2500  -999.2500  -999.2500   -26.5970    11.1980    16.1020    22.8790
 4295.0000  -999.2500  -999.2500  -999.2500  -999.2500  -999.2500   -26.6390    10.9680    16.0630    24.5020
 4295.5000  -999.2500  -999.2500  -999.2500  -999.2500  -999.2500   -26.6850    10.7380    16.0260    22.3470
 4296.0000  -999.2500  -999.2500  -999.2500  -999.2500  -999.2500   -26.7270    10.5080    15.3810    19.8940
 4296.5000  -999.2500  -999.2500  -999.2500  -999.2500  -999.2500   -26.7710    10.2910    14.7780    17.4420
 4297.0000  -999.2500  -999.2500  -999.2500  -999.2500  -999.2500   -26.8140     9.6030    14.0840    14.6140
 4297.5000  -999.2500  -999.2500  -999.2500  -999.2500  -999.2500   -26.8580     8.9520    12.6870    12.7960
 4298.0000  -999.2500  -999.2500  -999.2500  -999.2500  -999.2500   -26.9010     8.3240    11.0370    10.6500
 4298.5000  -999.2500  -999.2500  -999.2500  -999.2500  -999.2500   -26.9440     7.7100     9.3860     8.5560
 4299.0000  -999.2500  -999.2500  -999.2500  -999.2500  -999.2500   -26.9900     7.0960     8.0960     8.9310
 4299.5000  -999.2500  -999.2500  -999.2500  -999.2500  -999.2500   -27.0280     6.4810     8.0650     9.2980
 4300.0000  -999.2500  -999.2500  -999.2500  -999.2500  -999.2500   -27.0760     5.8670     8.0280     9.7370
 4300.5000  -999.2500  -999.2500  -999.2500  -999.2500  -999.2500   -26.9250     5.2520     7.9910     9.3200
 4301.0000  -999.2500  -999.2500  -999.2500  -999.2500  -999.2500   -26.7260     4.8710     7.9470     8.2850
 4301.5000  -999.2500  -999.2500  -999.2500  -999.2500  -999.2500   -26.5260     4.6410     7.5180     7.2500
 4302.0000  -999.2500  -999.2500  -999.2500  -999.2500  -999.2500   -26.3220     4.4110     6.9870     6.0250
 4302.5000  -999.2500  -999.2500  -999.2500  -999.2500  -999.2500   -26.1330     4.1820     6.4570     6.0560
 4303.0000  -999.2500  -999.2500  -999.2500  -999.2500  -999.2500   -25.9120     3.9520     5.9260     6.1290
 4303.5000  -999.2500  -999.2500  -999.2500  -999.2500  -999.2500   -25.9510     3.7290     5.3950     6.2020
 4304.0000  -999.2500  -999.2500  -999.2500  -999.2500  -999.2500   -26.0160     3.6820     5.1730     6.2750
 4304.5000  -999.2500  -999.2500  -999.2500  -999.2500  -999.2500   -26.0910     3.6080     5.1340     6.3480
 4305.0000  -999.2500  -999.2500  -999.2500  -999.2500  -999.2500   -26.1580     3.5340     5.0950     6.4220
 4305.5000  -999.2500  -999.2500  -999.2500  -999.2500  -999.2500   -26.2280     3.4630     5.0550     6.4950
 4306.0000  -999.2500  -999.2500  -999.2500  -999.2500  -999.2500   -26.2980     3.4630     5.0100     6.5680
