~VERSION INFORMATION
 VERS.                2.0:   CWLS LOG ASCII STANDARD - VERSION 2.0
 WRAP.                 NO:   ONE LINE PER DEPTH STEP
~WELL INFORMATION
#MNEM.UNIT      DATA TYPE    INFORMATION
#----------   ------------   ------------------------------
 STRT.F            7.5000:   START DEPTH
 STOP.F         5700.0000:   STOP DEPTH
 STEP.F            0.5000:   STEP LENGTH
 NULL.          -999.2500:   NO VALUE
 COMP. FLUOR DANIEL (NPOSR):   COMPANY
 WELL.   FLOUR "X" #52-10:   WELL
 FLD .             NPR #3:   FIELD
 LOC .      S10 T38N R78W:   LOCATION
 CNTY.            NATRONA:   COUNTY
 STAT.            WYOMING:   STATE
 CTRY. UNITED STATES OF AMERICA:   COUNTRY
 SRVC.      WESTERN ATLAS:   SERVICE COMPANY
 DATE.        12-JAN-1996:   LOGDATE
 API .     49025227600000:   API NUMBER
~CURVE INFORMATION
#MNEM.UNIT       API CODE    CURVE DESCRIPTION
#----------   ------------   ------------------------------
 DEPT.F                  :   
 TENR.LBS    11 635 01 00:   TENSION
 GRR .GAPI   11 310 01 00:   GAMMA RAY FROM RESISTIVITY
 LLD .OHMM   11 220 10 00:   LATEROLOG DEEP
 LLS .OHMM   11 220 09 00:   LATEROLOG SHALLOW
 SPR .MV     11 010 01 00:   SPONTANEOUS POTENTIAL
 CALD.IN     45 280 60 00:   CALIPER FROM DENSITY LOG
 TEND.LBS    45 635 01 00:   TENSION FROM DENSITY LOG
 ZCOR.G/C3   45 356 01 00:   DENSITY CORRECTION
 ZDEN.G/C3   45 350 01 00:   BULK DENSITY
 CNC .DEC    42 890 03 00:   NEUTRON POROSITY SANDSTONE
~PARAMETER INFORMATION
#MNEM.UNIT          VALUE    DESCRIPTION
#----------   ------------   ------------------------------
 EKB .F         5196.0000:   Kelly bushing
 EGL .F         5186.0000:   Ground level
 EDF .F         5195.0000:   Drilling floor
 TD  .F         5699.0000:   Total depth
 DATE.        12-JAN-1996:   Date logged
 CLNT.            A2DTECH:   Client Code
 SL  . 1032' FNL & 2536' FEL:   Surface Location
 PD  .                 GL:   Permanent Datum
 EPD .F              5186:   Elevation Permanent Datum
 LMF .                 KB:   Log Measured From
 DMF .                 KB:   Drilling Measured From
 DAPD.F                11:   Feet Above Permanent Datum
 DD  .F              5699:   Depth driller
 DL  .F              5699:   Depth logger
 BLI .F              5687:   Bottom log interval
 CS1 .IN            9.625:   Casing size
 CBD1.      9.625" @ 520':   Casing driller 1
 CBL1.F               522:   Casing logger 1
 BS1 .IN             8.75:   Bit size
 BSD1.F              5699:   Depth drilled with bit1
 DFT .               CHEM:   Type fluid in hole
 DFD .                9.8:   Density
 DFV .                 50:   Viscosity
 DFPH.                9.5:   pH
 DFL .                8.4:   Fluid loss
 MSS .           FLOWLINE:   Source of sample
 RMS .OHMM          0.515:   Rm
 MST .F                66:   Rm Meas. temp.
 RMF .OHMM          0.499:   Rmf
 MFST.F                66:   Rmf Meas. temp.
 RMC .OHMM          0.761:   Rmc
 MCST.F                66:   Rmc Meas. temp.
 MFSS.               MEAS:   Source Rmf.
 MCSS.               MEAS:   Source Rmc.
 RMB .OHMM          0.233:   Rm. at BHT
 BHT .F               174:   BHT.
 TCS .HRS               6:   Time Circ. stopped
 MRT .F               174:   Maximum recorded temp.
 LUN .            HL 6530:   Logging unit number
 LUL .             CASPER:   Logging unit location
 ENGI.        VERN RAUTIO:   Recorded By
 WITN. LAFRENIERE/OPSAL/HARDY:   Witnessed by
 ORIG.     2.5", 5" PRINT:   Origin of data
 UWI .     49025227600000:   Unique Well ID
 DICO. A2D TECHNOLOGIES, INC.:   Digitizing Company
~OTHER INFORMATION
~A    DEPT    TENR         GRR       LLD        LLS        SPR       CALD       TEND       ZCOR       ZDEN        CNC   
# ...
 3592.0000   -14.0560   205.5120     3.1680     2.9110   -93.2710     9.8550   -44.1180     0.0390     2.4750     0.3320
 3592.5000   -14.0560   195.4450     4.8060     3.9500   -93.8390     9.9290   -51.6810     0.0350     2.5000     0.3070
 3593.0000   -14.0560   175.9490     6.7630     5.8230   -93.7260     9.9320   -58.7390     0.0360     2.4990     0.3000
 3593.5000   -15.6660   167.0210     8.3470     7.1320   -93.5760     9.9340   -65.7980     0.0450     2.4710     0.3080
 3594.0000   -21.0150   170.5340     7.7800     7.1320   -93.4550     9.9320   -72.8570     0.0690     2.4330     0.3170
 3594.5000   -26.3640   176.3940     6.7000     5.9900   -93.5450     9.9330   -79.9160     0.0930     2.4110     0.3260
 3595.0000   -31.7130   182.2630     5.9830     5.2570   -93.6320     9.9330   -83.3330     0.0830     2.4320     0.3270
 3595.5000   -37.0620   185.4570     5.9830     5.3320   -93.7190     9.9540   -83.3330     0.0690     2.4550     0.3160
 3596.0000   -18.9680   178.8130     6.6830     5.6110   -93.8050     9.9820   -83.3330     0.0590     2.4820     0.2980
 3596.5000   -34.2800   167.0220     7.2090     6.0110   -93.8240    10.0100   -83.3330     0.0510     2.4990     0.2890
 3597.0000   -25.3320   161.4230     7.3330     6.2660   -93.7650    10.0120   -83.3330     0.0430     2.5020     0.2880
 3597.5000   -29.3100   165.1070     7.3330     6.2510   -93.7080    10.0120   -83.3330     0.0350     2.5050     0.2910
 3598.0000   -33.2870   169.8720     7.3330     6.2210   -93.6510    10.0120   -83.3330     0.0270     2.5060     0.2970
 3598.5000   -48.9230   172.7330     7.2590     6.1910   -93.6490    10.0120  -112.1570     0.0190     2.5060     0.3000
 3599.0000   -67.7250   171.7120     7.1350     6.1620   -93.6490    10.0120  -121.9590     0.0150     2.5070     0.3030
 3599.5000   -73.0480   170.9110     6.8030     5.8360   -93.6500    10.0120  -120.9400     0.0160     2.5010     0.3050
 3600.0000   -71.1280   169.5010     6.2240     5.3500   -93.6500    10.0120  -119.9210     0.0160     2.4940     0.3070
 3600.5000   -69.2080   167.9450     5.6080     4.8940   -93.6220    10.0120  -118.9020     0.0290     2.4860     0.3300
 3601.0000   -67.2880   163.8300     5.5720     4.5760   -93.4120    10.0120  -117.8840     0.0360     2.4860     0.3370
 3601.5000   -65.3680   159.4810     5.5050     4.6190   -93.2020    10.0110  -116.8650     0.0360     2.4900     0.3300
 3602.0000   -68.6350   153.8290     5.6400     4.7050   -92.9910    10.0120  -115.8460     0.0430     2.4940     0.3250
 3602.5000   -76.9190   147.5640     5.8590     4.8970   -92.7850    10.0140  -114.8270     0.0570     2.4870     0.3250
 3603.0000   -82.6860   141.4330     6.0770     5.0890   -92.6720    10.0380  -113.8080     0.0810     2.4750     0.3180
 3603.5000   -81.0680   138.1100     6.2960     5.2820   -92.7810    10.0600  -112.7900     0.0860     2.4640     0.3080
 3604.0000   -76.4880   139.7500     6.5630     5.4150   -92.8850    10.0840  -111.7710     0.0740     2.4720     0.3020
 3604.5000   -71.9080   141.3830     6.4970     5.4550   -92.9900    10.1070  -110.7520     0.0670     2.4820     0.2980
 3605.0000   -67.3280   141.4420     6.3850     5.3550   -93.0270    10.1290  -109.7330     0.0630     2.4930     0.2950
 3605.5000   -62.7480   141.5270     6.1900     5.1940   -92.9910    10.1190  -108.7140     0.0600     2.4930     0.2970
 3606.0000   -58.1680   141.6160     5.9640     5.0190   -92.9550    10.1090  -107.6960     0.0570     2.4910     0.2980
 3606.5000   -55.1080   141.6740     5.8990     4.9390   -92.9190    10.0970  -106.6770     0.0540     2.4890     0.3020
 3607.0000   -61.5960   143.0870     5.8340     4.8520   -92.8820    10.0860  -105.6580     0.0510     2.4870     0.3040
 3607.5000   -76.5060   145.6970     5.7950     4.7640   -92.8510    10.0740  -104.6390     0.0470     2.4790     0.3030
 3608.0000   -97.2690   150.3820     5.7660     4.5760   -92.5430    10.0630  -103.6200     0.0460     2.4730     0.3020
 3608.5000   -85.5090   154.9980     5.2650     4.2240   -92.1260    10.0520  -100.5600     0.0430     2.4460     0.3060
 3609.0000   -54.2170   155.8480     4.6750     3.6800   -91.5310    10.0410   -93.4170     0.0510     2.4100     0.3190
 3609.5000   -40.6480   155.8750     4.0850     3.0460   -91.4020    10.0300   -86.2750     0.0700     2.3740     0.3280
 3610.0000    11.1560   155.8560     3.5650     2.9120   -91.3350    10.0170   -44.1180     0.0850     2.3550     0.3250
 3610.5000    91.9010   153.1280     3.7720     2.8550   -91.2720    10.0170    22.5490     0.1000     2.3810     0.3100
 3611.0000   145.7830   148.2900     4.1200     3.2440   -91.2610    10.0330    80.5880     0.0820     2.4040     0.2940
 3611.5000   186.7470   134.1720     4.4690     3.4660   -91.4600    10.0480   110.5880     0.0600     2.3950     0.2800
 3612.0000   173.7950   121.7260     4.5760     3.5320   -91.6570    10.0630   127.7780     0.0810     2.3560     0.2650
 3612.5000   112.2820   120.1770     4.5760     3.5010   -91.8360    10.0790   112.7450     0.1420     2.3660     0.2740
 3613.0000    36.1450   125.7650     4.5760     3.4800   -91.8920    10.0940    39.5420     0.1290     2.4000     0.2870
 3613.5000   -14.0560   129.6420     4.5760     3.3980   -91.9440    10.1100   -27.1240     0.0790     2.4500     0.2890
 3614.0000   -17.5160   130.8450     4.4300     3.2260   -91.9970    10.1240   -44.1180     0.0420     2.4430     0.2810
 3614.5000    -9.5300   129.6100     4.2870     3.0540   -92.1080    10.1270   -44.1180     0.0570     2.4220     0.2810
 3615.0000    -4.0160   126.8040     4.1330     2.9360   -92.4470    10.0450   -44.1180     0.0750     2.4390     0.3020
 3615.5000    -4.0160   124.4120     4.3770     3.0910   -92.7750     9.9370   -44.1180     0.1010     2.4730     0.3110
 3616.0000    -4.0160   125.1220     4.8370     3.5960   -93.0450     9.8270   -59.5590     0.1010     2.5130     0.3010
 3616.5000   -19.6290   123.6230     6.0930     4.0950   -92.7900     9.7090   -78.3090     0.1030     2.5380     0.2910
 3617.0000   -45.5820   119.2380     6.3830     4.2500   -92.5200     9.6510   -97.0590     0.1060     2.5160     0.2760
 3617.5000   -56.6060   117.0750     5.9720     4.0420   -92.5180     9.6570  -101.3810     0.1490     2.4820     0.2800
 3618.0000   -60.1860   118.6270     5.4940     3.6510   -92.6900     9.6560   -99.1090     0.1740     2.4520     0.2840
 3618.5000   -63.7650   122.0630     5.0160     3.2980   -92.6620     9.6550   -96.8360     0.1770     2.4580     0.2880
 3619.0000   -67.3450   125.4610     4.5340     3.2200   -92.4370     9.6560   -94.5630     0.1600     2.4710     0.2890
 3619.5000   -70.9250   128.1130     4.7410     3.3050   -92.2020     9.6950   -92.2910     0.1160     2.4780     0.2750
 3620.0000   -74.2970   128.3120     5.0190     3.4040   -91.9590     9.7510   -90.0180     0.0970     2.4780     0.2810
 3620.5000   -67.9600   129.8550     4.9550     3.2800   -91.6510     9.8080   -87.7450     0.0170     2.3920     0.3000
 3621.0000   -61.9710   143.6200     4.5190     2.9860   -91.3470     9.8520   -85.4720     0.0340     2.3000     0.3200
 3621.5000   -55.9820   164.0530     3.9390     2.5860   -91.1390     9.9260   -83.3330     0.0510     2.2540     0.3410
 3622.0000   -49.9920   181.0340     3.3590     2.1840   -90.9020     9.9550   -79.5520     0.0940     2.2040     0.3710
 3622.5000   -44.1770   173.4250     3.1320     2.0850   -90.6690    10.6620   -75.9800     0.1330     2.1090     0.4030
 3623.0000   -33.4940   150.8450     3.2470     2.1190   -90.4320    11.4780   -72.4090     0.1720     1.9900     0.4210
 3623.5000   -23.1120   121.6620     3.4710     2.2150   -90.2990    12.1650   -68.8380     0.2140     1.9150     0.4470
 3624.0000   -14.0560   104.1000     3.6940     2.3920   -90.1690    12.3210   -65.2660     0.2110     2.0300     0.4320
 3624.5000   -14.0560   100.4610     4.0470     2.6350   -90.0420    12.0190   -65.3980     0.1850     2.1600     0.3920
 3625.0000   -14.0560   103.3860     4.6380     2.9400   -89.8550    11.1830   -68.3390     0.1320     2.2300     0.3510
