~VERSION INFORMATION
 VERS.                2.0:   CWLS LOG ASCII STANDARD - VERSION 2.0
 WRAP.                 NO:   ONE LINE PER DEPTH STEP
~WELL INFORMATION
#MNEM.UNIT      DATA TYPE    INFORMATION
#----------   ------------   ------------------------------
 STRT.F          205.0000:   START DEPTH
 STOP.F         3171.5000:   STOP DEPTH
 STEP.F            0.5000:   STEP LENGTH
 NULL.          -999.2500:   NO VALUE
 COMP.    FENIX & SCISSON:   COMPANY
 WELL. FENIX & SCISSON  "AX" #27-28:   WELL
 FLD .              NPR 3:   FIELD
 LOC .      S28 T39N R78W:   LOCATION
 CNTY.            NATRONA:   COUNTY
 STAT.            WYOMING:   STATE
 CTRY. UNITED STATES OF AMERICA:   COUNTRY
 SRVC.       SCHLUMBERGER:   SERVICE COMPANY
 DATE.        30-MAY-1977:   LOGDATE
 API .     49025103870000:   API NUMBER
~CURVE INFORMATION
#MNEM.UNIT       API CODE    CURVE DESCRIPTION
#----------   ------------   ------------------------------
 DEPT.F                  :   
 NPHI.DEC    42 890 03 00:   NEUTRON POROSITY SANDSTONE
 CALD.IN     45 280 60 00:   CALIPER FROM DENSITY LOG
 GRD .GAPI   45 310 01 00:   GAMMA RAY FROM DENSITY LOG
 RHOB.G/C3   45 350 01 00:   BULK DENSITY
 CORR.G/C3   45 356 01 00:   DENSITY CORRECTION
 SPR .MV     11 010 01 00:   SPONTANEOUS POTENTIAL
 MSFL.OHMM   11 270 04 00:   MICRO SPHERICALLY FOCUSED RES.
 LLD .OHMM   11 220 10 00:   LATEROLOG LOG DEEP
 LLS .OHMM   11 220 09 00:   LATEROLOG LOG SHALLOW
~PARAMETER INFORMATION
#MNEM.UNIT          VALUE    DESCRIPTION
#----------   ------------   ------------------------------
 EKB .F         5094.0000:   Kelly bushing
 EGL .F         5084.0000:   Ground level
 EDF .F            0.0000:   Drilling floor
 EPD .F            0.0000:   Permanent datum
 TD  .F         3169.0000:   Total depth
 DATE.        30-MAY-1977:   Date logged
 CLNT.            A2DTECH:   Client Code
 SL  . 1266' FSL & 871' FWL:   Surface Location
 PD  .                 GL:   Permanent Datum
 DD  .F              3163:   Depth driller
 DL  .F              3169:   Depth logger
 BLI .F              3168:   Bottom log interval
 CS1 .IN            8.625:   Casing size
 CBD1.      8.625" @ 210':   Casing driller 1
 CBL1.F               219:   Casing logger 1
 BS1 .IN            7.875:   Bit size
 DFT .           SALT/MUD:   Type fluid in hole
 DFD .                8.9:   Density
 DFV .                 32:   Viscosity
 DFPH.                8.5:   pH
 DFL .                5.8:   Fluid loss
 MSS .                PIT:   Source of sample
 RMS .OHMM           .194:   Rm
 MST .F                65:   Rm Meas. temp.
 RMF .OHMM           .165:   Rmf
 MFST.F                65:   Rmf Meas. temp.
 MFSS.               MEAS:   Source Rmf.
 RMB .OHMM           .107:   Rm. at BHT
 BHT .F               118:   BHT.
 MRT .F               118:   Maximum recorded temp.
 LUN .               5642:   Logging unit number
 LUL .               CSPR:   Logging unit location
 ENGI.             MARTIN:   Recorded By
 WITN.         PETTINGILL:   Witnessed by
 ORIG.           5" PRINT:   Origin of data
 UWI .     49025103870000:   Unique Well ID
 DICO. A2D TECHNOLOGIES, INC.:   Digitizing Company
 DAPD.F                10:   Feet Above Permanent Datum
 BSD1.F              3163:   Depth drilled with bit1
 TLI .F               219:   Top log interval
 TLAB.HRS            0930:   Time logger at bottom
~OTHER INFORMATION
~A   DEPT     NPHI         CALD      GRD         RHOB      CORR       SPR       MSFL        LLD        LLS   
# ...
 3125.0000     0.3753     7.8811   328.3307     2.4064     0.0388   -81.1557     4.4469     2.2568     2.7882
 3125.5000     0.3746     7.8709   293.8688     2.4064     0.0388   -80.8329     5.6434     2.2775     2.8659
 3126.0000     0.3662     7.8606   259.4069     2.4113     0.0438   -80.5102    11.0192     2.9039     3.1267
 3126.5000     0.3486     7.8496   224.9450     2.4722     0.0547   -80.1378    15.1867     4.2156     4.5199
 3127.0000     0.2991     7.7897   174.3110     2.4819     0.0517   -80.1369    16.8896     6.0078     6.4157
 3127.5000     0.2983     7.7297   141.6778     2.5011     0.0846   -80.1336    15.8367    14.8495    15.6962
 3128.0000     0.1678     7.6696   104.2444     2.4711     0.0886   -80.1325    13.6698    25.3063    19.3842
 3128.5000     0.1670     7.6690   101.8514     2.4611     0.0825   -80.1313    14.5027    24.1680    19.5629
 3129.0000     0.1690     7.6687   100.2502     2.4660     0.0710   -80.1302    15.8940    23.5092    18.8552
 3129.5000     0.1746     7.6687   109.7965     2.4630     0.0595   -80.1290    19.0278    21.8408    23.6168
 3130.0000     0.1746     7.6768   120.5398     2.5199     0.0944   -79.9317    22.9313    20.8583    22.1463
 3130.5000     0.1738     7.6849   124.9153     2.5448     0.0904   -80.1289    27.2918    18.8513    19.6724
 3131.0000     0.1738     7.6930   134.6872     2.5907     0.0764   -80.1278    32.1867    14.5496    15.3827
 3131.5000     0.1782     7.7011   150.7823     2.5977     0.0874   -80.3245    28.8319    14.6835    15.5227
 3132.0000     0.1810     7.7093   153.9641     2.5966     0.1153   -80.3240    25.8268    19.8980    20.9631
 3132.5000     0.1866     7.7174   162.7176     2.5936     0.0833   -80.3682    18.5658    19.1772    20.2121
 3133.0000     0.1898     7.7255   174.2592     2.5856     0.0620   -80.4124    11.7387    18.4822    16.2678
 3133.5000     0.1874     7.7336   204.6404     2.5246     0.0413   -80.4566    10.3242    15.6574    11.6840
 3134.0000     0.1894     7.7446   219.7643     2.5226     0.0552   -80.9123     7.8411     7.6896     8.1888
 3134.5000     0.2405     7.7643   220.1549     2.5096     0.0622   -80.9121     7.4894     4.9953     7.1771
 3135.0000     0.2665     7.7639   218.9530     2.5155     0.0382   -80.9909     8.1329     4.6401     6.9178
 3135.5000     0.3213     7.7635   216.5566     2.5255     0.0511   -81.0698     8.8320     4.7260     7.3093
 3136.0000     0.3229     7.7632   213.7619     2.5315     0.0731   -81.1487    10.1333     5.2017     7.9392
 3136.5000     0.3218     7.7768   211.3653     2.5044     0.0391   -81.2275    10.0819     5.8079     8.3118
 3137.0000     0.2988     7.7903   208.5705     2.5184     0.0470   -81.3064    10.0813     6.6051     7.9382
 3137.5000     0.2980     7.8039   200.1021     2.5373     0.0650   -81.3853     9.4524     6.3663     7.1743
 3138.0000     0.2597     7.8175   211.3377     2.5473     0.0540   -81.4961     8.5428     5.7010     6.6653
 3138.5000     0.2577     7.8311   208.6145     2.5283     0.0459   -81.4956     8.3866     4.8759     6.1357
 3139.0000     0.2749     7.8407   204.9541     2.5143     0.0509   -81.4945     8.8279     4.7431     5.8596
 3139.5000     0.2841     7.8403   200.0822     2.5302     0.0629   -81.4933     9.1570     4.9463     6.0231
 3140.0000     0.2857     7.8399   200.5581     2.5352     0.0640   -81.4922     9.4118     5.4733     6.5421
 3140.5000     0.2845     7.8396   198.9573     2.5191     0.0428   -81.4910     8.9895     5.9125     7.0409
 3141.0000     0.2753     7.8392   196.0894     2.4981     0.0328   -81.2920     8.7450     6.2474     7.5777
 3141.5000     0.2618     7.8190   200.8662     2.4931     0.0298   -80.8953     8.2765     6.2470     7.3036
 3142.0000     0.2526     7.7987   202.4551     2.5041     0.0407   -80.6964     7.2126     5.7506     6.6008
 3142.5000     0.2514     7.7585   200.8566     2.5300     0.0557   -80.4974     7.4133     5.1972     6.0205
 3143.0000     0.2630     7.7183   189.3035     2.5419     0.0916   -80.2985     7.9769     4.9635     6.0204
 3143.5000     0.2766     7.6980   152.6546     2.5509     0.0946   -80.0996     8.6949     5.5132     6.2454
 3144.0000     0.2746     7.6578    68.6053     2.5399     0.1115   -79.8984     8.4579     6.0915     6.5387
 3144.5000     0.2702     7.6376    36.3376     2.5109     0.0436   -79.8978     7.9304     6.6990     7.2337
 3145.0000     0.2578     7.6373    34.3389     2.5348     0.0475   -79.8961     7.6436     6.6987     7.1671
 3145.5000     0.2558     7.6170    33.9319     2.5418     0.0645   -79.8960     7.6170     6.0747     6.4776
 3146.0000     0.2562     7.6166    33.9246     2.5247     0.0514   -79.8940     7.6868     5.5196     6.1862
 3146.5000     0.2646     7.6162    33.9174     2.5027     0.0514   -79.8935     8.0469     5.4687     6.0177
 3147.0000     0.2706     7.6156    35.1051     2.5247     0.0574   -79.6939     8.2707     5.5393     6.0173
 3147.5000     0.2710     7.6154    36.2929     2.5516     0.0763   -79.6930     8.8993     5.7055     6.4164
 3148.0000     0.2662     7.6150    37.8805     2.5616     0.0863   -79.6918     9.1468     6.0081     6.6565
 3148.5000     0.2603     7.6147    42.2552     2.5795     0.0962   -80.0860     9.5753     6.3267     6.7797
 3149.0000     0.2479     7.6144    54.9941     2.5655     0.0962   -80.0844     9.6629     6.6621     7.2963
 3149.5000     0.2475     7.6155   118.7307     2.5525     0.0852   -80.1009     9.7512     7.0154     7.5693
 3150.0000     0.2475     7.6165   166.5262     2.5475     0.0722   -80.1175     9.3134     7.4308     7.9978
 3150.5000     0.2384     7.6176   166.5098     2.5344     0.0671   -80.1340     9.0605     7.5682     7.9973
 3151.0000     0.2228     7.6179   166.4933     2.5294     0.0551   -80.1506     8.6539     7.4300     7.7081
 3151.5000     0.2180     7.6182   166.4822     2.5184     0.0471   -80.1671     8.2724     6.9608     7.4982
 3152.0000     0.2192     7.6185   166.4582     2.5064     0.0411   -80.1836     7.9077     6.5212     6.9022
 3152.5000     0.2256     7.6188   166.8365     2.4994     0.0370   -80.2002     7.5591     6.1809     6.7760
 3153.0000     0.2332     7.6191   166.8165     2.4934     0.0510   -80.2167     7.1364     5.9574     6.5913
 3153.5000     0.2380     7.6193   166.8004     2.4854     0.0599   -80.2333     7.1362     5.5857     6.2372
 3154.0000     0.2408     7.6196   166.7764     2.4743     0.0529   -80.2498     7.1357     5.3345     6.0117
 3154.5000     0.2428     7.6199   166.7564     2.4364     0.0468   -80.2663     7.0056     5.3834     5.7871
 3155.0000     0.2440     7.6202   166.7404     2.4164     0.0448   -80.2829     6.7529     5.4829     5.7869
 3155.5000     0.2324     7.6205   166.7244     2.4623     0.0627   -80.2994     6.4500     5.3827     5.8394
 3156.0000     0.2289     7.6208   166.6964     2.5172     0.0647   -80.3160     6.1606     5.3331     5.8391
 3156.5000     0.2289     7.6205   166.6763     2.5381     0.0876   -80.3325     5.9547     5.3820     5.8388
 3157.0000     0.2290     7.6195   166.6563     2.5381     0.0966   -80.3490     5.9543     5.3324     5.7852
 3157.5000     0.2291     7.6185   166.6363     2.5341     0.1105   -80.3656     5.9539     5.3320     5.7325
 3158.0000     0.2292     7.5976   166.6203     2.5251     0.1035   -80.3821     5.9535     5.3607     5.7320
 3158.5000     0.2293     7.5968   166.6003     2.4991     0.0855   -80.3987     5.9531     5.3110     5.6795
 3159.0000     0.2294     7.5958   166.5763     2.4831     0.0695   -80.4152     5.9527     5.3108     5.6793
 3159.5000     0.2295     7.5749   166.5562     2.4920     0.0884   -80.4317     5.9523     5.3106     5.6791
 3160.0000     0.2295     7.5739   166.5402     2.5280     0.0953   -80.4547     5.9519     5.2614     5.6271
 3160.5000     0.2296     7.5729   166.5162     2.4980     0.0713   -80.4541     6.0620     5.2811     5.6268
 3161.0000     0.2297     7.5719   166.4962     2.5029     0.0773   -80.6513     6.0616     5.3296     5.6779
