~VERSION INFORMATION
 VERS.                2.0:   CWLS LOG ASCII STANDARD - VERSION 2.0
 WRAP.                 NO:   ONE LINE PER DEPTH STEP
~WELL INFORMATION
#MNEM.UNIT      DATA TYPE    INFORMATION
#----------   ------------   ------------------------------
 STRT.F           10.0000:   START DEPTH
 STOP.F         3180.0000:   STOP DEPTH
 STEP.F            0.5000:   STEP LENGTH
 NULL.          -999.2500:   NO VALUE
 COMP. LAWRENCE - ALLISON WEST:   COMPANY
 WELL. LAWRENCE ALLISON NPR 3 "AX" #17-2:   WELL
 FLD .                NPR:   FIELD
 LOC .       S2 T38N R78W:   LOCATION
 CNTY.            NATRONA:   COUNTY
 STAT.            WYOMING:   STATE
 CTRY. UNITED STATES OF AMERICA:   COUNTRY
 SRVC.      DRESSER ATLAS:   SERVICE COMPANY
 DATE.        16-FEB-1987:   LOGDATE
 API .     49025111210000:   API NUMBER
~CURVE INFORMATION
#MNEM.UNIT       API CODE    CURVE DESCRIPTION
#----------   ------------   ------------------------------
 DEPT.F                  :   
 DEN .LBS    45 350 01 00:   BULK DENSITY
 CORR.G/C3   45 356 01 00:   DENSITY CORRECTION
 TEND.LBS    45 635 01 00:   TENSION FROM DENSITY LOG
 CNC .DEC    42 890 01 00:   NEUTRON PORISITY LIMESTONE
 CALR.IN     07 280 01 00:   CALIPER FROM RESISTIVITY
 SPR .MV     07 010 01 00:   SPONTANEOUS POTENTIAL
 GRR .GAPI   07 310 01 00:   GAMMA RAY FROM RESISTIVITY
 RFOC.OHMM   07 220 04 00:   RESISTIVITY FOCUSED LOG RES.
 ILD .OHMM   07 120 46 00:   DEEP INDUCTION RESISTIVITY
 ILM .OHMM   07 120 44 00:   INDUCTION LOG MEDIUM RESISTIVITY
 TENR.LBS    07 635 01 00:   TENSION FROM RESISTIVITY
~PARAMETER INFORMATION
#MNEM.UNIT          VALUE    DESCRIPTION
#----------   ------------   ------------------------------
 EKB .F         5141.0000:   Kelly bushing
 EGL .F         5129.0000:   Ground level
 EDF .F            0.0000:   Drilling floor
 EPD .F            0.0000:   Permanent datum
 TD  .F         3161.0000:   Total depth
 DATE.        16-FEB-1987:   Date logged
 CLNT.            A2DTECH:   Client Code
 SL  . 1125' FSL & 220' FWL:   Surface Location
 PD  .                 GL:   Permanent Datum
 DAPD.F                12:   Feet Above Permanent Datum
 DD  .F              3161:   Depth driller
 DL  .F              3158:   Depth logger
 BLI .F              3156:   Bottom log interval
 TLI .F                12:   Top log interval
 CS1 .IN            8.625:   Casing size
 CBD1.      8.625" @ 626':   Casing driller 1
 CBL1.F               626:   Casing logger 1
 BS1 .IN            7.875:   Bit size
 BSD1.F              3161:   Depth drilled with bit1
 DFT .        KCL/POLYMER:   Type fluid in hole
 DFD .                8.8:   Density
 DFV .                 39:   Viscosity
 DFPH.                 10:   pH
 DFL .                8.4:   Fluid loss
 MSS .           FLOWLINE:   Source of sample
 RMS .OHMM           .292:   Rm
 MST .F                82:   Rm Meas. temp.
 RMF .OHMM           .231:   Rmf
 MFST.F                82:   Rmf Meas. temp.
 RMC .OHMM           .365:   Rmc
 MCST.F                82:   Rmc Meas. temp.
 MFSS.               MEAS:   Source Rmf.
 MCSS.               CALC:   Source Rmc.
 RMB .OHMM           .203:   Rm. at BHT
 BHT .F               118:   BHT.
 TCS .HRS               3:   Time Circ. stopped
 MRT .F               118:   Maximum recorded temp.
 LUN .            HL-6274:   Logging unit number
 LUL .           GALLETTE:   Logging unit location
 ENGI.            PANASUK:   Recorded By
 WITN.             STRONG:   Witnessed by
 ORIG.           5" PRINT:   Origin of data
 UWI .     49025111210000:   Unique Well ID
 DICO. A2D TECHNOLOGIES, INC.:   Digitizing Company
~OTHER INFORMATION
~A   DEPT      DEN       CORR       TEND        CNC       CALR        SPR          GRR     RFOC        ILD        ILM       TENR   
# ...
 2297.5000     2.5220     0.0100   -90.0000     0.3180     9.3702   -20.1238   120.7084     6.5027     5.3916     5.7341   -94.3187
 2298.0000     2.5200     0.0180   -90.0000     0.3144     9.3443   -20.1228   118.7187     6.7471     5.4418     5.8409   -94.4168
 2298.5000     2.5240     0.0240   -90.0000     0.3048     9.3444   -19.9226   116.3302     6.9367     5.6465     6.1165   -94.5150
 2299.0000     2.5200     0.0040   -80.0000     0.3044     9.3245   -20.1208   111.9497     7.3991     5.8588     6.6451   -94.6132
 2299.5000     2.5150    -0.0100   -80.0000     0.3040     9.3446   -19.9206   108.7644     8.2640     6.2496     6.8947   -94.7113
 2300.0000     2.5090    -0.0060   -80.0000     0.3008     9.3248   -19.9196   105.5791     8.9787     6.5445     7.4907   -94.8291
 2300.5000     2.5035     0.0010   -80.0000     0.2964     9.2961   -20.1170   104.8680     9.5699     6.9313     7.9235   -94.9289
 2301.0000     2.5010     0.0000   -80.0608     0.2956     9.2654   -20.7126   102.3996     9.9372     7.3782     8.0641   -94.9306
 2301.5000     2.5000    -0.0080   -80.1006     0.2984     9.2656   -21.3079   100.4115    10.1230     7.7271     8.3674   -94.9811
 2302.0000     2.4990    -0.0120   -80.1999     0.3028     9.2658   -21.5055   101.6107    10.1237     7.7992     8.7624   -95.0317
 2302.5000     2.5000    -0.0060   -80.2495     0.3064     9.2460   -21.7039   106.7940     9.9396     7.9449     9.0081   -95.0822
 2303.0000     2.5070     0.0021   -80.2992     0.2920     9.2167   -22.0991   107.9932     9.6695     8.1681     9.0087   -95.1328
 2303.5000     2.5160     0.0081   -90.3488     0.2856     9.2066   -22.0972   107.2003     9.6702     8.2442     9.0928   -95.1833
 2304.0000     2.5180     0.0261   -90.3984     0.2816     9.2068   -22.0952   105.6106     9.8505     8.3212     9.0933   -95.2339
 2304.5000     2.5070     0.0181   -90.4481     0.2824     9.1870   -21.6948   103.2241    10.8020     8.3216     9.0941   -95.2844
 2305.0000     2.5010     0.0021   -90.4977     0.2860     9.1475   -21.6928   103.2281    10.8025     8.3225     9.0946   -95.3349
 2305.5000     2.5051    -0.0059   -90.5474     0.2920     9.1477   -21.2924   105.6225    10.2225     8.5564     9.0954   -95.3855
 2306.0000     2.5071    -0.0179   -80.5971     0.3040     9.1279   -21.2900   108.4153    10.0367     8.6358     9.0959   -85.4266
 2306.5000     2.4961    -0.0339   -80.6467     0.3056     9.1480   -21.2889   113.5986    10.1303     8.6367     9.0131   -75.4678
 2307.0000     2.4851    -0.0379   -80.6964     0.3124     9.1482   -21.7929   117.9851    10.0381     8.7174     9.0140   -75.5184
 2307.5000     2.4771    -0.0379   -80.7460     0.3096     9.1285   -22.0809   119.9811     9.9471     8.7179     9.1822   -85.5784
 2308.0000     2.4771    -0.0198   -80.7758     0.3004     9.0889   -22.4774   119.5867    10.4161     8.7186     9.7041   -95.6382
 2308.5000     2.4851     0.0022   -80.8453     0.2836     8.9895   -22.6746   118.3954    10.8181     8.7193     9.8855   -95.6887
 2309.0000     2.4821     0.0222   -80.8950     0.2828     9.0295   -22.6726   118.3994    11.6350     8.6404     9.7953   -95.7393
 2309.5000     2.4761     0.0182   -80.9446     0.2852     9.0297   -22.4714   118.4033    11.7435     8.5612     9.3555   -95.7898
 2310.0000     2.4751     0.0082   -80.9943     0.2912     9.0299   -22.4694   118.4073    11.7443     8.5620     9.0180   -95.8403
 2310.5000     2.4801    -0.0018   -81.0439     0.2992     9.0102   -22.4675   122.3977    10.8110     8.5625     8.8541   -95.8909
 2311.0000     2.4931    -0.0118   -81.0737     0.3000     9.0104   -22.8585   122.7969    10.1368     8.5631     8.8546   -95.9414
 2311.5000     2.5041    -0.0138   -81.1433     0.2852     8.9907   -22.8619   114.8342     9.8613     8.5637     8.7743   -95.9920
 2312.0000     2.5101    -0.0138   -81.1929     0.2856     8.9909   -22.8599   108.8620     9.8620     8.4859     8.7750   -86.0337
 2312.5000     2.5031    -0.0118   -81.2426     0.2908     8.9911   -22.8580   102.8898    10.1392     8.4087     9.1048   -76.0755
 2313.0000     2.4801    -0.0057   -81.2922     0.2912     8.9913   -22.8560   104.0890    10.1399     8.4095     9.1896   -76.1261
 2313.5000     2.4731     0.0023   -71.3419     0.2859     8.9915   -22.6548   107.2803    10.7167     8.4098     9.2750   -76.1767
 2314.0000     2.4771     0.0163   -71.3816     0.2806     8.9519   -22.4536   109.2755    11.2224     8.4106     9.1908   -86.2461
 2314.5000     2.4831     0.0263   -71.4412     0.2764     8.9521   -21.8540   101.3120    11.6443     8.4890     8.9413   -96.3053
 2315.0000     2.4841     0.0043   -61.4909     0.2804     8.9722   -21.6536    96.9334    11.6451     8.6475     9.0246   -90.7255
 2315.5000     2.4942    -0.0157   -61.5405     0.2844     8.9923   -21.4516    93.3517    11.3286     8.7281     9.2779   -86.3979
 2316.0000     2.5022    -0.0297   -61.5902     0.2780     8.9527   -21.2505    91.7620    10.8197     8.8912     9.4508   -76.4400
 2316.5000     2.5162    -0.0217   -61.6498     0.2776     8.9528   -21.6469    89.3755     9.8684     9.0573     9.7163   -76.4906
 2317.0000     2.5122    -0.0077   -61.6994     0.2772     8.9529   -21.6449    87.7858     9.9603     9.0576     9.7170   -76.5413
 2317.5000     2.4982    -0.0077   -61.7491     0.2788     8.9531   -21.6429    85.7977    11.1725     9.1422     9.8075   -76.5919
 2318.0000     2.4872    -0.0136   -61.7689     0.2852     8.9136   -21.8401    85.4033    13.0116     9.1431     9.8079   -86.6508
 2318.5000     2.4632     0.0064   -81.8483     0.3012     8.9138   -22.0374    83.4144    12.6576     9.1438     9.8089   -86.7013
 2319.0000     2.4592     0.0164   -81.8980     0.3296     8.8940   -22.2354    97.3635    12.5425     9.1442     9.5429   -86.7519
 2319.5000     2.4612     0.0224   -81.9476     0.3352     8.8743   -22.2325   110.9135    12.4284     9.1450     9.6314   -76.7944
 2320.0000     2.4662     0.0284   -81.9973     0.3356     8.8745   -22.2306   120.8777    11.8700     9.1458     9.6321   -76.8450
 2320.5000     2.4732     0.0284   -82.0469     0.3228     8.8747   -22.4279   114.5071    11.4416     9.1462     9.6327   -76.8957
 2321.0000     2.4712    -0.0016   -72.0966     0.3064     8.8749   -22.4259   108.5349    11.0287     9.1471     9.6335   -76.9463
 2321.5000     2.4692    -0.0096   -62.1463     0.3008     8.8751   -22.2243   108.5388    11.1315     9.1475     9.6342   -76.9969
 2322.0000     2.4662    -0.0216   -52.1960     0.2928     8.8753   -22.0231   112.1285    12.0941     9.1484     9.6346   -77.0577
 2322.5000     2.4622    -0.0276   -42.2457     0.3008     8.8755   -22.0211   115.7182    12.6648     9.1490     9.6353   -87.0958
 2323.0000     2.4602    -0.0135   -42.2953     0.3056     8.8757   -21.8204   116.9174    11.9849     9.1494     9.5479   -87.1529
 2323.5000     2.4562    -0.0035   -42.3450     0.3116     8.8759   -21.5285   116.9213    11.3416     9.1504     9.6370   -87.2100
 2324.0000     2.4542    -0.0115   -42.3946     0.3084     8.8561   -21.6168   118.1205    11.2385     9.1508     9.7266   -87.2577
 2324.5000     2.4562    -0.0235   -42.4443     0.3020     8.8564   -21.6148   118.9213    11.6609     9.1518     9.7273   -87.2678
 2325.0000     2.4642    -0.0335   -42.4939     0.2972     8.9164   -21.8120   119.7221    12.0992     9.1523     9.6391   -87.3370
 2325.5000     2.4703    -0.0355   -42.5436     0.2996     8.9165   -22.0093   120.1244    12.5544     8.9857     9.4640   -87.4062
 2326.0000     2.4753    -0.0295   -42.5932     0.2964     8.9167   -21.8081   119.3316    11.6634     8.9042     9.3778   -87.4600
 2326.5000     2.4823    -0.0075   -32.6429     0.2932     8.9368   -21.6069   118.5387    11.3465     8.7423     9.2927   -87.5132
 2327.0000     2.4853     0.0025   -32.6826     0.2928     8.9570   -21.4057   114.5593    10.8369     8.6629     9.2083   -87.5664
 2327.5000     2.4823     0.0085   -32.7422     0.2956     8.9173   -21.4053   111.3760    10.8377     8.5054     8.8763   -87.6196
