~VERSION INFORMATION
 VERS.                2.0:   CWLS LOG ASCII STANDARD - VERSION 2.0
 WRAP.                 NO:   ONE LINE PER DEPTH STEP
~WELL INFORMATION
#MNEM.UNIT      DATA TYPE    INFORMATION
#----------   ------------   ------------------------------
 STRT.F          190.0000:   START DEPTH
 STOP.F         2998.5000:   STOP DEPTH
 STEP.F            0.5000:   STEP LENGTH
 NULL.          -999.2500:   NO VALUE
 COMP.    FENIX & SCISSON:   COMPANY
 WELL.   FENIX "A" #52-28:   WELL
 FLD .        TEAPOT DOME:   FIELD
 LOC .      S28 T39N R78W:   LOCATION
 CNTY.            NATRONA:   COUNTY
 STAT.            WYOMING:   STATE
 CTRY. UNITED STATES OF AMERICA:   COUNTRY
 SRVC.           BIRDWELL:   SERVICE COMPANY
 DATE.        14-AUG-1977:   LOGDATE
 API .     49025104130000:   API NUMBER
~CURVE INFORMATION
#MNEM.UNIT       API CODE    CURVE DESCRIPTION
#----------   ------------   ------------------------------
 DEPT.F                  :   
 SPR .MV     05 010 01 00:   SPONTANEOUS POTENTIAL FROM RES.
 SN  .OHMM   05 040 16 00:   SHORT NORMAL 16"
 ILD .OHMM   05 120 46 00:   INDUCTION LOG DEEP
 GRD .GAPI   45 310 01 00:   GAMMA RAY FROM DENSITY LOG
 CALD.IN     45 280 60 00:   CALIPER FROM DENSITY LOG
 RHOB.G/C3   45 350 01 00:   BULK DENSITY
 CORR.G/C3   45 356 01 00:   DENSITY CORRECTION
~PARAMETER INFORMATION
#MNEM.UNIT          VALUE    DESCRIPTION
#----------   ------------   ------------------------------
 EKB .F         5026.0000:   Kelly bushing
 EGL .F         5016.0000:   Ground level
 EDF .F            0.0000:   Drilling floor
 TD  .F         3000.0000:   Total depth
 DATE.        14-AUG-1977:   Date logged
 CLNT.            A2DTECH:   Client Code
 SL  . 990' FNL & 2310' FEL:   Surface Location
 PD  .                 GL:   Permanent Datum
 EPD .F              5016:   Elevation Permanent Datum
 LMF .                 KB:   Log Measured From
 DMF .                 KB:   Drilling Measured From
 DAPD.F                10:   Feet Above Permanent Datum
 DD  .F              3000:   Depth driller
 DL  .F              3000:   Depth logger
 BLI .F              2994:   Bottom log interval
 TLI .F               214:   Top log interval
 CS1 .IN            8.625:   Casing size
 CBD1.      8.625" @ 214':   Casing driller 1
 CBL1.F               212:   Casing logger 1
 BS1 .IN            7.875:   Bit size
 BSD1.F              3000:   Depth drilled with bit1
 DFT .                KCL:   Type fluid in hole
 DFD .                8.8:   Density
 DFV .                 30:   Viscosity
 DFPH.               10.5:   pH
 DFL .               10.4:   Fluid loss
 MSS .           FLOWLINE:   Source of sample
 RMS .OHMM           0.13:   Rm
 MST .F                82:   Rm Meas. temp.
 RMF .OHMM           0.12:   Rmf
 MFST.F                72:   Rmf Meas. temp.
 RMC .OHMM           0.16:   Rmc
 MCST.F                72:   Rmc Meas. temp.
 MFSS.               MEAS:   Source Rmf.
 MCSS.               MEAS:   Source Rmc.
 TCS .HRS               4:   Time Circ. stopped
 LUN .               2958:   Logging unit number
 LUL .             CASPER:   Logging unit location
 ENGI.                LAW:   Recorded By
 WITN.         PETTINGILL:   Witnessed by
 ORIG.           5" PRINT:   Origin of data
 UWI .     49025104130000:   Unique Well ID
 DICO. A2D TECHNOLOGIES, INC.:   Digitizing Company
~OTHER INFORMATION
~A   DEPT      SPR         SN        ILD         GRD      CALD       RHOB       CORR   
# ...
 1691.5000   -23.5200     5.6060     6.5470   127.7830     9.1790     2.5530     0.0210
 1692.0000   -23.5230     5.6000     6.5280   126.7870     9.1790     2.5530     0.0220
 1692.5000   -23.5250     5.5940     6.5140   130.9680     9.1790     2.5540     0.0230
 1693.0000   -23.5260     5.5880     6.5140   130.2780     9.1790     2.5560     0.0230
 1693.5000   -23.5180     5.5820     6.5140   128.9810     9.1790     2.5590     0.0220
 1694.0000   -23.2740     5.5700     6.5140   131.0970     9.1790     2.5570     0.0200
 1694.5000   -21.3670     5.5590     6.5140   132.0460     9.1790     2.5510     0.0190
 1695.0000   -20.2030     5.5480     6.5140   131.0320     9.1790     2.5480     0.0180
 1695.5000   -20.3210     5.5320     6.5270   132.8090     9.1790     2.5490     0.0200
 1696.0000   -20.4410     5.5340     6.5450   136.4620     9.1790     2.5520     0.0210
 1696.5000   -20.5560     5.5400     6.5640   134.7760     9.1790     2.5520     0.0220
 1697.0000   -20.5760     5.5460     6.6220   139.1660     9.1790     2.5500     0.0250
 1697.5000   -20.7440     5.5520     6.7200   139.3590     9.1800     2.5480     0.0280
 1698.0000   -21.3530     5.5570     6.8190   134.8420     9.1820     2.5620     0.0300
 1698.5000   -21.3620     5.5630     6.9180   131.0760     9.1840     2.5670     0.0300
 1699.0000   -21.3580     5.5690     7.0170   128.5950     9.1860     2.5660     0.0260
 1699.5000   -21.3580     5.5750     7.1160   129.6240     9.1880     2.5590     0.0210
 1700.0000   -21.3580     5.5820     7.2150   132.2480     9.1900     2.5520     0.0180
 1700.5000   -21.3580     5.5300     7.3360   133.6460     9.1920     2.5490     0.0170
 1701.0000   -21.3590     5.4550     7.4650   130.5730     9.1930     2.5470     0.0160
 1701.5000   -21.3600     5.3810     8.7110   130.2030     9.1950     2.5450     0.0160
 1702.0000   -21.3530     5.3060     7.9310   131.3750     9.1970     2.5510     0.0220
 1702.5000   -21.1600     5.2380     6.9380   134.9200     9.1990     2.5550     0.0200
 1703.0000   -20.3950     5.0300     6.2650   140.2570     9.2010     2.5470     0.0160
 1703.5000   -19.0010     4.8390     5.5920   141.6950     9.2030     2.5300     0.0120
 1704.0000   -17.5790     4.2740     4.9190   136.1700     9.2050     2.5150     0.0120
 1704.5000   -17.5940     4.2120     4.5610   131.1440     9.2070     2.5050     0.0130
 1705.0000   -17.5750     4.3200     4.5300   124.8410     9.2090     2.5070     0.0140
 1705.5000   -17.5540     4.5300     4.7300   124.6260     9.2110     2.4990     0.0140
 1706.0000   -17.5350     4.4840     4.9890   129.8350     9.2130     2.4780     0.0150
 1706.5000   -17.5160     4.4160     5.3290   132.0560     9.2150     2.4570     0.0220
 1707.0000   -17.4970     4.1740     5.6680   129.3940     9.2170     2.4360     0.0630
 1707.5000   -17.4770     4.3920     6.0080   130.0190     9.2150     2.4220     0.0950
 1708.0000   -17.4600     5.0560     6.3480   131.3250     9.1030     2.4750     0.0510
 1708.5000   -17.4450     5.2400     6.6870   132.4390     9.0600     2.5400     0.0150
 1709.0000   -17.3730     5.3500     7.0050   129.8920     9.0550     2.5440     0.0090
 1709.5000   -16.1870     5.4460     7.3970   128.5450     9.0500     2.5340     0.0090
 1710.0000   -15.1870     5.5000     7.1860   129.7530     9.0460     2.5320     0.0130
 1710.5000   -15.0790     5.5530     6.7550   131.5690     9.0420     2.5370     0.0160
 1711.0000   -15.5190     5.6070     6.7950   133.3020     9.0380     2.5480     0.0200
 1711.5000   -16.1860     5.6610     6.8830   133.5950     9.0330     2.5570     0.0230
 1712.0000   -16.9520     5.7150     6.9700   127.1620     9.0290     2.5580     0.0220
 1712.5000   -17.7180     5.7680     7.0580   128.5900     9.0250     2.5560     0.0200
 1713.0000   -18.4010     5.8220     7.1460   129.7080     9.0220     2.5520     0.0190
 1713.5000   -18.4380     5.8760     7.2330   127.7200     9.0230     2.5480     0.0170
 1714.0000   -18.4630     5.9480     7.2770   131.3560     9.0250     2.5430     0.0170
 1714.5000   -18.4900     5.9440     7.2960   136.2250     9.0260     2.5420     0.0180
 1715.0000   -18.5180     5.9380     7.3160   136.6490     9.0270     2.5420     0.0190
 1715.5000   -18.5450     5.9320     7.3350   136.9880     9.0290     2.5450     0.0210
 1716.0000   -18.5720     5.9250     7.3550   137.2190     9.0300     2.5480     0.0210
 1716.5000   -18.6010     5.9190     7.3750   138.8520     9.0310     2.5460     0.0160
 1717.0000   -18.6980     5.9120     7.3970   141.7530     9.0330     2.5440     0.0190
 1717.5000   -18.8190     5.9060     7.3860   142.7270     9.0340     2.5450     0.0210
 1718.0000   -19.2740     5.9000     7.3720   142.0120     9.0350     2.5480     0.0240
 1718.5000   -19.5930     5.8950     7.3590   135.8460     9.0370     2.5510     0.0250
 1719.0000   -19.5870     5.9200     7.3450   135.1490     9.0380     2.5540     0.0280
 1719.5000   -19.5850     5.9400     7.3320   136.6850     9.0390     2.5570     0.0300
 1720.0000   -19.5830     5.9600     7.3180   135.1660     9.0410     2.5600     0.0310
 1720.5000   -19.5960     5.9810     7.3050   136.8680     9.0420     2.5590     0.0310
 1721.0000   -19.9410     6.0010     7.2910   134.7360     9.0430     2.5540     0.0300
 1721.5000   -21.3020     6.0210     7.2780   137.1910     9.0450     2.5540     0.0290
 1722.0000   -21.4150     6.0410     7.2640   131.7180     9.0460     2.5570     0.0280
 1722.5000   -21.4540     6.0570     7.1740   130.6640     9.0470     2.5610     0.0280
 1723.0000   -21.5010     5.9910     7.0840   132.6090     9.0490     2.5600     0.0290
 1723.5000   -21.5500     5.9360     6.9950   128.0120     9.0500     2.5590     0.0290
 1724.0000   -21.5990     5.8820     6.9330   125.0130     9.0510     2.5590     0.0290
 1724.5000   -21.6490     5.8270     6.9110   130.3300     9.0530     2.5580     0.0290
 1725.0000   -21.7010     5.7720     6.8900   132.4200     9.0540     2.5570     0.0290
 1725.5000   -21.7370     5.7170     6.8680   137.0800     9.0550     2.5550     0.0290
 1726.0000   -20.9970     5.6770     6.8470   134.9690     9.0570     2.5520     0.0280
 1726.5000   -20.4090     5.6580     6.8250   139.2510     9.0580     2.5490     0.0250
 1727.0000   -19.9730     5.6390     6.7920   133.4120     9.0590     2.5450     0.0220
 1727.5000   -20.0430     5.6210     6.7520   137.6190     9.0610     2.5410     0.0200
 1728.0000   -20.1020     5.6020     6.7110   141.9320     9.0570     2.5350     0.0200
 1728.5000   -20.1750     5.5830     6.6220   138.8730     9.0520     2.5340     0.0210
 1729.0000   -19.5510     5.5640     6.4980   143.4620     9.0470     2.5360     0.0220
 1729.5000   -18.6430     5.5460     6.3750   139.4500     9.0430     2.5400     0.0260
 1730.0000   -18.5270     5.5270     6.2520   135.9470     9.0130     2.5530     0.0320
 1730.5000   -18.4600     5.5080     6.1940   137.5800     8.9770     2.5530     0.0270
 1731.0000   -18.5310     5.4820     6.1540   138.4620     8.9630     2.5410     0.0230
 1731.5000   -19.0230     5.4880     6.1130   134.0550     8.9640     2.5340     0.0220
 1732.0000   -19.7830     5.4990     6.1890   134.5180     8.9650     2.5290     0.0180
 1732.5000   -19.9870     5.5090     6.2680   135.7720     8.9660     2.5100     0.0130
 1733.0000   -20.3390     5.5200     6.3470   139.3470     8.9670     2.5060     0.0110
 1733.5000   -21.5410     5.5320     6.4260   143.0080     8.9680     2.4990     0.0030
 1734.0000   -21.3530     5.5560     6.5040   146.3300     8.9690     2.4910     0.0030
 1734.5000   -20.7340     5.5810     6.5830   139.1430     8.9700     2.4890     0.0100
 1735.0000   -20.6680     5.6070     6.6490   140.2680     8.9710     2.4930     0.0150
 1735.5000   -20.5940     5.6330     6.6940   138.4760     8.9720     2.5000     0.0200
 1736.0000   -20.5180     5.6910     6.7380   141.4170     8.9730     2.5060     0.0240
 1736.5000   -20.4460     5.7510     6.7820   138.2780     8.9740     2.5180     0.0310
