~VERSION INFORMATION
 VERS.                2.0:   CWLS LOG ASCII STANDARD - VERSION 2.0
 WRAP.                 NO:   ONE LINE PER DEPTH STEP
~WELL INFORMATION
#MNEM.UNIT      DATA TYPE    INFORMATION
#----------   ------------   ------------------------------
 STRT.F          906.0000:   START DEPTH
 STOP.F         3426.0000:   STOP DEPTH
 STEP.F            0.5000:   STEP LENGTH
 NULL.          -999.2500:   NO VALUE
 COMP.    FENIX & SCISSON:   COMPANY
 WELL. FENIX NPR 3 "AX" #46-11:   WELL
 FLD .                NPR:   FIELD
 LOC .      S11 T38N R78W:   LOCATION
 CNTY.            NATRONA:   COUNTY
 STAT.            WYOMING:   STATE
 CTRY. UNITED STATES OF AMERICA:   COUNTRY
 SRVC.       SCHLUMBERGER:   SERVICE COMPANY
 DATE.        16-MAY-1981:   LOGDATE
 API .     49025108720000:   API NUMBER
~CURVE INFORMATION
#MNEM.UNIT       API CODE    CURVE DESCRIPTION
#----------   ------------   ------------------------------
 DEPT.F                  :   
 SPR .MV     07 010 01 00:   SPONTANEOUS POTENTIAL
 ILD .OHMM   07 120 46 00:   INDUCTION LOG DEEP RESISTIVITY
 SFL .OHMM   07 220 01 00:   SHALLOW FOCUSED LOG RESISTIVITY
 TENR.LBS    07 635 01 00:   TENSION
 ILM .OHMM   07 120 44 00:   INDUCTION LOG MEDIUM RESISTIVITY
 CALD.IN     45 280 60 00:   CALIPER FROM DENSITY LOG
 GRD .GAPI   45 310 01 00:   GAMMA RAY FROM DENSITY LOG
 RHOB.G/C3   45 350 01 00:   BULK DENSITY
 TEND.LBS    45 635 01 00:   TENSION FROM DENSITY LOG
 CORR.G/C3   45 356 01 00:   DENSITY CORRECTION
~PARAMETER INFORMATION
#MNEM.UNIT          VALUE    DESCRIPTION
#----------   ------------   ------------------------------
 EKB .F         5199.0000:   Kelly bushing
 EGL .F         5189.0000:   Ground level
 EDF .F            0.0000:   Drilling floor
 TD  .F         3422.0000:   Total depth
 DATE.        16-MAY-1981:   Date logged
 CLNT.            A2DTECH:   Client Code
 SL  . 1867' FSL & 2100' FWL:   Surface Location
 PD  .                 GL:   Permanent Datum
 EPD .F              5189:   Elevation Permanent Datum
 LMF .                 KB:   Log Measured From
 DMF .                 KB:   Drilling Measured From
 DAPD.F                10:   Feet Above Permanent Datum
 DD  .F              3421:   Depth driller
 DL  .F              3422:   Depth logger
 BLI .F              3416:   Bottom log interval
 TLI .F               926:   Top log interval
 CS1 .IN            8.625:   Casing size
 CBD1.      8.625" @ 925':   Casing driller 1
 CBL1.F               926:   Casing logger 1
 BS1 .IN            7.875:   Bit size
 BSD1.F              3421:   Depth drilled with bit1
 DFT .                FGM:   Type fluid in hole
 DFD .                8.5:   Density
 DFV .                 60:   Viscosity
 DFPH.                  9:   pH
 DFL .                 12:   Fluid loss
 MSS .               PITS:   Source of sample
 RMS .OHMM           1.17:   Rm
 MST .F                73:   Rm Meas. temp.
 RMF .OHMM           1.03:   Rmf
 MFST.F                73:   Rmf Meas. temp.
 MFSS.               MEAS:   Source Rmf.
 RMB .OHMM            .71:   Rm. at BHT
 BHT .F               120:   BHT.
 TCS .HRS            1200:   Time Circ. stopped
 TLAB.HRS            1745:   Time logger at bottom
 MRT .F               120:   Maximum recorded temp.
 LUN .               8133:   Logging unit number
 LUL .               CSPR:   Logging unit location
 ENGI.             TAYLOR:   Recorded By
 WITN.              RIVAS:   Witnessed by
 ORIG.           5" PRINT:   Origin of data
 UWI .     49025108720000:   Unique Well ID
 DICO. A2D TECHNOLOGIES, INC.:   Digitizing Company
~OTHER INFORMATION
~A   DEPT      SPR        ILD        SFL       TENR        ILM       CALD         GRD        RHOB     TEND        CORR  
# ...
 1743.5000   -36.3360     7.5560     8.9660   769.9880     7.1960     8.1640   114.6780     2.5520   798.1930     0.0130
 1744.0000   -36.3210     7.5940     9.2520   770.1050     7.2320     8.1620   113.3260     2.5620   798.1930     0.0210
 1744.5000   -36.3070     7.6310     9.5580   770.2210     7.2690     8.1610   112.0520     2.5650   798.1930     0.0160
 1745.0000   -36.2920     7.6690     9.4350   770.3370     7.3050     8.1590   112.2460     2.5530   798.1930     0.0110
 1745.5000   -36.2770     7.7180     9.1880   770.4530     7.3420     8.1570   117.3940     2.5480   798.1930     0.0050
 1746.0000   -36.2620     7.6890     8.9410   770.5690     7.3780     8.1550   124.0670     2.5480   798.1930     0.0000
 1746.5000   -36.2480     7.6470     8.6140   770.6850     7.4330     8.1530   122.6210     2.5480   798.1930    -0.0010
 1747.0000   -36.2330     7.6040     8.6780   770.8020     7.4300     8.1510   119.2450     2.5480   798.1930     0.0010
 1747.5000   -36.2180     7.5610     8.9090   770.9180     7.3890     8.1490   115.9220     2.5480   798.1930     0.0040
 1748.0000   -36.2030     7.5190     9.2690   771.0340     7.3470     8.1470   112.8200     2.5430   798.1930     0.0060
 1748.5000   -36.1890     7.4760     9.2040   771.1500     7.3070     8.1510   113.4910     2.5370   798.1930     0.0100
 1749.0000   -36.1740     7.4340     9.0570   771.2660     7.2660     8.1550   114.9580     2.5310   798.1930     0.0060
 1749.5000   -36.1590     7.3910     8.9100   771.3830     7.2250     8.1590   115.4780     2.5250   798.1930     0.0000
 1750.0000   -36.1440     7.3490     8.7630   771.4990     7.1840     8.1630   113.1290     2.5280   798.1930     0.0000
 1750.5000   -36.1290     7.3060     8.6140   771.6150     7.1430     8.1670   110.0600     2.5350   798.1930     0.0060
 1751.0000   -36.1150     7.3060     8.4580   771.7310     7.1020     8.1710   111.6320     2.5400   798.1930     0.0040
 1751.5000   -36.1000     7.3060     8.4580   771.8470     7.0610     8.1750   113.8850     2.5430   798.1930     0.0000
 1752.0000   -36.0850     7.3060     8.4580   771.9630     7.0420     8.1790   116.2040     2.5460   798.1930     0.0020
 1752.5000   -36.0700     7.3060     8.4580   772.0800     7.0430     8.1830   115.8180     2.5490   798.1930     0.0060
 1753.0000   -36.0560     7.3060     8.4580   772.1960     7.0430     8.1870   115.2410     2.5480   798.1930     0.0060
 1753.5000   -36.0410     7.3060     8.8030   772.3120     7.0430     8.1910   114.7030     2.5470   798.1930     0.0050
 1754.0000   -36.0260     7.3060     9.2790   772.4280     7.0430     8.1950   114.7880     2.5460   798.1930     0.0010
 1754.5000   -36.0110     7.3050     9.6150   772.5440     7.0430     8.1990   115.8980     2.5450   798.1930     0.0010
 1755.0000   -35.9970     7.3060     9.3600   772.6610     7.0430     8.2030   117.6680     2.5490   798.1930     0.0020
 1755.5000   -35.9820     7.3050     9.0750   772.7770     7.0430     8.2070   119.5650     2.5580   798.1930     0.0050
 1756.0000   -35.9670     7.3030     8.7890   772.8930     7.0430     8.2110   121.4580     2.5670   798.1930     0.0100
 1756.5000   -35.9520     7.2710     8.4580   773.0090     7.0430     8.2150   122.8220     2.5660   798.1930     0.0150
 1757.0000   -35.9380     7.2380     8.4580   773.1250     7.0440     8.2190   122.4590     2.5600   798.1930     0.0160
 1757.5000   -35.9230     7.2070     8.5090   773.2410     7.0250     8.2230   121.5470     2.5570   798.1930     0.0170
 1758.0000   -35.9080     7.1750     8.7350   773.3580     6.9920     8.2270   120.7150     2.5610   798.2420     0.0230
 1758.5000   -35.8930     7.1980     9.1010   773.4740     6.9600     8.2240   122.1650     2.5680   798.3790     0.0290
 1759.0000   -35.8790     7.2200     9.0780   773.5900     6.9170     8.2180   124.0660     2.5620   798.5150     0.0240
 1759.5000   -35.8640     7.2430     9.0200   773.7060     6.9260     8.2120   124.6490     2.5530   798.6520     0.0140
 1760.0000   -35.8490     7.2670     8.9360   773.8220     6.9500     8.2060   119.5710     2.5530   798.7890     0.0050
 1760.5000   -35.8340     7.3030     8.9610   773.9380     6.9740     8.2000   115.4420     2.5540   798.9250     0.0080
 1761.0000   -35.8200     7.2950     9.0060   774.0550     6.9960     8.1950   114.8060     2.5550   799.0620     0.0130
 1761.5000   -35.8050     7.2600     9.0510   774.1710     7.0170     8.1890   116.7920     2.5550   799.1980     0.0130
 1762.0000   -35.7900     7.2260     9.1010   774.2870     7.0410     8.1830   118.8920     2.5500   799.3350     0.0070
 1762.5000   -35.7760     7.1910     8.9520   774.4030     7.0120     8.1770   118.4270     2.5450   799.4720     0.0000
 1763.0000   -35.7610     7.1570     8.7880   774.5190     6.9800     8.1710   117.2530     2.5400   799.6080    -0.0010
 1763.5000   -35.7460     7.1230     8.6240   774.6360     6.9470     8.1660   116.7280     2.5380   799.7450     0.0030
 1764.0000   -35.7310     7.0890     8.4600   774.7520     6.9140     8.1600   117.0740     2.5370   799.8810     0.0060
 1764.5000   -35.7170     7.0440     8.3050   774.8680     6.8810     8.1540   118.0830     2.5300   800.0180     0.0030
 1765.0000   -35.7020     7.0540     8.3850   774.9840     6.8480     8.1480   117.7650     2.5270   800.1550    -0.0010
 1765.5000   -35.6870     7.0720     8.4620   775.1000     6.8150     8.1420   117.3680     2.5360   800.2910    -0.0050
 1766.0000   -35.6730     7.0900     8.5380   775.2160     6.7870     8.1360   117.3350     2.5500   800.4280     0.0000
 1766.5000   -35.6580     7.1080     8.6140   775.3330     6.7750     8.1310   117.3210     2.5640   800.5640     0.0050
 1767.0000   -35.6430     7.1260     8.5270   775.4490     6.7630     8.1280   117.2730     2.5710   800.7010     0.0110
 1767.5000   -35.6290     7.1440     8.4390   775.5650     6.7520     8.1310   117.1470     2.5700   800.8370     0.0110
 1768.0000   -35.6140     7.1720     8.3520   775.6810     6.7400     8.1330   117.0190     2.5530   800.9740     0.0060
 1768.5000   -35.6000     7.1650     8.2640   775.7970     6.7280     8.1360   116.7460     2.5360   801.1110     0.0020
 1769.0000   -35.5850     7.1420     8.1670   775.9140     6.7160     8.1380   115.6920     2.5330   801.2470     0.0010
 1769.5000   -35.5700     7.1190     8.1930   776.0300     6.7040     8.1410   113.6280     2.5430   801.3840     0.0040
 1770.0000   -35.5560     7.0970     8.2470   776.1460     6.6920     8.1430   112.5740     2.5610   801.5200     0.0070
 1770.5000   -35.5410     7.0740     8.3050   776.2620     6.6810     8.1460   113.6150     2.5540   801.6570     0.0090
 1771.0000   -35.5260     7.0510     8.5070   776.3780     6.6690     8.1480   115.3370     2.5420   801.7940     0.0040
 1771.5000   -35.5120     7.0280     8.7290   776.4940     6.6570     8.1510   117.0760     2.5310   801.9300     0.0000
 1772.0000   -35.4970     7.0060     8.9360   776.6110     6.6450     8.1540   118.8200     2.5220   802.0670    -0.0040
 1772.5000   -35.4820     6.9830     8.7050   776.7270     6.6330     8.1560   120.5620     2.5180   802.2030    -0.0080
 1773.0000   -35.4680     6.9600     8.4900   776.8430     6.6210     8.1590   121.7910     2.5180   802.3400    -0.0080
 1773.5000   -35.4530     6.9370     8.2760   776.9590     6.6100     8.1610   120.4840     2.5300   802.4770    -0.0020
 1774.0000   -35.4390     6.9150     8.0610   777.0750     6.5980     8.1640   118.7640     2.5410   802.6130     0.0060
 1774.5000   -35.4240     6.8920     7.7180   777.1910     6.5850     8.1660   117.0780     2.5530   802.7500     0.0120
 1775.0000   -35.4090     6.8690     7.7830   777.3080     6.5720     8.1690   115.6670     2.5540   802.8860     0.0080
 1775.5000   -35.3950     6.8460     7.9440   777.4240     6.5530     8.1710   116.5660     2.5520   803.0230     0.0040
 1776.0000   -35.3800     6.8240     8.1050   777.5400     6.5630     8.1740   118.7530     2.5500   803.1600     0.0030
 1776.5000   -35.3650     6.8010     8.2660   777.6560     6.4140     8.1770   120.9810     2.5480   803.2960     0.0050
