~VERSION INFORMATION
 VERS.                2.0:   CWLS LOG ASCII STANDARD - VERSION 2.0
 WRAP.                 NO:   ONE LINE PER DEPTH STEP
~WELL INFORMATION
#MNEM.UNIT      DATA TYPE    INFORMATION
#----------   ------------   ------------------------------
 STRT.F           46.5000:   START DEPTH
 STOP.F         3160.0000:   STOP DEPTH
 STEP.F            0.5000:   STEP LENGTH
 NULL.          -999.2500:   NO VALUE
 COMP. LAWRENCE ALLISON & WEST:   COMPANY
 WELL. LAWRENCE NPR 3 "AX" #42-34:   WELL
 FLD .                NPR:   FIELD
 LOC .      S34 T39N R78W:   LOCATION
 CNTY.            NATRONA:   COUNTY
 STAT.            WYOMING:   STATE
 CTRY. UNITED STATES OF AMERICA:   COUNTRY
 SRVC.      WESTERN ATLAS:   SERVICE COMPANY
 DATE.        19-OCT-1987:   LOGDATE
 API .     49025111830000:   API NUMBER
~CURVE INFORMATION
#MNEM.UNIT       API CODE    CURVE DESCRIPTION
#----------   ------------   ------------------------------
 DEPT.F                  :   
 CALD.IN     45 280 60 00:   CALIPER FROM DENSITY LOG
 DEN .LBS    45 635 01 00:   BUCK DENSITY
 CORR.G/C3   45 356 01 00:   DENSITY CORRECTION
 NPOR.DEC    42 890 03 00:   ALPHA PROCESSED NEUTRON POROSITY
 SPR .MV     07 010 01 00:   SPONTANEOUS POTENTIAL
 GRR .GAPI   07 310 01 00:   GAMMA RAY FROM RESISTIVITY
 RFOC.OHMM   07 220 04 00:   RESISTIVITY FOCUSED LOG RES.
 RILD.OHMM   07 120 46 00:   DEEP INDUCTION RESISTIVITY
 RILM.OHMM   07 120 44 00:   INDUCTION LOG MEDIUM RESISTIVITY
 TENR.LBS    07 635 01 00:   TENSION FROM RESISTIVITY
~PARAMETER INFORMATION
#MNEM.UNIT          VALUE    DESCRIPTION
#----------   ------------   ------------------------------
 EKB .F         5088.0000:   Kelly bushing
 EGL .F         5077.0000:   Ground level
 EDF .F         5087.0000:   Drilling floor
 TD  .F         3151.0000:   Total depth
 DATE.        19-OCT-1987:   Date logged
 CLNT.            A2DTECH:   Client Code
 SL  . 1032' FNL & 2316' FWL:   Surface Location
 PD  .                 GL:   Permanent Datum
 EPD .F              5077:   Elevation Permanent Datum
 LMF .                 KB:   Log Measured From
 DMF .                 KB:   Drilling Measured From
 DAPD.F                11:   Feet Above Permanent Datum
 DD  .F              3151:   Depth driller
 DL  .F              3151:   Depth logger
 BLI .F              3149:   Bottom log interval
 TLI .F                50:   Top log interval
 CS1 .IN            8.625:   Casing size
 CBD1.      8.625" @ 693':   Casing driller 1
 CBL1.F               693:   Casing logger 1
 BS1 .IN            7.875:   Bit size
 BSD1.F              3151:   Depth drilled with bit1
 DFT .        KCL/POLYMER:   Type fluid in hole
 DFD .                9.2:   Density
 DFV .                 53:   Viscosity
 DFPH.                9.5:   pH
 DFL .               11.8:   Fluid loss
 MSS .            MUD/PIT:   Source of sample
 RMS .OHMM           .441:   Rm
 MST .F                66:   Rm Meas. temp.
 RMF .OHMM           .336:   Rmf
 MFST.F                66:   Rmf Meas. temp.
 RMC .OHMM           .711:   Rmc
 MCST.F                66:   Rmc Meas. temp.
 MFSS.               MEAS:   Source Rmf.
 MCSS.               MEAS:   Source Rmc.
 RMB .OHMM           .244:   Rm. at BHT
 BHT .F               119:   BHT.
 TCS .HRS               3:   Time Circ. stopped
 MRT .F               119:   Maximum recorded temp.
 LUN .            HL-6343:   Logging unit number
 LUL .               CODY:   Logging unit location
 ENGI.               JULL:   Recorded By
 WITN.             STRONG:   Witnessed by
 ORIG.           5" PRINT:   Origin of data
 UWI .     49025111830000:   Unique Well ID
 DICO. A2D TECHNOLOGIES, INC.:   Digitizing Company
~OTHER INFORMATION
~A   DEPT     CALD        DEN       CORR       NPOR        SPR         GRR      RFOC       RILD       RILM       TENR   
# ...
 3128.5000     7.5376     2.5133     0.0560     0.2241   -24.4756  -999.2500     4.5035     3.8443     3.8543   285.8963
 3129.0000     7.5245     2.5183     0.0559     0.2224   -24.2611  -999.2500     4.6306     3.8084     3.7827   286.0584
 3129.5000     7.5563     2.5223     0.0654     0.2172   -23.6582  -999.2500     4.7612     3.7728     3.7473   296.3368
 3130.0000     7.5554     2.5293     0.0780     0.2196   -23.0553  -999.2500     4.6729     3.7374     3.7121   286.3824
 3130.5000     7.5536     2.5313     0.0819     0.2249   -22.4523  -999.2500     4.5017     3.6342     3.6094   296.6607
 3131.0000     7.5527     2.5221     0.0918     0.2322   -21.6472  -999.2500     4.2965     3.6001     3.5756   306.9388
 3131.5000     7.4911     2.5110     0.1016     0.2330   -21.4486  -999.2500     4.0628     3.5006     3.4767   307.1006
 3132.0000     7.4699     2.5038     0.1019     0.2330   -21.2501  -999.2500     4.1003     3.4357     3.4122   307.2624
 3132.5000     7.5098     2.5139     0.0655     0.2249   -21.2516  -999.2500     4.2160     3.3408     3.3178   317.5402
 3133.0000     7.5078     2.5118     0.0573     0.2253   -20.8530  -999.2500     4.2156     3.3095     3.2867   317.7019
 3133.5000     7.5067     2.5047     0.0592     0.2278   -20.6544  -999.2500     4.0611     3.2785     3.2559   317.8635
 3134.0000     7.4855     2.5026     0.0672     0.2399   -19.4468  -999.2500     4.0230     3.3088     3.2860   318.0252
 3134.5000     7.4983     2.5005     0.0641     0.2424   -19.4497  -999.2500     4.0602     3.2778     3.2552   328.3348
 3135.0000     7.5033     2.5005     0.0570     0.2428   -19.4527  -999.2500     4.0598     3.2775     3.2548   328.4965
 3135.5000     7.4821     2.4994     0.0549     0.2424   -19.4556  -999.2500     4.0974     3.2772     3.2545   328.6581
 3136.0000     7.5209     2.4994     0.0305     0.2375   -19.2578  -999.2500     4.1352     3.3385     3.2847   318.7045
 3136.5000     7.5198     2.4993     0.0325     0.2306   -19.4637  -999.2500     4.1735     3.3381     3.2541   328.9814
 3137.0000     7.5187     2.4993     0.0304     0.2242   -19.2629  -999.2500     4.0961     3.3069     3.2234   329.1430
 3137.5000     7.5178     2.4931     0.0303     0.2258   -18.8642  -999.2500     3.9829     3.3066     3.2532   329.3047
 3138.0000     7.4615     2.4921     0.0343     0.2286   -18.0588  -999.2500     3.9825     3.3062     3.2529   339.5813
 3138.5000     7.4751     2.4900     0.0787  -999.2500  -999.2500  -999.2500     4.0569  -999.2500     3.2224   329.6279
 3139.0000     7.4941     2.4795     0.0827  -999.2500  -999.2500  -999.2500     4.2104  -999.2500     3.1333   339.9044
 3139.5000     7.4805     2.4757     0.0826  -999.2500  -999.2500  -999.2500     4.0561  -999.2500     3.1919   350.1804
 3140.0000     7.4516     2.4787     0.0764  -999.2500  -999.2500  -999.2500     4.0557  -999.2500     3.4064   350.3419
 3140.5000     7.5309     2.4886     0.0784  -999.2500  -999.2500  -999.2500     4.0552  -999.2500     3.4702   350.5033
 3141.0000     7.5102     2.5030     0.1005  -999.2500  -999.2500  -999.2500     4.1696  -999.2500     3.5352   350.6648
 3141.5000     7.5084     2.5274     0.1065  -999.2500  -999.2500  -999.2500     4.3273  -999.2500     3.9163   340.7118
 3142.0000     7.5072     2.5486     0.1044  -999.2500  -999.2500  -999.2500     4.9287  -999.2500     4.4614   350.9876
 3142.5000     7.5061     2.5600     0.0882  -999.2500  -999.2500  -999.2500     5.2114  -999.2500     4.8510   351.1491
 3143.0000     7.5156     2.5608     0.0800  -999.2500  -999.2500  -999.2500     6.0474  -999.2500     4.9419   361.4569
 3143.5000     7.5240     2.5494     0.0374  -999.2500  -999.2500  -999.2500     6.6985  -999.2500     5.0813   341.3902
 3144.0000     7.5228     2.5448     0.0374  -999.2500  -999.2500  -999.2500     6.8874  -999.2500     5.1283   351.6656
 3144.5000     7.5018     2.5456     0.0616  -999.2500  -999.2500  -999.2500     6.9510  -999.2500     5.1759   372.0548
 3145.0000     7.5004     2.5479     0.0777  -999.2500  -999.2500  -999.2500     6.9503  -999.2500  -999.2500   362.1023
 3145.5000     7.4994     2.5418     0.1100  -999.2500  -999.2500  -999.2500     6.7582  -999.2500  -999.2500   362.2634
 3146.0000     7.5181     2.5236     0.0896  -999.2500  -999.2500  -999.2500     6.5715  -999.2500  -999.2500   362.4247
 3146.5000     7.4976     2.5091     0.0714  -999.2500  -999.2500  -999.2500     6.3307  -999.2500  -999.2500   372.6996
 3147.0000     7.4756     2.4970     0.0652  -999.2500  -999.2500  -999.2500     5.9864  -999.2500  -999.2500   382.9742
 3147.5000     7.4745     2.4840     0.0348  -999.2500  -999.2500  -999.2500     5.6607  -999.2500  -999.2500   403.3621
 3148.0000     7.4334     2.4696     0.0266  -999.2500  -999.2500  -999.2500     5.6601  -999.2500  -999.2500   413.6363
 3148.5000     7.4323     2.4597    -0.0038  -999.2500  -999.2500  -999.2500     5.7123  -999.2500  -999.2500   413.7972
 3149.0000     7.4309     2.4476     0.0041  -999.2500  -999.2500  -999.2500  -999.2500  -999.2500  -999.2500   363.3927
 3149.5000     7.4097     2.4453     0.0203  -999.2500  -999.2500  -999.2500  -999.2500  -999.2500  -999.2500   262.4239
 3150.0000     7.3884     2.4567     0.0040  -999.2500  -999.2500  -999.2500  -999.2500  -999.2500  -999.2500   222.1344
 3150.5000  -999.2500     2.4544  -999.2500  -999.2500  -999.2500  -999.2500  -999.2500  -999.2500  -999.2500   100.9428
 3151.0000  -999.2500     2.4514  -999.2500  -999.2500  -999.2500  -999.2500  -999.2500  -999.2500  -999.2500    40.4298
 3151.5000  -999.2500     2.4650  -999.2500  -999.2500  -999.2500  -999.2500  -999.2500  -999.2500  -999.2500    10.2886
 3152.0000  -999.2500  -999.2500  -999.2500  -999.2500  -999.2500  -999.2500  -999.2500  -999.2500  -999.2500     0.3403
 3152.5000  -999.2500  -999.2500  -999.2500  -999.2500  -999.2500  -999.2500  -999.2500  -999.2500  -999.2500     0.5046
 3153.0000  -999.2500  -999.2500  -999.2500  -999.2500  -999.2500  -999.2500  -999.2500  -999.2500  -999.2500     0.6690
 3153.5000  -999.2500  -999.2500  -999.2500  -999.2500  -999.2500  -999.2500  -999.2500  -999.2500  -999.2500     0.8333
 3154.0000  -999.2500  -999.2500  -999.2500  -999.2500  -999.2500  -999.2500  -999.2500  -999.2500  -999.2500     0.9976
 3154.5000  -999.2500  -999.2500  -999.2500  -999.2500  -999.2500  -999.2500  -999.2500  -999.2500  -999.2500     1.1619
 3155.0000  -999.2500  -999.2500  -999.2500  -999.2500  -999.2500  -999.2500  -999.2500  -999.2500  -999.2500     1.3263
 3155.5000  -999.2500  -999.2500  -999.2500  -999.2500  -999.2500  -999.2500  -999.2500  -999.2500  -999.2500     1.4906
 3156.0000  -999.2500  -999.2500  -999.2500  -999.2500  -999.2500  -999.2500  -999.2500  -999.2500  -999.2500    -8.4570
 3156.5000  -999.2500  -999.2500  -999.2500  -999.2500  -999.2500  -999.2500  -999.2500  -999.2500  -999.2500   -18.4044
 3157.0000  -999.2500  -999.2500  -999.2500  -999.2500  -999.2500  -999.2500  -999.2500  -999.2500  -999.2500   -28.3516
 3157.5000  -999.2500  -999.2500  -999.2500  -999.2500  -999.2500  -999.2500  -999.2500  -999.2500  -999.2500   -28.1870
 3158.0000  -999.2500  -999.2500  -999.2500  -999.2500  -999.2500  -999.2500  -999.2500  -999.2500  -999.2500   -38.1340
 3158.5000  -999.2500  -999.2500  -999.2500  -999.2500  -999.2500  -999.2500  -999.2500  -999.2500  -999.2500   -37.9694
 3159.0000  -999.2500  -999.2500  -999.2500  -999.2500  -999.2500  -999.2500  -999.2500  -999.2500  -999.2500   -37.8048
 3159.5000  -999.2500  -999.2500  -999.2500  -999.2500  -999.2500  -999.2500  -999.2500  -999.2500  -999.2500   -27.5288
 3160.0000  -999.2500  -999.2500  -999.2500  -999.2500  -999.2500  -999.2500  -999.2500  -999.2500  -999.2500   -27.3314
