~VERSION INFORMATION
 VERS.                2.0:   CWLS LOG ASCII STANDARD - VERSION 2.0
 WRAP.                 NO:   ONE LINE PER DEPTH STEP
~WELL INFORMATION
#MNEM.UNIT      DATA TYPE    INFORMATION
#----------   ------------   ------------------------------
 STRT.F          206.0000:   START DEPTH
 STOP.F         3218.0000:   STOP DEPTH
 STEP.F            0.5000:   STEP LENGTH
 NULL.          -999.2500:   NO VALUE
 COMP.    FENIX & SCISSON:   COMPANY
 WELL.     FENIX AX #16-2:   WELL
 FLD .              NPR 3:   FIELD
 LOC .       S2 T38N R78W:   LOCATION
 CNTY.            NATRONA:   COUNTY
 STAT.            WYOMING:   STATE
 CTRY. UNITED STATES OF AMERICA:   COUNTRY
 SRVC.       SCHLUMBERGER:   SERVICE COMPANY
 DATE.        10-OCT-1977:   LOGDATE
 API .     49025105780000:   API NUMBER
~CURVE INFORMATION
#MNEM.UNIT       API CODE    CURVE DESCRIPTION
#----------   ------------   ------------------------------
 DEPT.F                  :   
 GRD .GAPI   45 310 01 00:   GAMMA RAY FROM DENSITY LOG
 CALD.IN     45 280 60 00:   CALIPER FROM DENSITY LOG
 RHOB.G/C3   45 350 01 00:   BULK DENSITY
 CORR.G/C3   45 356 01 00:   DENSITY CORRECTION
 SPR .MV     07 010 01 00:   SPONTANEOUS POTENTIAL FROM RES.
 RILD.OHMM   07 120 46 00:   DEEP INDUCTION RESISTIVITY
 RILM.OHMM   07 120 44 00:   INDUCTION LOG MEDIUM RESISTIVITY
 RLL8.OHMM   07 220 08 00:   LATEROLOG-8 RES.
~PARAMETER INFORMATION
#MNEM.UNIT          VALUE    DESCRIPTION
#----------   ------------   ------------------------------
 EKB .F         5123.0000:   Kelly bushing
 EGL .F         5113.0000:   Ground level
 EDF .F            0.0000:   Drilling floor
 TD  .F         3220.0000:   Total depth
 CLNT.            A2DTECH:   Client Code
 SL  . 1772' FSL & 576' FWL:   Surface Location
 PD  .                 GL:   Permanent Datum
 EPD .F              5113:   Elevation Permanent Datum
 LMF .                 KB:   Log Measured From
 DMF .                 KB:   Drilling Measured From
 DAPD.F                10:   Feet Above Permanent Datum
 DATE.        10-OCT-1977:   Date Logged [DD-MMM-YYYY]
 DD  .F              3220:   Depth driller
 DL  .F              3218:   Depth logger
 BLI .F              3212:   Bottom log interval
 TLI .F               223:   Top log interval
 CS1 .IN            8.625:   Casing size
 CBD1.      8.625" @ 222':   Casing driller 1
 CBL1.F               223:   Casing logger 1
 BS1 .IN            7.875:   Bit size
 BSD1.F              3220:   Depth drilled with bit1
 DFT .                KCL:   Type fluid in hole
 DFD .                8.6:   Density
 DFV .                 32:   Viscosity
 DFPH.                 11:   pH
 MSS .            MUD PIT:   Source of sample
 RMS .OHMM           0.29:   Rm
 MST .F                82:   Rm Meas. temp.
 RMF .OHMM          0.228:   Rmf
 MFST.F                81:   Rmf Meas. temp.
 MFSS.               MEAS:   Source Rmf.
 RMB .OHMM           0.21:   Rm. at BHT
 BHT .F               122:   BHT.
 TCS .HRS            0600:   Time Circ. stopped
 MRT .F               122:   Maximum recorded temp.
 LUN .               5642:   Logging unit number
 ENGI. CHALUPSKY PETERSON:   Recorded By
 WITN.     WES PETTINGILL:   Witnessed by
 ORIG.           5" PRINT:   Origin of data
 UWI .     49025105780000:   Unique Well ID
 DICO. A2D TECHNOLOGIES, INC.:   Digitizing Company
 TLAB.HRS            1000:   Time logger at bottom
 LUL .               CSPR:   Logging unit location
~OTHER INFORMATION
~A   DEPT       GRD      CALD       RHOB       CORR        SPR       RILD       RILM       RLL8   
# ...
 1178.0000   116.7238    11.6894     2.5379     0.0049   -52.4907     8.7890     7.3203     8.5768
 1178.5000   114.4881    11.6908     2.5296     0.0057   -51.1180     8.7333     7.2777     8.5858
 1179.0000   113.1075    11.6920     2.5281     0.0057   -50.0298     8.7448     7.2842     8.5949
 1179.5000   116.0136    11.6778     2.5274     0.0049   -48.9263     8.7540     7.3414     8.6035
 1180.0000   117.2264    11.6640     2.5259     0.0049   -47.7711     8.7633     7.4003     8.6747
 1180.5000   117.0640    11.6502     2.5214     0.0020   -46.8332     8.7716     7.4582     8.6838
 1181.0000   116.0563    11.6364     2.5011    -0.0040   -46.4283     8.7817     7.4117     8.6930
 1181.5000   114.4203    11.6378     2.5049    -0.0033   -46.3944     8.7910     7.4198     8.7023
 1182.0000   114.2802    11.6390     2.5236     0.0035   -46.8435     8.7353     7.4263     8.7116
 1182.5000   115.6460    11.6402     2.5131     0.0072   -47.4728     8.6845     7.3800     8.7205
 1183.0000   117.0085    11.6414     2.5041     0.0034   -48.1706     8.6937     7.3371     8.6676
 1183.5000   118.2221    11.6428     2.5033     0.0005   -48.5861     8.6409     7.2929     8.6172
 1184.0000   118.3852    11.6440     2.5056     0.0005   -49.2138     8.5884     7.2993     8.5649
 1184.5000   118.5482    11.6301     2.5088     0.0020   -49.8424     8.5978     7.2553     8.5739
 1185.0000   118.4082    11.6313     2.5259     0.0028   -50.4520     8.4866     7.2116     8.4613
 1185.5000   118.1247    11.6022     2.5371     0.0035   -51.4302     8.3750     7.1203     8.4099
 1186.0000   116.3232    11.6037     2.5229     0.0043   -52.0865     8.2061     7.0286     8.3567
 1186.5000   114.7028    11.5898     2.5334     0.0028   -53.0282     8.0982     6.9381     8.2258
 1187.0000   115.4688    11.5910     2.5349     0.0021   -53.4404     7.9348     6.8963     8.1740
 1187.5000   118.3305    11.5772     2.5304     0.0021   -53.5196     7.7747     6.7605     8.0337
 1188.0000   123.7410    11.5611     2.5214     0.0021   -53.0195     7.6724     6.6274     7.9281
 1188.5000   125.1034    11.5345     2.5161     0.0036   -52.3674     7.5695     6.4521     7.7655
 1189.0000   126.1661    11.5209     2.5161     0.0051   -51.5127     7.5236     6.2790     7.6051
 1189.5000   127.0788    11.5070     2.5163     0.0058   -50.2491     7.4263     6.1511     7.4071
 1190.0000   124.5432    11.4933     2.5199     0.0073   -49.0745     7.3814     6.0379     7.2578
 1190.5000   121.8576    11.4794     2.5236     0.0073   -47.4824     7.3367     6.0003     7.1605
 1191.0000   122.6447    11.4807     2.5236     0.0066   -46.8023     7.2402     5.9641     7.1171
 1191.5000   126.3850    11.4821     2.5184     0.0059   -46.0062     7.1891     5.9282     7.1264
 1192.0000   127.5942    11.4683     2.5079     0.0051   -45.8232     7.1525     5.9347     7.0823
 1192.5000   123.8625    11.4694     2.5071     0.0066   -45.8122     7.1619     5.9399     7.0907
 1193.0000   124.4754    11.4706     2.5094     0.0096   -46.3658     7.1695     5.9451     7.0981
 1193.5000   126.7374    11.4565     2.5356     0.0111   -47.2314     7.1759     5.9503     7.1051
 1194.0000   127.3502    11.4579     2.5401     0.0089   -47.7827     7.1846     5.9557     7.0622
 1194.5000   127.2135    11.4441     2.5244     0.0082   -48.9071     7.1922     5.9621     7.0697
 1195.0000   125.8771    11.4453     2.5124     0.0104   -49.3193     7.1990     5.9673     7.0773
 1195.5000   127.1140    11.4315     2.5064     0.0142   -49.9331     7.2073     5.9725     7.0849
 1196.0000   129.9520    11.4327     2.5161     0.0127   -50.5749     7.2149     5.9778     7.0925
 1196.5000   129.3683    11.4341     2.5169     0.0082   -51.2188     7.2225     5.9830     7.1001
 1197.0000   126.3829    11.4353     2.5146     0.0029   -51.8743     7.2820     5.9883     7.1077
 1197.5000   122.7979    11.4364     2.5041    -0.0009   -52.4010     7.3419     5.9935     7.1676
 1198.0000   117.7125    11.4376     2.4929    -0.0023   -52.3809     7.4053     5.9988     7.2265
 1198.5000   118.3273    11.4388     2.4959     0.0052   -52.0304     7.4702     6.0467     7.2450
 1199.0000   119.7963    11.4399     2.5113     0.0097   -51.5512     7.6351     6.1836     7.3459
 1199.5000   124.0520    11.4411     2.5296     0.0090   -50.5506     7.6979     6.3583     7.4594
 1200.0000   125.1113    11.4423     2.5199     0.0082   -49.6369     7.7593     6.4960     7.6210
 1200.5000   121.8294    11.4435     2.5311     0.0090   -48.6195     7.5510     6.4993     7.8023
 1201.0000   118.0944    11.4449     2.5304     0.0022   -47.5853     7.5061     6.5099     7.9222
 1201.5000   118.4074    11.4308     2.5244    -0.0052   -46.5223     7.4084     6.4700     7.9299
 1202.0000   121.2691    11.4323     2.5161    -0.0112   -45.7712     7.2599     6.4325     7.8793
 1202.5000   123.5167    11.4333     2.4981    -0.0135   -45.1730     7.1653     6.3496     7.8325
 1203.0000   121.7277    11.4345     2.4869    -0.0135   -45.2171     7.0741     6.3128     7.7293
 1203.5000   121.7379    11.4357     2.4921    -0.0103   -45.6400     7.0825     6.2761     7.6271
 1204.0000   122.9729    11.4371     2.4989    -0.0015   -46.0737     7.0404     6.2866     7.5962
 1204.5000   126.1485    11.4382     2.5035     0.0030   -46.5142     7.0488     6.2949     7.5336
 1205.0000   126.4161    11.4394     2.5071     0.0060   -47.0147     7.0571     6.2138     7.4341
 1205.5000   124.4798    11.4406     2.5184     0.0105   -47.9023     7.0131     6.2221     7.4431
 1206.0000   121.9413    11.4267     2.5386     0.0112   -48.8370     7.0235     6.1860     7.4504
 1206.5000   122.1013    11.4279     2.5319     0.0082   -49.2146     7.0319     6.1505     7.4922
 1207.0000   122.2614    11.4132     2.5124     0.0000   -49.5492     7.0403     6.1603     7.5184
 1207.5000   122.7214    11.4002     2.5052    -0.0037   -50.1924     7.0489     6.1685     7.5258
 1208.0000   123.7890    11.3867     2.5251     0.0045   -51.1812     7.0590     6.1767     7.5330
 1208.5000   124.2414    11.3879     2.5394     0.0097   -52.0889     7.0660     6.1849     7.5405
 1209.0000   124.5536    11.3738     2.5311     0.0135   -52.1825     7.0757     6.2375     7.5099
 1209.5000   124.8636    11.3599     2.5341     0.0135   -51.7476     7.1349     6.1992     7.5014
 1210.0000   125.4734    11.3461     2.5439     0.0135   -50.6837     7.0904     6.2095     7.5106
 1210.5000   126.3832    11.3475     2.5536     0.0120   -49.5712     7.1005     6.1735     7.5179
 1211.0000   127.5928    11.3330     2.5521     0.0090   -48.3995     7.1094     6.1818     7.5253
 1211.5000   125.5040    11.3174     2.5461     0.0082   -46.9104     7.1178     6.1458     7.5326
 1212.0000   122.1917    11.3040     2.5386     0.0097   -45.7234     7.1262     6.1560     7.4863
 1212.5000   121.3264    11.2922     2.5318     0.0075   -45.1170     7.0839     6.1203     7.5473
 1213.0000   122.5385    11.2937     2.5266    -0.0015   -44.3433     7.0944     6.1284     7.5547
 1213.5000   124.4977    11.2799     2.5184    -0.0075   -43.9495     7.1028     6.0929     7.5621
 1214.0000   127.8063    11.2810     2.5101    -0.0030   -44.2107     7.0585     6.1002     7.5733
 1214.5000   128.5660    11.2672     2.5281     0.0015   -44.7629     7.0690     6.1091     7.5786
 1215.0000   129.4758    11.2684     2.5274     0.0075   -45.4984     7.0773     6.0716     7.5860
 1215.5000   130.3855    11.2696     2.5161     0.0082   -46.0910     7.0353     5.9954     7.4858
 1216.0000   129.7641    11.2557     2.5139     0.0051   -46.5977     7.0436     5.9606     7.3850
 1216.5000   128.3069    11.2571     2.5274     0.0030   -47.1430     7.0017     5.9260     7.2769
 1217.0000   128.7694    11.2583     2.5274     0.0060   -47.5172     6.9602     5.8917     7.1924
 1217.5000   128.9269    11.2595     2.5191     0.0105   -48.3377     6.9188     5.8594     7.1999
 1218.0000   126.8407    11.2606     2.5056     0.0045   -48.9827     6.8797     5.8672     7.0889
