~VERSION INFORMATION
 VERS.                2.0:   CWLS LOG ASCII STANDARD - VERSION 2.0
 WRAP.                 NO:   ONE LINE PER DEPTH STEP
~WELL INFORMATION
#MNEM.UNIT      DATA TYPE    INFORMATION
#----------   ------------   ------------------------------
 STRT.F         2676.0000:   START DEPTH
 STOP.F         3016.0000:   STOP DEPTH
 STEP.F            0.5000:   STEP LENGTH
 NULL.          -999.2500:   NO VALUE
 COMP.    FENIX & SCISSON:   COMPANY
 WELL.  FENIX "TX" #56-20:   WELL
 FLD .             NPR #3:   FIELD
 LOC .      S20 T39N R78W:   LOCATION
 CNTY.            NATRONA:   COUNTY
 STAT.            WYOMING:   STATE
 CTRY. UNITED STATES OF AMERICA:   COUNTRY
 SRVC.              WELEX:   SERVICE COMPANY
 DATE.        13-OCT-1980:   LOGDATE
 API .     49025108540000:   API NUMBER
~CURVE INFORMATION
#MNEM.UNIT       API CODE    CURVE DESCRIPTION
#----------   ------------   ------------------------------
 DEPT.F                  :   
 GRD .GAPI   45 310 01 00:   GAMMA RAY FROM DENSITY LOG
 CALD.IN     45 280 60 00:   CALIPER FROM DENSITY LOG
 RHOB.G/C3   45 350 01 00:   BULK DENSITY
 DRHO.G/C3   45 356 01 00:   DENSITY CORRECTION
 SPR .MV     07 010 01 00:   SPONTANEOUS POTENTIAL
 SGRD.OHMM   07 220 05 00:   SHALLOW GUARD
 ILM .OHMM   07 120 44 00:   INDUCTION LOG MEDIUM RESISTIVITY
 ILD .OHMM   07 120 46 00:   DEEP INDUCTION RESISTIVITY
~PARAMETER INFORMATION
#MNEM.UNIT          VALUE    DESCRIPTION
#----------   ------------   ------------------------------
 EKB .F         5035.0000:   Kelly bushing
 EGL .F         5030.0000:   Ground level
 EDF .F            0.0000:   Drilling floor
 TD  .F         3012.0000:   Total depth
 DATE.        13-OCT-1980:   Date logged
 CLNT.            A2DTECH:   Client Code
 PD  .                 GL:   Permanent Datum
 EPD .F              5030:   Elevation Permanent Datum
 LMF .                 KB:   Log Measured From
 DMF .                 KB:   Drilling Measured From
 DD  .F              3012:   Depth driller
 DL  .F              3010:   Depth logger
 BLI .F              3012:   Bottom log interval
 TLI .F              2688:   Top log interval
 CS1 .IN                7:   Casing size
 CBD1.         7" @ 2689':   Casing driller 1
 CBL1.F              2687:   Casing logger 1
 BS1 .IN             6.25:   Bit size
 BSD1.F              3012:   Depth drilled with bit1
 DFT .        FRESH WATER:   Type fluid in hole
 MSS .           FLOWLINE:   Source of sample
 RMS .OHMM           2.86:   Rm
 MST .F                50:   Rm Meas. temp.
 RMF .OHMM           2.29:   Rmf
 MFST.F                50:   Rmf Meas. temp.
 RMC .OHMM           3.43:   Rmc
 MCST.F                50:   Rmc Meas. temp.
 MFSS.               MEAS:   Source Rmf.
 MCSS.               MEAS:   Source Rmc.
 RMB .OHMM           1.21:   Rm. at BHT
 BHT .F               118:   BHT.
 TCS .HRS               5:   Time Circ. stopped
 MRT .F               118:   Maximum recorded temp.
 LUN .               1892:   Logging unit number
 LUL .             CASPER:   Logging unit location
 ENGI.           PERIMMER:   Recorded By
 WITN.              SCOTT:   Witnessed by
 ORIG.           5" PRINT:   Origin of data
 UWI .     49025108540000:   Unique Well ID
 DICO. A2D TECHNOLOGIES, INC.:   Digitizing Company
~OTHER INFORMATION
~A  DEPT        GRD        CALD       RHOB       DRHO      SPR       SGRD        ILM        ILD   
 2676.0000    62.7730     6.7140     2.4550     0.2520  -999.2500  -999.2500  -999.2500  -999.2500
 2676.5000    62.3630     6.4380     2.4590     0.2460  -999.2500  -999.2500  -999.2500  -999.2500
 2677.0000    61.8210     6.5730     2.4610     0.2320  -999.2500  -999.2500  -999.2500  -999.2500
 2677.5000    61.2820     6.7080     2.4650     0.2180  -999.2500  -999.2500  -999.2500  -999.2500
 2678.0000    62.4240     6.8100     2.4610     0.2110  -999.2500  -999.2500  -999.2500  -999.2500
 2678.5000    63.7070     6.9020     2.5090     0.2920  -999.2500  -999.2500  -999.2500  -999.2500
 2679.0000    63.6480     6.9910     2.4640     0.3800  -999.2500  -999.2500  -999.2500  -999.2500
 2679.5000    64.4900     7.0800     2.3820     0.5000  -999.2500  -999.2500  -999.2500  -999.2500
 2680.0000    65.5320     7.2620     2.2990     0.0790  -999.2500  -999.2500  -999.2500  -999.2500
 2680.5000    67.9220     7.5700     2.2010     0.1400  -999.2500  -999.2500  -999.2500  -999.2500
 2681.0000    70.3160     7.9370     2.2220     0.2100  -999.2500  -999.2500  -999.2500  -999.2500
 2681.5000    72.7010     8.2950     2.1650     0.1990  -999.2500  -999.2500  -999.2500  -999.2500
 2682.0000    74.5240     8.8270     2.1850     0.1920  -999.2500  -999.2500     7.7670  -999.2500
 2682.5000    74.7860     9.4420     2.2090     0.2070  -999.2500  -999.2500     7.7670  -999.2500
 2683.0000    74.6290    10.0690     2.2210     0.2060  -999.2500  -999.2500     7.7670  -999.2500
 2683.5000    73.2630    10.3530     2.2290     0.2040  -999.2500  -999.2500     7.7750  -999.2500
 2684.0000    71.9400    10.6300     2.2450     0.2160  -999.2500  -999.2500     7.7670  -999.2500
 2684.5000    70.2650    10.9050     2.2610     0.2240  -999.2500  -999.2500     7.7670  -999.2500
 2685.0000    67.9440    11.1760     2.2740     0.2300  -999.2500  -999.2500     7.7670  -999.2500
 2685.5000    65.6340    11.3940     2.2760     0.2400  -999.2500  -999.2500     7.7660  -999.2500
 2686.0000    63.3270    11.6180     2.2770     0.2420  -999.2500  -999.2500     7.7670  -999.2500
 2686.5000    61.1110    11.9170     2.2780     0.2490  -999.2500  -999.2500     7.7670  -999.2500
 2687.0000    59.2720    12.3150     2.2760     0.2550  -999.2500  -999.2500     8.0610  -999.2500
 2687.5000    56.6760    12.7410     2.2640     0.2550  -999.2500    10.9050     8.7830  -999.2500
 2688.0000    51.4110    13.7760     2.2520     0.2400   -37.1740    11.6110     8.5740  -999.2500
 2688.5000    46.2180  -999.2500     2.2690     0.2130   -30.2790    12.0690     9.5060  -999.2500
 2689.0000    41.0400  -999.2500     2.2580     0.2000   -23.3270    11.1120    11.1120  -999.2500
 2689.5000    35.9010  -999.2500     2.3120     0.1830   -22.7550    12.0940    10.4200  -999.2500
 2690.0000    34.6660  -999.2500     2.3920     0.1830   -22.0370    34.4740    12.4060  -999.2500
 2690.5000    33.7980  -999.2500     2.3390     0.1980   -21.0580    44.0990    13.6900  -999.2500
 2691.0000    33.4550  -999.2500     2.2860     0.1900   -20.3550    52.6810    14.4030  -999.2500
 2691.5000    32.9720  -999.2500     2.2340     0.1890   -20.3500    61.8810    15.1150  -999.2500
 2692.0000    31.8780  -999.2500     2.1990     0.1710   -19.9840    50.0330    15.1840  -999.2500
 2692.5000    30.9650  -999.2500     2.2070     0.1530   -19.5520    41.5030    15.5600  -999.2500
 2693.0000    32.5520  -999.2500     2.2130     0.1300   -19.0670    45.2280    16.3110  -999.2500
 2693.5000    34.1690  -999.2500     2.2020     0.1010   -18.5820    51.5270    17.0620  -999.2500
 2694.0000    35.6150  -999.2500     2.3120     0.0740   -18.1030    57.7080    17.9130  -999.2500
 2694.5000    35.5410    12.6760     2.3970     0.1060   -18.0690    63.6140    17.3470  -999.2500
 2695.0000    35.4300    12.0960     2.3810     0.0940   -19.3420    65.3860    17.0120  -999.2500
 2695.5000    34.9760    11.7760     2.3660     0.0880   -20.3930    43.6530    16.7980  -999.2500
 2696.0000    32.6480    11.4890     2.3510     0.1020   -20.2960    48.7380    17.1430  -999.2500
 2696.5000    32.2250    11.2550     2.3360     0.1010   -20.2270    73.6770    17.5870  -999.2500
 2697.0000    31.7740    11.0350     2.3210     0.1000   -19.7000    83.0190    17.8310  -999.2500
 2697.5000    31.7500    10.8680     2.3070     0.0990   -19.5610    79.9530    18.0780  -999.2500
 2698.0000    31.7780    10.7160     2.3060     0.1010   -19.7670    75.3890    18.2450  -999.2500
 2698.5000    33.5450    10.5640     2.3100     0.0780   -19.4200    73.6770    17.5870  -999.2500
 2699.0000    35.3850    10.4240     2.3090     0.0680   -19.4090    72.0050    17.9860  -999.2500
 2699.5000    37.3180    10.2280     2.3040     0.0610   -19.6870    71.0200    18.0780  -999.2500
 2700.0000    37.9130    10.0420     2.2980     0.0560   -19.7400    72.2280    18.0780  -999.2500
 2700.5000    38.4610     9.7780     2.2970     0.0610   -19.3690    73.0030    17.7810  -999.2500
 2701.0000    39.0050     9.5260     2.2950     0.0670   -19.2250    72.3360    17.4510  -999.2500
 2701.5000    39.5510     9.2700     2.2880     0.0750   -19.4180    70.0750    16.9530  -999.2500
 2702.0000    40.0980     9.1970     2.2740     0.0780   -19.5760    64.6450    17.1980  -999.2500
 2702.5000    40.6450     9.1360     2.2610     0.1020   -19.3530    60.2000    17.7490  -999.2500
 2703.0000    41.1920     9.0980     2.2500     0.1060   -19.8810    53.7180    17.2670  -999.2500
 2703.5000    41.7400     9.0300     2.2470     0.1200   -20.1180    49.1880    16.6440  -999.2500
 2704.0000    42.2950     8.9540     2.2500     0.1350   -20.2870    49.6420    16.1920  -999.2500
 2704.5000    42.3450     8.8790     2.2480     0.1420   -20.3780    47.4140    16.0440  -999.2500
 2705.0000    42.1070     8.8120     2.2460     0.1270   -20.6410    46.6880    16.0440  -999.2500
 2705.5000    41.8660     8.7460     2.2450     0.0990   -20.9360    44.8730    15.4460  -999.2500
 2706.0000    41.6190     8.7240     2.2700     0.0920   -21.2380    41.3700    15.0450  -999.2500
 2706.5000    42.1810     8.7310     2.2800     0.1090   -21.5950    47.7110    15.3240  -999.2500
 2707.0000    43.0370     8.7380     2.2770     0.1100   -21.9380    41.6940    15.4660  -999.2500
 2707.5000    43.9080     8.7570     2.2710     0.1010   -22.1240    44.8720    15.3750  -999.2500
 2708.0000    45.3120     8.7400     2.2780     0.0940   -22.3590    42.2480    15.4340  -999.2500
 2708.5000    45.7110     8.6980     2.2900     0.0980   -22.7470    38.3870    15.4660  -999.2500
 2709.0000    45.8530     8.6430     2.2960     0.0950   -23.1140    38.3870    14.9770  -999.2500
 2709.5000    46.7000     8.5500     2.2930     0.0970   -23.4860    36.7300    14.5180  -999.2500
 2710.0000    47.0050     8.4540     2.3230     0.0920   -23.7640    34.3810    14.0600  -999.2500
 2710.5000    46.3430     8.3580     2.3130     0.0790   -24.0910    33.4470    13.6010  -999.2500
 2711.0000    46.3860     8.2610     2.3050     0.0670   -24.3960    31.2330    13.3520  -999.2500
 2711.5000    46.7950     8.2250     2.3110     0.0660   -25.0060    28.0920    13.2450  -999.2500
 2712.0000    47.2150     8.2240     2.3210     0.0650   -25.2950    29.9570    13.1390  -999.2500
 2712.5000    47.6350     8.2340     2.3190     0.0610   -25.5100    29.6840    12.7640  -999.2500
 2713.0000    48.1350     8.2470     2.3210     0.0610   -25.5030    28.8770    12.4180  -999.2500
 2713.5000    49.3760     8.2920     2.3280     0.0550   -26.0020    27.6270    12.0720  -999.2500
 2714.0000    51.3550     8.3370     2.3260     0.0660   -26.3540    22.5570    11.7260  -999.2500
 2714.5000    52.5450     8.3820     2.3190     0.0640   -26.9000    20.1510    11.3810  -999.2500
 2715.0000    52.9510     8.4060     2.3120     0.0610   -27.0210    19.2790    11.0350  -999.2500
 2715.5000    53.3610     8.4150     2.3060     0.0600   -27.2160    18.4140    10.4200  -999.2500
 2716.0000    53.7670     8.4250     2.3400     0.0790   -27.4980    17.9130    10.5160    24.7990
