~VERSION INFORMATION
 VERS.                2.0:   CWLS LOG ASCII STANDARD - VERSION 2.0
 WRAP.                 NO:   ONE LINE PER DEPTH STEP
~WELL INFORMATION
#MNEM.UNIT      DATA TYPE    INFORMATION
#----------   ------------   ------------------------------
 STRT.F         1053.5000:   START DEPTH
 STOP.F         3062.0000:   STOP DEPTH
 STEP.F            0.5000:   STEP LENGTH
 NULL.          -999.2500:   NO VALUE
 COMP.    FENIX & SCISSON:   COMPANY
 WELL.  FENIX "A" #301-11:   WELL
 FLD .              NPR-3:   FIELD
 LOC .      S11 T38N R78W:   LOCATION
 CNTY.            NATRONA:   COUNTY
 STAT.            WYOMING:   STATE
 CTRY. UNITED STATES OF AMERICA:   COUNTRY
 SRVC.      NL MCCULLOUGH:   SERVICE COMPANY
 DATE.        13-OCT-1977:   LOGDATE
 API .     49025104410000:   API NUMBER
~CURVE INFORMATION
#MNEM.UNIT       API CODE    CURVE DESCRIPTION
#----------   ------------   ------------------------------
 DEPT.F                  :   
 GR  .GAPI   35 310 01 00:   GAMMA RAY
 NEUT.NAPI   35 330 01 00:   NEUTRON
~PARAMETER INFORMATION
#MNEM.UNIT          VALUE    DESCRIPTION
#----------   ------------   ------------------------------
 EDF .F         5165.0000:   Drilling floor
 TD  .F         3097.0000:   Total depth
 CLNT.            A2DTECH:   Client Code
 PD  .                 DF:   Permanent Datum
 EPD .F              5165:   Elevation Permanent Datum
 LMF .                 GL:   Log Measured From
 DMF .                 DF:   Drilling Measured From
 DATE.        13-OCT-1977:   Date Logged [DD-MMM-YYYY]
 DD  .F              3097:   Depth driller
 BLI .F              3060:   Bottom log interval
 TLI .F              1060:   Top log interval
 BSD1.F              3097:   Depth drilled with bit1
 DFT .              WATER:   Type fluid in hole
 ENGI.            MUNDELL:   Recorded By
 ORIG.           5" PRINT:   Origin of data
 UWI .     49025104410000:   Unique Well ID
 DICO. A2D TECHNOLOGIES, INC.:   Digitizing Company
~OTHER INFORMATION
~A  DEPT         GR      NEUT   
# ...
 1175.0000    45.6305   160.0722
 1175.5000    45.7630   161.7344
 1176.0000    45.6078   172.8766
 1176.5000    45.2955   176.2118
 1177.0000    44.9836   167.2760
 1177.5000    45.4556   166.1499
 1178.0000    44.6527   170.6004
 1178.5000    43.7348   174.4959
 1179.0000    46.0874   175.5978
 1179.5000    47.3426   177.3119
 1180.0000    45.6203   180.5924
 1180.5000    44.2113   180.5817
 1181.0000    44.5263   171.0909
 1181.5000    44.8412   166.0613
 1182.0000    42.3356   163.8200
 1182.5000    40.2998   164.3670
 1183.0000    39.2040   166.0291
 1183.5000    40.7730   168.2490
 1184.0000    42.9686   167.1202
 1184.5000    44.3805   168.2275
 1185.0000    44.7218   162.6376
 1185.5000    46.4212   149.2433
 1186.0000    48.4601   150.3478
 1186.5000    49.4019   148.1038
 1187.0000    50.5004   148.6507
 1187.5000    50.9720   153.1012
 1188.0000    51.7781   158.6669
 1188.5000    53.0128   165.9083
 1189.0000    53.7979   164.7795
 1189.5000    54.4262   165.5795
 1190.0000    55.0546   180.9272
 1190.5000    55.5263   183.7047
 1191.0000    55.5278   169.1951
 1191.5000    55.0407   166.9538
 1192.0000    54.2774   167.5007
 1192.5000    53.8084   168.0476
 1193.0000    53.6536   165.8035
 1193.5000    52.0879   164.6775
 1194.0000    52.4029   165.7847
 1194.5000    53.0313   161.8678
 1195.0000    53.0329   162.4174
 1195.5000    53.6615   164.6345
 1196.0000    54.2895   174.2817
 1196.5000    53.1940   176.8813
 1197.0000    53.8228   164.0420
 1197.5000    53.6676   172.3960
 1198.0000    51.3183   180.7500
 1198.5000    52.4172   185.2007
 1199.0000    52.5751   184.6025
 1199.5000    51.9501   183.5033
 1200.0000    51.3244   188.5114
 1200.5000    50.8783   190.7339
 1201.0000    51.5099   177.8946
 1201.5000    52.1407   175.6559
 1202.0000    53.3994   199.0638
 1202.5000    52.7355   206.9153
 1203.0000    51.8367   207.9647
 1203.5000    51.5250   207.3936
 1204.0000    52.3128   202.9216
 1204.5000    51.0610   203.4712
 1205.0000    50.9070   206.8037
 1205.5000    52.7935   210.1614
 1206.0000    53.4244   212.3587
 1206.5000    54.0559   203.4233
 1207.0000    55.4715   199.5117
 1207.5000    56.1023   203.4018
 1208.0000    56.8901   204.0013
 1208.5000    57.0501   202.2648
 1209.0000    56.5771   201.1362
 1209.5000    55.9575   197.2218
 1210.0000    56.7460   191.6346
 1210.5000    56.4351   183.2591
 1211.0000    56.5951   178.2295
 1211.5000    57.0690   176.5457
 1212.0000    56.6011   185.5013
 1212.5000    55.3355   189.9077
 1213.0000    54.0960   189.8943
 1213.5000    54.7276   190.9988
 1214.0000    52.2194   194.3366
 1214.5000    49.7112   178.7090
 1215.0000    49.6359   168.6605
 1215.5000    50.9729   169.7786
 1216.0000    50.4844   184.4163
 1216.5000    50.0372   187.5883
 1217.0000    51.9244   188.1324
 1217.5000    52.0844   189.7946
 1218.0000    52.0874   190.8991
 1218.5000    52.2474   190.9740
 1219.0000    52.8782   177.4940
 1219.5000    53.5098   171.7654
 1220.0000    54.1399   169.1050
 1220.5000    51.6325   167.4213
 1221.0000    50.0660   167.4105
 1221.5000    48.9703   168.5151
 1222.0000    48.3456   180.2149
 1222.5000    47.8777   176.8582
 1223.0000    46.6259   169.5977
 1223.5000    45.6872   169.5846
 1224.0000    44.4347   172.9224
 1224.5000    43.6529   162.8712
 1225.0000    43.0281   145.5733
 1225.5000    44.7576   139.4284
 1226.0000    46.6862   155.0318
 1226.5000    48.0604   158.3669
 1227.0000    49.1621   155.0076
 1227.5000    49.9499   158.3427
 1228.0000    50.4237   170.6002
 1228.5000    47.6017   173.9380
 1229.0000    45.7161   175.0425
 1229.5000    45.0973   177.2596
 1230.0000    44.6294   181.7842
 1230.5000    45.4172   185.0425
 1231.0000    46.3619   190.6082
 1231.5000    46.5219   189.4821
 1232.0000    46.8388   179.9913
 1232.5000    47.7967   177.1923
 1233.0000    47.9435   176.0662
 1233.5000    46.6917   175.4978
 1234.0000    45.7530   181.6185
 1234.5000    46.0700   182.7257
 1235.0000    45.4452   181.5969
 1235.5000    44.5065   174.8943
 1236.0000    44.1956   173.7710
 1236.5000    44.8272   188.2564
 1237.0000    44.8302   202.7884
 1237.5000    44.9902   210.2618
 1238.0000    45.6203   220.5650
 1238.5000    42.4851   217.7659
 1239.0000    40.9081   204.9293
 1239.5000    42.4919   202.1302
 1240.0000    45.0061   191.5241
 1240.5000    44.8522   185.9369
 1241.0000    42.8148   185.6804
 1241.5000    40.3067   163.6067
 1242.0000    39.9853   162.4806
 1242.5000    39.9989   164.7004
 1243.0000    40.4734   163.5743
 1243.5000    42.9877   157.9871
 1244.0000    45.0311   164.1104
 1244.5000    45.5050   174.1373
 1245.0000    45.8219   164.0862
 1245.5000    46.1388   165.1907
 1246.0000    46.4766   187.4859
 1246.5000    46.7734   191.3787
 1247.0000    46.3056   193.6012
 1247.5000    44.7391   193.5877
 1248.0000    43.0157   189.0557
 1248.5000    43.1756   186.3140
 1249.0000    43.6546   185.7456
 1249.5000    43.9665   184.6195
 1250.0000    43.0285   183.4935
 1250.5000    43.8163   184.0430
 1251.0000    42.4068   183.4719
 1251.5000    41.3104   177.7391
 1252.0000    42.5698   172.2947
 1252.5000    47.1505   178.9757
 1253.0000    47.5990   182.3135
 1253.5000    48.7007   175.6082
 1254.0000    51.2149   172.8092
 1254.5000    51.6888   173.3561
 1255.0000    52.0057   173.9030
 1255.5000    48.0850   172.2166
 1256.0000    47.1254   172.7634
 1256.5000    47.4640   176.0985
 1257.0000    50.5838   182.2246
 1257.5000    51.2131   179.4229
 1258.0000    51.2146   179.3605
 1258.5000    51.8439   181.1001
 1259.0000    52.0028   182.1788
 1259.5000    51.3765   177.7041
 1260.0000    49.3376   178.2537
 1260.5000    49.3391   176.5673
 1261.0000    48.2420   170.9800
 1261.5000    45.5754   167.0657
 1262.0000    45.6270   171.2036
 1262.5000    47.4622   177.9179
 1263.0000    48.2481   175.6873
 1263.5000    46.9943   175.6873
 1264.0000    47.4667   179.0332
 1264.5000    48.0960   173.4567
 1265.0000    49.0392   170.1108
 1265.5000    49.5289   171.2261
 1266.0000    49.3562   169.7533
 1266.5000    48.8868   163.9766
 1267.0000    49.0457   162.3037
 1267.5000    49.9889   166.2072
 1268.0000    50.9321   168.9955
 1268.5000    51.8753   166.7649
 1269.0000    51.8769   172.3414
 1269.5000    51.8788   172.3414
 1270.0000    52.6650   168.9955
 1270.5000    53.6082   167.8802
 1271.0000    52.8250   167.8802
 1271.5000    51.5709   169.5531
 1272.0000    47.6487   175.6873
 1272.5000    46.8654   181.8214
 1273.0000    47.0239   182.3790
 1273.5000    46.5546   182.3790
 1274.0000    47.1843   193.5320
 1274.5000    46.5580   196.8779
 1275.0000    45.1469   199.1085
 1275.5000    44.9878   185.7249
 1276.0000    46.7573   171.2261
 1276.5000    48.2909   174.5720
 1277.0000    46.8798   178.4755
 1277.5000    44.8410   177.9179
 1278.0000    43.1160   183.4944
 1278.5000    42.0189   184.6096
 1279.0000    40.9218   191.8591
 1279.5000    39.9816   199.1085
 1280.0000    40.6113   200.2238
 1280.5000    41.2406   200.2238
 1281.0000    41.0848   193.9902
 1281.5000    41.8714   176.2449
 1282.0000    44.5411   176.8026
 1282.5000    47.0538   182.3790
 1283.0000    45.6230   177.9179
 1283.5000    45.4873   174.5720
 1284.0000    47.6865   174.5720
 1284.5000    50.5132   181.8214
 1285.0000    51.4564   184.6096
 1285.5000    51.3009   182.9367
 1286.0000    50.9886   181.8214
 1286.5000    50.8331   182.3790
 1287.0000    50.8350   189.0708
 1287.5000    52.0922   185.7249
 1288.0000    54.4479   186.8402
 1288.5000    53.3508   191.3239
 1289.0000    52.8814   195.7626
 1289.5000    54.2955   196.8779
 1290.0000    57.0071   206.9156
 1290.5000    55.8684   209.1462
 1291.0000    53.8296   209.1462
 1291.5000    53.2029   210.2615
 1292.0000    53.0475   211.3768
 1292.5000    53.3633   213.6074
 1293.0000    53.0509   213.6074
 1293.5000    53.2094   209.1462
 1294.0000    53.6817   196.3203
 1294.5000    52.2711   196.3203
 1295.0000    51.4875   184.6096
 1295.5000    52.1172   174.5720
 1296.0000    52.7465   174.5720
