~VERSION INFORMATION
 VERS.                2.0:   CWLS LOG ASCII STANDARD - VERSION 2.0
 WRAP.                 NO:   ONE LINE PER DEPTH STEP
~WELL INFORMATION
#MNEM.UNIT      DATA TYPE    INFORMATION
#----------   ------------   ------------------------------
 STRT.F          180.0000:   START DEPTH
 STOP.F         3044.0000:   STOP DEPTH
 STEP.F            0.5000:   STEP LENGTH
 NULL.          -999.2500:   NO VALUE
 COMP.    FENIX & SCISSON:   COMPANY
 WELL.   FENIX "A" #55-29:   WELL
 FLD .           N P R #3:   FIELD
 LOC .      S29 T39N R78W:   LOCATION
 CNTY.            NATRONA:   COUNTY
 STAT.            WYOMING:   STATE
 CTRY. UNITED STATES OF AMERICA:   COUNTRY
 SRVC.              WELEX:   SERVICE COMPANY
 DATE.        21-JUL-1977:   LOGDATE
 API .     49025104020000:   API NUMBER
~CURVE INFORMATION
#MNEM.UNIT       API CODE    CURVE DESCRIPTION
#----------   ------------   ------------------------------
 DEPT.F                  :   
 CALD.IN     45 280 60 00:   CALIPER FROM DENSITY LOG
 RHOB.G/C3   45 350 01 00:   BULK DENSITY
 CORR.G/C3   45 356 01 00:   DENSITY CORRECTION
 GRD .GAPI   45 310 01 00:   GAMMA RAY FROM DENSITY LOG
 SPR .MV     07 010 01 00:   SPONTANEOUS POTENTIAL
 ILD .OHMM   07 120 46 00:   DEEP INDUCTION RESISTIVITY
 ILM .OHMM   07 120 44 00:   INDUCTION LOG MEDIUM RESISTIVITY
 SGRD.OHMM   07 220 05 00:   SHALLOW SHORT GUARD RESISTIVITY
~PARAMETER INFORMATION
#MNEM.UNIT          VALUE    DESCRIPTION
#----------   ------------   ------------------------------
 EKB .F         4995.0000:   Kelly bushing
 EGL .F         4985.0000:   Ground level
 EDF .F            0.0000:   Drilling floor
 EPD .F         4985.0000:   Permanent datum
 TD  .F         3045.0000:   Total depth
 DATE.        21-JUL-1977:   Date logged
 CLNT.            A2DTECH:   Client Code
 SL  . 2310' FSL & 2310' FEL:   Surface Location
 PD  .                 GL:   Permanent Datum
 DD  .F              3045:   Depth driller
 DL  .F              3045:   Depth logger
 BLI .F              3043:   Bottom log interval
 CS1 .IN            8.625:   Casing size
 CBD1.      8.625" @ 230':   Casing driller 1
 CBL1.F               216:   Casing logger 1
 BS1 .IN            7.875:   Bit size
 DFT .            KCL-MUD:   Type fluid in hole
 DFD .                8.8:   Density
 DFV .                 45:   Viscosity
 DFPH.                7.5:   pH
 DFL .                8.4:   Fluid loss
 MSS .           FLOWLINE:   Source of sample
 RMS .OHMM            .45:   Rm
 MST .F                86:   Rm Meas. temp.
 RMF .OHMM            .33:   Rmf
 MFST.F                86:   Rmf Meas. temp.
 RMC .OHMM            .72:   Rmc
 MCST.F                86:   Rmc Meas. temp.
 MFSS.               MEAS:   Source Rmf.
 RMB .OHMM            .30:   Rm. at BHT
 BHT .F               127:   BHT.
 TCS .HRS             2.5:   Time Circ. stopped
 MRT .F               127:   Maximum recorded temp.
 LUN .               8611:   Logging unit number
 LUL .             CASPER:   Logging unit location
 ENGI.            C. DOAK:   Recorded By
 WITN.      W. PETTINGILL:   Witnessed by
 ORIG.           5" PRINT:   Origin of data
 UWI .     49025104020000:   Unique Well ID
 DICO. A2D TECHNOLOGIES, INC.:   Digitizing Company
 DAPD.                 10:   Feet Above Permanent Datum
 BSD1.               3045:   Depth drilled with bit1
 MCSS.               MEAS:   Source Rmc.
 LMF .                 KB:   Log Measured From
 DMF .                 KB:   Drilling Measured From
 TLI .                200:   Top log interval
~OTHER INFORMATION
~A   DEPT       CALD     RHOB       CORR         GRD       SPR        ILD        ILM       SGRD   
# ...
 1881.0000     8.6980     2.4950     0.0110   117.9000   -69.9200     9.2660    11.6100    19.2800
 1881.5000     8.7190     2.4960     0.0150   118.4750   -69.8920     9.3470    11.7090    18.6860
 1882.0000     8.7180     2.5030     0.0180   119.1170   -69.8640     9.3470    11.7850    18.4170
 1882.5000     8.7010     2.5000     0.0210   119.7730   -69.8360     9.4030    11.8610    19.3940
 1883.0000     8.6780     2.4970     0.0230   120.4310   -69.8080     9.4580    11.9370    19.1520
 1883.5000     8.6550     2.4990     0.0230   121.7430   -69.7810     9.5120    12.0130    18.6670
 1884.0000     8.6330     2.5020     0.0210   123.7010   -69.7530     9.5660    12.0890    18.5860
 1884.5000     8.6130     2.5070     0.0190   125.4860   -69.7250     9.6080    12.1650    18.8890
 1885.0000     8.5930     2.5080     0.0180   127.2600   -69.6970     9.5680    12.1930    19.0950
 1885.5000     8.5740     2.5090     0.0160   126.1170   -69.6700     9.5350    11.9670    19.3010
 1886.0000     8.5540     2.5080     0.0130   122.2250   -69.6420     9.5030    11.7840    19.4580
 1886.5000     8.5360     2.5050     0.0110   118.4530   -69.6140     9.4710    11.6470    19.2190
 1887.0000     8.5200     2.4990     0.0090   115.5890   -69.5860     9.4380    11.6040    18.9680
 1887.5000     8.5050     2.4850     0.0060   115.8810   -69.5590     9.4180    11.5400    15.7600
 1888.0000     8.5010     2.4800     0.0060   115.7720   -69.5310     9.3570    11.5670    16.7350
 1888.5000     8.5230     2.4840     0.0080   114.5710   -69.5030     9.2950    11.6270    18.2460
 1889.0000     8.5400     2.4920     0.0100   113.6170   -69.4750     9.2620    11.6860    18.9300
 1889.5000     8.5390     2.4990     0.0110   114.3260   -69.4440     9.2920    11.7460    18.9910
 1890.0000     8.5160     2.5060     0.0130   116.6460   -69.4200     9.3390    11.6710    19.0500
 1890.5000     8.4930     2.5130     0.0150   116.3850   -69.1890     9.3850    11.5400    19.1040
 1891.0000     8.4690     2.5160     0.0160   116.0930   -69.2260     9.4310    11.5970    19.2800
 1891.5000     8.4610     2.5160     0.0180   118.2250   -69.2480     9.4780    11.6830    16.0510
 1892.0000     8.4610     2.5170     0.0210   120.0740   -69.2660     9.5240    11.7690    16.8910
 1892.5000     8.4600     2.5170     0.0240   119.1480   -69.2850     9.5700    11.8550    19.2800
 1893.0000     8.4600     2.5140     0.0270   120.3330   -69.3030     9.6160    11.9420    19.2460
 1893.5000     8.4600     2.5080     0.0300   121.6660   -69.3220     9.6630    12.0280    19.1960
 1894.0000     8.4570     2.5060     0.0330   121.9330   -69.3410     9.6960    12.1140    19.1460
 1894.5000     8.4510     2.5110     0.0340   121.8590   -69.3590     9.6110    12.1930    19.0960
 1895.0000     8.4450     2.5150     0.0350   120.9200   -69.3780     9.5450    12.1550    19.0460
 1895.5000     8.4400     2.5190     0.0330   119.6460   -69.3970     9.4780    12.0990    18.9960
 1896.0000     8.4380     2.5210     0.0290   119.0820   -69.4150     9.4110    11.9710    18.9460
 1896.5000     8.4350     2.5220     0.0240   119.0000   -69.4340     9.3450    11.7070    18.4260
 1897.0000     8.4330     2.5190     0.0210   116.4680   -69.4530     9.2780    11.4350    17.7540
 1897.5000     8.4310     2.5110     0.0200   114.4250   -69.4710     9.2110    11.4350    16.0510
 1898.0000     8.4280     2.5030     0.0190   114.4230   -69.4900     9.1770    11.6470    17.1060
 1898.5000     8.4260     2.4940     0.0190   114.4310   -69.5090     9.1770    11.7070    18.2910
 1899.0000     8.4230     2.4900     0.0200   114.3940   -69.5270     9.2320    11.7750    18.5980
 1899.5000     8.4210     2.4870     0.0200   116.0050   -69.5460     9.2930    11.8430    18.8000
 1900.0000     8.4210     2.4840     0.0210   117.1880   -69.5650     9.3550    11.9100    19.1040
 1900.5000     8.4210     2.4840     0.0210   115.5720   -69.5840     9.4160    11.9710    18.9450
 1901.0000     8.4210     2.4830     0.0190   115.3450   -69.6030     9.4770    12.0820    18.6260
 1901.5000     8.4210     2.4870     0.0160   119.0620   -69.6220     9.5200    12.0340    18.3080
 1902.0000     8.4210     2.4890     0.0130   122.3270   -69.6420     9.4010    11.9980    18.0820
 1902.5000     8.4210     2.4840     0.0100   120.9950   -69.6620     9.3100    11.9610    18.3780
 1903.0000     8.4250     2.4810     0.0060   118.0320   -69.6820     9.2180    11.9250    18.7570
 1903.5000     8.4330     2.4790     0.0030   116.1130   -69.7020     9.1260    11.8880    18.5470
 1904.0000     8.4420     2.4800     0.0050   119.3060   -69.7220     9.0340    11.8620    18.1160
 1904.5000     8.4500     2.4800     0.0070   119.5650   -69.7420     8.9430    11.8040    17.6840
 1905.0000     8.4590     2.4780     0.0080   118.7880   -69.7610     8.8510    11.5990    17.1150
 1905.5000     8.4670     2.4770     0.0100   119.1250   -69.7810     8.7660    11.3930    17.2340
 1906.0000     8.4760     2.4680     0.0120   121.0880   -69.8010     8.7660    11.1880    17.4090
 1906.5000     8.4810     2.4700     0.0130   124.4080   -69.8210     8.8240    10.9820    17.4310
 1907.0000     8.4830     2.4750     0.0140   123.4730   -69.8410     8.8690    10.7770    16.8570
 1907.5000     8.4850     2.4800     0.0150   121.2450   -69.8610     8.9140    10.6270    16.4070
 1908.0000     8.4870     2.4850     0.0170   119.2160   -69.8810     8.9590    10.5080    16.3480
 1908.5000     8.4890     2.4910     0.0180   119.1600   -69.9010     9.0040    10.2540    16.7920
 1909.0000     8.4900     2.4960     0.0200   119.1690   -69.9210     9.0490    10.0010    17.2080
 1909.5000     8.4920     2.5020     0.0210   119.1720   -69.9410     9.0940     9.9550    17.4310
 1910.0000     8.4940     2.5010     0.0230   119.3000   -69.9610     9.1390     9.9120    17.2450
 1910.5000     8.4960     2.5040     0.0270   119.6120   -69.9810     9.1840     9.8680    17.1150
 1911.0000     8.4980     2.5080     0.0310   119.9250   -70.0010     9.2290     9.8250    17.2560
 1911.5000     8.5000     2.5070     0.0350   120.2460   -70.0210     9.2730     9.7810    17.7040
 1912.0000     8.4980     2.5120     0.0330   121.1900   -70.0410     9.3180     9.7380    18.0820
 1912.5000     8.4960     2.5190     0.0310   123.2910   -70.0600     9.3630     9.6960    17.9420
 1913.0000     8.4930     2.5260     0.0290   125.3780   -70.0800     9.4080     9.7400    17.8570
 1913.5000     8.4910     2.5250     0.0270   127.4060   -70.1000     9.4330     9.7820    17.6140
 1914.0000     8.4880     2.5190     0.0260   126.6570   -70.1200     9.3940     9.8240    17.4310
 1914.5000     8.4860     2.5070     0.0300   123.9800   -70.1400     9.3560     9.8660    17.5920
 1915.0000     8.4830     2.5080     0.0330   121.2460   -70.1600     9.3190     9.9080    17.5050
 1915.5000     8.4810     2.5090     0.0300   118.5250   -70.1800     9.2810     9.9500    17.3070
 1916.0000     8.4830     2.5050     0.0270   116.5100   -70.1970     9.2430     9.9920    17.1100
 1916.5000     8.4860     2.5010     0.0250   117.1330   -70.1790     9.2060    10.0340    16.9590
 1917.0000     8.4890     2.5020     0.0300   120.2970   -70.1610     9.1680    10.0590    16.9590
 1917.5000     8.4920     2.5050     0.0300   123.3930   -70.1430     9.1300    10.0430    16.9590
 1918.0000     8.4950     2.5100     0.0280   122.1440   -70.1260     9.0930    10.0300    17.6220
 1918.5000     8.4990     2.5100     0.0260   119.3870   -70.1080     9.0550    10.0170    18.2490
 1919.0000     8.5000     2.5070     0.0250   117.4400   -70.0900     9.0170    10.0050    18.4170
 1919.5000     8.5000     2.5040     0.0260   117.3780   -70.0720     8.9840     9.9920    18.0190
 1920.0000     8.5000     2.5070     0.0260   118.7090   -70.0550     8.9220     9.9800    16.8040
 1920.5000     8.5000     2.5130     0.0260   120.3400   -70.0370     8.8600     9.9680    17.1920
 1921.0000     8.5000     2.5190     0.0270   123.0290   -70.0190     8.7980    10.1400    17.9170
