~VERSION INFORMATION
 VERS.                2.0:   CWLS LOG ASCII STANDARD - VERSION 2.0
 WRAP.                 NO:   ONE LINE PER DEPTH STEP
~WELL INFORMATION
#MNEM.UNIT      DATA TYPE    INFORMATION
#----------   ------------   ------------------------------
 STRT.F          637.0000:   START DEPTH
 STOP.F         3158.0000:   STOP DEPTH
 STEP.F            0.5000:   STEP LENGTH
 NULL.          -999.2500:   NO VALUE
 COMP.    FENIX & SCISSON:   COMPANY
 WELL.  FENIX "AX" #34-33:   WELL
 FLD .             NPR #3:   FIELD
 LOC .      S33 T39N R78W:   LOCATION
 CNTY.            NATRONA:   COUNTY
 STAT.            WYOMING:   STATE
 CTRY. UNITED STATES OF AMERICA:   COUNTRY
 SRVC.       SCHLUMBERGER:   SERVICE COMPANY
 DATE.        15-APR-1977:   LOGDATE
 API .     49025103450000:   API NUMBER
~CURVE INFORMATION
#MNEM.UNIT       API CODE    CURVE DESCRIPTION
#----------   ------------   ------------------------------
 DEPT.F                  :   
 CALD.IN     45 280 60 00:   CALIPER FROM DENSITY LOG
 GRD .GAPI   45 310 01 00:   GAMMA RAY FROM DENSITY LOG
 RHOB.G/C3   45 350 01 00:   BULK DENSITY
 CORR.G/C3   45 356 01 00:   DENSITY CORRECTION
 SPR .MV     07 010 01 00:   SPONTANEOUS POTENTIAL
 SFLU.OHMM   07 220 01 00:   SPHERICALLY FOCUSED LOG UNAVERAGED RESISTIVITY
 ILD .OHMM   07 120 46 00:   INDUCTION LOG DEEP RESISTIVITY
 ILM .OHMM   07 120 44 00:   INDUCTION LOG MEDIUM RESISTIVITY
~PARAMETER INFORMATION
#MNEM.UNIT          VALUE    DESCRIPTION
#----------   ------------   ------------------------------
 EKB .F         5196.0000:   Kelly bushing
 EGL .F         5185.0000:   Ground level
 EDF .F            0.0000:   Drilling floor
 TD  .F         3159.0000:   Total depth
 DATE.        15-APR-1977:   Date logged
 CLNT.            A2DTECH:   Client Code
 SL  . 2132' FNL & 1750' FWL:   Surface Location
 PD  .                 GL:   Permanent Datum
 EPD .F              5185:   Elevation Permanent Datum
 LMF .                 KB:   Log Measured From
 DMF .                 KB:   Drilling Measured From
 DAPD.F                11:   Feet Above Permanent Datum
 DD  .F              3156:   Depth driller
 DL  .F              3159:   Depth logger
 BLI .F              3153:   Bottom log interval
 TLI .F               637:   Top log interval
 CS1 .IN            8.625:   Casing size
 CBD1.      8.625" @ 637':   Casing driller 1
 CBL1.F               637:   Casing logger 1
 BS1 .IN            7.875:   Bit size
 BSD1.F              3156:   Depth drilled with bit1
 DFT .                FGM:   Type fluid in hole
 DFD .                7.5:   Density
 DFV .                 35:   Viscosity
 DFPH.                8.5:   pH
 DFL .                  9:   Fluid loss
 MSS .                PIT:   Source of sample
 RMS .OHMM            .48:   Rm
 MST .F                60:   Rm Meas. temp.
 RMF .OHMM            .28:   Rmf
 MFST.F                60:   Rmf Meas. temp.
 MFSS.               MEAS:   Source Rmf.
 RMB .OHMM            .24:   Rm. at BHT
 BHT .F               120:   BHT.
 TCS .HRS            0200:   Time Circ. stopped
 MRT .F               120:   Maximum recorded temp.
 LUN .               7680:   Logging unit number
 LUL .               CSPR:   Logging unit location
 ENGI.             TAYLOR:   Recorded By
 WITN.         PETTINGILL:   Witnessed by
 ORIG.           5" PRINT:   Origin of data
 UWI .     49025103450000:   Unique Well ID
 DICO. A2D TECHNOLOGIES, INC.:   Digitizing Company
 TLAB.               0530:   Time logger at bottom
~OTHER INFORMATION
~A   DEPT       CALD      GRD       RHOB       CORR        SPR         SFLU        ILD        ILM 
# ...
 1771.0000     8.9622   110.2029     2.5812     0.0150   -69.2590     7.1516     5.7333     5.4254
 1771.5000     8.9618   110.9944     2.5862     0.0170   -69.2577     7.4202     5.7336     5.4256
 1772.0000     8.9615   112.9755     2.5751     0.0100   -69.2564     7.3524     5.7339     5.4351
 1772.5000     8.9611   110.5918     2.5681     0.0120   -69.2551     7.0870     5.7342     5.4445
 1773.0000     8.9608   109.5955     2.5571     0.0140   -69.6512     7.0873     5.7346     5.4540
 1773.5000     8.9605   109.3942     2.5641     0.0090   -69.6500     7.0877     5.7347     5.4635
 1774.0000     8.2355   111.1779     2.5881     0.0709   -69.8474     7.0880     5.7879     5.4772
 1774.5000     7.8873   109.7850     2.6141     0.1838   -69.8461     7.0883     5.7880     5.4773
 1775.0000     7.8870   112.5640     2.6280     0.1838   -70.0435     7.0886     5.8001     5.4956
 1775.5000     7.8866   114.5443     2.6300     0.1798   -70.2410     7.0890     5.8123     5.5139
 1776.0000     7.8863   113.1525     2.6340     0.1718   -70.8358     7.1548     5.8245     5.5323
 1776.5000     7.8859   113.5497     2.6240     0.1678   -70.8346     7.1552     5.8367     5.5507
 1777.0000     7.8855   109.7720     2.6070     0.1588   -71.2307     7.4238     5.8489     5.5692
 1777.5000     7.8852   109.1734     2.5850     0.1488   -71.4282     7.6319     5.8612     5.5295
 1778.0000     7.8848   107.3816     2.5660     0.1348   -71.6256     7.7028     5.8734     5.5295
 1778.5000     7.8845   109.7637     2.5880     0.1527   -72.4193     7.7032     5.8857     5.5298
 1779.0000     7.8841   111.5486     2.6109     0.1677   -73.2127     7.4938     5.8982     5.5301
 1779.5000     7.8838   113.1350     2.6019     0.1707   -73.8076     7.4255     5.7909     5.5304
 1780.0000     7.8834   111.5431     2.5769     0.1197   -74.9988     7.4258     5.7781     5.5307
 1780.5000     7.8830   112.3350     2.5470     0.1247   -75.3950     7.3581     5.7653     5.5309
 1781.0000     7.8827   113.3255     2.5699     0.1357   -75.9900     7.1581     5.7526     5.5312
 1781.5000     7.8823   112.7269     2.5849     0.1576   -76.7837     7.0929     5.7399     5.5315
 1782.0000     7.8819   110.3403     2.5899     0.1696   -78.7699     6.9001     5.7272     5.5318
 1782.5000     7.8815   107.5557     2.5999     0.1606   -79.3650     7.0285     5.7146     5.5321
 1783.0000     7.8417   106.5596     2.5849     0.1466   -80.1588     7.0289     5.7019     5.4816
 1783.5000     7.8411   106.5568     2.5838     0.1516   -80.7536     6.9648     5.6875     5.4818
 1784.0000     7.8407   105.3619     2.5718     0.1346   -81.1499     6.9651     5.6876     5.4318
 1784.5000     7.8205   105.5577     2.5998     0.1516   -80.9500     6.9654     5.6776     5.4624
 1785.0000     7.8597   107.7403     2.6128     0.1675   -80.9488     7.0301     5.6677     5.4930
 1785.5000     7.8597   107.7375     2.6068     0.1675   -80.3514     7.0305     5.6578     5.5337
 1786.0000     7.8395   105.9465     2.6058     0.1675   -78.5614     7.0958     5.6479     5.5338
 1786.5000     7.8406   101.1751     2.6117     0.1545   -78.3617     7.0312     5.6369     5.5339
 1787.0000     7.8416   100.7748     2.5798     0.1365   -76.5716     7.0965     5.6891     5.5063
 1787.5000     7.8427   104.7458     2.5728     0.1465   -74.9803     7.0968     5.6829     5.4789
 1788.0000     7.8437   105.5378     2.5697     0.1495   -73.9853     7.0971     5.6767     5.4516
 1788.5000     7.8448   109.3103     2.5787     0.1534   -71.4000     7.0325     5.6705     5.4244
 1789.0000     7.8458   109.5063     2.5837     0.1544   -70.4049     7.0328     5.6643     5.3848
 1789.5000     7.8469   106.3241     2.5837     0.1474   -69.4098     7.0331     5.6581     5.3849
 1790.0000     7.8479   105.9238     2.6117     0.1384   -68.2159     7.0984     5.6519     5.3849
 1790.5000     7.8490   105.1261     2.5707     0.1154   -67.2207     7.0988     5.6458     5.3735
 1791.0000     7.8500   106.1168     2.5707     0.1274   -67.0206     7.0991     5.7440     5.3622
 1791.5000     7.8511   106.5115     2.5647     0.1284   -66.6217     7.0994     5.7442     5.3508
 1792.0000     7.8522   106.5086     2.5586     0.1274   -65.8253     7.0997     5.6917     5.3369
 1792.5000     7.8532   104.3191     2.5476     0.1463   -65.6252     6.9706     5.6970     5.2882
 1793.0000     7.8543   104.3162     2.5346     0.1203   -65.6236     6.8438     5.7023     5.2883
 1793.5000     7.8553   104.7108     2.5536     0.1213   -65.2250     6.7814     5.7077     5.3043
 1794.0000     7.8564   106.0992     2.5926     0.1443   -65.6212     7.0360     5.7130     5.3204
 1794.5000     7.8574   106.6926     2.5975     0.1563   -66.0175     7.0365     5.7183     5.3365
 1795.0000     7.8585   108.8767     2.6035     0.1612   -66.0162     7.1017     5.7237     5.3527
 1795.5000     7.8595   110.8598     2.6115     0.1642   -66.2136     7.1020     5.7290     5.3689
 1796.0000     7.8606   112.4461     2.6235     0.1732   -66.2123     7.3011     5.7344     5.3852
 1796.5000     7.8616   112.4450     2.6025     0.1542   -66.2110     7.3690     5.7397     5.4015
 1797.0000     7.8627   113.8342     2.5745     0.1512   -66.4085     7.3693     5.7472     5.4179
 1797.5000     7.8637   117.8055     2.5625     0.1252   -66.8040     7.1033     5.7473     5.4343
 1798.0000     7.8648   118.4003     2.5835     0.1392   -66.8035     7.1036     5.7361     5.4508
 1798.5000     7.8658   117.2050     2.5865     0.1491   -66.8024     7.1696     5.7248     5.4673
 1799.0000     7.8669   116.6060     2.5934     0.1551   -66.8011     7.5770     5.7135     5.4898
 1799.5000     7.8680   116.2058     2.5974     0.1591   -66.5451     7.7180     5.7023     5.4966
 1800.0000     7.8690   116.6020     2.6124     0.1691   -66.2891     7.5777     5.6911     5.5034
 1800.5000     7.8701   111.8166     2.6052     0.1661   -66.0331     6.9754     5.6799     5.5102
 1801.0000     7.9089   110.2417     2.6014     0.1651   -65.7815     7.0399     5.6691     5.5061
 1801.5000     7.9065   110.0439     2.5904     0.1391   -65.5299     7.0399     5.6583     5.5021
 1802.0000     7.9042   109.8460     2.5754     0.1311   -65.0164     7.1050     5.6475     5.4980
 1802.5000     7.9019   110.2446     2.6044     0.1621   -65.0184     7.1050     5.6439     5.4939
 1803.0000     7.8996   111.2385     2.5884     0.1611   -64.8216     7.1050     5.6439     5.4902
 1803.5000     7.8973   109.2525     2.5684     0.1511   -64.8236     7.1050     5.7487     5.4400
 1804.0000     7.8949   107.2656     2.5614     0.1351   -64.4279     7.0399     5.7939     5.3901
 1804.5000     7.8926   105.0781     2.5704     0.1351   -64.2311     7.1050     5.8395     5.4416
 1805.0000     7.8903   108.8580     2.5584     0.1311   -64.0343     7.1050     5.8854     5.4936
 1805.5000     7.8880   110.4493     2.5564     0.1091   -63.8375     7.1707     5.9317     5.5460
 1806.0000     7.8857   111.2445     2.5624     0.1301   -64.0382     7.4395     5.9642     5.5990
 1806.5000     7.8833   109.6562     2.5754     0.1291   -63.8414     7.4395     5.9642     5.6525
 1807.0000     7.8810   106.6751     2.5994     0.1410   -64.0418     7.5083     6.0098     5.7064
 1807.5000     7.8787   103.2963     2.6054     0.1560   -64.0438     7.6477     6.0557     5.7609
 1808.0000     7.8764   101.9046     2.5934     0.1400   -63.8473     7.6477     6.1019     5.8160
 1808.5000     7.8740   102.7008     2.5884     0.1268   -63.8493     7.7898     6.1485     5.8715
 1809.0000     7.8717   104.2938     2.5884     0.1211   -64.0505     7.8618     6.1955     5.9276
 1809.5000     7.8694   105.6859     2.6043     0.1201   -64.0528     8.0078     6.2428     5.9660
 1810.0000     7.8671   106.0845     2.6053     0.1430   -64.0544     8.0078     6.3028     6.0194
 1810.5000     7.8648   108.8688     2.6003     0.1410   -63.8572     7.9345     6.3028     5.9642
 1811.0000     7.8624   109.0686     2.6023     0.1390   -63.8592     7.9345     6.2450     5.9642
