~VERSION INFORMATION
 VERS.                2.0:   CWLS LOG ASCII STANDARD - VERSION 2.0
 WRAP.                 NO:   ONE LINE PER DEPTH STEP
~WELL INFORMATION
#MNEM.UNIT      DATA TYPE    INFORMATION
#----------   ------------   ------------------------------
 STRT.F            0.5000:   START DEPTH
 STOP.F         3195.0000:   STOP DEPTH
 STEP.F            0.5000:   STEP LENGTH
 NULL.          -999.2500:   NO VALUE
 COMP.   TESORO PETROLEUM:   COMPANY
 WELL. TESORO NPR 3 "A" #15-10:   WELL
 FLD .        TEAPOT DOME:   FIELD
 LOC .      S10 T38N R78W:   LOCATION
 CNTY.            NATRONA:   COUNTY
 STAT.            WYOMING:   STATE
 CTRY. UNITED STATES OF AMERICA:   COUNTRY
 SRVC.       SCHLUMBERGER:   SERVICE COMPANY
 DATE.        03-JUL-1969:   LOGDATE
 API .     49025600130000:   API NUMBER
~CURVE INFORMATION
#MNEM.UNIT       API CODE    CURVE DESCRIPTION
#----------   ------------   ------------------------------
 DEPT.F                  :   
 SPR .MV     05 010 01 00:   SPONTANEOUS POTENTIAL FROM RES.
 ASN .OHMM   05 041 16 00:   AMPLIFIED SHORT NORMAL 16"
 ILD .OHMM   05 120 46 00:   INDUCTION LOG DEEP
 CALD.IN     45 280 60 00:   CALIPER FROM DENSITY LOG
 GRD .GAPI   45 310 01 00:   GAMMA RAY FROM DENSITY LOG
 RHOB.G/C3   45 350 01 00:   BULK DENSITY
~PARAMETER INFORMATION
#MNEM.UNIT          VALUE    DESCRIPTION
#----------   ------------   ------------------------------
 EKB .F         5250.0000:   Kelly bushing
 EGL .F         5237.0000:   Ground level
 EDF .F            0.0000:   Drilling floor
 TD  .F         3200.0000:   Total depth
 CLNT.            A2DTECH:   Client Code
 SL  . 990' FWL & 1980' FSL:   Surface Location
 PD  .                 GL:   Permanent Datum
 EPD .F              5237:   Elevation Permanent Datum
 LMF .                 KB:   Log Measured From
 DMF .                 KB:   Drilling Measured From
 DAPD.F                13:   Feet Above Permanent Datum
 DATE.        03-JUL-1969:   Date Logged [DD-MMM-YYYY]
 DD  .F              3200:   Depth driller
 DL  .F              3196:   Depth logger
 BLI .F              3195:   Bottom log interval
 TLI .F               676:   Top log interval
 CS1 .IN            10.75:   Casing size
 CBD1.      10.75" @ 675':   Casing driller 1
 CBL1.F               676:   Casing logger 1
 BS1 .IN            6.125:   Bit size
 BSD1.F              3200:   Depth drilled with bit1
 DFT .      FRESH GEL MUD:   Type fluid in hole
 DFD .                9.5:   Density
 DFV .                 46:   Viscosity
 DFPH.                9.5:   pH
 DFL .                6.4:   Fluid loss
 MSS .           FLOWLINE:   Source of sample
 RMS .OHMM           2.05:   Rm
 MST .F                76:   Rm Meas. temp.
 RMF .OHMM           1.49:   Rmf
 MFST.F                78:   Rmf Meas. temp.
 MFSS.               MEAS:   Source Rmf.
 RMB .OHMM           1.34:   Rm. at BHT
 BHT .F               116:   BHT.
 TCS .HRS               2:   Time Circ. stopped
 MRT .F               116:   Maximum recorded temp.
 LUN .               4507:   Logging unit number
 LUL .               CSPR:   Logging unit location
 ENGI.             KNOBEL:   Recorded By
 WITN.                MAY:   Witnessed by
 ORIG.        2" 5" PRINT:   Origin of data
 UWI .     49025600130000:   Unique Well ID
 DICO. A2D TECHNOLOGIES, INC.:   Digitizing Company
~OTHER INFORMATION
~A    DEPT     SPR          ASN      ILD       CALD        GRD       RHOB   
# ...
   52.5000   -54.9336     1.2294     4.9847  -999.2500  -999.2500  -999.2500
   53.0000   -56.0543     1.2444     4.9882  -999.2500  -999.2500  -999.2500
   53.5000   -57.2649     1.2594     4.9910  -999.2500  -999.2500  -999.2500
   54.0000   -58.9425     1.2744     5.2957  -999.2500  -999.2500  -999.2500
   54.5000   -59.6453     1.3043     5.5997  -999.2500  -999.2500  -999.2500
   55.0000   -59.8673     1.3343     5.9038  -999.2500  -999.2500  -999.2500
   55.5000   -60.0774     1.3793     6.2078  -999.2500  -999.2500  -999.2500
   56.0000   -60.3081     1.3793     6.4372  -999.2500  -999.2500  -999.2500
   56.5000   -60.9953     1.3793     6.5153  -999.2500  -999.2500  -999.2500
   57.0000   -61.7009     1.4093     6.6687  -999.2500  -999.2500  -999.2500
   57.5000   -62.4339     1.4393     6.7476  -999.2500  -999.2500  -999.2500
   58.0000   -63.5693     1.4993     6.8257  -999.2500  -999.2500  -999.2500
   58.5000   -64.7687     1.5442     6.8285  -999.2500  -999.2500  -999.2500
   59.0000   -65.9661     1.6042     6.8313  -999.2500  -999.2500  -999.2500
   59.5000   -67.1665     1.6342     6.5329  -999.2500  -999.2500  -999.2500
   60.0000   -68.0175     1.6042     6.0846  -999.2500  -999.2500  -999.2500
   60.5000   -68.1542     1.5442     5.5603  -999.2500  -999.2500  -999.2500
   61.0000   -67.5569     1.4843     5.1873  -999.2500  -999.2500  -999.2500
   61.5000   -66.8160     1.4083     4.7383  -999.2500  -999.2500  -999.2500
   62.0000   -66.0852     1.3193     4.4400  -999.2500  -999.2500  -999.2500
   62.5000   -65.5815     1.2894     4.2922  -999.2500  -999.2500  -999.2500
   63.0000   -65.5897     1.3411     3.8439  -999.2500  -999.2500  -999.2500
   63.5000   -65.5901     1.3432     3.6208  -999.2500  -999.2500  -999.2500
   64.0000   -65.5748     1.3302     3.5476  -999.2500  -999.2500  -999.2500
   64.5000   -65.2659     1.3027     3.3916  -999.2500  -999.2500  -999.2500
   65.0000   -64.9608     1.2596     3.1021  -999.2500  -999.2500  -999.2500
   65.5000   -64.6579     1.2316     2.8797  -999.2500  -999.2500  -999.2500
   66.0000   -64.3537     1.2035     2.7320  -999.2500  -999.2500  -999.2500
   66.5000   -64.0471     1.1459     2.6595  -999.2500  -999.2500  -999.2500
   67.0000   -64.2054     1.0876     2.5877  -999.2500  -999.2500  -999.2500
   67.5000   -64.4181     1.0596     2.5145  -999.2500  -999.2500  -999.2500
   68.0000   -64.6314     1.1226     2.3674  -999.2500  -999.2500  -999.2500
   68.5000   -64.8454     1.2756     2.4462  -999.2500  -999.2500  -999.2500
   69.0000   -65.0476     1.4888     2.5243  -999.2500  -999.2500  -999.2500
   69.5000   -64.7780     1.5221     2.6778  -999.2500  -999.2500  -999.2500
   70.0000   -63.4175     1.2221     3.1331  -999.2500  -999.2500  -999.2500
   70.5000   -62.0845     1.3148     3.4371  -999.2500  -999.2500  -999.2500
   71.0000   -61.0346     1.4375     4.1176  -999.2500  -999.2500  -999.2500
   71.5000   -60.5388     1.5000     4.8042  -999.2500  -999.2500  -999.2500
   72.0000   -60.0092     1.5630     5.5547  -999.2500  -999.2500  -999.2500
   72.5000   -59.9012     1.5953     5.8587  -999.2500  -999.2500  -999.2500
   73.0000   -59.9059     1.6120     5.9368  -999.2500  -999.2500  -999.2500
   73.5000   -59.9356     1.5995     5.9404  -999.2500  -999.2500  -999.2500
   74.0000   -59.9633     1.6927     5.9432  -999.2500  -999.2500  -999.2500
   74.5000   -59.9909     1.7245     5.9460  -999.2500  -999.2500  -999.2500
   75.0000   -60.0185     1.6964     6.0241  -999.2500  -999.2500  -999.2500
   75.5000   -60.0462     2.1897     6.1782  -999.2500  -999.2500  -999.2500
   76.0000   -60.0738     3.4514     6.3316  -999.2500  -999.2500  -999.2500
   76.5000   -60.1014     9.0040     6.3344  -999.2500  -999.2500  -999.2500
   77.0000   -60.1290     9.1871     6.4880  -999.2500  -999.2500  -999.2500
   77.5000   -60.1566     9.1558     6.6420  -999.2500  -999.2500  -999.2500
   78.0000   -60.1842     9.9669     6.7954  -999.2500  -999.2500  -999.2500
   78.5000   -60.2118    11.3249     6.9488  -999.2500  -999.2500  -999.2500
   79.0000   -60.2395     4.4480     6.9523  -999.2500  -999.2500  -999.2500
   79.5000   -60.2672     2.3974     6.9552  -999.2500  -999.2500  -999.2500
   80.0000   -60.2935     1.8704     6.9578  -999.2500  -999.2500  -999.2500
   80.5000   -60.2943     1.7354     6.9613  -999.2500  -999.2500  -999.2500
   81.0000   -60.2941     1.6909     6.9641  -999.2500  -999.2500  -999.2500
   81.5000   -60.2941     1.6463     6.9669  -999.2500  -999.2500  -999.2500
   82.0000   -60.2941     1.6169     6.9704  -999.2500  -999.2500  -999.2500
   82.5000   -60.2941     1.6932     6.9732  -999.2500  -999.2500  -999.2500
   83.0000   -60.2941     1.8145     6.9760  -999.2500  -999.2500  -999.2500
   83.5000   -60.2983     1.9208     6.8282  -999.2500  -999.2500  -999.2500
   84.0000   -60.3128     1.8161     6.6812  -999.2500  -999.2500  -999.2500
   84.5000   -60.3272     1.7413     6.6840  -999.2500  -999.2500  -999.2500
   85.0000   -60.3416     1.7421     6.6868  -999.2500  -999.2500  -999.2500
   85.5000   -60.3560     1.7730     6.6903  -999.2500  -999.2500  -999.2500
   86.0000   -60.3704     1.9549     6.6931  -999.2500  -999.2500  -999.2500
   86.5000   -60.3848     2.2874     6.6959  -999.2500  -999.2500  -999.2500
   87.0000   -60.3992     3.0423     6.5482  -999.2500  -999.2500  -999.2500
   87.5000   -60.4136     4.0385     6.5517  -999.2500  -999.2500  -999.2500
   88.0000   -60.4279     6.1227     6.5545  -999.2500  -999.2500  -999.2500
   88.5000   -60.4423     6.9963     6.5572  -999.2500  -999.2500  -999.2500
   89.0000   -60.4567     7.1780     6.5608  -999.2500  -999.2500  -999.2500
   89.5000   -60.4711     7.1486     6.6556  -999.2500  -999.2500  -999.2500
   90.0000   -60.4857     7.1191     6.7171  -999.2500  -999.2500  -999.2500
   90.5000   -60.4902     7.2709     6.7199  -999.2500  -999.2500  -999.2500
   91.0000   -60.4902     7.3017     6.7234  -999.2500  -999.2500  -999.2500
   91.5000   -60.4902     7.3929     6.7262  -999.2500  -999.2500  -999.2500
   92.0000   -60.4902     7.5157     6.7290  -999.2500  -999.2500  -999.2500
   92.5000   -60.4902     7.6359     6.7319  -999.2500  -999.2500  -999.2500
   93.0000   -60.4902     7.7271     6.8107  -999.2500  -999.2500  -999.2500
   93.5000   -60.4902     7.8032     6.8888  -999.2500  -999.2500  -999.2500
   94.0000   -60.4902     7.8492     6.9669  -999.2500  -999.2500  -999.2500
   94.5000   -60.4902     7.8500     7.1210  -999.2500  -999.2500  -999.2500
   95.0000   -60.4905     7.8508     7.1991  -999.2500  -999.2500  -999.2500
   95.5000   -60.4896     7.8515     7.3525  -999.2500  -999.2500  -999.2500
   96.0000   -60.4908     7.8207     7.5060  -999.2500  -999.2500  -999.2500
   96.5000   -60.2935     7.7022     7.5095  -999.2500  -999.2500  -999.2500
   97.0000   -60.1941     7.5823     7.5123  -999.2500  -999.2500  -999.2500
   97.5000   -60.4235     7.4322     7.5151  -999.2500  -999.2500  -999.2500
   98.0000   -60.6515     7.2813     7.5186  -999.2500  -999.2500  -999.2500
   98.5000   -60.8723     6.8908     7.3701  -999.2500  -999.2500  -999.2500
   99.0000   -60.7676     6.5446     6.8465  -999.2500  -999.2500  -999.2500
   99.5000   -60.6454     6.2587     6.1637  -999.2500  -999.2500  -999.2500
  100.0000   -60.5229     5.9276     5.2716  -999.2500  -999.2500  -999.2500
  100.5000   -60.3274     5.1442     4.5197  -999.2500  -999.2500  -999.2500
  101.0000   -60.0999     4.3439     3.4669  -999.2500  -999.2500  -999.2500
  101.5000   -59.8717     3.8612     3.0058  -999.2500  -999.2500  -999.2500
  102.0000   -59.6443     3.5596     2.6418  -999.2500  -999.2500  -999.2500
  102.5000   -59.4154     3.2881     2.4169  -999.2500  -999.2500  -999.2500
  103.0000   -59.3722     3.0920     2.2681  -999.2500  -999.2500  -999.2500
  103.5000   -59.4722     2.9261     2.1189  -999.2500  -999.2500  -999.2500
  104.0000   -59.5750     2.8356     2.1207  -999.2500  -999.2500  -999.2500
