~VERSION INFORMATION
 VERS.                2.0:   CWLS LOG ASCII STANDARD - VERSION 2.0
 WRAP.                 NO:   ONE LINE PER DEPTH STEP
~WELL INFORMATION
#MNEM.UNIT      DATA TYPE    INFORMATION
#----------   ------------   ------------------------------
 STRT.F          200.0000:   START DEPTH
 STOP.F         3060.0000:   STOP DEPTH
 STEP.F            0.5000:   STEP LENGTH
 NULL.          -999.2500:   NO VALUE
 COMP.    FENIX & SCISSON:   COMPANY
 WELL. FENIX & SCISSON NPR "AX" #81-10:   WELL
 FLD .                NPR:   FIELD
 LOC .      S10 T38N R78W:   LOCATION
 CNTY.            NATRONA:   COUNTY
 STAT.            WYOMING:   STATE
 CTRY. UNITED STATES OF AMERICA:   COUNTRY
 SRVC.              WELEX:   SERVICE COMPANY
 DATE.        28-NOV-1977:   LOGDATE
 API .     49025104400000:   API NUMBER
~CURVE INFORMATION
#MNEM.UNIT       API CODE    CURVE DESCRIPTION
#----------   ------------   ------------------------------
 DEPT.F                  :   
 CALD.IN     45 280 60 00:   CALIPER FROM DENSITY LOG
 GRD .GAPI   45 310 01 00:   GAMMA RAY FROM DENSITY LOG
 RHOB.G/C3   45 350 01 00:   BULK DENSITY
 CORR.G/C3   45 356 01 00:   DENSITY CORRECTION
 TEND.LBS    45 635 01 00:   TENSION FROM DENSITY LOG
 NPHI.DEC    42 890 03 00:   NEUTRON POROSITY SANDSTONE
 SPR .MV     07 010 01 00:   SPONTANEOUS POTENTIAL
 IL  .OHMM   07 120 00 00:   INDUCTION LOG RES.
 ASGR.OHMM   07 221 05 00:   AMPLIFIED SHALLOW GUARD
 SNP .DEC    41 890 00 00:   SIDEWALL NEUTRON POROSITY
~PARAMETER INFORMATION
#MNEM.UNIT          VALUE    DESCRIPTION
#----------   ------------   ------------------------------
 EKB .F         5147.0000:   Kelly bushing
 EGL .F         5137.0000:   Ground level
 EDF .F            0.0000:   Drilling floor
 TD  .F         3058.0000:   Total depth
 DATE.        28-NOV-1977:   Date logged
 CLNT.            A2DTECH:   Client Code
 PD  .                 GL:   Permanent Datum
 EPD .F              5137:   Elevation Permanent Datum
 LMF .                 KB:   Log Measured From
 DMF .                 KB:   Drilling Measured From
 DD  .F              3055:   Depth driller
 DL  .F              3058:   Depth logger
 BLI .F              3055:   Bottom log interval
 TLI .F               200:   Top log interval
 CS1 .IN            8.625:   Casing size
 CBD1.      8.625" @ 205':   Casing driller 1
 CBL1.F               215:   Casing logger 1
 BSD1.F              3055:   Depth drilled with bit1
 DFT .            KCL/MUD:   Type fluid in hole
 ENGI.            BENTSEN:   Recorded By
 WITN.         HARRINGTON:   Witnessed by
 ORIG.           5" PRINT:   Origin of data
 UWI .     49025104400000:   Unique Well ID
 DICO. A2D TECHNOLOGIES, INC.:   Digitizing Company
 DAPD.                 10:   Feet Above Permanent Datum
 BS1 .IN            7.875:   Bit size
 DFD .                8.9:   Density
 DFV .                 35:   Viscosity
 MSS .           FLOWLINE:   Source of sample
 RMS .OHMM            .17:   Rm
 MST .F                75:   Rm Meas. temp.
 RMF .OHMM            .12:   Rmf
 MFST.F                75:   Rmf Meas. temp.
 MFSS.               FANN:   Source Rmf.
 RMC .OHMM            .50:   Rmc
 MCST.F                75:   Rmc Meas. temp.
 MCSS.                KIT:   Source Rmc.
 RMB .OHMM           .113:   Rm. at BHT
 BHT .F               113:   BHT.
 TCS .HRS             2.5:   Time Circ. stopped
 MRT .F               113:   Maximum recorded temp.
 LUN .               9685:   Logging unit number
 LUL .             CASPER:   Logging unit location
 SL  . 601' FNL & 200' FEL:   Surface Location
~OTHER INFORMATION
~A   DEPT       CALD      GRD       RHOB       CORR        TEND        NPHI       SPR        IL       ASGR        SNP   
# ...
 3014.0000     7.7870   121.7360     2.4950     0.0280  1080.5959     0.1010   -69.7940     3.6110     4.7000     0.1440
 3014.5000     7.7870   122.0480     2.4930     0.0300  1080.4600     0.1050   -69.7780     3.5990     4.6400     0.1440
 3015.0000     7.7870   121.6250     2.4910     0.0330  1080.3250     0.1030   -69.7610     3.5880     4.6710     0.1440
 3015.5000     7.7860   120.7580     2.4890     0.0360  1080.1890     0.1010   -69.7450     3.5760     4.8560     0.1440
 3016.0000     7.7860   120.4370     2.4860     0.0360  1080.0530     0.1030   -69.7290     3.5450     4.6480     0.1480
 3016.5000     7.7860   121.5510     2.4840     0.0270  1079.9170     0.1090   -69.7130     3.4470     4.5430     0.1510
 3017.0000     7.7850   122.1180     2.4820     0.0190  1079.7810     0.1110   -69.6970     3.3510     4.3010     0.1540
 3017.5000     7.7850   121.2030     2.4800     0.0150  1079.6450     0.1120   -69.6810     3.2560     4.0610     0.1570
 3018.0000     7.7840   121.5600     2.4790     0.0170  1079.5090     0.1120   -69.6640     3.1600     3.8940     0.1600
 3018.5000     7.7840   123.3770     2.4870     0.0200  1079.3730     0.1130   -69.6480     3.0630     4.1620     0.1620
 3019.0000     7.7840   123.3310     2.4940     0.0230  1079.2371     0.1130   -69.6320     2.9680     4.0550     0.1620
 3019.5000     7.7830   123.1970     2.4970     0.0270  1079.1010     0.1130   -69.6160     2.9770     4.0910     0.1620
 3020.0000     7.7830   123.9240     2.4950     0.0300  1078.9650     0.1130   -69.6000     3.0000     4.1940     0.1620
 3020.5000     7.7820   124.4730     2.4930     0.0330  1078.8290     0.1120   -69.5840     3.0230     4.0630     0.1600
 3021.0000     7.7820   123.9330     2.4900     0.0360  1078.6930     0.1110   -69.5680     3.0450     4.0660     0.1580
 3021.5000     7.7820   123.3080     2.4880     0.0350  1078.5580     0.1120   -69.5510     3.0680     4.1350     0.1560
 3022.0000     7.7810   124.3400     2.4850     0.0320  1078.4220     0.1100   -69.5350     3.0900     4.0110     0.1530
 3022.5000     7.7810   125.6410     2.4830     0.0300  1078.2860     0.1080   -69.5190     3.1130     3.8750     0.1480
 3023.0000     7.7810   126.9440     2.4800     0.0280  1078.1500     0.1050   -69.5030     3.1350     4.0630     0.1440
 3023.5000     7.7800   127.9020     2.4870     0.0270  1078.0140     0.1000   -69.4870     3.1570     4.0010     0.1400
 3024.0000     7.7800   126.7000     2.4940     0.0280  1077.8781     0.0960   -69.4710     3.2180     4.2250     0.1350
 3024.5000     7.7790   125.4800     2.5000     0.0300  1077.7419     0.0960   -69.4540     3.2980     4.6520     0.1310
 3025.0000     7.7790   124.2640     2.5010     0.0320  1077.6060     0.0930   -69.4380     3.3790     5.3030     0.1260
 3025.5000     7.7790   123.0630     2.5010     0.0330  1077.4700     0.0870   -69.4220     3.4590     5.1570     0.1210
 3026.0000     7.7780   122.9160     2.5020     0.0340  1077.3340     0.0840   -69.4060     3.5400     4.8550     0.1170
 3026.5000     7.7780   122.9100     2.5020     0.0350  1077.1980     0.0840   -69.3900     3.6200     4.9270     0.1140
 3027.0000     7.7780   122.9590     2.5030     0.0360  1077.0620     0.0830   -69.3740     3.7010     4.9910     0.1120
 3027.5000     7.7770   124.0150     2.5030     0.0360  1076.9260     0.0810   -69.3580     3.7820     5.0500     0.1100
 3028.0000     7.7770   125.0670     2.5040     0.0370  1076.7900     0.0800   -69.3410     3.8650     4.9910     0.1090
 3028.5000     7.7760   125.6490     2.5070     0.0380  1076.6550     0.0790   -69.3250     3.7850     4.7360     0.1090
 3029.0000     7.7760   125.4490     2.5100     0.0380  1076.5190     0.0800   -69.3090     3.6200     4.6220     0.1140
 3029.5000     7.7760   125.2630     2.5130     0.0390  1076.3831     0.0860   -69.2920     3.4550     4.5070     0.1190
 3030.0000     7.7750   125.2420     2.5160     0.0390  1076.2469     0.0920   -69.2010     3.2900     4.3430     0.1260
 3030.5000     7.7750   126.1130     2.5190     0.0400  1076.1110     0.0970   -69.0240     3.1230     4.1710     0.1330
 3031.0000     7.7740   126.4840     2.5220     0.0400  1075.9750     0.1030   -68.8860     3.0660     4.0000     0.1410
 3031.5000     7.7740   126.4840     2.5250     0.0410  1075.8390     0.1090   -68.9050     3.0880     3.9470     0.1480
 3032.0000     7.7740   126.4870     2.5280     0.0410  1075.7030     0.1100   -68.9210     3.1230     4.0540     0.1500
 3032.5000     7.7730   126.2830     2.5310     0.0420  1075.5670     0.0990   -68.9350     3.1580     4.1870     0.1490
 3033.0000     7.7730   124.1600     2.5300     0.0420  1075.4310     0.0980   -68.9500     3.1940     4.3160     0.1430
 3033.5000     7.7730   121.5540     2.5250     0.0430  1075.2950     0.0960   -68.9650     3.2290     4.5880     0.1380
 3034.0000     7.7720   112.4960     2.5180     0.0430  1075.1591     0.0950   -68.9800     3.2640     4.7730     0.1330
 3034.5000     7.7720  -999.2500     2.5110     0.0440  1075.0229     0.0930   -68.9950     3.3000     4.4720     0.1290
 3035.0000     7.7710  -999.2500     2.5040     0.0430  1074.8870     0.0920   -69.0100     3.3350     4.7800     0.1290
 3035.5000     7.7710  -999.2500     2.4970     0.0390  1074.7520     0.0930   -69.0250     3.3710     4.9080     0.1280
 3036.0000     7.7710  -999.2500     2.4890     0.0340  1074.6160     0.0940   -69.0400     3.4060     4.7150     0.1280
 3036.5000     7.7700  -999.2500     2.4820     0.0290  1074.4800     0.0960   -69.0550     3.4410     4.5260     0.1280
 3037.0000     7.7700  -999.2500     2.4750     0.0240  1074.3440     0.0950   -69.0700     3.4630     4.4140     0.1280
 3037.5000     7.7690  -999.2500     2.4740     0.0220  1074.2080     0.0950   -69.0850     3.4400     4.3240     0.1320
 3038.0000     7.7690  -999.2500     2.4800     0.0280  1074.0720     0.0960   -69.1000     3.4180     4.3640     0.1350
 3038.5000     7.7690  -999.2500     2.4850     0.0330  1073.9360     0.0980   -69.1150     3.3960     4.4990     0.1390
 3039.0000     7.7680  -999.2500     2.4910     0.0390  1073.8000     0.1010   -69.1300     3.3750     4.3210     0.1430
 3039.5000     7.7680  -999.2500     2.4970     0.0450  1073.6639     0.1040   -69.1450     3.3140     4.4420     0.1470
 3040.0000     7.7680  -999.2500     2.5000     0.0460  1073.5280     0.1070   -69.1600     3.2300     4.5600     0.1500
 3040.5000     7.7670  -999.2500     2.4980     0.0370  1073.3920     0.1090   -69.1750     3.1460     4.1870     0.1540
 3041.0000     7.7670  -999.2500     2.4950     0.0260  1073.2560     0.1090   -69.1900     3.0610     4.0380     0.1550
 3041.5000     7.7660  -999.2500     2.4910     0.0150  1073.1200     0.1100   -69.2050     2.9760     4.2020     0.1560
 3042.0000     7.7660  -999.2500     2.4870     0.0220  1072.9850     0.1090   -69.2200     2.8910     4.0640     0.1560
 3042.5000     7.7660  -999.2500     2.4920     0.0310  1072.8490     0.1070   -69.2350     2.8060     3.8640     0.1530
 3043.0000     7.7650  -999.2500     2.5050     0.0400  1072.7130     0.1060   -69.2500     2.7580     3.9420     0.1490
 3043.5000     7.7650  -999.2500     2.5150     0.0480  1072.5770     0.1050   -69.2650     2.7450     4.0120     0.1510
 3044.0000     7.7640  -999.2500     2.5160     0.0560  1072.4410     0.1080   -69.2800     2.7330     3.8200     0.1560
 3044.5000     7.7650  -999.2500     2.5110     0.0530  1072.3051     0.1110   -69.2950     2.7200     3.7580     0.1610
 3045.0000     7.7980  -999.2500     2.4980     0.0500  1072.1689     0.1150   -69.3100     2.7080     3.8430     0.1670
 3045.5000     7.8040  -999.2500     2.4840     0.0470  1072.0330     0.1190   -69.3250     2.6960     3.7660     0.1720
 3046.0000     7.8040  -999.2500     2.4710     0.0430  1071.8970     0.1210   -69.3410     2.6830     3.6880     0.1770
 3046.5000     7.8040  -999.2500     2.4580     0.0340  1071.7610     0.1240   -69.3560     2.6710     3.5180     0.1820
 3047.0000     7.8040  -999.2500     2.4500     0.0000  1071.6250     0.1270   -69.3710     2.6580     3.3350     0.1870
