~VERSION INFORMATION
 VERS.                2.0:   CWLS LOG ASCII STANDARD - VERSION 2.0
 WRAP.                 NO:   ONE LINE PER DEPTH STEP
~WELL INFORMATION
#MNEM.UNIT      DATA TYPE    INFORMATION
#----------   ------------   ------------------------------
 STRT.F           81.0000:   START DEPTH
 STOP.F          910.0000:   STOP DEPTH
 STEP.F            0.5000:   STEP LENGTH
 NULL.          -999.2500:   NO VALUE
 COMP.         U. S. NAVY:   COMPANY
 WELL. US NAVY NPR 3 "S" #37-35:   WELL
 FLD .             TEAPOT:   FIELD
 LOC .      S35 T39N R78W:   LOCATION
 CNTY.            NATRONA:   COUNTY
 STAT.            WYOMING:   STATE
 CTRY. UNITED STATES OF AMERICA:   COUNTRY
 SRVC.       SCHLUMBERGER:   SERVICE COMPANY
 DATE.        22-JUL-1963:   LOGDATE
 API .     49025065040000:   API NUMBER
~CURVE INFORMATION
#MNEM.UNIT       API CODE    CURVE DESCRIPTION
#----------   ------------   ------------------------------
 DEPT.F                  :   
 SPR .MV     05 010 01 00:   SPONTANEOUS POTENTIAL FROM RES.
 ASN .OHMM   05 041 16 00:   AMPLIFIED SHORT NORMAL 16"
 ILD .OHMM   05 120 46 00:   INDUCTION LOG DEEP
~PARAMETER INFORMATION
#MNEM.UNIT          VALUE    DESCRIPTION
#----------   ------------   ------------------------------
 EKB .F         5113.0000:   Kelly bushing
 EGL .F         5108.0000:   Ground level
 TD  .F          900.0000:   Total depth
 DATE.        22-JUL-1963:   Date logged
 CLNT.            A2DTECH:   Client Code
 PD  .                 GL:   Permanent Datum
 EPD .F              5108:   Elevation Permanent Datum
 LMF .                 KB:   Log Measured From
 DMF .                 KB:   Drilling Measured From
 DAPD.F                 5:   Feet Above Permanent Datum
 DD  .F               900:   Depth driller
 DL  .F               900:   Depth logger
 BLI .F               899:   Bottom log interval
 TLI .F                81:   Top log interval
 BS1 .IN            7.875:   Bit size
 BSD1.F               900:   Depth drilled with bit1
 DFT .                GEL:   Type fluid in hole
 DFD .                9.6:   Density
 DFV .                 67:   Viscosity
 DFPH.                  9:   pH
 DFL .                4.8:   Fluid loss
 MSS .           FLOWLINE:   Source of sample
 RMS .OHMM            3.4:   Rm
 MST .F                77:   Rm Meas. temp.
 RMF .OHMM            3.3:   Rmf
 MFST.F                77:   Rmf Meas. temp.
 RMC .OHMM            3.8:   Rmc
 MCST.F                77:   Rmc Meas. temp.
 MFSS.                 FP:   Source Rmf.
 TCS .HRS               1:   Time Circ. stopped
 LUN .               2523:   Logging unit number
 LUL .               CSPR:   Logging unit location
 ENGI.            GIFFORD:   Recorded By
 WITN.          JORGENSON:   Witnessed by
 ORIG.           5" PRINT:   Origin of data
 UWI .     49025065040000:   Unique Well ID
 DICO. A2D TECHNOLOGIES, INC.:   Digitizing Company
~OTHER INFORMATION
~A   DEPT      SPR        ASN        ILD   
# ...
  263.0000   -51.4370     6.8130     6.0270
  263.5000   -51.4790     6.5400     5.8680
  264.0000   -51.2990     6.2680     5.7090
  264.5000   -51.1210     6.0800     5.5500
  265.0000   -50.9430     5.9650     5.3880
  265.5000   -50.7660     5.9710     5.3300
  266.0000   -50.5880     5.9790     5.3290
  266.5000   -50.5210     5.9870     5.3280
  267.0000   -50.5690     5.9950     5.3480
  267.5000   -50.6170     6.0030     5.3700
  268.0000   -50.6650     6.0290     5.3930
  268.5000   -50.7130     6.0640     5.4150
  269.0000   -50.7610     6.1000     5.4320
  269.5000   -50.8100     6.1420     5.5200
  270.0000   -50.8580     6.1460     5.6080
  270.5000   -50.9060     6.1430     5.6950
  271.0000   -50.9550     6.1360     5.7830
  271.5000   -51.0030     6.1300     5.8700
  272.0000   -51.0500     6.1850     5.9580
  272.5000   -51.0880     6.3090     6.0450
  273.0000   -51.0630     6.4320     6.1330
  273.5000   -51.0380     6.5550     6.2200
  274.0000   -51.0140     6.6460     6.3080
  274.5000   -50.9900     6.6450     6.3950
  275.0000   -50.9650     6.7370     6.4830
  275.5000   -50.9410     6.9260     6.5700
  276.0000   -50.9170     7.1110     6.6580
  276.5000   -50.8950     7.2450     6.7450
  277.0000   -50.8540     7.1650     6.8210
  277.5000   -50.8070     7.0600     6.8000
  278.0000   -50.7600     6.9540     6.6230
  278.5000   -50.7130     6.8640     6.4440
  279.0000   -50.6670     6.8310     6.2660
  279.5000   -50.6200     6.7900     6.0870
  280.0000   -50.5730     6.6550     5.9090
  280.5000   -50.5260     6.4990     5.7300
  281.0000   -50.4790     6.3100     5.5510
  281.5000   -50.4320     5.9820     5.3730
  282.0000   -50.3850     5.6470     5.1940
  282.5000   -50.3380     5.4060     5.0160
  283.0000   -50.2910     5.1910     4.8370
  283.5000   -50.2440     4.9810     4.6590
  284.0000   -50.1970     4.8460     4.4800
  284.5000   -50.1500     4.7070     4.3020
  285.0000   -50.0980     4.5670     4.1240
  285.5000   -49.9220     4.4270     3.9470
  286.0000   -49.7300     4.3210     3.9170
  286.5000   -49.5380     4.6890     4.1380
  287.0000   -49.3440     5.0580     4.3560
  287.5000   -49.1550     5.0760     4.5730
  288.0000   -48.9040     5.0830     4.7910
  288.5000   -48.9950     5.3210     5.0090
  289.0000   -49.0780     5.6930     5.2270
  289.5000   -49.1560     6.0640     5.4450
  290.0000   -49.2340     6.3570     5.6620
  290.5000   -49.3120     6.5330     5.8800
  291.0000   -49.3910     6.7110     6.0980
  291.5000   -49.4690     6.8770     6.3160
  292.0000   -49.5470     6.9260     6.5340
  292.5000   -49.6250     6.9990     6.7520
  293.0000   -49.7010     7.1600     6.9700
  293.5000   -49.6780     7.3200     7.1870
  294.0000   -49.6490     7.4790     7.2180
  294.5000   -49.6200     7.6090     7.2220
  295.0000   -49.5900     7.6370     7.1070
  295.5000   -49.5610     7.6600     7.0390
  296.0000   -49.5320     7.5720     6.8620
  296.5000   -49.5020     7.3880     6.6790
  297.0000   -49.4730     7.2110     6.4960
  297.5000   -49.4430     7.0350     6.3130
  298.0000   -49.4140     6.8590     6.1290
  298.5000   -49.3850     6.6830     5.9460
  299.0000   -49.3550     6.5150     5.7620
  299.5000   -49.3260     6.3480     5.5790
  300.0000   -49.2970     6.1790     5.3950
  300.5000   -49.2670     5.9790     5.2120
  301.0000   -49.2380     5.6660     5.0270
  301.5000   -49.2080     5.3600     4.8410
  302.0000   -49.1790     5.0580     4.8290
  302.5000   -49.1490     4.8870     4.9440
  303.0000   -49.1200     5.0600     4.9660
  303.5000   -49.0580     5.1740     4.9940
  304.0000   -48.9720     5.0000     5.0240
  304.5000   -48.8850     4.9570     5.0540
  305.0000   -48.7980     5.2100     5.0840
  305.5000   -48.7110     5.4720     5.1140
  306.0000   -48.6240     5.7130     5.1440
  306.5000   -48.5380     5.8050     5.1740
  307.0000   -48.4510     5.8400     5.2040
  307.5000   -48.3650     5.8740     5.2340
  308.0000   -48.3370     5.8890     5.2640
  308.5000   -48.3930     5.9040     5.2940
  309.0000   -48.4480     5.8870     5.3240
  309.5000   -48.5040     5.8190     5.3260
  310.0000   -48.5590     5.7500     5.2760
  310.5000   -48.6150     5.6010     5.0500
  311.0000   -48.6680     5.4120     4.8270
  311.5000   -48.6750     5.2220     4.6060
  312.0000   -48.5310     5.0200     4.3840
  312.5000   -48.3910     4.7350     4.1630
  313.0000   -48.2520     4.4220     3.9410
  313.5000   -48.1130     4.1100     3.7200
  314.0000   -47.9730     3.8380     3.4970
  314.5000   -47.8340     3.8730     3.5150
  315.0000   -47.6950     3.9330     3.6460
  315.5000   -47.5550     3.8400     3.7900
  316.0000   -47.5820     3.8040     3.9340
  316.5000   -47.7810     4.1340     4.0800
  317.0000   -47.9730     4.4880     4.2250
  317.5000   -48.1650     4.7790     4.3720
  318.0000   -48.3540     4.9080     4.4560
  318.5000   -48.5010     4.9530     4.5220
  319.0000   -48.4120     5.0010     4.5880
  319.5000   -48.3290     5.0540     4.6540
  320.0000   -48.2460     5.1100     4.7190
  320.5000   -48.1630     5.1070     4.6950
  321.0000   -48.1190     5.1100     4.6110
  321.5000   -48.1990     5.0590     4.5280
  322.0000   -48.2800     5.0030     4.4450
  322.5000   -48.3610     4.8790     4.3610
  323.0000   -48.4420     4.7520     4.2770
  323.5000   -48.5230     4.6230     4.1940
  324.0000   -48.6040     4.4940     4.1100
  324.5000   -48.6900     4.3650     4.0260
  325.0000   -48.6090     4.2370     3.9430
  325.5000   -48.4680     4.1090     3.8600
  326.0000   -48.3250     3.9960     3.7760
  326.5000   -48.1830     4.0500     3.7280
  327.0000   -48.0410     4.1920     4.0300
  327.5000   -47.9380     4.3120     4.3860
  328.0000   -48.0830     4.3820     4.7460
  328.5000   -48.2300     4.4640     5.1060
  329.0000   -48.3760     4.7910     5.4660
  329.5000   -48.5220     5.1830     5.8260
  330.0000   -48.6690     5.3510     6.1870
  330.5000   -48.8150     5.4770     6.5520
  331.0000   -48.9620     5.5500     6.6220
  331.5000   -49.1020     5.5890     6.6070
  332.0000   -49.0900     5.6250     6.3550
  332.5000   -49.0050     5.6090     6.1400
  333.0000   -48.9200     5.5160     5.9260
  333.5000   -48.8350     5.4050     5.7140
  334.0000   -48.7500     5.1840     5.5000
  334.5000   -48.6660     4.8180     5.2850
  335.0000   -48.5810     4.4440     5.0470
  335.5000   -48.4960     4.1730     5.0290
  336.0000   -48.4110     3.9270     5.0400
  336.5000   -48.3270     3.9830     5.0530
  337.0000   -48.2420     4.0720     5.0660
  337.5000   -48.1580     4.0220     5.0780
  338.0000   -48.1290     3.9230     5.0910
  338.5000   -48.1810     4.2650     5.1040
  339.0000   -48.2310     4.5030     5.1160
  339.5000   -48.2800     4.6050     5.1330
  340.0000   -48.3300     4.7150     5.3120
  340.5000   -48.3800     4.8630     5.5060
  341.0000   -48.4300     5.0070     5.7000
  341.5000   -48.4800     5.1480     5.8280
  342.0000   -48.5300     5.2760     5.7780
  342.5000   -48.5800     5.2870     5.7250
  343.0000   -48.6300     5.2700     5.7080
  343.5000   -48.6800     5.1370     5.6040
  344.0000   -48.7020     4.9860     5.4990
  344.5000   -48.4730     4.8340     5.3950
  345.0000   -48.2360     4.6820     5.2910
  345.5000   -47.9990     4.5300     5.1870
  346.0000   -47.7620     4.3810     5.0830
  346.5000   -47.5260     4.2380     4.9780
  347.0000   -47.2900     4.1020     4.8740
  347.5000   -47.0550     3.9770     4.7700
  348.0000   -46.9570     3.9860     4.6630
  348.5000   -47.0840     3.9300     4.5970
  349.0000   -47.2090     3.7930     4.5430
  349.5000   -47.3330     3.6530     4.4890
  350.0000   -47.4580     3.6410     4.4340
  350.5000   -47.5840     3.6900     4.3750
  351.0000   -47.7110     3.6550     4.2640
  351.5000   -47.7010     3.5390     4.1530
  352.0000   -47.5700     3.4230     4.0420
  352.5000   -47.4370     3.3070     3.9310
  353.0000   -47.3060     3.1910     3.8200
  353.5000   -47.1740     3.0750     3.7100
