~VERSION INFORMATION
 VERS.                2.0:   CWLS LOG ASCII STANDARD - VERSION 2.0
 WRAP.                 NO:   ONE LINE PER DEPTH STEP
~WELL INFORMATION
#MNEM.UNIT      DATA TYPE    INFORMATION
#----------   ------------   ------------------------------
 STRT.F            0.0000:   START DEPTH
 STOP.F         3083.0000:   STOP DEPTH
 STEP.F            0.5000:   STEP LENGTH
 NULL.          -999.2500:   NO VALUE
 COMP. LAWRENCE & ALLISON & ASSOCIATES:   COMPANY
 WELL. LAWRENCE 71 "AX" #3-29:   WELL
 FLD .              N P R:   FIELD
 LOC .      S29 T38N R78W:   LOCATION
 CNTY.            NATRONA:   COUNTY
 STAT.            WYOMING:   STATE
 CTRY. UNITED STATES OF AMERICA:   COUNTRY
 SRVC.      DRESSER ATLAS:   SERVICE COMPANY
 DATE.        12-MAR-1985:   LOGDATE
 API .     49025110160000:   API NUMBER
~CURVE INFORMATION
#MNEM.UNIT       API CODE    CURVE DESCRIPTION
#----------   ------------   ------------------------------
 DEPT.F                  :   
 GRR .GAPI   07 310 01 00:   GAMMA RAY FROM RESISTIVITY
 SPR .MV     07 010 01 00:   SPONTANEOUS POTENTIAL
 TENR.LBS    07 635 01 00:   TENSION FROM RESISTIVITY
 RFOC.OHMM   07 220 04 00:   RESISTIVITY FOCUSED LOG RES.
 RILD.OHMM   07 120 46 00:   DEEP INDUCTION RESISTIVITY
 RILM.OHMM   07 120 44 00:   INDUCTION LOG MEDIUM RESISTIVITY
 TEND.LBS    45 635 01 00:   TENSION FROM DENSITY LOG
 DEN .G/C3   45 350 01 00:   BULK DENSITY
 CORR.G/C3   45 356 01 00:   DENSITY CORRECTION
 CNC .DEC    42 890 01 00:   NEUTRON PORISITY LIMESTONE
 CALD.IN     45 280 60 00:   CALIPER FROM DENSITY LOG
~PARAMETER INFORMATION
#MNEM.UNIT          VALUE    DESCRIPTION
#----------   ------------   ------------------------------
 EKB .F         4983.0000:   Kelly bushing
 EGL .F         4971.0000:   Ground level
 TD  .F         3082.0000:   Total depth
 DATE.        12-MAR-1985:   Date logged
 CLNT.            A2DTECH:   Client Code
 SL  . 568' FNL AND 829' FEL:   Surface Location
 PD  .                 GL:   Permanent Datum
 EPD .F              4971:   Elevation Permanent Datum
 LMF .                 KB:   Log Measured From
 DMF .                 KB:   Drilling Measured From
 DD  .F              3080:   Depth driller
 DL  .F              3082:   Depth logger
 BLI .F              3080:   Bottom log interval
 TLI .F              2100:   Top log interval
 CS1 .IN            8.625:   Casing size
 CBD1.      8.625" @ 311':   Casing driller 1
 BS1 .IN            7.875:   Bit size
 DFT .            KCL GEL:   Type fluid in hole
 DFD .                9.1:   Density
 DFV .                 38:   Viscosity
 DFPH.                  8:   pH
 DFL .               10.4:   Fluid loss
 MSS .           FLOWLINE:   Source of sample
 RMS .OHMM            .47:   Rm
 MST .F                60:   Rm Meas. temp.
 RMF .OHMM            .35:   Rmf
 MFST.F                61:   Rmf Meas. temp.
 RMC .OHMM            .53:   Rmc
 MCST.F                61:   Rmc Meas. temp.
 MFSS.               CLAC:   Source Rmf.
 RMB .OHMM           .209:   Rm. at BHT
 BHT .F               134:   BHT.
 TCS .HRS               3:   Time Circ. stopped
 MRT .F               134:   Maximum recorded temp.
 LUN .               6234:   Logging unit number
 LUL .               CLTE:   Logging unit location
 ENGI.      MACK/ EDWARDS:   Recorded By
 WITN.             STRONG:   Witnessed by
 PWI .                  -:   Primary Well Identifier
 ORIG.           5" PRINT:   Origin of data
 UWI .     49025110160000:   Unique Well ID
 DICO. A2D TECHNOLOGIES, INC.:   Digitizing Company
 DAPD.F                12:   Feet Above Permanent Datum
 BSD1.F              3080:   Depth drilled with bit1
 MCSS.               CALC:   Source Rmc.
~OTHER INFORMATION
~A    DEPT      GRR       SPR       TENR       RFOC       RILD       RILM       TEND        DEN       CORR        CNC       CALD   
# ...
  335.5000    88.4380   -31.5960   -53.8450     6.8290     7.5250     6.9410  -999.2500  -999.2500  -999.2500  -999.2500  -999.2500
  336.0000    88.6700   -31.4560   -55.3590     6.7930     7.4040     6.8260  -999.2500  -999.2500  -999.2500  -999.2500  -999.2500
  336.5000    86.8670   -31.3110   -56.8730     6.8280     7.0330     6.5200  -999.2500  -999.2500  -999.2500  -999.2500  -999.2500
  337.0000    85.1770   -30.9470   -58.3870     6.8750     6.6620     6.1180  -999.2500  -999.2500  -999.2500  -999.2500  -999.2500
  337.5000    84.3840   -30.6090   -59.9010     6.9220     6.2910     5.6560  -999.2500  -999.2500  -999.2500  -999.2500  -999.2500
  338.0000    84.1090   -29.9070   -61.4150     6.9760     5.9210     5.7570  -999.2500  -999.2500  -999.2500  -999.2500  -999.2500
  338.5000    87.2020   -29.1820   -62.9290     6.5740     5.5500     5.9060  -999.2500  -999.2500  -999.2500  -999.2500  -999.2500
  339.0000    90.2830   -28.7570   -64.4430     6.0970     5.1790     5.6710  -999.2500  -999.2500  -999.2500  -999.2500  -999.2500
  339.5000    92.7270   -28.8600   -65.9570     5.9200     5.0450     5.2100  -999.2500  -999.2500  -999.2500  -999.2500  -999.2500
  340.0000    92.4860   -29.0180   -66.8320     5.9200     4.9780     5.3710  -999.2500  -999.2500  -999.2500  -999.2500  -999.2500
  340.5000    92.2790   -29.1790   -65.3390     6.0120     5.4200     5.7520  -999.2500  -999.2500  -999.2500  -999.2500  -999.2500
  341.0000    93.3780   -29.3400   -63.5170     6.3130     5.7820     6.1320  -999.2500  -999.2500  -999.2500  -999.2500  -999.2500
  341.5000    93.5760   -29.5020   -61.6940     6.6620     6.1440     6.5130  -999.2500  -999.2500  -999.2500  -999.2500  -999.2500
  342.0000    93.0180   -29.6630   -59.8720     7.0110     6.5060     6.7960  -999.2500  -999.2500  -999.2500  -999.2500  -999.2500
  342.5000    90.3400   -29.8240   -58.0490     7.3600     6.7780     7.0150  -999.2500  -999.2500  -999.2500  -999.2500  -999.2500
  343.0000    87.6330   -29.9850   -60.0990     7.5940     6.9130     7.2340  -999.2500  -999.2500  -999.2500  -999.2500  -999.2500
  343.5000    87.3950   -30.1470   -68.3000     7.8270     7.1630     7.4530  -999.2500  -999.2500  -999.2500  -999.2500  -999.2500
  344.0000    87.2680   -30.3080   -76.7330     8.0570     7.4170     7.6730  -999.2500  -999.2500  -999.2500  -999.2500  -999.2500
  344.5000    87.1220   -30.4690   -76.7330     8.2850     7.6720     7.8920  -999.2500  -999.2500  -999.2500  -999.2500  -999.2500
  345.0000    86.9550   -30.6320   -76.7330     8.5130     7.7990     8.1110  -999.2500  -999.2500  -999.2500  -999.2500  -999.2500
  345.5000    86.8020   -30.7900   -76.7330     8.7400     7.8290     8.2960  -999.2500  -999.2500  -999.2500  -999.2500  -999.2500
  346.0000    87.5890   -30.8630   -76.7330     8.8460     7.8670     8.2520  -999.2500  -999.2500  -999.2500  -999.2500  -999.2500
  346.5000    93.2530   -30.3790   -76.7330     8.8540     7.9540     8.2240  -999.2500  -999.2500  -999.2500  -999.2500  -999.2500
  347.0000    97.5540   -29.8980   -76.7330     8.8610     8.0400     8.2710  -999.2500  -999.2500  -999.2500  -999.2500  -999.2500
  347.5000    95.7910   -29.4180   -76.7330     8.8680     8.1270     8.3150  -999.2500  -999.2500  -999.2500  -999.2500  -999.2500
  348.0000    92.5530   -28.9390   -76.7330     8.8750     8.2200     8.3590  -999.2500  -999.2500  -999.2500  -999.2500  -999.2500
  348.5000    89.1850   -28.4590   -76.7330     8.8820     8.2070     8.4130  -999.2500  -999.2500  -999.2500  -999.2500  -999.2500
  349.0000    88.2400   -27.9790   -76.7330     8.8900     8.1920     8.4700  -999.2500  -999.2500  -999.2500  -999.2500  -999.2500
  349.5000    88.0680   -27.4970   -76.7330     8.8970     8.1770     8.5270  -999.2500  -999.2500  -999.2500  -999.2500  -999.2500
  350.0000    88.4350   -27.0230   -76.7330     8.9040     8.1620     8.5850  -999.2500  -999.2500  -999.2500  -999.2500  -999.2500
  350.5000    90.3230   -26.5630   -69.9760     8.9110     8.1470     8.6420  -999.2500  -999.2500  -999.2500  -999.2500  -999.2500
  351.0000    92.1410   -26.5330   -66.8320     8.9180     8.2860     8.6830  -999.2500  -999.2500  -999.2500  -999.2500  -999.2500
  351.5000    93.5040   -26.4390   -66.8320     8.9230     8.5260     8.5810  -999.2500  -999.2500  -999.2500  -999.2500  -999.2500
  352.0000    91.5940   -26.3420   -66.8320     8.8220     8.4590     8.5020  -999.2500  -999.2500  -999.2500  -999.2500  -999.2500
  352.5000    89.3700   -26.2470   -66.8320     8.7420     8.3170     8.4230  -999.2500  -999.2500  -999.2500  -999.2500  -999.2500
  353.0000    88.5780   -26.1510   -66.8320     8.6620     8.1760     8.3440  -999.2500  -999.2500  -999.2500  -999.2500  -999.2500
  353.5000    88.4000   -26.0550   -66.8320     8.5820     8.0340     8.2650  -999.2500  -999.2500  -999.2500  -999.2500  -999.2500
  354.0000    89.9590   -25.9580   -66.8320     8.5030     7.9140     8.1920  -999.2500  -999.2500  -999.2500  -999.2500  -999.2500
  354.5000    91.5090   -25.8650   -66.8320     8.4230     7.8640     8.1270  -999.2500  -999.2500  -999.2500  -999.2500  -999.2500
  355.0000    92.7600   -25.8670   -66.8320     8.3430     7.8140     8.0630  -999.2500  -999.2500  -999.2500  -999.2500  -999.2500
  355.5000    91.6350   -26.2290   -66.8320     8.2640     7.7650     7.9980  -999.2500  -999.2500  -999.2500  -999.2500  -999.2500
  356.0000    90.3650   -26.5830   -66.8320     8.1840     7.7150     7.9330  -999.2500  -999.2500  -999.2500  -999.2500  -999.2500
  356.5000    90.7530   -26.9360   -66.8320     8.1040     7.6650     7.8690  -999.2500  -999.2500  -999.2500  -999.2500  -999.2500
  357.0000    92.5860   -27.2920   -66.8320     8.0720     7.6150     7.8040  -999.2500  -999.2500  -999.2500  -999.2500  -999.2500
  357.5000    94.4380   -27.8000   -66.8320     8.0720     7.5650     7.7120  -999.2500  -999.2500  -999.2500  -999.2500  -999.2500
  358.0000    96.3480   -28.9290   -66.8320     7.9990     7.5040     7.7380  -999.2500  -999.2500  -999.2500  -999.2500  -999.2500
  358.5000    95.0450   -30.0510   -66.8320     8.0440     7.5480     7.7840  -999.2500  -999.2500  -999.2500  -999.2500  -999.2500
  359.0000    93.0930   -31.3280   -66.8320     8.0820     7.6050     7.8300  -999.2500  -999.2500  -999.2500  -999.2500  -999.2500
  359.5000    91.1740   -32.9700   -66.8320     8.1210     7.6630     7.8760  -999.2500  -999.2500  -999.2500  -999.2500  -999.2500
  360.0000    91.2910   -36.8560   -66.8320     8.1590     7.7120     7.9210  -999.2500  -999.2500  -999.2500  -999.2500  -999.2500
  360.5000    91.4840   -40.5780   -66.8320     8.1980     7.7950     7.9670  -999.2500  -999.2500  -999.2500  -999.2500  -999.2500
  361.0000    91.1240   -41.9510   -66.8320     8.2370     7.9260     8.0130  -999.2500  -999.2500  -999.2500  -999.2500  -999.2500
  361.5000    90.7340   -43.4250   -66.8320     8.2750     7.8950     8.0720  -999.2500  -999.2500  -999.2500  -999.2500  -999.2500
  362.0000    90.2880   -44.3950   -66.8320     8.3140     7.8370     8.0540  -999.2500  -999.2500  -999.2500  -999.2500  -999.2500
  362.5000    88.3020   -44.7290   -66.8320     8.3720     7.7780     8.0290  -999.2500  -999.2500  -999.2500  -999.2500  -999.2500
  363.0000    86.2090   -44.5280   -66.8320     8.3540     7.7190     8.0040  -999.2500  -999.2500  -999.2500  -999.2500  -999.2500
  363.5000    85.0000   -44.3260   -67.7530     8.3180     7.6610     7.9790  -999.2500  -999.2500  -999.2500  -999.2500  -999.2500
  364.0000    88.2210   -44.1230   -69.6420     8.2820     7.6420     7.9540  -999.2500  -999.2500  -999.2500  -999.2500  -999.2500
  364.5000    92.2650   -43.9200   -71.5310     8.2470     7.6420     7.9290  -999.2500  -999.2500  -999.2500  -999.2500  -999.2500
  365.0000    95.3660   -43.7150   -73.4200     8.2200     7.6420     8.0180  -999.2500  -999.2500  -999.2500  -999.2500  -999.2500
  365.5000    93.3930   -43.4880   -75.3080     8.4090     7.6740     8.1240  -999.2500  -999.2500  -999.2500  -999.2500  -999.2500
