~VERSION INFORMATION
 VERS.                2.0:   CWLS LOG ASCII STANDARD - VERSION 2.0
 WRAP.                 NO:   ONE LINE PER DEPTH STEP
~WELL INFORMATION
#MNEM.UNIT      DATA TYPE    INFORMATION
#----------   ------------   ------------------------------
 STRT.F            0.0000:   START DEPTH
 STOP.F         4152.0000:   STOP DEPTH
 STEP.F            0.5000:   STEP LENGTH
 NULL.          -999.2500:   NO VALUE
 COMP. LAWRENCE ALLISON & ASSOCIATES:   COMPANY
 WELL. LAWRENCE "X" #28-27:   WELL
 FLD .             NPR #3:   FIELD
 LOC .      S27 T39N R78W:   LOCATION
 CNTY.            NATRONA:   COUNTY
 STAT.            WYOMING:   STATE
 CTRY. UNITED STATES OF AMERICA:   COUNTRY
 SRVC.      DRESSER ATLAS:   SERVICE COMPANY
 DATE.        26-FEB-1984:   LOGDATE
 API .     49025109630000:   API NUMBER
~CURVE INFORMATION
#MNEM.UNIT       API CODE    CURVE DESCRIPTION
#----------   ------------   ------------------------------
 DEPT.F                  :   
 GRR .GAPI   07 310 01 00:   GAMMA RAY FROM RES.
 TENR.LBS    07 635 01 00:   TENSION FROM RES.
 SPR .MV     07 010 01 00:   SPONTANEOUS POTENTIAL
 RILD.OHMM   07 120 46 00:   RESISTIVITY INDUCTION LOG DEEP
 RILM.OHMM   07 120 44 00:   RESISTIIVTY INDUCTION LOG MEDIUM
 RFOC.OHMM   07 220 04 00:   RESISTIVITY FOCUSED LOG
 DT  .US/F   60 520 00 00:   DELTA TIME
 TENS.LBS    60 635 01 00:   TENSION FROM SONIC
 CALD.IN     45 280 60 00:   CALIPER FROM DENSITY LOG
 TEND.LBS    45 635 01 00:   TENSION FORM DENSITY LOG
 CNC .DEC    42 890 03 00:   NEUTRON POROSITY SANDSTONE
 CORR.G/C3   45 356 01 00:   DENSITY CORRECTION
 DENS.G/C3   45 350 01 00:   DENSITY
~PARAMETER INFORMATION
#MNEM.UNIT          VALUE    DESCRIPTION
#----------   ------------   ------------------------------
 EKB .F         5088.0000:   Kelly bushing
 EGL .F         5078.0000:   Ground level
 EDF .F            0.0000:   Drilling floor
 TD  .F         4154.0000:   Total depth
 CLNT.            A2DTECH:   Client Code
 SL  . 250' FSL & 810' FWL:   Surface Location
 PD  .                 GL:   Permanent Datum
 EPD .F              5078:   Elevation Permanent Datum
 LMF .                 KB:   Log Measured From
 DMF .                 KB:   Drilling Measured From
 DAPD.F                10:   Feet Above Permanent Datum
 DATE.        26-FEB-1984:   Date Logged [DD-MMM-YYYY]
 DD  .F              4154:   Depth driller
 DL  .F              4148:   Depth logger
 BLI .F              4146:   Bottom log interval
 TLI .F                 0:   Top log interval
 CS1 .IN            8.625:   Casing size
 CBD1.      8.625" @ 537':   Casing driller 1
 CBL1.F               540:   Casing logger 1
 BS1 .IN            7.875:   Bit size
 BSD1.F              4154:   Depth drilled with bit1
 DFT .            GEL KCL:   Type fluid in hole
 DFD .                  9:   Density
 DFV .                 45:   Viscosity
 DFPH.                  8:   pH
 DFL .                 14:   Fluid loss
 MSS .           FLOWLINE:   Source of sample
 RMS .OHMM          0.595:   Rm
 MST .F                60:   Rm Meas. temp.
 RMF .OHMM          0.446:   Rmf
 MFST.F                60:   Rmf Meas. temp.
 MFSS.               CALC:   Source Rmf.
 RMC .OHMM          0.744:   Rmc
 MCST.F                60:   Rmc Meas. temp.
 MCSS.               CALC:   Source Rmc.
 RMB .OHMM           0.26:   Rm. at BHT
 BHT .F               138:   BHT.
 TCS .HRS               4:   Time Circ. stopped
 MRT .F               138:   Maximum recorded temp.
 LUN .               6307:   Logging unit number
 LUL .               GLTE:   Logging unit location
 ENGI.           FAHLSING:   Recorded By
 WITN.           JENNINGS:   Witnessed by
 ORIG.      1" 2.5" PRINT:   Origin of data
 UWI .     49025109630000:   Unique Well ID
 DICO. A2D TECHNOLOGIES, INC.:   Digitizing Company
~OTHER INFORMATION
~A    DEPT       GRR     TENR        SPR       RILD       RILM       RFOC         DT       TENS       CALD       TEND        CNC       CORR       DENS   
# ...
 3146.0000    97.7901   -59.7633   -25.6889     4.2754     4.4529     6.6834    77.1880   -56.3331     8.1977   -20.0000     0.2347    -0.0031     2.4541
 3146.5000   107.6123   -60.4289   -26.2732     3.9334     4.1034     4.2388    80.5189   -54.3369     8.1976   -20.0000     0.2293     0.0017     2.4499
 3147.0000   104.6512   -61.0946   -26.8800     3.6717     3.8780     3.9620    81.6832   -52.3407     8.1976   -20.0000     0.2232    -0.0132     2.4448
 3147.5000   106.4696   -61.7603   -27.1443     3.5655     3.7972     3.9680    81.2444   -50.3445     8.1976   -20.0000     0.2189    -0.0192     2.4403
 3148.0000   113.6772   -62.4260   -26.8333     3.4438     3.6965     4.1451    80.5138   -48.3483     8.1976   -20.0000     0.2165    -0.0158     2.4343
 3148.5000   121.2653   -63.0917   -27.1170     3.4451     3.5986     4.1628    80.5415   -46.3521     8.1976   -20.0000     0.2149    -0.0088     2.4340
 3149.0000   126.6676   -63.7573   -27.4037     3.3537     3.3960     3.8101    81.5561   -44.3559     8.1976   -20.0000     0.2142    -0.0039     2.4303
 3149.5000   126.3393   -64.4230   -27.3928     3.2583     3.2156     3.0256    83.2648   -42.3597     8.1976   -20.0000     0.2190    -0.0159     2.4230
 3150.0000   123.3569   -65.0887   -27.3809     3.1782     3.1228     2.7898    85.9123   -40.3635     8.1976   -20.0000     0.2220    -0.0489     2.4148
 3150.5000   123.2855   -65.7490   -27.3690     3.0726     3.0195     2.8678    86.3706   -38.3673     8.1978   -20.0000     0.2232    -0.0578     2.4118
 3151.0000   125.2142   -51.6667   -27.3571     2.9717     2.8996     2.9228    85.8908   -36.9118     8.1974   -20.0000     0.2253    -0.0577     2.4133
 3151.5000   127.2654   -52.2930   -26.7484     2.8929     2.8227     2.9492    85.2917   -36.9853     8.1966   -20.0000     0.2322    -0.0504     2.4129
 3152.0000   128.2395   -53.0885   -26.7375     2.8523     2.7399     2.9505    85.1173   -37.0588     8.1814   -20.0000     0.2307    -0.0396     2.4055
 3152.5000   130.6635   -53.6978   -26.7262     2.7791     2.6748     2.8725    84.9769   -37.1323     8.1688   -20.0000     0.2292    -0.0468     2.3976
 3153.0000   131.2842   -54.3072   -26.7907     2.7054     2.6761     2.8310    85.3240   -37.2059     8.1575   -20.0000     0.2304    -0.0484     2.3954
 3153.5000   130.7074   -44.4607   -27.0000     2.7070     2.6051     2.7495    85.6153   -37.2794     8.1573   -20.0000     0.2328    -0.0423     2.4014
 3154.0000   130.7306   -40.8284   -26.9860     2.6713     2.6059     2.7239    85.7606   -37.3529     8.1572   -20.0000     0.2370    -0.0302     2.4075
 3154.5000   131.0976   -41.4940   -26.6775     2.6362     2.5367     2.6882    85.8148   -37.4265     8.1572   -20.0000     0.2385    -0.0082     2.4105
 3155.0000   134.2897   -42.1597   -26.6666     2.6372     2.5376     2.6530    86.1969   -37.5000     8.1571   -20.0000     0.2492     0.0164     2.4106
 3155.5000   138.5907   -42.8254   -26.0595     2.5903     2.5385     2.5830    86.6342   -37.5817     8.1573   -20.0000     0.2514     0.0271     2.4084
 3156.0000   140.4091   -28.6821   -26.0476     2.5684     2.4713     2.5771    87.2175   -37.6484     8.1575   -20.0000     0.2520     0.0256     2.3970
 3156.5000   141.6288   -29.3640   -26.0357     2.5696     2.4057     2.5500    87.4974   -37.7206     8.1562   -20.0000     0.2544     0.0153     2.3865
 3157.0000   142.2515   -30.0297   -26.0222     2.5706     2.4065     2.5515    87.8000   -37.7941     8.1670   -20.0000     0.2616    -0.0268     2.3715
 3157.5000   141.4569   -30.6953   -26.0113     2.4996     2.3426     2.5524    88.2641   -37.8818     8.1871   -20.0000     0.2679    -0.0297     2.3577
 3158.0000   140.5030   -31.3609   -26.6171     2.3860     2.2805     2.4849    88.7836   -38.8040     8.1987   -20.0000     0.2714    -0.0086     2.3534
 3158.5000   140.5300   -32.0331   -27.1800     2.2528     2.2201     2.4485    89.4035   -39.9465     8.1973   -20.0000     0.2718    -0.0165     2.3546
 3159.0000   139.9521   -32.6922   -27.1667     2.0706     2.1322     2.3875    89.8408   -41.0890     8.1975   -20.0000     0.2672    -0.0264     2.3657
 3159.5000   142.0859   -33.3580   -27.1527     1.9615     2.0475     2.3246    90.2781   -42.2315     8.1977   -20.0000     0.2652    -0.0414     2.3665
 3160.0000   149.1804   -34.0236   -27.1418     1.9095     1.9645     2.2633    91.0654   -43.3740     8.1976   -20.0000     0.2640    -0.0504     2.3611
 3160.5000   153.1339   -49.5681   -27.1309     1.8543     1.9078     2.2034    92.0239   -44.5166     8.1976   -20.0000     0.2628    -0.0503     2.3612
 3161.0000   155.0221   -50.1774   -27.1190     1.8007     1.8781     2.0877    93.1285   -45.6591     8.1976   -20.0000     0.2614    -0.0469     2.3683
 3161.5000   155.0440   -50.8136   -27.0044     1.7726     1.8388     2.0764    94.3627   -46.8016     8.1976   -20.0000     0.2584    -0.0403     2.3850
 3162.0000   155.0660   -51.4793   -26.6409     1.7625     1.7902     1.9952    95.2379   -47.9441     8.1976   -20.0000     0.2147    -0.0239     2.4118
 3162.5000   155.0898   -52.1449   -26.4865     1.7632     1.7426     2.0344    95.9793   -49.0866     8.1976   -20.0000     0.2073    -0.0127     2.4382
 3163.0000   155.3215   -52.8106   -26.4756     1.7663     1.7432     2.0912    96.1125   -50.2291     8.1976   -20.0000     0.2049    -0.0228     2.4608
 3163.5000   157.5648   -53.4763   -26.4430     1.7958     1.7753     2.0920    95.6061   -51.3717     8.1976   -20.0000     0.2031    -0.0258     2.4699
 3164.0000   162.3505   -54.1421   -26.0793     1.8257     1.8544     2.0295    94.9430   -52.5142     8.1976   -20.0000     0.1922    -0.0164     2.4784
 3164.5000   162.9713   -54.8078   -25.8452     1.9166     1.9458     1.9828    94.3583   -53.6029     8.1976   -20.0000     0.1673     0.0003     2.4925
 3165.0000   126.4639   -55.4735   -25.2360     2.0807     2.1408     2.1530    94.3577   -53.6765     8.1976   -20.0000     0.1403     0.0135     2.4986
 3165.5000   105.4123   -56.2706   -24.9275     2.3887     2.3263     2.4665    94.1457   -53.7500     8.1976   -20.0000     0.1310    -0.0061     2.4911
 3166.0000    95.5531   -56.8047   -24.6189     2.8580     2.9456     2.7507    92.4135   -53.8235     8.1976   -20.0000     0.1337    -0.0254     2.4881
 3166.5000    93.0103   -57.4892   -24.6553     3.3541     3.8034     3.1656    88.3699   -53.8971     8.1976   -20.0000     0.1422    -0.0258     2.4927
 3167.0000    89.4395   -58.1362   -24.8947     4.0083     4.0469     4.1068    86.3255   -53.9706     8.1976   -20.0000     0.1715    -0.0253     2.5148
 3167.5000    82.8746   -53.9604   -25.1786     4.9865     4.3508     4.9686    83.9890   -54.0441     8.1976   -20.0000     0.2020    -0.0118     2.5263
 3168.0000    65.9394   -46.5450   -25.7603     5.7165     4.8525     6.5729    82.7193   -54.1177     8.1976   -20.0000     0.2174     0.0068     2.5191
 3168.5000    59.5653   -45.3403   -26.3446     6.9892     5.8504     7.5321    81.0413   -54.1912     8.1976   -20.0000     0.2160     0.0111     2.5004
 3169.0000    62.3164   -46.0474   -26.9290     8.2207     6.9558     9.3643    78.5081   -54.2647     8.1976   -20.0000     0.2136    -0.0009     2.4959
 3169.5000    90.7579   -46.6717   -27.6617     8.1083     7.7055    14.7893    73.9130   -54.3382     8.1976   -20.0000     0.2162    -0.0159     2.4944
 3170.0000   109.3428   -47.3372   -28.2242     7.3176     7.4087    15.2823    68.9489   -54.4118     8.1976   -20.0000     0.2174    -0.0278     2.4926
 3170.5000   118.4034   -48.0031   -28.6786     5.8865     6.6467     9.2928    69.9677   -54.4853     8.1976   -20.0000     0.2156    -0.0338     2.4795
 3171.0000   120.7665   -48.7895   -28.3679     5.4215     5.8826     4.8208    72.9543   -54.5588     8.1976   -20.0000     0.2137    -0.0307     2.4692
 3171.5000   120.7904   -52.4603   -28.3570     4.9449     5.0903     4.1532    77.0597   -54.6324     8.1976   -20.0000     0.2123    -0.0240     2.4682
