~VERSION INFORMATION
 VERS.                2.0:   CWLS LOG ASCII STANDARD - VERSION 2.0
 WRAP.                 NO:   ONE LINE PER DEPTH STEP
~WELL INFORMATION
#MNEM.UNIT      DATA TYPE    INFORMATION
#----------   ------------   ------------------------------
 STRT.F          590.0000:   START DEPTH
 STOP.F         3123.0000:   STOP DEPTH
 STEP.F            0.5000:   STEP LENGTH
 NULL.          -999.2500:   NO VALUE
 COMP.         U. S. NAVY:   COMPANY
 WELL. U.S. NPR 3 "A" #402-33:   WELL
 FLD .             TEAPOT:   FIELD
 LOC .      S33 T39N R78W:   LOCATION
 CNTY.            NATRONA:   COUNTY
 STAT.            WYOMING:   STATE
 CTRY. UNITED STATES OF AMERICA:   COUNTRY
 SRVC.         MCCULLOUGH:   SERVICE COMPANY
 DATE.        23-OCT-1967:   LOGDATE
 API .     49025104460000:   API NUMBER
~CURVE INFORMATION
#MNEM.UNIT       API CODE    CURVE DESCRIPTION
#----------   ------------   ------------------------------
 DEPT.F                  :   
 GRN .GAPI   35 310 01 00:   GAMMA RAY FROM NEUTRON
 NEUT.NAPI   35 330 01 00:   NEUTRON
~PARAMETER INFORMATION
#MNEM.UNIT          VALUE    DESCRIPTION
#----------   ------------   ------------------------------
 EKB .F            0.0000:   Kelly bushing
 EGL .F         5160.5000:   Ground level
 EDF .F         5162.0000:   Drilling floor
 TD  .F         3123.5000:   Total depth
 CLNT.            A2DTECH:   Client Code
 PD  .                 GL:   Permanent Datum
 EPD .F            5160.5:   Elevation Permanent Datum
 LMF .                 DF:   Log Measured From
 DMF .                 DF:   Drilling Measured From
 DAPD.F               1.5:   Feet Above Permanent Datum
 DATE.        23-OCT-1967:   Date Logged [DD-MMM-YYYY]
 DL  .F            3123.5:   Depth logger
 BLI .F              3122:   Bottom log interval
 TLI .F               600:   Top log interval
 CS1 .IN           5.1875:   Casing size
 DFT .              WATER:   Type fluid in hole
 TCS .HRS             4.5:   Time Circ. stopped
 ENGI.         COWLTHORPE:   Recorded By
 WITN.           THOMASON:   Witnessed by
 ORIG.         2.5" PRINT:   Origin of data
 UWI .     49025104460000:   Unique Well ID
 DICO. A2D TECHNOLOGIES, INC.:   Digitizing Company
 LUN .               1498:   Logging unit number
~OTHER INFORMATION
~A   DEPT       GRN      NEUT   
# ...
 2655.5000    38.8496   621.6657
 2656.0000    38.2233   648.7589
 2656.5000    34.8872   631.5178
 2657.0000    35.7199   587.1834
 2657.5000    36.3442   616.7396
 2658.0000    34.2465   623.1430
 2658.5000    33.2155   577.3314
 2659.0000    33.4499   587.1834
 2659.5000    36.2462   614.2766
 2660.0000    40.7163   604.4246
 2660.5000    38.9985   569.9423
 2661.0000    38.2129   584.7204
 2661.5000    37.9612   606.8876
 2662.0000    37.3299   604.4246
 2662.5000    36.5422   606.8876
 2663.0000    36.0958   636.6472
 2663.5000    35.7064   663.5370
 2664.0000    37.7049   587.1834
 2664.5000    41.2670   589.6464
 2665.0000    41.1780   577.3314
 2665.5000    40.0795   592.8942
 2666.0000    40.7038   615.4258
 2666.5000    38.4098   621.6657
 2667.0000    39.0652   604.4246
 2667.5000    42.0954   616.7396
 2668.0000    44.6600   596.2509
 2668.5000    35.0452   565.5074
 2669.0000    33.6105   533.6606
 2669.5000    33.6094   508.3669
 2670.0000    33.8386   597.0355
 2670.5000    36.0953   567.4793
 2671.0000    35.1518   583.4853
 2671.5000    33.1884   639.9894
 2672.0000    34.5909   669.1241
 2672.5000    36.1047   685.7042
 2673.0000    35.4010   636.4438
 2673.5000    34.9807   644.5569
 2674.0000    34.6865   631.5783
 2674.5000    33.9315   574.8683
 2675.0000    33.7196   591.2844
 2675.5000    32.6439   606.8876
 2676.0000    31.8784   597.0355
 2676.5000    33.2521   633.0275
 2677.0000    30.6910   651.6142
 2677.5000    30.1483   664.0311
 2678.0000    31.4860   673.8177
 2678.5000    33.9038   622.4504
 2679.0000    33.1728   598.1194
 2679.5000    33.1717   589.2202
 2680.0000    33.1707   571.2549
 2680.5000    33.1696   535.7579
 2681.0000    30.5273   506.5432
 2681.5000    29.3826   513.4745
 2682.0000    32.3125   556.7433
 2682.5000    34.9853   572.0711
 2683.0000    37.9584   544.6233
 2683.5000    37.1236   512.4138
 2684.0000    33.7875   504.1625
 2684.5000    31.4936   517.1993
 2685.0000    32.7432   537.9231
 2685.5000    36.4941   562.5533
 2686.0000    37.3270   542.8491
 2686.5000    38.1595   534.1813
 2687.0000    38.2852   582.2574
 2687.5000    36.4899   560.0902
 2688.0000    36.4307   547.7751
 2688.5000    37.3216   550.2382
 2689.0000    37.3206   510.8299
 2689.5000    38.7786   557.6272
 2690.0000    41.2789   550.2382
 2690.5000    40.6525   547.7751
 2691.0000    38.9840   520.6819
 2691.5000    38.9829   518.2189
 2692.0000    36.6891   542.8491
 2692.5000    39.8146   587.1834
 2693.0000    35.6448   569.9423
 2693.5000    35.8522   577.3314
 2694.0000    37.1018   580.1891
 2694.5000    36.4754   576.2488
 2695.0000    36.4503   585.0497
 2695.5000    37.3071   597.0355
 2696.0000    37.7230   624.1287
 2696.5000    38.1389   663.5370
 2697.0000    36.8871   669.0515
 2697.5000    34.1764   587.1834
 2698.0000    33.1331   594.5725
 2698.5000    31.0477   680.7781
 2699.0000    33.3395   626.5917
 2699.5000    36.2566   690.6302
 2700.0000    36.6725   722.6494
 2700.5000    36.2546   717.6895
 2701.0000    37.3252   717.7234
 2701.5000    39.8180   711.8286
 2702.0000    40.4244   638.9068
 2702.5000    38.9870   662.3721
 2703.0000    35.8899   691.4149
 2703.5000    33.0157   716.1807
 2704.0000    32.0564   626.4908
 2704.5000    27.7095   648.6459
 2705.0000    27.9180   652.6592
 2705.5000    31.0446   675.7149
 2706.0000    35.6303   712.6481
 2706.5000    37.7147   663.3756
 2707.0000    39.3822   636.2703
 2707.5000    39.4274   647.8657
 2708.0000    36.4640   621.4680
 2708.5000    31.6699   589.4366
 2709.0000    35.8387   596.8136
 2709.5000    38.1316   606.6536
 2710.0000    37.0894   527.6584
 2710.5000    36.0472   511.5154
 2711.0000    36.2556   478.5403
 2711.5000    39.3917   488.7198
 2712.0000    37.2532   457.1069
 2712.5000    37.4538   480.1489
 2713.0000    43.4603   500.6591
 2713.5000    45.6367   457.8094
 2714.0000    48.3451   451.3745
 2714.5000    45.9252   459.6063
 2715.0000    45.6354   461.2024
 2715.5000    52.2174   451.1131
 2716.0000    52.9308   410.3727
 2716.5000    51.9681   375.0700
 2717.0000    46.6644   361.4549
 2717.5000    42.0919   375.5107
 2718.0000    42.0919   399.3746
 2718.5000    42.0919   429.0924
 2719.0000    42.0919   429.9115
 2719.5000    38.2190   414.2901
 2720.0000    34.1154   387.1848
 2720.5000    36.5815   409.3398
 2721.0000    32.1008   502.9224
 2721.5000    32.2952   515.2254
 2722.0000    31.4615   537.3805
 2722.5000    33.7543   497.9601
 2723.0000    37.2978   527.5042
 2723.5000    38.9653   526.6647
 2724.0000    38.5484   483.1113
 2724.5000    31.2530   478.2075
 2725.0000    31.8783   533.6153
 2725.5000    31.8783   558.4652
 2726.0000    29.3771   599.7640
 2726.5000    30.2108   657.8212
 2727.0000    30.6277   743.0939
 2727.5000    27.2927   881.1281
 2728.0000    27.7124   924.6505
 2728.5000    27.9180   912.5253
 2729.0000    27.9944   839.9249
 2729.5000    29.8584   773.6486
 2730.0000    30.6831   794.0774
 2730.5000    29.6576   732.3666
 2731.0000    28.7517   714.4968
 2731.5000    28.9602   714.4846
 2732.0000    27.5011   714.4722
 2732.5000    27.7686   684.9013
 2733.0000    27.9180   613.4617
 2733.5000    27.8465   635.6167
 2734.0000    28.8274   647.9197
 2734.5000    32.7121   648.5304
 2735.0000    29.7939   638.0435
 2735.5000    30.2924   596.1600
 2736.0000    33.1174   597.2359
 2736.5000    35.5309   541.9495
 2737.0000    35.3064   549.3264
 2737.5000    35.2134   541.9252
 2738.0000    35.6303   519.7460
 2738.5000    36.0472   504.9557
 2739.0000    39.3822   528.3640
 2739.5000    40.8413   565.0120
 2740.0000    37.0894   555.0016
 2740.5000    33.8832   535.6782
 2741.0000    33.9628   523.0998
 2741.5000    30.6277   612.9166
 2742.0000    31.0446   659.8265
 2742.5000    30.6277   680.4903
 2743.0000    29.3771   671.4078
 2743.5000    33.7543   648.8860
 2744.0000    34.5937   623.7305
 2744.5000    33.7543   611.5671
 2745.0000    37.3046   630.2429
 2745.5000    37.2449   656.5755
 2746.0000    34.5635   662.1423
 2746.5000    31.8271   626.7440
 2747.0000    31.6699   576.1714
 2747.5000    33.3583   494.8798
 2748.0000    35.9412   398.8100
 2748.5000    39.0058   435.7432
 2749.0000    43.2100   467.7503
 2749.5000    41.2514   512.0725
 2750.0000    39.7991   514.5244
 2750.5000    40.4244   499.7332
 2751.0000    40.2160   467.7019
 2751.5000    43.2465   447.9856
 2752.0000    43.9679   443.0475
 2752.5000    43.7594   430.6982
 2753.0000    43.3370   431.0237
 2753.5000    39.2143   448.7104
 2754.0000    37.8315   475.0666
 2754.5000    34.7965   477.4692
 2755.0000    34.5881   457.7530
 2755.5000    35.2134   509.4642
 2756.0000    37.0894   469.9738
 2756.5000    37.2978   432.7077
 2757.0000    38.9653   436.2552
 2757.5000    37.7147   447.8404
 2758.0000    37.5062   411.4896
 2758.5000    37.5062   405.5897
 2759.0000    38.7569   415.7820
 2759.5000    40.4244   398.5482
 2760.0000    41.0497   378.4792
 2760.5000    38.9653   345.4402
 2761.0000    38.1316   339.9301
 2761.5000    37.2879   400.9402
 2762.0000    36.4640   391.0760
 2762.5000    41.6056   383.6748
 2763.0000    44.9430   368.8846
 2763.5000    47.3928   364.7729
 2764.0000    46.6691   383.6385
 2764.5000    45.4270   413.1826
 2765.0000    46.4692   467.3569
 2765.5000    41.0497   464.8818
 2766.0000    43.7594   445.1655
 2766.5000    38.4136   418.0602
 2767.0000    35.5324   428.0690
 2767.5000    34.7965   438.0287
 2768.0000    41.3358   445.1171
 2768.5000    41.7463   411.1900
 2769.0000    39.8210   382.7094
 2769.5000    36.6652   387.4288
 2770.0000    36.4636   418.3879
 2770.5000    42.1343   422.8895
 2771.0000    44.1375   415.4865
 2771.5000    41.4666   416.3090
 2772.0000    44.8017   436.3755
 2772.5000    42.3004   437.5114
 2773.0000    39.1738   411.0683
 2773.5000    38.5962   398.1837
 2774.0000    44.5932   429.2677
 2774.5000    43.7594   416.9231
 2775.0000    42.0919   393.6321
 2775.5000    38.7569   427.6884
 2776.0000    35.6303   403.0461
 2776.5000    34.7965   398.1080
