~VERSION INFORMATION
 VERS.                2.0:   CWLS LOG ASCII STANDARD - VERSION 2.0
 WRAP.                 NO:   ONE LINE PER DEPTH STEP
~WELL INFORMATION
#MNEM.UNIT      DATA TYPE    INFORMATION
#----------   ------------   ------------------------------
 STRT.F          198.5000:   START DEPTH
 STOP.F         3172.0000:   STOP DEPTH
 STEP.F            0.5000:   STEP LENGTH
 NULL.          -999.2500:   NO VALUE
 COMP.    FENIX & SCISSON:   COMPANY
 WELL. FENIX & SCISSON AX #26-11:   WELL
 FLD .              NPR-3:   FIELD
 LOC .      S11 T38N R78W:   LOCATION
 CNTY.            NATRONA:   COUNTY
 STAT.            WYOMING:   STATE
 CTRY. UNITED STATES OF AMERICA:   COUNTRY
 SRVC.              WELEX:   SERVICE COMPANY
 DATE.        11-NOV-1977:   LOGDATE
 API .     49025104420000:   API NUMBER
~CURVE INFORMATION
#MNEM.UNIT       API CODE    CURVE DESCRIPTION
#----------   ------------   ------------------------------
 DEPT.F                  :   
 GRD .GAPI   45 310 01 00:   GAMMA RAY FROM DENSITY LOG
 CALD.IN     45 280 60 00:   CALIPER FROM DENSITY LOG
 CORR.G/C3   45 356 01 00:   DENSITY CORRECTION
 TEND.LBS    45 635 01 00:   TENSION FROM DENSITY LOG
 RHOB.G/C3   45 350 01 00:   BULK DENSITY
 SPR .MV     07 010 01 00:   SPONTANEOUS POTENTIAL
 ILD .OHMM   07 120 46 00:   DEEP INDUCTION RESISTIVITY
 ILM .OHMM   07 120 44 00:   INDUCTION LOG MEDIUM RESISTIVITY
 SGRD.OHMM   07 220 05 00:   SHALLOW SHORT GUARD RESISTIVITY
~PARAMETER INFORMATION
#MNEM.UNIT          VALUE    DESCRIPTION
#----------   ------------   ------------------------------
 EKB .F         5187.0000:   Kelly bushing
 EGL .F         5177.0000:   Ground level
 EDF .F            0.0000:   Drilling floor
 EPD .F         5177.0000:   Permanent datum
 TD  .F         3174.0000:   Total depth
 CLNT.            A2DTECH:   Client Code
 SL  . 1650' FSL & 840' FWL:   Surface Location
 PD  .                 GL:   Permanent Datum
 LMF .                 KB:   Log Measured From
 DMF .                 KB:   Drilling Measured From
 DAPD.F                10:   Feet Above Permanent Datum
 DATE.        11-NOV-1977:   Date Logged [DD-MMM-YYYY]
 DD  .F              3170:   Depth driller
 DL  .F              3174:   Depth logger
 BLI .F              3172:   Bottom log interval
 TLI .F               200:   Top log interval
 CS1 .              8.625:   Casing size
 CBD1.      8.625" @ 220':   Casing driller 1
 CBL1.IN              220:   Casing logger 1
 BS1 .IN            7.875:   Bit size
 BSD1.F              3170:   Depth drilled with bit1
 DFT .            KCL MUD:   Type fluid in hole
 DFD .                8.9:   Density
 DFV .                 37:   Viscosity
 DFPH.               11.0:   pH
 DFL .                6.4:   Fluid loss
 MSS .           FLOWLINE:   Source of sample
 RMS .OHMM           2.79:   Rm
 MST .F                50:   Rm Meas. temp.
 RMF .OHMM           2.16:   Rmf
 MFST.F                50:   Rmf Meas. temp.
 MFSS.               FANN:   Source Rmf.
 MCSS.               TEST:   Source Rmc.
 RMB .OHMM           1.22:   Rm. at BHT
 BHT .F               114:   BHT.
 TCS .HRS               3:   Time Circ. stopped
 MRT .F               114:   Maximum recorded temp.
 LUN .               8611:   Logging unit number
 LUL .             CASPER:   Logging unit location
 ENGI.            C. DOAK:   Recorded By
 WITN.         HARRINGTON:   Witnessed by
 ORIG.      2.5" 5" PRINT:   Origin of data
 UWI .     49025104420000:   Unique Well ID
 DICO. A2D TECHNOLOGIES, INC.:   Digitizing Company
~OTHER INFORMATION
~A   DEPT       GRD      CALD       CORR       TEND       RHOB        SPR        ILD        ILM       SGRD   
# ...
 1001.5000   109.7612     9.6326    -0.0048  1201.3868     2.4838   -76.5349     6.8687     9.4890     9.6912
 1002.0000   108.4656     9.6533    -0.0110  1201.8492     2.4715   -76.3910     6.9080     9.8853     9.8236
 1002.5000   104.3731     9.6533    -0.0049  1202.3115     2.4807   -76.2493     7.0011    10.1562     9.8886
 1003.0000   105.6537     9.6533     0.0013  1202.7738     2.4976   -76.1076     7.0946    10.4344     9.9543
 1003.5000   107.9761     9.6533     0.0074  1172.4615     2.5083   -76.1187     7.0912    10.7951    10.0203
 1004.0000   108.4908     9.6636     0.0105  1172.9293     2.5114   -76.1276     7.1043    11.0908     9.9390
 1004.5000   108.3880     9.6842     0.0151  1173.3916     2.5129   -76.1576     7.1203    10.7788     9.8065
 1005.0000   107.1642     9.6842     0.0166  1201.5385     2.5021   -76.6265     7.1226    10.6889     9.4673
 1005.5000   106.5373     9.7152     0.0118  1201.6924     2.4914   -76.7943     7.1661    10.9131     9.2044
 1006.0000   104.7165     9.7152     0.0025  1201.8756     2.4898   -76.9338     7.1615    11.0595     9.2655
 1006.5000   102.7791     9.7152     0.0011  1202.0276     2.4929   -76.9463     7.1570    11.2818     9.3920
 1007.0000   101.7970     9.7461     0.0103  1202.1797     2.5037   -76.8061     7.1526    11.3519     9.5876
 1007.5000   102.1792     9.7461     0.0226  1202.3318     2.5128   -76.8165     7.1473    11.5020     9.8548
 1008.0000   104.5729     9.7461     0.0257  1202.4839     2.5077   -76.6738     7.1428    11.5735     9.9202
 1008.5000   106.9672     9.7461     0.0164  1202.6359     2.4906   -76.6868     7.1384    11.7243     9.9159
 1009.0000   109.2001     9.7461     0.0102  1202.7880     2.4767   -76.8478     7.0357    11.7155     9.8438
 1009.5000   110.6507     9.7461     0.0040  1202.9401     2.4665   -76.8583     6.9345    11.5451     9.5704
 1010.0000   108.8358     9.7461     0.0040  1203.0922     2.4651   -76.8687     6.8348    11.1427     9.4349
 1010.5000   106.8357     9.7461     0.0070  1203.2441     2.4669   -76.8791     6.7833    10.6059     9.3014
 1011.0000   105.2181     9.7461     0.0070  1203.3962     2.4719   -76.8895     6.7792    10.2361     9.1697
 1011.5000   102.0001     9.7461     0.0070  1203.5483     2.4777   -76.9000     6.7281     9.9482     9.2306
 1012.0000   101.5918     9.7461     0.0039  1203.7004     2.4828   -76.9104     6.7240     9.8719     9.4878
 1012.5000   105.5971     9.7461     0.0038  1203.8525     2.4875   -77.0714     6.5814     9.7961     9.6901
 1013.0000   106.7880     9.7461     0.0038  1173.2307     2.4932   -77.0819     6.5319     9.9276     9.5289
 1013.5000   107.4955     9.7461     0.0069  1173.3873     2.4963   -76.9413     6.4828     9.7137     9.0268
 1014.0000   106.0298     9.7461     0.0099  1173.5394     2.5057   -76.9521     6.3895     9.1817     9.0237
 1014.5000   104.5463     9.7461     0.0130  1173.6923     2.5138   -76.9625     6.3414     8.5592     8.9588
 1015.0000   104.9850     9.7415     0.0191  1173.8461     2.5200   -76.9730     6.2070     8.2588     9.0182
 1015.5000   106.4956     9.7413     0.0221  1173.9999     2.5247   -76.9834     6.1603     7.9727     9.0144
 1016.0000   107.6776     9.7412     0.0252  1174.1538     2.5286   -76.9939     6.1139     7.8567     9.0113
 1016.5000   108.5642     9.7410     0.0344  1174.3076     2.5317   -76.8537     6.0679     7.9057     9.0082
 1017.0000   110.0418     9.7409     0.0343  1174.4615     2.5340   -76.8645     6.0642     8.1208     9.0051
 1017.5000   110.9105     9.7407     0.0374  1174.6152     2.5308   -76.8750     6.0604     8.3433     8.9396
 1018.0000   112.1313     9.7406     0.0374  1174.7692     2.5246   -76.7370     6.0988     8.2220     8.9366
 1018.5000   113.2567     9.7094     0.0338  1174.9230     2.5174   -76.5942     6.1375     8.1589     8.8716
 1019.0000   113.9165     9.7093     0.0247  1175.0769     2.5094   -76.3034     6.1336     8.0963     8.8685
 1019.5000   114.4090     9.6913     0.0185  1175.2307     2.5017   -76.0126     6.1298     7.9786     8.8655
 1020.0000   113.1899     9.6780     0.0122  1175.3845     2.4955   -75.8725     6.1687     7.9726     8.8624
 1020.5000   111.9751     9.6469     0.0034  1175.5385     2.4894   -75.8855     6.2078     8.1359     8.9212
 1021.0000   108.3723     9.6158     0.0002  1175.6923     2.4863   -75.8959     6.2472     8.3572     8.9182
 1021.5000   105.9635     9.6156     0.0033  1175.8461     2.4847   -76.2076     6.2867     8.1787     8.9150
 1022.0000   104.1517     9.6155     0.0063  1175.9999     2.4878   -76.5192     6.3256     8.1160     8.9120
 1022.5000   105.9254     9.6153     0.0032  1176.1538     2.4909   -76.6802     6.3217     8.1099     8.9082
 1023.0000   108.2893     9.6151     0.0032  1176.3076     2.4939   -76.8412     6.3178     8.2171     8.9052
 1023.5000   108.2686     9.6150     0.0032  1176.4615     2.4941   -76.8517     6.3139     8.5604     8.9021
 1024.0000   109.4419     9.6148     0.0031  1176.6152     2.4877   -76.7089     6.2664     8.7340     8.8991
 1024.5000   109.4211     9.6147     0.0062  1176.7692     2.4816   -76.5687     6.2625     8.5473     8.7731
 1025.0000   108.2064     9.6145     0.0062  1176.9231     2.4770   -76.5818     6.2154     8.2971     8.7093
 1025.5000   107.5886     9.6144     0.0061  1177.0769     2.4785   -76.5922     6.1260     8.0718     8.7671
 1026.0000   107.5679     9.6142     0.0092  1177.2307     2.4846   -76.6026     6.0799     8.0657     8.7033
 1026.5000   107.5471     9.5831     0.0122  1177.3845     2.4907   -76.7636     6.0761     7.6771     8.5802
 1027.0000   108.1254     9.5830     0.0122  1177.5385     2.4954   -77.0764     6.1155     7.3582     8.4001
 1027.5000   108.1027     9.5828     0.0135  1177.7214     2.4953   -77.2364     6.1108     7.2010     8.2238
 1028.0000   109.2760     9.5827     0.0166  1177.8735     2.4937   -77.2467     6.1070     7.2458     7.9953
 1028.5000   109.2552     9.5515     0.0182  1178.0255     2.4957   -76.6548     6.0611     7.4443     7.8275
 1029.0000   109.8328     9.5514     0.0213  1178.1776     2.5048   -76.2134     6.0573     7.9737     7.7167
 1029.5000   109.8107     9.5512     0.0213  1178.3297     2.5091   -75.9252     5.8880     8.4833     7.5548
 1030.0000   110.3870     9.5511     0.0149  1178.4818     2.5080   -75.9356     5.8436     8.2431     7.4998
 1030.5000   111.5603     9.5509     0.0072  1178.6338     2.4937   -75.9461     5.8808     8.0112     7.9539
 1031.0000   112.7336     9.5508    -0.0021  1178.7859     2.4845   -75.9565     5.9591     7.8947     8.4460
 1031.5000   114.5039     9.5506    -0.0066  1178.9380     2.4902   -75.9669     6.0386     7.7800     8.6706
 1032.0000   115.0806     9.5505    -0.0035  1179.0901     2.4967   -75.9774     6.0774     7.7741     8.7883
 1032.5000   115.6717     9.5503     0.0057  1179.2422     2.4916   -75.9878     6.1580     7.8232     8.8474
 1033.0000   114.4417     9.5502     0.0067  1179.3942     2.4890   -75.9982     6.1970     8.1009     8.9061
 1033.5000   112.6269     9.5500    -0.0036  1179.5463     2.4936   -76.0087     6.2363     8.8830     8.9022
 1034.0000   111.3908     9.5577    -0.0036  1179.6984     2.5018   -76.0191     6.2322    10.0044     8.9621
 1034.5000   110.1791     9.5807     0.0056  1179.8505     2.5071   -76.0295     6.2276    11.8289     9.0208
 1035.0000   108.9551     9.5805     0.0086  1180.0024     2.5124   -76.0399     6.2237    13.0271     9.0814
 1035.5000   108.3672     9.5803     0.0093  1180.1545     2.5093   -76.0504     6.2641    13.7611     9.0775
 1036.0000   107.7493     9.5802     0.0024  1180.3076     2.5020   -76.0608     6.3038    13.8492     9.1385
 1036.5000   107.7284     9.5800     0.0017  1180.4615     2.5065   -76.0712     6.3438    14.0298     9.3281
 1037.0000   107.7075     9.5799     0.0054  1180.6154     2.5112   -76.2323     6.4274    14.3144     9.2594
 1037.5000   107.6866     9.5797    -0.0008  1180.7692     2.5087   -76.2427     6.4234    14.7066     9.1284
