~VERSION INFORMATION
 VERS.                2.0:   CWLS LOG ASCII STANDARD - VERSION 2.0
 WRAP.                 NO:   ONE LINE PER DEPTH STEP
~WELL INFORMATION
#MNEM.UNIT      DATA TYPE    INFORMATION
#----------   ------------   ------------------------------
 STRT.F           36.0000:   START DEPTH
 STOP.F         4960.0000:   STOP DEPTH
 STEP.F            0.5000:   STEP LENGTH
 NULL.          -999.2500:   NO VALUE
 COMP.   TESORO PETROLEUM:   COMPANY
 WELL. TESORO NPR 3 "DX" #55-23:   WELL
 FLD .        TEAPOT DOME:   FIELD
 LOC .      S23 T38N R78W:   LOCATION
 CNTY.            NATRONA:   COUNTY
 STAT.            WYOMING:   STATE
 CTRY. UNITED STATES OF AMERICA:   COUNTRY
 SRVC.           BIRDWELL:   SERVICE COMPANY
 DATE.        17-AUG-1975:   LOGDATE
 API .     49025102510000:   API NUMBER
~CURVE INFORMATION
#MNEM.UNIT       API CODE    CURVE DESCRIPTION
#----------   ------------   ------------------------------
 DEPT.F                  :   
 TEND.LBS    45 635 01 00:   TENSION FROM DENSITY LOG
 CALD.IN     45 280 60 00:   CALIPER FROM DENSITY LOG
 CORR.G/C3   45 356 01 00:   DENSITY CORRECTION
 GRD .GAPI   45 310 01 00:   GAMMA RAY FROM DENSITY LOG
 RHOB.G/C3   45 350 01 00:   BULK DENSITY
 SPR .MV     07 010 01 00:   SPONTANEOUS POTENTIAL
 ILM .OHMM   07 120 44 00:   INDUCTION LOG MEDIUM RESISTIVITY
 ILD .OHMM   07 120 46 00:   DEEP INDUCTION RESISTIVITY
 SFL .OHMM   07 220 01 00:   SHALLOW FOCUSED LOG RESISTIVITY
~PARAMETER INFORMATION
#MNEM.UNIT          VALUE    DESCRIPTION
#----------   ------------   ------------------------------
 EKB .F         5371.0000:   Kelly bushing
 EGL .F         5360.0000:   Ground level
 EDF .F            0.0000:   Drilling floor
 TD  .F         4955.0000:   Total depth
 DATE.        17-AUG-1975:   Date logged
 CLNT.            A2DTECH:   Client Code
 SL  . 1980' FSL & 2030' FEL:   Surface Location
 PD  .                 GL:   Permanent Datum
 DD  .F              4955:   Depth driller
 DL  .F              4945:   Depth logger
 BLI .F              4943:   Bottom log interval
 CS1 .IN            8.625:   Casing size
 CBD1.     8.625" @ 1450':   Casing driller 1
 CBL1.F              1457:   Casing logger 1
 BS1 .IN            7.875:   Bit size
 DFT .            KCL/GEL:   Type fluid in hole
 DFD .                9.5:   Density
 DFV .                 53:   Viscosity
 DFPH.                8.5:   pH
 DFL .                7.4:   Fluid loss
 MSS .           FLOWLINE:   Source of sample
 RMS .OHMM            1.2:   Rm
 MST .F                72:   Rm Meas. temp.
 RMF .OHMM            .94:   Rmf
 MFST.F                74:   Rmf Meas. temp.
 MFSS.               MEAS:   Source Rmf.
 RMB .OHMM            .71:   Rm. at BHT
 BHT .F               121:   BHT.
 TCS .HRS               4:   Time Circ. stopped
 MRT .F               121:   Maximum recorded temp.
 LUN .               6078:   Logging unit number
 LUL .              GLTTE:   Logging unit location
 ENGI.      NORDEN/SUTTON:   Recorded By
 WITN.          UNDERWOOD:   Witnessed by
 ORIG.           5" PRINT:   Origin of data
 UWI .     49025102510000:   Unique Well ID
 DICO. A2D TECHNOLOGIES, INC.:   Digitizing Company
 DAPD.F                11:   Feet Above Permanent Datum
 BSD1.F              5360:   Depth drilled with bit1
 EPD .F              5360:   Elevation Permanent Datum
 LMF .                 KB:   Log Measured From
 DMF .                 KB:   Drilling Measured From
 TLI .F              1457:   Top log interval
~OTHER INFORMATION
~A   DEPT     TEND       CALD       CORR        GRD       RHOB        SPR        ILM        ILD          SFL 
# ...
 3576.5000  3174.3601     7.9490     0.0650    29.5700     2.4600   -49.8610    15.5790    16.5750    22.9600
 3577.0000  3181.1470     7.9430     0.0670    29.3590     2.4660   -49.3880    15.3420    16.2080    17.1040
 3577.5000  3187.9331     7.9360     0.0690    28.7710     2.4710   -48.9160    15.1050    15.8410    17.6100
 3578.0000  3168.2290     7.9410     0.0710    29.7380     2.4750   -48.4440    14.8680    15.6550    18.7520
 3578.5000  3130.0000     7.9530     0.0720    30.5600     2.4720   -48.1120    14.6270    15.5320    17.9200
 3579.0000  3140.8799     7.9640     0.0660    30.4180     2.4640   -48.3930    14.7970    15.4100    17.1040
 3579.5000  3161.2400     7.9760     0.0610    29.9560     2.4550   -48.6590    15.0130    15.3160    18.8070
 3580.0000  3150.6670     7.9880     0.0560    29.3960     2.4490   -48.9220    15.2290    15.6420    20.3710
 3580.5000  3138.8440     7.9900     0.0580    29.8970     2.4500   -49.1850    15.4450    15.9580    18.0750
 3581.0000  3161.4670     7.9800     0.0600    30.4280     2.4520   -49.4500    15.6610    16.2740    18.9570
 3581.5000  3159.4331     7.9710     0.0620    30.3190     2.4530   -49.7140    15.8900    16.4860    19.8170
 3582.0000  3142.4670     7.9620     0.0620    29.9970     2.4550   -49.8870    15.6910    16.3000    19.4260
 3582.5000  3130.0000     7.9550     0.0620    29.9740     2.4560   -49.4590    15.4790    16.1030    19.1010
 3583.0000  3157.2000     7.9630     0.0610    30.7410     2.4590   -49.0450    15.2670    15.9050    20.3710
 3583.5000  3182.6499     7.9720     0.0610    30.2850     2.4680   -48.5020    15.0560    15.7080    20.0450
 3584.0000  3165.8669     7.9800     0.0630    29.8840     2.4810   -47.3560    14.7630    15.4580    19.5230
 3584.5000  3131.9331     7.9890     0.0660    30.7050     2.4930   -46.2010    15.1600    15.9160    17.0740
 3585.0000  3113.0000     7.9920     0.0690    31.2780     2.5050   -45.1380    15.6160    16.4430    16.6380
 3585.5000  3121.4829     7.9850     0.0730    30.7480     2.5160   -45.1130    16.0720    16.7920    19.7800
 3586.0000  3130.0000     7.9790     0.0760    30.2370     2.5130   -45.1230    16.1850    16.7370    23.1870
 3586.5000  3153.8589     7.9730     0.0720    30.1630     2.4870   -45.2450    16.0960    16.6960    26.6010
 3587.0000  3177.8120     7.9660     0.0630    30.1610     2.4610   -45.6840    16.0190    16.6540    24.0990
 3587.5000  3201.7649     7.9600     0.0540    30.1600     2.4390   -46.1060    15.9420    16.6130    19.9840
 3588.0000  3206.0710     7.9540     0.0480    30.1590     2.4360   -46.4970    15.8650    16.5720    18.2640
 3588.5000  3200.0820     7.9480     0.0470    30.1540     2.4370   -46.7400    15.7880    16.5300    18.3950
 3589.0000  3194.0940     7.9420     0.0480    30.4390     2.4410   -47.0030    15.7110    16.4860    18.5700
 3589.5000  3188.1060     7.9350     0.0490    30.8040     2.4490   -47.2700    15.6340    16.2790    18.7520
 3590.0000  3182.1179     7.9440     0.0500    31.6980     2.4520   -47.5350    15.4650    16.0570    19.6220
 3590.5000  3176.1289     7.9610     0.0510    32.9190     2.4540   -47.6220    15.2260    15.8350    20.0000
 3591.0000  3170.0000     7.9780     0.0520    32.7810     2.4600   -47.3600    14.9870    15.6120    18.8350
 3591.5000  3145.1499     7.9950     0.0530    32.5920     2.4740   -47.1070    14.7480    15.3900    17.3980
 3592.0000  3137.4910     8.0110     0.0540    32.4140     2.4750   -46.9350    14.5090    15.0980    16.4860
 3592.5000  3156.0000     8.0140     0.0550    31.8180     2.4760   -47.0800    14.2700    14.7710    18.2420
 3593.0000  3171.0330     8.0140     0.0560    31.1840     2.4780   -46.9020    14.0310    14.3610    17.2170
 3593.5000  3175.2749     8.0140     0.0570    30.5250     2.4820   -46.6040    13.8150    14.4540    15.7880
 3594.0000  3179.5171     8.0140     0.0570    30.6350     2.4850   -46.3040    13.7390    14.6270    14.8990
 3594.5000  3183.7581     8.0140     0.0580    30.9220     2.4820   -46.1610    13.6630    14.4350    15.9520
 3595.0000  3188.0000     8.0140     0.0580    30.6220     2.4820   -46.2930    13.5890    14.3390    17.2790
 3595.5000  3186.1570     8.0140     0.0590    30.3160     2.4830   -46.4200    13.8010    14.2420    17.7450
 3596.0000  3178.8860     8.0140     0.0600    30.0140     2.4830   -46.5480    14.0040    14.4310    16.1850
 3596.5000  3171.6140     8.0140     0.0600    29.7890     2.4830   -46.6760    14.2080    14.6630    16.8840
 3597.0000  3164.3430     8.0140     0.0610    30.0100     2.4830   -46.8040    14.4120    14.8960    18.0750
 3597.5000  3157.0710     8.0060     0.0620    30.2260     2.4840   -46.9560    14.6150    15.1280    17.2850
 3598.0000  3150.0000     7.9930     0.0620    30.4410     2.4840   -47.2070    14.8190    15.3390    16.6380
 3598.5000  3169.6130     7.9790     0.0620    30.3890     2.4810   -47.4620    14.9080    15.4610    19.0340
 3599.0000  3188.7000     7.9660     0.0600    29.9950     2.4770   -47.7220    14.9240    15.5820    20.5600
 3599.5000  3207.7881     7.9540     0.0590    29.5980     2.4720   -48.2360    14.9400    15.6000    18.5610
 3600.0000  3203.0320     7.9550     0.0570    29.9120     2.4620   -48.7460    14.9550    15.6000    17.4220
 3600.5000  3195.1499     7.9570     0.0550    31.0720     2.4540   -49.2540    14.9710    15.6010    18.8510
 3601.0000  3187.2690     7.9590     0.0540    30.4340     2.4530   -49.7620    14.9860    15.6000    20.0000
 3601.5000  3179.3870     7.9600     0.0520    29.6530     2.4490   -50.2700    15.0020    15.6000    20.1850
 3602.0000  3171.5061     7.9620     0.0500    29.3250     2.4440   -50.7760    15.0180    15.6010    17.4220
 3602.5000  3183.8330     7.9630     0.0490    29.7540     2.4420   -51.1770    15.0330    15.6000    19.4550
 3603.0000  3200.9331     7.9650     0.0470    29.5350     2.4420   -51.3840    15.2990    15.6000    18.9540
 3603.5000  3218.0330     7.9660     0.0450    29.0870     2.4420   -51.5940    15.6390    15.9770    18.0830
 3604.0000  3223.8401     7.9680     0.0450    27.9830     2.4450   -51.8040    15.9790    16.3600    17.7450
 3604.5000  3203.3201     7.9690     0.0470    26.8970     2.4500   -52.0140    16.3180    16.7420    20.4330
 3605.0000  3182.8000     7.9710     0.0480    25.8110     2.4540   -52.2240    16.6580    17.1250    22.9600
 3605.5000  3171.6780     7.9720     0.0500    24.8680     2.4580   -52.4340    16.9980    17.5080    22.2700
 3606.0000  3176.1389     7.9740     0.0520    24.9880     2.4610   -52.6440    17.3370    17.8900    20.9420
 3606.5000  3180.6001     7.9610     0.0530    25.7370     2.4600   -52.8520    17.5830    18.2420    22.3270
 3607.0000  3185.0610     7.9460     0.0530    25.5700     2.4540   -53.0620    17.1820    17.8580    26.1160
 3607.5000  3190.0000     7.9310     0.0530    24.9430     2.4490   -53.3310    16.8110    17.5040    24.5790
 3608.0000  3163.8291     7.9160     0.0530    25.2270     2.4430   -52.9430    16.4860    17.2620    22.3820
 3608.5000  3150.0000     7.9000     0.0530    26.2920     2.4440   -52.2430    16.4860    17.2620    20.1860
 3609.0000  3163.8291     7.8850     0.0530    27.3360     2.4460   -51.5290    16.4310    17.2310    18.7520
 3609.5000  3178.4861     7.8700     0.0530    27.6930     2.4470   -50.9550    16.2720    17.0200    19.7070
 3610.0000  3188.0000     7.8540     0.0560    27.2350     2.4490   -50.6100    16.1130    16.8090    21.1350
 3610.5000  3178.6731     7.8380     0.0590    27.2780     2.4500   -50.2620    15.9540    16.5980    21.1350
 3611.0000  3169.3450     7.8260     0.0620    28.5370     2.4510   -49.9140    15.7740    16.3870    18.9510
 3611.5000  3160.0181     7.8080     0.0640    29.7800     2.4500   -49.5650    15.5800    16.1770    19.0620
 3612.0000  3150.0000     7.7900     0.0600    31.0240     2.4430   -49.2180    15.3860    15.9660    19.1010
 3612.5000  3171.1111     7.7730     0.0560    32.2740     2.4270   -48.9080    15.0490    15.6060    17.1040
