~VERSION INFORMATION
 VERS.                2.0:   CWLS LOG ASCII STANDARD - VERSION 2.0
 WRAP.                 NO:   ONE LINE PER DEPTH STEP
~WELL INFORMATION
#MNEM.UNIT      DATA TYPE    INFORMATION
#----------   ------------   ------------------------------
 STRT.F          200.5000:   START DEPTH
 STOP.F         3164.0000:   STOP DEPTH
 STEP.F            0.5000:   STEP LENGTH
 NULL.          -999.2500:   NO VALUE
 COMP. FENIX & SCISSON U.S NAVY:   COMPANY
 WELL. FENIX & SCISSON "A" #83-4:   WELL
 FLD .              NPR-3:   FIELD
 LOC .       S4 T38N R78W:   LOCATION
 CNTY.            NATRONA:   COUNTY
 STAT.            WYOMING:   STATE
 CTRY. UNITED STATES OF AMERICA:   COUNTRY
 SRVC.       SCHLUMBERGER:   SERVICE COMPANY
 DATE.        25-MAY-1977:   LOGDATE
 API .     49025103660000:   API NUMBER
~CURVE INFORMATION
#MNEM.UNIT       API CODE    CURVE DESCRIPTION
#----------   ------------   ------------------------------
 DEPT.F                  :   
 CALD.IN     45 280 60 00:   CALIPER FROM DENSITY LOG
 GRD .GAPI   45 310 01 00:   GAMMA RAY FROM DENSITY LOG
 RHOB.G/C3   45 350 01 00:   BULK DENSITY
 CORR.G/C3   45 356 01 00:   DENSITY CORRECTION
 SPR .MV     07 010 01 00:   SPONTANEOUS POTENTIAL
 SFLU.OHMM   07 220 01 00:   SPHERICALLY FOCUSED LOG UNAVERAGED RESISTIVITY
 ILD .OHMM   07 120 46 00:   DEEP INDUCTION RESISTIVITY
 ILM .OHMM   07 120 44 00:   INDUCTION LOG MEDIUM RESISTIVITY
~PARAMETER INFORMATION
#MNEM.UNIT          VALUE    DESCRIPTION
#----------   ------------   ------------------------------
 EKB .F         5163.0000:   Kelly bushing
 EGL .F         5149.0000:   Ground level
 EDF .F            0.0000:   Drilling floor
 EPD .F            0.0000:   Permanent datum
 TD  .F         3173.0000:   Total depth
 DATE.        25-MAY-1977:   Date logged
 CLNT.            A2DTECH:   Client Code
 SL  . 1650' FNL & 330 ' FEL:   Surface Location
 PD  .                 GL:   Permanent Datum
 DAPD.F                14:   Feet Above Permanent Datum
 DD  .F              3173:   Depth driller
 DL  .F              3157:   Depth logger
 BLI .F              3165:   Bottom log interval
 TLI .F               200:   Top log interval
 CS1 .IN            8.625:   Casing size
 CBD1.      8.625" @ 204':   Casing driller 1
 CBL1.F               220:   Casing logger 1
 BS1 .IN            7.875:   Bit size
 BSD1.F              3173:   Depth drilled with bit1
 DFT .            KCL MUD:   Type fluid in hole
 DFD .                8.8:   Density
 DFV .                 37:   Viscosity
 DFPH.                7.5:   pH
 DFL .                4.4:   Fluid loss
 MSS .           FLOWLINE:   Source of sample
 RMS .OHMM            .39:   Rm
 MST .F                79:   Rm Meas. temp.
 RMF .OHMM            .31:   Rmf
 MFST.F                79:   Rmf Meas. temp.
 RMC .OHMM            .63:   Rmc
 MCST.F                79:   Rmc Meas. temp.
 MFSS.           FANN KIT:   Source Rmf.
 MCSS.           FANN KIT:   Source Rmc.
 RMB .OHMM            .27:   Rm. at BHT
 BHT .F               112:   BHT.
 TCS .HRS             2.5:   Time Circ. stopped
 MRT .F               112:   Maximum recorded temp.
 LUN .               8611:   Logging unit number
 LUL .             CASPER:   Logging unit location
 ENGI.            C. DOAK:   Recorded By
 WITN.      B. HARRINGTON:   Witnessed by
 ORIG.       2.5"5" PRINT:   Origin of data
 UWI .     49025103660000:   Unique Well ID
 DICO. A2D TECHNOLOGIES, INC.:   Digitizing Company
~OTHER INFORMATION
~A   DEPT     CALD        GRD         RHOB     CORR        SPR       SFLU        ILD        ILM   
# ...
 2914.0000     8.5818   130.8293     2.4870     0.0022   -42.6358     8.0030     5.9861     4.7271
 2914.5000     8.5819   131.6155     2.4890     0.0022   -42.2447     7.7182     6.2078     4.6425
 2915.0000     8.5820   130.8396     2.4929     0.0022   -42.6341     8.0040     5.9868     4.6426
 2915.5000     8.5821   130.0615     2.5046     0.0022   -42.2430     8.1511     6.0969     4.7281
 2916.0000     8.5822   126.9367     2.5007     0.0021   -42.2420     8.2322     6.3228     4.7282
 2916.5000     8.5823   123.8137     2.4791     0.0021   -42.2413     8.1521     6.2094     4.8153
 2917.0000     8.5824   122.2530     2.4830    -0.0019   -42.2403     8.3021     6.4382     4.8156
 2917.5000     8.5825   122.2588     2.4987    -0.0019   -42.2397     8.4546     6.4386     4.8159
 2918.0000     8.5826   123.0449     2.5105     0.0059   -42.6290     8.6099     6.3242     4.8161
 2918.5000     8.5827   123.0507     2.5242     0.0059   -42.2380     8.7682     6.6788     4.9047
 2919.0000     8.5828   122.2721     2.5262     0.0098   -42.2370     8.7686     6.4408     4.9050
 2919.5000     8.5438   121.4955     2.5124     0.0019   -42.2363     8.7692     6.6795     4.9952
 2920.0000     8.5830   123.0642     2.5006    -0.0020   -43.4063     8.7695     6.8022     4.9955
 2920.5000     8.5831   123.0699     2.5006    -0.0021   -42.2346     8.7701     6.8027     4.9958
 2921.0000     8.5832   124.6388     2.5045     0.0018   -42.2336     8.6127     6.8030     5.0876
 2921.5000     8.5833   125.4272     2.5065     0.0057   -42.2330     8.6132     6.8034     5.0880
 2922.0000     8.5051   125.4312     2.4986     0.0135   -43.0126     8.6136     6.8037     5.0882
 2922.5000     8.5835   127.0023     2.4927     0.0017   -42.2313     8.9327     6.9289     5.0885
 2923.0000     8.5836   127.0063     2.4966     0.0017   -42.2303     8.9333     6.8045     5.1820
 2923.5000     8.5837   127.0122     2.4966    -0.0022   -42.2296     8.9337     7.0566     5.1824
 2924.0000     8.5838   126.2335     2.4946    -0.0023   -42.2286     9.0979     7.0569     5.1826
 2924.5000     8.5839   126.2394     2.4907    -0.0023   -42.2280     9.0983     7.1867     5.1830
 2925.0000     8.5840   127.0261     2.4926    -0.0023   -42.2270     9.4354     7.0577     5.1833
 2925.5000     8.5841   129.3805     2.4985    -0.0024   -42.2263     9.4358     7.0582     5.0903
 2926.0000     8.5842   130.1674     2.5005     0.0015   -42.2253     9.0997     7.0585     5.0906
 2926.5000     8.5843   130.9564     2.5005     0.0015   -42.2246     8.7755     6.8072     4.9993
 2927.0000     8.5844   130.1776     2.4985     0.0015   -42.2236     8.3110     6.8075     4.9996
 2927.5000     8.6236   128.6179     2.4985     0.0014   -42.2229     7.8708     6.6855     4.9100
 2928.0000     8.6238   128.6219     2.4985     0.0014   -41.0513     7.8713     6.4461     4.8218
 2928.5000     8.6239   128.6259     2.5240     0.0053   -42.2213     8.0159     6.4466     4.9105
 2929.0000     8.6240   128.6320     2.5260     0.0053   -42.2203     8.1633     6.4469     4.8224
 2929.5000     8.6241   129.9851     2.5240     0.0092   -41.8294     8.3132     6.5668     4.9111
 2930.0000     8.6242   126.8590     2.5240     0.0091   -41.4383     8.3137     6.5671     4.9113
 2930.5000     8.6243   123.7306     2.5279     0.0052   -41.8278     8.3141     6.6683     4.9117
 2931.0000     8.6244   119.0376     2.5338     0.0052   -41.8268     8.0181     6.8107     5.0019
 2931.5000     8.6245   116.6919     2.5436     0.0091   -41.8261     7.8742     6.8110     5.0939
 2932.0000     8.6245   113.5646     2.5475     0.0208   -41.8251     7.8747     7.0634     5.2827
 2932.5000     8.6247   113.5682     2.5514     0.0325   -41.8245     8.4680     7.0637     5.3797
 2933.0000     8.6639   115.9234     2.5474     0.0265   -41.8235     9.7925     7.3254     5.5789
 2933.5000     8.7424   116.7103     2.5376     0.0265   -41.8228     9.7929     7.4599     5.6815
 2934.0000     8.7970   119.0658     2.5356    -0.0050   -41.8218     9.2744     7.4604     5.7860
 2934.5000     8.8209   121.4196     2.5455    -0.0089   -41.8212     9.2748     7.7352     5.6822
 2935.0000     8.7427   125.5589     2.5494     0.0206   -41.8202     9.2754     7.8773     5.5803
 2935.5000     8.7739   129.4799     2.5513     0.0088   -41.8195     9.6188     7.8776     5.4800
 2936.0000     8.7820   134.1866     2.5513     0.0067   -41.8185     9.6194     7.3278     5.1901
 2936.5000     8.7821   136.5412     2.5356     0.0245   -41.8178     9.6198     7.1963     5.0052
 2937.0000     8.7823   138.8982     2.5340     0.0362   -41.8168     8.9466     6.8153     4.8270
 2937.5000     8.7824   142.8202     2.5297     0.0362   -41.4261     8.3203     6.3381     4.4085
 2938.0000     8.8182   148.3118     2.5218     0.0401   -42.2052     7.4622     6.1124     4.0261
 2938.5000     8.8609   150.6673     2.5081     0.0400   -41.4245     6.8151     5.4607     3.6109
 2939.0000     8.8610   149.1071     2.4878     0.0439   -41.4235     6.1122     4.8785     3.4823
 2939.5000     8.9004   143.6262     2.4629     0.0321   -41.4228     5.4817     4.3584     3.4199
 2940.0000     8.9004   139.7145     2.4315     0.0321   -41.4218     4.8280     3.8937     3.2388
 2940.5000     8.9398   128.7489     2.4315    -0.0072   -41.4212     4.4093     3.6118     3.2391
 2941.0000     8.9399   118.5623     2.4492    -0.0014   -41.4202     4.6564     3.8839     3.2986
 2941.5000     8.9400   117.0003     2.5198    -0.0014   -41.4192     5.1924     4.2470     3.3593
 2942.0000     8.9401   117.0040     2.5433     0.0024   -42.1985     7.1993     4.6440     3.4836
 2942.5000     8.9402   113.8741     2.5413     0.0103   -41.8076     8.1751     5.0781     3.7463
 2943.0000     8.9403   113.8777     2.5435     0.0181   -41.8069     8.7913     5.5528     4.1025
 2943.5000     8.9013   112.3152     2.5452     0.0123   -41.8059     8.9527     6.0719     4.2543
 2944.0000     8.9406   113.1027     2.5629     0.0201   -41.8053     9.1172     6.8208     4.5751
 2944.5000     8.9407   115.4599     2.5688     0.0357   -41.8043     9.1174     6.9460     4.7444
 2945.0000     8.9408   117.8155     2.5687     0.0336   -42.1935     9.4553     6.9463     5.1955
 2945.5000     8.9017   119.3891     2.5570     0.0297   -42.1925     9.4557     6.9455     5.3878
 2946.0000     8.9018   120.9609     2.5530     0.0257   -42.1918     9.1192     6.8487     5.3882
 2946.5000     8.9019   122.5348     2.5452     0.0257   -42.1908     8.7945     6.8211     5.3885
 2947.0000     8.9021   122.5386     2.5413     0.0160   -42.1902     8.0320     6.9476     5.1967
 2947.5000     8.9021   123.3285     2.5353     0.0081   -42.1892     7.8879     6.9482     5.1970
 2948.0000     8.8631   123.3324     2.5314    -0.0018   -42.1885     7.7466     6.9486     5.0121
 2948.5000     8.8239   123.3382     2.5255    -0.0019   -42.1875     7.7469     6.9490     5.1041
 2949.0000     8.7849   125.6948     2.5216     0.0059   -42.1868     7.7474     6.9494     5.1045
 2949.5000     8.7850   127.2693     2.5275     0.0059   -42.1858     7.8896     7.0770     5.0129
 2950.0000     8.7459   130.1981     2.5314     0.0176   -42.1852     8.4842     6.9502     4.8345
 2950.5000     8.7104   132.5418     2.5400     0.0255   -42.1842     8.6400     6.8255     4.7478
 2951.0000     8.7059   135.6728     2.5432     0.0333   -42.1835     8.4851     6.2338     4.5789
 2951.5000     8.7056   143.7224     2.5295     0.0373   -41.7927     7.8914     6.0119     4.2585
 2952.0000     8.6659   146.0692     2.5216     0.0294   -41.7920     7.7499     5.4907     3.8893
 2952.5000     8.6656   150.7658     2.4981     0.0216   -41.7910     7.3396     5.1065     3.9608
 2953.0000     8.6259   153.6812     2.4902     0.0059   -41.7904     5.3916     4.7262     3.8199
 2953.5000     8.5864   139.7697     2.4745    -0.0020   -41.3996     4.5794     4.3376     3.7513
 2954.0000     8.5860   129.5673     2.4569    -0.0098   -42.1785     5.0147     4.5804     3.6841
