~VERSION INFORMATION
 VERS.                2.0:   CWLS LOG ASCII STANDARD - VERSION 2.0
 WRAP.                 NO:   ONE LINE PER DEPTH STEP
~WELL INFORMATION
#MNEM.UNIT      DATA TYPE    INFORMATION
#----------   ------------   ------------------------------
 STRT.F          407.0000:   START DEPTH
 STOP.F         3228.0000:   STOP DEPTH
 STEP.F            0.5000:   STEP LENGTH
 NULL.          -999.2500:   NO VALUE
 COMP.    FENIX & SCISSON:   COMPANY
 WELL.   FENIX "A" #21-34:   WELL
 FLD .             N.P.R.:   FIELD
 LOC .      S34 T39N R78W:   LOCATION
 CNTY.            NATRONA:   COUNTY
 STAT.            WYOMING:   STATE
 CTRY. UNITED STATES OF AMERICA:   COUNTRY
 SRVC.       SCHLUMBERGER:   SERVICE COMPANY
 DATE.        05-MAY-1977:   LOGDATE
 API .     49025103710000:   API NUMBER
~CURVE INFORMATION
#MNEM.UNIT       API CODE    CURVE DESCRIPTION
#----------   ------------   ------------------------------
 DEPT.F                  :   
 SPR .MV     11 010 01 00:   SPONTANEOUS POTENTIAL FROM RES.
 LLS .OHMM   11 220 09 00:   LATEROLOG LOG SHALLOW
 LLD .OHMM   11 220 10 00:   LATEROLOG DEEP
 MSFL.OHMM   11 270 04 00:   MICRO SPHERICALLY FOCUSED
 CALD.IN     45 280 60 00:   CALIPER FROM DENSITY LOG
 NPHI.DEC    42 890 03 00:   NEUTRON POROSITY SANDSTONE
 GRD .GAPI   45 310 01 00:   GAMMA RAY FROM DENSITY LOG
 CORR.G/C3   45 356 01 00:   DENSITY CORRECTION
 RHOB.G/C3   45 350 01 00:   BULK DENSITY
~PARAMETER INFORMATION
#MNEM.UNIT          VALUE    DESCRIPTION
#----------   ------------   ------------------------------
 EKB .F         5086.0000:   Kelly bushing
 EGL .F         5074.0000:   Ground level
 TD  .F         3226.0000:   Total depth
 CLNT.            A2DTECH:   Client Code
 SL  . 990' FWL & 330' FNL:   Surface Location
 PD  .                 GL:   Permanent Datum
 EPD .F              5074:   Elevation Permanent Datum
 LMF .                 KB:   Log Measured From
 DMF .                 KB:   Drilling Measured From
 DAPD.F                12:   Feet Above Permanent Datum
 DATE.        05-MAY-1977:   Date Logged [DD-MMM-YYYY]
 DD  .F              3226:   Depth driller
 DL  .F              3229:   Depth logger
 BLI .F              3227:   Bottom log interval
 TLI .F               430:   Top log interval
 CS1 .IN            8.625:   Casing size
 CBD1.      8.625" @ 424':   Casing driller 1
 CBL1.F               430:   Casing logger 1
 BS1 .IN            7.875:   Bit size
 BSD1.F              3226:   Depth drilled with bit1
 DFT .                KCL:   Type fluid in hole
 DFD .                9.4:   Density
 DFV .                 31:   Viscosity
 DFPH.                  8:   pH
 DFL .                9.6:   Fluid loss
 MSS .           MUD TANK:   Source of sample
 RMS .OHMM          0.202:   Rm
 MST .F                78:   Rm Meas. temp.
 RMF .OHMM          0.191:   Rmf
 MFST.F                76:   Rmf Meas. temp.
 MFSS.               MEAS:   Source Rmf.
 RMC .OHMM           0.30:   Rmc
 MCST.F                78:   Rmc Meas. temp.
 MCSS.               CALC:   Source Rmc.
 RMB .OHMM          0.123:   Rm. at BHT
 BHT .F               128:   BHT.
 TCS .HRS            1400:   Time Circ. stopped
 TLAB.HRS            0300:   Time logger at bottom
 MRT .F               128:   Maximum recorded temp.
 LUN .               5642:   Logging unit number
 LUL .               CSPR:   Logging unit location
 ENGI.                FIX:   Recorded By
 WITN.         HARRINGTON:   Witnessed by
 ORIG.           5" PRINT:   Origin of data
 UWI .     49025103710000:   Unique Well ID
 DICO. A2D TECHNOLOGIES, INC.:   Digitizing Company
~OTHER INFORMATION
~A   DEPT      SPR        LLS        LLD       MSFL       CALD       NPHI         GRD      CORR       RHOB   
# ...
 3181.0000   -30.4201     6.4206     5.7227     6.9582     8.1186     0.2465   145.1391     0.0019     2.5105
 3181.5000   -30.0158     5.0441     5.1276     6.5000     8.1223     0.2479   149.4512     0.0055     2.5091
 3182.0000   -30.6825     5.1200     5.1688     6.1564     8.1260     0.2455   144.7408     0.0294     2.4994
 3182.5000   -31.5095     5.0874     5.1387     6.1627     8.1296     0.2719   144.0902     0.0128     2.4830
 3183.0000   -32.5076     4.7993     5.0037     6.3421     8.1333     0.2840   146.1992     0.0076     2.4763
 3183.5000   -33.2026     4.2619     4.4216     6.2497     8.1370     0.3009   151.8275     0.0100     2.4817
 3184.0000   -33.9477     4.5724     4.1877     5.9730     8.1407     0.3071   155.9014     0.0161     2.4841
 3184.5000   -34.6958     8.7160     4.4931     5.8548     8.1443     0.3046   159.7642     0.0215     2.4887
 3185.0000   -35.4010     3.3554     4.5608     5.7803     8.1480     0.2989   158.0297     0.0262     2.4858
 3185.5000   -35.4216     1.5253     4.5659     5.7877     8.1518     0.2943   158.9196     0.0270     2.4777
 3186.0000   -35.4176     1.4849     4.4778     6.0390     8.1528     0.2900   155.7881     0.0188     2.4834
 3186.5000   -35.4168     1.9751     4.3601     6.2131     8.1509     0.2861   158.7469     0.0091     2.4907
 3187.0000   -35.4118     2.7760     4.2162     5.6470     8.1482     0.2821   161.4735     0.0061     2.4720
 3187.5000   -35.4039     3.8216     4.1043     5.3856     8.1455     0.2842   160.1465    -0.0004     2.4518
 3188.0000   -35.3959     4.5489     4.0522     5.2802     8.1429     0.3101   167.8487     0.0041     2.4542
 3188.5000   -35.3879     5.1645     4.0296     5.3966     8.1402     0.3115   180.7323     0.0095     2.4566
 3189.0000   -35.3800     5.5027     3.9785     5.6700     8.1375     0.3169   194.0670     0.0194     2.4650
 3189.5000   -35.3720     5.5402     3.8472     6.1719     8.1348     0.3184   203.7927     0.0240     2.4688
 3190.0000   -35.3640     5.4322     3.7720     6.6338     8.1321     0.3066   211.1450     0.0097     2.4712
 3190.5000   -35.3561     5.5154     3.8035     7.2967     8.1295     0.3011   209.5707     0.0204     2.4796
 3191.0000   -35.3481     5.9999     4.0920     7.8271     8.1268     0.2956   201.1718     0.0349     2.4865
 3191.5000   -35.3401     6.6179     4.8246     7.9993     8.1241     0.2914   192.6268     0.0287     2.4912
 3192.0000   -35.3321     7.2995     5.6238     7.8431     8.1214     0.3007   181.3750     0.0094     2.4936
 3192.5000   -35.3242     7.8314     5.1820     7.9055     8.1187     0.2660   185.0105     0.0065     2.4912
 3193.0000   -35.3162     8.0601     5.7960     8.3060     8.1160     0.2524   187.9693     0.0058     2.4900
 3193.5000   -35.3082     7.9579     6.1330     8.6070     8.1132     0.2504   188.4468     0.0135     2.4819
 3194.0000   -35.3003     7.4335     6.1824     8.3229     8.1126     0.2620   187.5710     0.0196     2.4880
 3194.5000   -35.2923     7.0246     5.9370     7.5106     8.1105     0.2697   191.4320     0.0258     2.5085
 3195.0000   -35.2843     6.4269     5.5841     6.7775     8.1085     0.2660   199.6710     0.0319     2.5214
 3195.5000   -35.2764     5.8138     5.0034     6.0739     8.1065     0.2606   205.1368     0.0373     2.5298
 3196.0000   -35.2684     5.2096     4.4214     5.6697     8.1045     0.2636   219.9389     0.0389     2.5179
 3196.5000   -35.2604     4.9685     4.0997     5.3693     8.1025     0.2837   232.8286     0.0300     2.4977
 3197.0000   -35.2525     4.7385     3.9621     5.1621     8.1005     0.3065   236.2324     0.0233     2.4699
 3197.5000   -35.2448     4.6772     3.7572     5.0251     8.0985     0.3279   243.0258     0.0188     2.4557
 3198.0000   -35.2366     4.7488     3.6331     4.9956     8.0965     0.3321   256.1349     0.0144     2.4506
 3198.5000   -35.2250     5.0949     3.5861     5.1422     8.0945     0.3275   275.3342     0.0137     2.4514
 3199.0000   -35.2198     5.6197     3.7694     5.4028     8.0925     0.3266  -999.2500     0.0138     2.4440
 3199.5000   -34.9994     5.9462     4.2453     5.9580     8.0904     0.3305  -999.2500     0.0162     2.4425
 3200.0000   -35.0373     6.2918     4.7155     6.3910     8.0884     0.3322  -999.2500     0.0231     2.4488
 3200.5000   -35.0779     6.6614     5.3478     6.9510     8.0864     0.3144  -999.2500     0.0344     2.4747
 3201.0000   -35.1143     6.8600     5.5809     7.2529     8.0844     0.2958  -999.2500     0.0488     2.5169
 3201.5000   -35.1522     6.9568     5.7044     7.3717     8.0824     0.2842  -999.2500     0.0579     2.5366
 3202.0000   -35.1900     6.9644     5.6233     6.9242     8.0804     0.2742  -999.2500     0.0444     2.5246
 3202.5000   -35.2278     7.0046     5.5408     6.7890     8.0784     0.2657  -999.2500     0.0318     2.5075
 3203.0000   -35.2655     7.3431     5.4451     6.8021     8.0764     0.2633  -999.2500     0.0184     2.5016
 3203.5000   -35.3033     7.6816     5.4497     7.0928     8.0744     0.2648  -999.2500     0.0080     2.5024
 3204.0000   -35.3411     8.0201     5.5305     7.7143     8.0735     0.2704  -999.2500     0.0128     2.5101
 3204.5000   -35.3789     8.3654     5.9324     8.3902     8.0731     0.2713  -999.2500     0.0252     2.5140
 3205.0000   -35.4167     8.4893     6.5425     9.0001     8.0679     0.2716  -999.2500     0.0232     2.5141
 3205.5000   -35.4545     8.5556     7.1159     9.3909     8.0627     0.2754  -999.2500     0.0157     2.5088
 3206.0000   -35.4923     8.2715     7.5280     8.7724     8.0576     0.2763  -999.2500     0.0190     2.5023
 3206.5000   -35.5301     7.9417     6.8853     7.7002     8.0526     0.2649  -999.2500     0.0162     2.5115
 3207.0000   -35.5679     7.4167     6.2975     7.3438     8.0475     0.2515  -999.2500     0.0074     2.5207
 3207.5000   -35.6057     7.2202     6.0460     7.2911     8.0424     0.2418  -999.2500     0.0015     2.5215
 3208.0000   -35.6434     7.4810     6.0513     7.6177     8.0373     0.2415  -999.2500     0.0025     2.5059
 3208.5000   -35.6812     7.9760     6.4017     8.2281     8.0322     0.2526  -999.2500     0.0050     2.5022
 3209.0000   -35.7191     8.5630     6.8718     8.7134     8.0271     0.2616  -999.2500     0.0116     2.4986
 3209.5000   -35.7568     9.1846     7.4286     9.5007     8.0220     0.2658  -999.2500     0.0199     2.4829
 3210.0000   -35.7944     9.8693     7.9293    10.5887     8.0169     0.2663  -999.2500     0.0208     2.4891
 3210.5000   -35.8133    10.6979     8.3608    12.0043     8.0119     0.2612  -999.2500     0.0211     2.5070
 3211.0000   -35.8076    11.3170     8.6031    13.3298     8.0068     0.2521  -999.2500     0.0213     2.5233
 3211.5000   -35.7962    11.6448     8.6105    14.0052     8.0017     0.2463  -999.2500     0.0230     2.5211
 3212.0000   -35.7847    11.7358     8.7381    14.2146     7.9966     0.2450  -999.2500     0.0247     2.5092
 3212.5000   -35.7731    11.6648     8.8676    14.0337     7.9941     0.2447  -999.2500     0.0204     2.4928
 3213.0000   -35.7616    11.5942     8.9369    12.5767     7.9940     0.2447  -999.2500     0.0100     2.4733
 3213.5000   -35.7500    11.3656     8.9445    11.1161     7.9940     0.2446  -999.2500     0.0017     2.4666
 3214.0000   -35.7385    11.2944     8.8885    10.1008     7.9940     0.2446  -999.2500    -0.0001     2.4796
 3214.5000   -35.7270    11.3851     8.7736     9.3705     7.9940     0.2446  -999.2500     0.0070     2.4851
 3215.0000   -35.7154    11.3948     8.6621     8.6930     7.9940     0.2445  -999.2500     0.0140     2.4784
 3215.5000   -35.7039    11.4046     8.6691     8.3483     7.9941     0.2445  -999.2500     0.0226     2.4916
 3216.0000   -35.6924    11.4937     8.6769     8.2992     7.9942     0.2444  -999.2500     0.0273     2.5057
 3216.5000   -35.6808    11.5035     8.6242     8.2504     7.9932     0.2444  -999.2500     0.0300     2.5187
 3217.0000   -35.6693    11.5134     8.5721     8.0913     7.9649     0.2443  -999.2500     0.0126     2.4924
