~VERSION INFORMATION
 VERS.                2.0:   CWLS LOG ASCII STANDARD - VERSION 2.0
 WRAP.                 NO:   ONE LINE PER DEPTH STEP
~WELL INFORMATION
#MNEM.UNIT      DATA TYPE    INFORMATION
#----------   ------------   ------------------------------
 STRT.F          176.0000:   START DEPTH
 STOP.F         3400.0000:   STOP DEPTH
 STEP.F            0.5000:   STEP LENGTH
 NULL.          -999.2500:   NO VALUE
 COMP.    PENIX & SCISSON:   COMPANY
 WELL. FENIX NPR 3 "AX" #64-4:   WELL
 FLD .                NPR:   FIELD
 LOC .       S4 T38N R78W:   LOCATION
 CNTY.            NATRONA:   COUNTY
 STAT.            WYOMING:   STATE
 CTRY. UNITED STATES OF AMERICA:   COUNTRY
 SRVC.       SCHLUMBERGER:   SERVICE COMPANY
 DATE.        25-JAN-1981:   LOGDATE
 API .     49025108640000:   API NUMBER
~CURVE INFORMATION
#MNEM.UNIT       API CODE    CURVE DESCRIPTION
#----------   ------------   ------------------------------
 DEPT.F                  :   
 SPR .MV     07 010 01 00:   SPONTANEOUS POTENTIAL
 RFOC.OHMM   07 220 01 00:   RESISTIVITY FOCUSED LOG RES.
 ILD .OHMM   07 120 46 00:   DEEP INDUCTION RESISTIVITY
 TENR.LBS    07 635 01 00:   TENSION
 ILM .OHMM   07 120 44 00:   INDUCTION LOG MEDIUM RESISTIVITY
 GRD .GAPI   45 310 01 00:   GAMMA RAY FROM DENSITY LOG
 CALD.IN     45 280 60 00:   CALIPER FROM DENSITY LOG
 RHOB.G/C3   45 350 01 00:   BULK DENSITY
 TEND.LBS    45 635 01 00:   TENSION FROM DENSITY LOG
 CORR.G/C3   45 356 01 00:   DENSITY CORRECTION
~PARAMETER INFORMATION
#MNEM.UNIT          VALUE    DESCRIPTION
#----------   ------------   ------------------------------
 EKB .F         5257.0000:   Kelly bushing
 EGL .F         5247.0000:   Ground level
 EDF .F            0.0000:   Drilling floor
 TD  .F         3388.0000:   Total depth
 DATE.        25-JAN-1981:   Date logged
 CLNT.            A2DTECH:   Client Code
 SL  . 2289' FNL & 1495' FEL:   Surface Location
 PD  .                 GL:   Permanent Datum
 EPD .F              5247:   Elevation Permanent Datum
 LMF .                 KB:   Log Measured From
 DMF .                 KB:   Drilling Measured From
 DAPD.F                10:   Feet Above Permanent Datum
 DD  .F              3388:   Depth driller
 DL  .F              3386:   Depth logger
 BLI .F              3380:   Bottom log interval
 TLI .F               192:   Top log interval
 CS1 .IN            8.625:   Casing size
 CBD1.      8.625" @ 191':   Casing driller 1
 CBL1.F               192:   Casing logger 1
 BS1 .IN            7.875:   Bit size
 BSD1.F              3388:   Depth drilled with bit1
 DFT .                FGM:   Type fluid in hole
 DFD .                8.7:   Density
 DFV .                 32:   Viscosity
 DFPH.                9.5:   pH
 DFL .                 18:   Fluid loss
 MSS .           FLOWLINE:   Source of sample
 RMS .OHMM           1.60:   Rm
 MST .F                60:   Rm Meas. temp.
 RMF .OHMM           1.33:   Rmf
 MFST.F                60:   Rmf Meas. temp.
 MFSS.               MEAS:   Source Rmf.
 RMB .OHMM            .83:   Rm. at BHT
 BHT .F               115:   BHT.
 TCS .HRS            1700:   Time Circ. stopped
 TLAB.HRS            2200:   Time logger at bottom
 MRT .F               115:   Maximum recorded temp.
 LUN .               8039:   Logging unit number
 LUL .               CSPR:   Logging unit location
 ENGI.           C. PFARR:   Recorded By
 WITN.           L. FIVAS:   Witnessed by
 ORIG.           5" PRINT:   Origin of data
 UWI .     49025108640000:   Unique Well ID
 DICO. A2D TECHNOLOGIES, INC.:   Digitizing Company
~OTHER INFORMATION
~A   DEPT      SPR       RFOC        ILD       TENR        ILM         GRD      CALD         RHOB      TEND      CORR   
# ...
  812.5000   -20.2790    12.2740    11.6150   399.3390    11.6150    85.2790     9.0970     2.4670   582.4570     0.0180
  813.0000   -20.2340    12.2610    11.6150   399.6250    11.6150    86.3910     9.0960     2.4720   582.7210     0.0250
  813.5000   -20.1930    12.2490    11.6150   399.9110    11.6150    87.3600     9.0950     2.4680   582.9850     0.0180
  814.0000   -20.1560    12.2360    11.6150   400.1980    11.6150    86.3320     9.0940     2.4570   583.2500     0.0110
  814.5000   -20.1170    12.2230    11.6150   400.4840    11.6150    83.9820     9.0930     2.4480   583.5140     0.0020
  815.0000   -20.0780    12.2100    11.6150   400.7710    11.6150    82.6420     9.0920     2.4530   583.7790     0.0050
  815.5000   -20.0390    12.1970    11.6150   401.0570    11.6150    84.0500     9.0910     2.4610   584.0430     0.0130
  816.0000   -20.0000    12.1850    11.6150   401.3430    11.6150    86.0560     9.0900     2.4730   584.3080     0.0200
  816.5000   -19.9620    12.1720    11.6150   401.6300    11.6150    85.8900     9.0890     2.4910   584.5720     0.0250
  817.0000   -19.9230    12.1590    11.6150   401.9160    11.6150    84.2240     9.0880     2.4840   584.8370     0.0180
  817.5000   -19.8840    12.1460    11.6150   402.2020    11.6150    81.6140     9.0860     2.4670   585.1010     0.0110
  818.0000   -19.8450    12.1330    11.6150   402.4890    11.6150    80.3970     9.0850     2.4520   585.3650     0.0010
  818.5000   -19.8070    12.1210    11.6150   402.7750    11.6150    82.3020     9.0840     2.4600   585.6300     0.0060
  819.0000   -19.7680    12.1080    11.6150   403.0610    11.6150    84.5850     9.0830     2.4720   585.8940     0.0200
  819.5000   -19.7290    12.0950    11.6150   403.3480    11.6150    86.8440     9.0820     2.4830   586.1590     0.0260
  820.0000   -19.6900    12.0820    11.6150   403.6340    11.6150    88.3380     9.0810     2.4800   586.4230     0.0270
  820.5000   -19.6520    12.0700    11.6150   403.9210    11.6150    89.4450     9.0800     2.4770   586.6880     0.0160
  821.0000   -19.6130    12.0540    11.6150   404.2070    11.6150    91.2260     9.0790     2.4750   586.9520     0.0060
  821.5000   -19.5740    12.0680    11.6150   404.4930    11.6150    94.1900     9.0780     2.4720   587.2170    -0.0010
  822.0000   -19.5360    12.1040    11.6150   404.7800    11.6160    95.7440     9.0770     2.4690   587.4810    -0.0010
  822.5000   -19.4980    12.1360    11.6160   405.0660    11.6160    92.3840     9.0760     2.4690   587.7450     0.0000
  823.0000   -19.5140    12.1690    11.6150   405.3520    11.6160    89.8430     9.0790     2.4780   588.0100     0.0020
  823.5000   -19.5490    12.2030    11.6140   405.6390    11.6160    89.9730     9.0840     2.4770   588.2740     0.0030
  824.0000   -19.5830    12.2340    11.6200   405.9250    11.5780    92.8040     9.0890     2.4770   588.5390     0.0030
  824.5000   -19.6170    12.2760    11.5630   406.2110    11.4790    91.9780     9.0940     2.4770   588.8030     0.0010
  825.0000   -19.6510    12.2340    11.4590   406.4980    11.3800    90.0660     9.0990     2.4790   589.0680    -0.0020
  825.5000   -19.6850    12.1300    11.3600   406.7840    11.2810    88.0070     9.1040     2.4830   589.3320    -0.0040
  826.0000   -19.7190    12.0260    11.2610   407.0710    11.1820    88.0510     9.1090     2.4880   589.5970    -0.0060
  826.5000   -19.7540    11.9220    11.1620   407.3570    11.0830    88.7790     9.1140     2.4920   589.8610     0.0010
  827.0000   -19.7870    11.8180    11.0640   407.6430    10.9850    88.7480     9.1190     2.4960   590.1250     0.0060
  827.5000   -19.8220    11.7140    10.9650   407.9300    10.8860    89.0440     9.1240     2.5010   590.3900     0.0130
  828.0000   -19.8570    11.6100    10.8660   408.2160    10.7870    90.0260     9.1280     2.5040   590.6540     0.0140
  828.5000   -19.8570    11.5060    10.7680   408.5020    10.6890    90.0520     9.1330     2.4960   590.9190     0.0120
  829.0000   -19.7570    11.4020    10.6690   408.7890    10.5930    89.1170     9.1380     2.4880   591.1830     0.0070
  829.5000   -19.6590    11.2980    10.5650   409.0750    10.4690    87.1750     9.1430     2.4800   591.4480     0.0020
  830.0000   -19.5570    11.1940    10.4440   409.3610    10.3480    87.1150     9.1480     2.4770   591.7120    -0.0020
  830.5000   -19.4570    11.0900    10.3230   409.6480    10.2270    87.1970     9.1530     2.4780   591.9770     0.0010
  831.0000   -19.3570    10.9910    10.2020   409.9340    10.1060    87.3050     9.1580     2.4820   592.2410     0.0060
  831.5000   -19.2560    10.8270    10.0810   410.2210     9.9850    87.4170     9.1630     2.4850   592.5050     0.0080
  832.0000   -19.1560    10.6710     9.9600   410.5070     9.8640    87.9940     9.1680     2.4890   592.7700     0.0080
  832.5000   -19.0550    10.5140     9.8390   410.7930     9.7430    90.3410     9.1730     2.4930   593.0340     0.0070
  833.0000   -18.9550    10.3580     9.7190   411.0800     9.6220    92.3390     9.1780     2.4920   593.2990     0.0040
  833.5000   -18.8540    10.2020     9.5980   411.3660     9.5010    90.7310     9.1830     2.4900   593.5630     0.0010
  834.0000   -18.7540    10.0450     9.4770   411.6520     9.3800    89.0450     9.1870     2.4890   593.8280     0.0010
  834.5000   -18.6530     9.8890     9.3560   411.9390     9.2600    88.1680     9.1920     2.4890   594.0920     0.0040
  835.0000   -18.5530     9.7330     9.2350   412.2250     9.1390    89.7320     9.1970     2.4930   594.3570     0.0090
  835.5000   -18.4520     9.5760     9.1140   412.5110     9.0180    90.9320     9.2020     2.5020   594.6210     0.0160
  836.0000   -18.3520     9.4200     8.9930   412.7980     8.8970    93.1020     9.2070     2.5100   594.8850     0.0230
  836.5000   -18.2510     9.2640     8.8720   413.0840     8.7820    93.0110     9.2120     2.5180   595.1500     0.0250
  837.0000   -18.1510     9.1080     8.4530   413.3710     8.6810    92.6680     9.2170     2.5040   595.4140     0.0160
  837.5000   -18.0500     8.9510     7.7270   413.6570     8.0280    92.9410     9.2220     2.4880   595.6790     0.0070
  838.0000   -17.9500     8.8110     7.0020   413.9430     7.1360    93.6170     9.2270     2.4750   595.9430     0.0050
  838.5000   -17.8490     7.6410     6.2760   414.2300     6.2440    95.8860     9.2300     2.4740   596.2080     0.0140
  839.0000   -17.7480     6.5810     5.5510   414.5160     5.3520    99.0840     9.2540     2.4790   596.4720     0.0280
  839.5000   -17.6500     5.5200     4.8250   414.8020     4.4600   102.1680     9.2950     2.4540   596.7370     0.0790
  840.0000   -17.5480     4.4600     4.1000   415.0890     3.5680   104.7120     9.3320     2.4700   597.0010     0.1310
  840.5000   -17.5390     3.3190     3.3190   415.3750     5.4580   104.3710     9.3820     2.2760   597.2650     0.1080
  841.0000   -17.5710     5.9120     5.4580   415.6610     6.0130   102.9890     9.3220     2.2890   597.5300     0.0560
  841.5000   -17.6010    10.0240     6.1570   415.9480     6.7220   100.4920     9.1620     2.2720   597.7940     0.0010
  842.0000   -17.6310    10.0080     6.8660   416.2340     7.4310    98.5190     9.0400     2.2760   598.0590    -0.0060
  842.5000   -17.6610     9.9800     7.5750   416.5210     8.1400    97.4020     9.0380     2.5250   598.3230     0.0020
  843.0000   -17.6910     9.9510     8.2840   416.8070     9.3120    96.5600     9.0340     2.5030   598.5880     0.0110
  843.5000   -17.7210     9.9220     8.9930   417.0930     9.3000    96.3570     9.0360     2.5240   598.8520     0.0180
  844.0000   -17.7500     9.8940     9.3900   417.3800     9.2680    96.1670     9.0360     2.5200   599.1170     0.0140
  844.5000   -17.7800     9.8650     9.5330   417.6660     9.2350    95.1350     9.0360     2.5090   599.3810     0.0110
  845.0000   -17.8100     9.8410     9.6760   417.9520     9.2020    93.7250     9.0360     2.5010   599.6450     0.0080
  845.5000   -17.8400     9.9290     9.8190   418.2390     9.1690    93.6280     9.0360     2.5120   599.9100     0.0060
