~VERSION INFORMATION
 VERS.                2.0:   CWLS LOG ASCII STANDARD - VERSION 2.0
 WRAP.                 NO:   ONE LINE PER DEPTH STEP
~WELL INFORMATION
#MNEM.UNIT      DATA TYPE    INFORMATION
#----------   ------------   ------------------------------
 STRT.F            0.0000:   START DEPTH
 STOP.F         2870.0000:   STOP DEPTH
 STEP.F            0.5000:   STEP LENGTH
 NULL.          -999.2500:   NO VALUE
 COMP.  FENIX AND SCISSON:   COMPANY
 WELL.  FENIX "A" #304-28:   WELL
 FLD .             NPR #3:   FIELD
 LOC .      S28 T39N R78W:   LOCATION
 CNTY.            NATRONA:   COUNTY
 STAT.            WYOMING:   STATE
 CTRY. UNITED STATES OF AMERICA:   COUNTRY
 SRVC.         MCCULLOUGH:   SERVICE COMPANY
 DATE.        21-DEC-1977:   LOGDATE
 API .     49025105600000:   API NUMBER
~CURVE INFORMATION
#MNEM.UNIT       API CODE    CURVE DESCRIPTION
#----------   ------------   ------------------------------
 DEPT.F                  :   
 GR  .GAPI   30 310 01 00:   GAMMA RAY
 CALI.IN     70 280 01 00:   CALIPER
~PARAMETER INFORMATION
#MNEM.UNIT          VALUE    DESCRIPTION
#----------   ------------   ------------------------------
 EKB .F            0.0000:   Kelly bushing
 EGL .F            0.0000:   Ground level
 EDF .F         5074.7000:   Drilling floor
 EPD .F         5074.7000:   Permanent datum
 TD  .F         2868.0000:   Total depth
 DATE.        21-DEC-1977:   Date logged
 CLNT.            A2DTECH:   Client Code
 DL  .F              2868:   Depth logger
 BLI .F              2866:   Bottom log interval
 TLI .F              2000:   Top log interval
 CS1 .IN             6.25:   Casing size
 CBD1.     6.625" @ 2935':   Casing driller 1
 BS1 .IN             6.25:   Bit size
 BSD1.F              2868:   Depth drilled with bit1
 DFT .              WATER:   Type fluid in hole
 TCS .HRS             1.5:   Time Circ. stopped
 ENGI.             CONLEY:   Recorded By
 WITN.           HARRISON:   Witnessed by
 ORIG.           5" PRINT:   Origin of data
 UWI .     49025105600000:   Unique Well ID
 DICO. A2D TECHNOLOGIES, INC.:   Digitizing Company
~OTHER INFORMATION
~A    DEPT      GR         CALI 
# ...
 2430.0000    81.3740     6.7340
 2430.5000    79.6380     6.7310
 2431.0000    78.6200     6.7270
 2431.5000    71.6600     6.7190
 2432.0000    69.3390     6.7100
 2432.5000    68.3100     6.7050
 2433.0000    73.0660     6.7020
 2433.5000    71.2690     6.7000
 2434.0000    69.1310     6.6970
 2434.5000    67.4310     6.6940
 2435.0000    68.3250     6.6930
 2435.5000    68.6140     6.6930
 2436.0000    67.9140     6.6930
 2436.5000    66.5820     6.6920
 2437.0000    67.0750     6.6920
 2437.5000    69.1860     6.6920
 2438.0000    68.4260     6.6910
 2438.5000    66.8200     6.6910
 2439.0000    66.3130     6.6890
 2439.5000    64.4540     6.6890
 2440.0000    64.9910     6.6880
 2440.5000    64.9740     6.6880
 2441.0000    65.4110     6.6870
 2441.5000    65.8840     6.6870
 2442.0000    65.6940     6.6860
 2442.5000    62.8590     6.6860
 2443.0000    64.4750     6.6860
 2443.5000    64.1570     6.6870
 2444.0000    63.4740     6.6880
 2444.5000    63.7750     6.7000
 2445.0000    65.9900     6.7000
 2445.5000    67.1280     6.6930
 2446.0000    69.2560     6.6860
 2446.5000    68.0650     6.6890
 2447.0000    64.0400     6.6820
 2447.5000    64.1010     6.6720
 2448.0000    61.7490     6.6710
 2448.5000    60.6330     6.6710
 2449.0000    58.5120     6.6700
 2449.5000    58.1550     6.6890
 2450.0000    57.8700     6.6780
 2450.5000    58.0640     6.9330
 2451.0000    60.0440     6.7410
 2451.5000    64.2270     6.7390
 2452.0000    67.5200     6.7390
 2452.5000    73.0030     6.7320
 2453.0000    75.1330     6.7230
 2453.5000    80.3420     6.7210
 2454.0000    82.1240     6.7180
 2454.5000    78.9830     6.7040
 2455.0000    76.6390     6.6890
 2455.5000    76.0380     6.6860
 2456.0000    77.4550     6.6870
 2456.5000    72.4630     6.6870
 2457.0000    73.1200     6.6870
 2457.5000    74.0560     6.6870
 2458.0000    77.9920     6.6860
 2458.5000    75.7510     6.6860
 2459.0000    73.9660     6.6860
 2459.5000    76.1500     6.6850
 2460.0000    77.6580     6.6850
 2460.5000    74.6830     6.6850
 2461.0000    73.0210     6.6840
 2461.5000    75.5310     6.6830
 2462.0000    78.0790     6.6820
 2462.5000    80.0560     6.6810
 2463.0000    79.9300     6.6780
 2463.5000    78.0030     6.6810
 2464.0000    77.4870     6.6830
 2464.5000    75.9750     6.6820
 2465.0000    74.5180     6.6810
 2465.5000    73.6470     6.6810
 2466.0000    76.6630     6.6830
 2466.5000    78.7620     6.6840
 2467.0000    77.3470     6.6860
 2467.5000    73.6670     6.6880
 2468.0000    74.2570     6.6900
 2468.5000    74.5600     6.6920
 2469.0000    73.4590     6.6940
 2469.5000    73.7320     6.6930
 2470.0000    75.3370     6.6930
 2470.5000    76.3860     6.6920
 2471.0000    72.2850     6.6920
 2471.5000    72.0390     6.6900
 2472.0000    72.6000     6.6860
 2472.5000    73.6680     6.9900
 2473.0000    71.3280     6.9880
 2473.5000    71.3150     6.9860
 2474.0000    73.5320     6.9860
 2474.5000    75.4510     6.9850
 2475.0000    72.7000     6.9860
 2475.5000    71.5740     6.9860
 2476.0000    74.2230     6.9870
 2476.5000    77.0710     6.9790
 2477.0000    76.7610     6.9660
 2477.5000    77.1690     6.9660
 2478.0000    80.6560     6.9710
 2478.5000    79.1630     6.9730
 2479.0000    77.5880     6.9750
 2479.5000    72.6590     6.9740
 2480.0000    72.0510     6.9720
 2480.5000    74.6220     6.9840
 2481.0000    74.9860     6.9910
 2481.5000    73.8860     6.9960
 2482.0000    71.5930     7.0150
 2482.5000    67.3200     7.0110
 2483.0000    65.9160     7.0140
 2483.5000    65.5160     7.0190
 2484.0000    62.3120     7.0150
 2484.5000    61.7410     7.0000
 2485.0000    59.1610     6.9980
 2485.5000    57.4620     7.0090
 2486.0000    55.9970     7.0250
 2486.5000    59.4010     7.0270
 2487.0000    66.6470     7.0290
 2487.5000    69.9410     7.0340
 2488.0000    69.7600     7.0360
 2488.5000    68.8790     7.0360
 2489.0000    68.5370     7.0370
 2489.5000    66.3200     7.0520
 2490.0000    63.8920     7.0570
 2490.5000    59.7830     7.0560
 2491.0000    55.4640     7.0600
 2491.5000    53.4040     7.0680
 2492.0000    54.4360     6.8900
 2492.5000    60.7340     6.8820
 2493.0000    63.4490     6.8700
 2493.5000    61.7050     6.8540
 2494.0000    61.1730     6.8450
 2494.5000    59.9170     6.8460
 2495.0000    62.5280     6.8460
 2495.5000    62.9870     6.8440
 2496.0000    62.1190     6.8440
 2496.5000    63.0970     6.8430
 2497.0000    61.0760     6.8360
 2497.5000    59.7930     6.8300
 2498.0000    60.7850     6.8240
 2498.5000    60.1130     6.8240
 2499.0000    58.8200     6.8230
 2499.5000    58.4710     6.8150
 2500.0000    58.4200     6.8040
 2500.5000    60.3400     6.8030
 2501.0000    63.3550     6.8020
 2501.5000    63.1380     6.8020
 2502.0000    61.5730     6.8030
 2502.5000    57.7690     6.8060
 2503.0000    60.9140     6.8090
 2503.5000    61.8840     6.8180
 2504.0000    61.5690     6.8280
 2504.5000    60.5790     6.8160
 2505.0000    61.0620     6.8100
 2505.5000    59.2870     6.8100
 2506.0000    59.2580     6.8120
 2506.5000    63.6120     6.8070
 2507.0000    63.2990     6.8040
 2507.5000    62.5860     6.8100
 2508.0000    61.7610     6.8050
 2508.5000    62.2170     6.8210
 2509.0000    63.4110     6.8390
 2509.5000    66.9240     6.8480
 2510.0000    65.4630     6.8460
 2510.5000    64.0800     6.9910
 2511.0000    62.3090     6.7570
 2511.5000    61.3510     6.7670
 2512.0000    61.3860     6.7490
 2512.5000    66.7100     6.7460
 2513.0000    66.9450     6.7550
 2513.5000    68.8310     6.7520
 2514.0000    67.4630     6.7290
 2514.5000    65.3510     6.7120
 2515.0000    65.4110     6.7120
 2515.5000    65.5500     6.7120
 2516.0000    69.5110     6.7120
 2516.5000    71.4770     6.7110
 2517.0000    73.8100     6.7070
 2517.5000    73.8520     6.7070
 2518.0000    71.1570     6.7070
 2518.5000    73.0160     6.7030
 2519.0000    74.8340     6.7070
 2519.5000    75.7620     6.7110
 2520.0000    77.9810     6.7090
 2520.5000    77.0850     6.7030
 2521.0000    75.9460     6.7020
 2521.5000    73.9120     6.7040
 2522.0000    73.2020     6.7050
 2522.5000    72.9370     6.6990
 2523.0000    72.1070     6.6990
 2523.5000    70.1880     6.6990
 2524.0000    71.5710     6.7000
 2524.5000    72.9390     6.7020
 2525.0000    72.7630     6.7080
 2525.5000    70.8460     6.7080
 2526.0000    70.1920     6.7070
 2526.5000    70.3270     6.7060
 2527.0000    71.0420     6.7060
 2527.5000    74.3490     6.7060
 2528.0000    72.6410     6.7080
 2528.5000    73.9900     6.7110
 2529.0000    73.1440     6.7120
 2529.5000    74.5740     6.7120
 2530.0000    76.1290     6.7160
 2530.5000    76.3990     6.7170
 2531.0000    75.4530     6.7170
 2531.5000    72.6830     6.7150
 2532.0000    70.6180     6.7170
 2532.5000    69.8660     6.9330
 2533.0000    68.3110     6.7950
 2533.5000    68.8970     6.7740
 2534.0000    68.2630     6.7710
 2534.5000    65.2270     6.7500
 2535.0000    64.8740     6.7240
 2535.5000    64.7610     6.7070
 2536.0000    66.8060     6.6970
 2536.5000    67.0320     6.6890
 2537.0000    66.6760     6.6940
 2537.5000    67.0760     6.6990
 2538.0000    66.6150     6.6990
 2538.5000    69.3420     6.7000
 2539.0000    70.4260     6.7010
 2539.5000    71.3970     6.7050
 2540.0000    69.6540     6.7090
 2540.5000    66.8250     6.6940
 2541.0000    67.0450     6.6930
 2541.5000    70.3760     6.7030
 2542.0000    68.9340     6.7020
 2542.5000    62.5130     6.6900
 2543.0000    61.6990     6.6890
 2543.5000    61.4660     6.6910
 2544.0000    63.1110     6.6970
 2544.5000    65.6880     6.7000
 2545.0000    66.2390     6.7000
 2545.5000    66.8560     6.6990
 2546.0000    66.8120     6.6950
 2546.5000    68.0390     6.6920
 2547.0000    69.1840     6.6920
 2547.5000    68.2130     6.6920
 2548.0000    65.9730     6.6910
 2548.5000    65.6380     6.6910
 2549.0000    66.6100     6.6910
 2549.5000    66.3190     6.6910
 2550.0000    65.5870     6.6910
 2550.5000    64.6050     6.6910
 2551.0000    61.8950     6.6920
