~VERSION INFORMATION
 VERS.                2.0:   CWLS LOG ASCII STANDARD - VERSION 2.0
 WRAP.                 NO:   ONE LINE PER DEPTH STEP
~WELL INFORMATION
#MNEM.UNIT      DATA TYPE    INFORMATION
#----------   ------------   ------------------------------
 STRT.F            9.0000:   START DEPTH
 STOP.F         2876.0000:   STOP DEPTH
 STEP.F            0.5000:   STEP LENGTH
 NULL.          -999.2500:   NO VALUE
 COMP.    FENIX & SCISSON:   COMPANY
 WELL. FENIX & SCISSON "AX" #82-29:   WELL
 FLD .        TEAPOT DOME:   FIELD
 LOC .      S29 T39N R78W:   LOCATION
 CNTY.            NATRONA:   COUNTY
 STAT.            WYOMING:   STATE
 CTRY. UNITED STATES OF AMERICA:   COUNTRY
 SRVC.           BIRDWELL:   SERVICE COMPANY
 DATE.        12-JAN-1980:   LOGDATE
 API .     49025107980000:   API NUMBER
~CURVE INFORMATION
#MNEM.UNIT       API CODE    CURVE DESCRIPTION
#----------   ------------   ------------------------------
 DEPT.F                  :   
 GRD .GAPI   45 310 01 00:   GAMMA RAY FROM DENSITY LOG
 CALD.IN     45 280 60 00:   CALIPER FROM DENSITY LOG
 CORR.G/C3   45 356 01 00:   DENSITY CORRECTION
 RHOB.G/C3   45 350 01 00:   BULK DENSITY
 SPR .MV     07 010 01 00:   SPONTANEOUS POTENTIAL
 ILD .OHMM   07 120 46 00:   DEEP INDUCTION RESISTIVITY
 SN  .OHMM   07 220 01 00:   SHALLOW FOCUSED LOG RESISTIVITY
~PARAMETER INFORMATION
#MNEM.UNIT          VALUE    DESCRIPTION
#----------   ------------   ------------------------------
 EKB .F         4985.0000:   Kelly bushing
 EGL .F         4973.0000:   Ground level
 EDF .F         4982.0000:   Drilling floor
 TD  .F         2876.0000:   Total depth
 CLNT.            A2DTECH:   Client Code
 SL  . 1821' FEL & 414' FEL:   Surface Location
 DATE.        12-JAN-1980:   Date Logged [DD-MMM-YYYY]
 DD  .F              2870:   Depth driller
 DL  .F              2876:   Depth logger
 BLI .F              2876:   Bottom log interval
 TLI .F               320:   Top log interval
 CS1 .IN            8.625:   Casing size
 CBD1.      8.625" @ 280':   Casing driller 1
 CBL1.IN              320:   Casing logger 1
 BS1 .IN            7.875:   Bit size
 BSD1.F              2870:   Depth drilled with bit1
 DFT .            GEL MUD:   Type fluid in hole
 DFD .                8.7:   Density
 DFV .                 53:   Viscosity
 DFPH.               10.5:   pH
 DFL .               15.4:   Fluid loss
 MSS .            MUD PIT:   Source of sample
 RMS .OHMM            1.8:   Rm
 MST .F                50:   Rm Meas. temp.
 RMF .OHMM            1.4:   Rmf
 MFST.F                60:   Rmf Meas. temp.
 MFSS.               MEAS:   Source Rmf.
 RMC .OHMM            1.9:   Rmc
 MCST.F                60:   Rmc Meas. temp.
 MCSS.               MEAS:   Source Rmc.
 RMB .OHMM           0.65:   Rm. at BHT
 BHT .F               138:   BHT.
 TCS .HRS              11:   Time Circ. stopped
 MRT .F               138:   Maximum recorded temp.
 LUN .               3029:   Logging unit number
 LUL .             CASPEL:   Logging unit location
 ENGI.           T. VOLFF:   Recorded By
 WITN.          MR. AMEND:   Witnessed by
 ORIG.         2.5" PRINT:   Origin of data
 UWI .     49025107980000:   Unique Well ID
 DICO. A2D TECHNOLOGIES,INC.:   Digitizing Company
 PD  .                 GL:   Permanent Datum
 EPD .F              4973:   Elevation Permanent Datum
 LMF .                 DF:   Log Measured From
 DMF .                 KB:   Drilling Measured From
 DAPD.F                 9:   Feet Above Permanent Datum
~OTHER INFORMATION
~A    DEPT      GRD      CALD       CORR       RHOB        SPR        ILD         SN   
# ...
 1510.5000   120.9164     8.2600     0.0081     2.5344   -18.1961     9.7259     9.8024
 1511.0000   120.3536     8.2594     0.0172     2.5456   -17.5819     9.5954     9.8038
 1511.5000   118.8081     8.2588     0.0262     2.5542   -17.5774     9.4625     9.8052
 1512.0000   121.0720     8.2582     0.0262     2.5499   -17.8779     9.4333     9.6697
 1512.5000   119.8455     8.2576     0.0231     2.5410   -18.7881     9.2942     9.6712
 1513.0000   119.4195     8.2570     0.0200     2.5341   -20.0234     9.0296     9.5375
 1513.5000   119.4247     8.2564     0.0139     2.5334   -20.6085     8.9490     9.3449
 1514.0000   118.5173     8.2558     0.0108     2.5391   -19.9328     8.7063     9.2762
 1514.5000   115.4822     8.2552     0.0108     2.5466   -19.3796     8.4622     9.0209
 1515.0000   115.7906     8.2546     0.0108     2.5527   -20.1879     8.3451     8.8961
 1515.5000   117.9228     8.2539     0.0107     2.5496   -21.2006     8.3457     8.8975
 1516.0000   119.4470     8.2533     0.0116     2.5405   -20.6057     8.2299     8.8987
 1516.5000   118.8435     8.2527     0.0148     2.5481   -19.8084     8.2306     8.9000
 1517.0000   119.2131     8.2520     0.0240     2.5649   -19.0509     8.2312     9.1546
 1517.5000   121.8919     8.2514     0.0272     2.5740   -18.7416     8.2317     9.4166
 1518.0000   120.2554     8.2508     0.0239     2.5771   -19.0421     8.3493     9.5601
 1518.5000   119.4692     8.2502     0.0195     2.5717   -19.6474     8.4669     9.7058
 1519.0000   124.9958     8.2496     0.0104     2.5554   -18.4235     8.6036     9.8537
 1519.5000   127.3358     8.2491     0.0103     2.5527   -17.5044     8.8570    10.0037
 1520.0000   125.5623     8.2485     0.0073     2.5517   -17.8049     8.9909    10.1562
 1520.5000   124.3502     8.2479     0.0103     2.5411   -18.4102     9.1268    10.2529
 1521.0000   125.8754     8.2473     0.0102     2.5314   -18.7510     9.2647    10.3220
 1521.5000   125.4391     8.2467     0.0011     2.5291   -19.6814     9.3439    10.4008
 1522.0000   120.3921     8.2461    -0.0020     2.5420   -19.9213     9.4140    10.4025
 1522.5000   124.8254     8.2454     0.0073     2.5542   -19.9162     9.4773    10.2589
 1523.0000   126.2588     8.2448     0.0100     2.5557   -19.9116     9.4779    10.1170
 1523.5000   121.3396     8.2442     0.0130     2.5496   -19.7647     9.4785     9.9774
 1524.0000   117.6966     8.2436     0.0130     2.5496   -19.1301     9.4792     9.9789
 1524.5000   116.1813     8.2431     0.0129     2.5542   -18.6775     9.4798     9.8411
 1525.0000   114.0581     8.2424     0.0129     2.5588   -18.3682     9.4805     9.7052
 1525.5000   115.8863     8.2115     0.0128     2.5589   -18.3637     9.4811     9.5712
 1526.0000   119.2342     8.2412     0.0128     2.5603   -19.5788     9.4818     9.5548
 1526.5000   121.3663     8.2405     0.0097     2.5600   -20.1842     9.4824     9.4403
 1527.0000   121.3306     8.2399     0.0097     2.5553   -21.0944     9.3280     9.4418
 1527.5000   116.1324     8.2393     0.0096     2.5512   -21.6997     9.0625     9.3112
 1528.0000   117.3674     8.2387     0.0096     2.5414   -21.3699     8.7673     9.3127
 1528.5000   122.6062     8.2382     0.0095     2.5427   -20.6944     8.4350     9.3141
 1529.0000   125.9483     8.2376     0.0095     2.5489   -19.7958     8.2450     9.1855
 1529.5000   125.6946     8.2370     0.0094     2.5435   -19.5472     8.2456     9.4487
 1530.0000   124.7409     8.2667     0.0094     2.5359   -19.9493     8.4294     9.7191
 1530.5000   126.6865     8.2661     0.0094     2.5282   -20.7585     9.0971     9.8578
 1531.0000   124.4371     8.2654     0.0093     2.5267   -19.6961     9.6225     9.9986
 1531.5000   116.7669     8.2648     0.0093     2.5282   -18.6143     9.8968     9.9999
 1532.0000   113.6555     8.2642     0.0092     2.5313   -18.6089     9.8974    10.0013
 1532.5000   113.2649     8.2636     0.0102     2.5374   -18.6044     9.4905    10.0027
 1533.0000   116.2592     8.2631     0.0164     2.5499   -18.6000     9.1002    10.0040
 1533.5000   118.6952     8.2625     0.0226     2.5563   -18.5956     8.9741    10.0055
 1534.0000   121.1313     8.2618     0.0242     2.5493   -19.5058     8.8391    10.0068
 1534.5000   120.8318     8.2612     0.0211     2.5225   -20.1111     8.7272     9.8686
 1535.0000   117.1888     8.2605     0.0059     2.5191   -19.8018     8.8782     9.7323
 1535.5000   115.9775     8.2599     0.0050     2.5227   -19.8177     9.1396     9.5446
 1536.0000   116.5898     8.2593     0.0119     2.5266   -20.7479     9.4087     9.4041
 1536.5000   117.8101     8.2587     0.0179     2.5313   -21.0081     9.5509     9.3350
 1537.0000   118.7570     8.2581     0.0209     2.5344   -21.0030     9.6953     9.4686
 1537.5000   120.3016     8.2576     0.0178     2.5374   -20.6936     9.6312     9.4699
 1538.0000   121.5926     8.2570     0.0087     2.5405   -20.3841     9.4979     9.4712
 1538.5000   123.4108     8.2564     0.0056     2.5221   -19.9324     9.4985     9.4725
 1539.0000   124.9655     8.2558     0.0021     2.5145   -19.1352     9.3669     9.3416
 1539.5000   126.2163     8.2595    -0.0036     2.5130   -18.2354     9.2372     9.2127
 1540.0000   127.5676     8.2849    -0.0028     2.5267   -17.6212     8.9824     9.0855
 1540.5000   119.6751     8.2842     0.0034     2.5407   -18.8363     8.8579     8.8351
 1541.0000   115.7234     8.3140     0.0096     2.5435   -19.7465     8.4937     8.7131
 1541.5000   117.9825     8.3133     0.0114     2.5402   -19.1323     8.1374     8.7144
 1542.0000   122.1762     8.3128     0.0113     2.5409   -18.5181     8.0316     8.7157
 1542.5000   125.7422     8.3122     0.0082     2.5435   -18.2088     8.0322     9.0502
 1543.0000   129.7242     8.3279     0.0052     2.5368   -18.5295     8.2056     9.5923
 1543.5000   122.7378     8.3412     0.0082     2.5313   -19.1549     8.5744     9.9590
 1544.0000   118.1830     8.3405     0.0202     2.5375   -19.4151     8.9106    10.1769
 1544.5000   117.7513     8.3399     0.0353     2.5313   -19.3289     9.1149    10.1786
 1545.0000   120.0156     8.3393     0.0565     2.5221   -18.6942     9.4431    10.1800
 1545.5000   123.0595     8.3387     0.0686     2.5237   -18.4863     9.5077    10.3253
 1546.0000   124.5837     8.3381     0.0807     2.5420   -18.3394     9.6428    10.3267
 1546.5000   125.1961     8.3376     0.0350     2.5298   -18.3348     9.6434    10.1841
 1547.0000   126.4264     8.3370     0.0321     2.5344   -19.6912     9.5098    10.0435
 1547.5000   127.3581     8.3364     0.0320     2.5496   -19.9916     8.8667     9.9048
 1548.0000   127.2562     8.3358     0.0320     2.5496   -19.9872     8.9924     9.8970
 1548.5000   125.9587     8.3352     0.0310     2.5496   -20.2881     9.1200     9.6154
 1549.0000   124.4691     8.3345     0.0266     2.5545   -20.2832     9.3848     9.4738
 1549.5000   123.7030     8.3339     0.0127     2.5611   -19.9739     9.5130     9.3344
 1550.0000   124.5188     8.3333     0.0045     2.5654   -19.6646     9.4917     9.1108
 1550.5000   125.7695     8.3327     0.0045     2.5481   -18.7251     9.0931     8.9850
 1551.0000   126.2806     8.3322     0.0075     2.5435   -18.0496     8.6405     9.0458
 1551.5000   126.9083     8.3315     0.0074     2.5466   -17.2119     8.0423     9.2437
 1552.0000   127.5359     8.3309     0.0134     2.5481   -17.3698     7.9787     9.3760
 1552.5000   127.9863     8.3302     0.0195     2.5542   -18.7279     8.0434     9.5099
 1553.0000   128.5996     8.3296     0.0194     2.5618   -17.3810     8.2867     9.5111
 1553.5000   128.6040     8.3290     0.0103     2.5649   -17.1932     8.5087     9.6469
 1554.0000   127.6966     8.3285    -0.0049     2.5557   -18.4082     8.7512     9.6483
 1554.5000   124.9655     8.3278    -0.0050     2.5374   -19.6233     9.0007     9.6496
 1555.0000   125.2739     8.3272    -0.0020     2.5328   -20.2287     9.0013     9.7873
 1555.5000   127.4060     8.3267     0.0021     2.5439   -20.1834     9.1290     9.7887
