~VERSION INFORMATION
 VERS.                2.0:   CWLS LOG ASCII STANDARD - VERSION 2.0
 WRAP.                 NO:   ONE LINE PER DEPTH STEP
~WELL INFORMATION
#MNEM.UNIT      DATA TYPE    INFORMATION
#----------   ------------   ------------------------------
 STRT.F            0.5000:   START DEPTH
 STOP.F         1380.0000:   STOP DEPTH
 STEP.F            0.5000:   STEP LENGTH
 NULL.          -999.2500:   NO VALUE
 COMP.       FLUOR DANIEL:   COMPANY
 WELL. FLUOR 84 "X" #1-14:   WELL
 FLD .          N.P.R. #3:   FIELD
 LOC .      S14 T38N R78W:   LOCATION
 CNTY.            NATRONA:   COUNTY
 STAT.            WYOMING:   STATE
 CTRY. UNITED STATES OF AMERICA:   COUNTRY
 SRVC.     ATLAS WIRELINE:   SERVICE COMPANY
 DATE.        24-AUG-1994:   LOGDATE
 API .     49025226370000:   API NUMBER
~CURVE INFORMATION
#MNEM.UNIT       API CODE    CURVE DESCRIPTION
#----------   ------------   ------------------------------
 DEPT.F                  :   
 GRR .GAPI   07 310 01 00:   GAMMA RAY FROM RESISTIVITY
 RILD.OHMM   07 120 46 00:   INDUCTION LOG DEEP RESISTIVITY
 RILM.OHMM   07 120 44 00:   INDUCTION LOG MEDIUM RESISTIVITY
 TENR.LBS    07 635 01 00:   TENSION FROM RESISTIVITY
~PARAMETER INFORMATION
#MNEM.UNIT          VALUE    DESCRIPTION
#----------   ------------   ------------------------------
 EKB .F         5326.0000:   Kelly bushing
 EGL .F         5316.0000:   Ground level
 EDF .F         5325.0000:   Drilling floor
 TD  .F         1368.0000:   Total depth
 CLNT.            A2DTECH:   Client Code
 PD  .                 GL:   Permanent Datum
 EPD .F              5316:   Elevation Permanent Datum
 LMF .                 KB:   Log Measured From
 DMF .                 KB:   Drilling Measured From
 DAPD.F                10:   Feet Above Permanent Datum
 DATE.        24-AUG-1994:   Date Logged [DD-MMM-YYYY]
 DD  .F              1368:   Depth driller
 DL  .F              1364:   Depth logger
 BLI .F              1356:   Bottom log interval
 TLI .F                 0:   Top log interval
 CS1 .IN            9.625:   Casing size
 CBD1.       9.625" @ 56':   Casing driller 1
 CBL1.F                56:   Casing logger 1
 BS1 .IN             8.75:   Bit size
 BSD1.F              1368:   Depth drilled with bit1
 DFT .                AIR:   Type fluid in hole
 LUN .            HL 6530:   Logging unit number
 LUL .             CASPER:   Logging unit location
 WITN.        GARY STRONG:   Witnessed by
 ORIG.         2.5" PRINT:   Origin of data
 UWI .     49025226370000:   Unique Well ID
 DICO. A2D TECHNOLOGIES, INC.:   Digitizing Company
 SL  . 2551' FNL & 575' FEL:   Surface Location
~OTHER INFORMATION
~A    DEPT      GRR      RILD       RILM       TENR   
# ...
 1314.5000   121.9820     9.1879     9.2619   223.1080
 1315.0000   121.9760     8.9363     9.0087   223.0017
 1315.5000   121.9701     8.8120     8.8836   222.8954
 1316.0000   121.9641     8.5707     8.7601   222.7891
 1316.5000   122.8782     8.5685     8.5206   222.6828
 1317.0000   124.3461     8.4492     8.5183   237.4381
 1317.5000   126.7355     8.3317     8.2855   237.3338
 1318.0000   129.1257     8.2082     8.1703   252.1259
 1318.5000   127.3227     8.1013     8.0567   252.0062
 1319.0000   126.7180     7.9666     7.9447   251.9019
 1319.5000   127.9098     7.8772     7.8342   251.7975
 1320.0000   130.2992     7.8751     7.8321   251.6932
 1320.5000   131.4910     7.8729     7.8299   236.7080
 1321.0000   132.6828     7.8707     7.8278   251.4846
 1321.5000   132.0162     7.8686     7.8256   251.3803
 1322.0000   130.8747     7.8660     7.8235   251.2755
 1322.5000   131.7263     7.7565     7.7147   251.1692
 1323.0000   134.0199     7.6486     7.7122   251.0629
 1323.5000   134.4501     7.6466     7.7101   250.9566
 1324.0000   134.2115     7.6445     7.6030   250.8503
 1324.5000   134.9001     7.5382     7.6010   250.7440
 1325.0000   140.1193     7.4333     7.4953   250.6378
 1325.5000   143.8081     7.4244     7.3912   250.5315
 1326.0000   142.2025     7.2277     7.1891   269.9828
 1326.5000   137.4062     7.2060     7.1868   285.3250
 1327.0000   135.0052     7.0278     6.9850   309.7568
 1327.5000   136.1970     6.9939     6.7995   316.0087
 1328.0000   140.3828     6.8902     6.7049   302.5793
 1328.5000   140.9761     6.8316     6.6117   279.6556
 1329.0000   140.3711     6.7800     6.6099   279.5493
 1329.5000   137.9520     6.6423     6.6081   279.4430
 1330.0000   136.1679     6.4605     6.6063   279.3169
 1330.5000   142.1501     6.2836     6.4739   279.2126
 1331.0000   141.3292     6.0281     6.2920   279.1083
 1331.5000   136.7810     5.7830     5.9392   279.0040
 1332.0000   136.1446     5.4722     5.5966   278.8997
 1332.5000   139.1328     5.3960     5.4436   278.7953
 1333.0000   138.0400     5.3209     5.2948   278.6910
 1333.5000   134.9720     5.3292     5.3667   293.4677
 1334.0000   135.2336     5.4065     5.4393   293.3633
 1334.5000   137.0577     5.4849     5.5129   293.2590
 1335.0000   138.5019     5.6676     5.6649   293.1547
 1335.5000   139.0958     6.0467     5.9052   293.0484
 1336.0000   138.4903     6.3053     6.3330   292.9421
 1336.5000   137.8857     6.5334     6.6991   292.8358
 1337.0000   136.6822     6.9889     7.0864   294.9961
 1337.5000   135.4788     7.3820     7.4960   307.5142
 1338.0000   134.8742     7.7972     7.7879   307.3980
 1338.5000  -999.2500     7.9030     7.9691   307.2917
 1339.0000  -999.2500     7.9009     7.9665   322.0822
 1339.5000  -999.2500     7.7910     7.9643   327.0610
 1340.0000  -999.2500     7.6826     7.9621   336.7546
 1340.5000  -999.2500     7.5756     7.8510   336.6284
 1341.0000  -999.2500     7.5735     7.8489   336.5221
 1341.5000  -999.2500     7.6765     7.7399   336.4158
 1342.0000  -999.2500     7.6741     7.7378   336.3095
 1342.5000  -999.2500     7.6720     7.7357   336.2032
 1343.0000  -999.2500     7.6699     7.7337   321.1956
 1343.5000  -999.2500     7.6678     7.7316   321.0913
 1344.0000  -999.2500     7.6657     7.7295   320.9870
 1344.5000  -999.2500     7.7693     7.6221   320.8827
 1345.0000  -999.2500     7.7672     7.5161   335.6594
 1345.5000  -999.2500     7.6591     7.4980   335.5551
 1346.0000  -999.2500     7.7631     7.3086   335.4507
 1346.5000  -999.2500     7.5505     7.1804   350.2274
 1347.0000  -999.2500     7.5485     7.0751   350.1230
 1347.5000  -999.2500     7.3419     6.9124   364.8997
 1348.0000  -999.2500     7.1343     6.7754   364.7954
 1348.5000  -999.2500     6.9201     6.5850   364.6896
 1349.0000  -999.2500     6.6446     6.3999   365.5754
 1349.5000  -999.2500     6.3686     6.1864   379.3635
 1350.0000  -999.2500     6.0765     6.0173   364.3708
 1350.5000  -999.2500     5.6610     5.7730   364.2644
 1351.0000  -999.2500     5.3468     5.4631   364.1581
 1351.5000  -999.2500     4.9100     5.1699   364.0519
 1352.0000  -999.2500     4.2257     4.8257   363.9456
 1352.5000  -999.2500     3.4850     4.3227   363.8393
 1353.0000  -999.2500     3.3897     3.4691   378.6334
 1353.5000  -999.2500  -999.2500     3.3746   378.5077
 1354.0000  -999.2500  -999.2500     3.4203   378.4014
 1354.5000  -999.2500  -999.2500     3.3727   393.1760
 1355.0000  -999.2500  -999.2500     3.3152   393.0697
 1355.5000  -999.2500  -999.2500     3.2795   392.9634
 1356.0000  -999.2500  -999.2500     3.2786   392.8363
 1356.5000  -999.2500  -999.2500  -999.2500   392.7320
 1357.0000  -999.2500  -999.2500  -999.2500   392.6277
 1357.5000  -999.2500  -999.2500  -999.2500   392.5234
 1358.0000  -999.2500  -999.2500  -999.2500   392.4191
 1358.5000  -999.2500  -999.2500  -999.2500   392.3148
 1359.0000  -999.2500  -999.2500  -999.2500   407.1004
 1359.5000  -999.2500  -999.2500  -999.2500   406.9871
 1360.0000  -999.2500  -999.2500  -999.2500   406.8828
 1360.5000  -999.2500  -999.2500  -999.2500   391.8975
 1361.0000  -999.2500  -999.2500  -999.2500   362.0313
 1361.5000  -999.2500  -999.2500  -999.2500   331.6014
 1362.0000  -999.2500  -999.2500  -999.2500   239.3665
 1362.5000  -999.2500  -999.2500  -999.2500   116.5444
 1363.0000  -999.2500  -999.2500  -999.2500     0.4960
 1363.5000  -999.2500  -999.2500  -999.2500   -57.7200
 1364.0000  -999.2500  -999.2500  -999.2500   -85.0340
 1364.5000  -999.2500  -999.2500  -999.2500   -85.1403
 1365.0000  -999.2500  -999.2500  -999.2500   -85.2466
 1365.5000  -999.2500  -999.2500  -999.2500   -85.3529
 1366.0000  -999.2500  -999.2500  -999.2500   -85.4592
 1366.5000  -999.2500  -999.2500  -999.2500   -85.5655
 1367.0000  -999.2500  -999.2500  -999.2500   -85.6718
 1367.5000  -999.2500  -999.2500  -999.2500   -85.7781
 1368.0000  -999.2500  -999.2500  -999.2500   -85.8844
 1368.5000  -999.2500  -999.2500  -999.2500   -85.9907
 1369.0000  -999.2500  -999.2500  -999.2500   -94.8818
 1369.5000  -999.2500  -999.2500  -999.2500  -101.1036
 1370.0000  -999.2500  -999.2500  -999.2500  -116.0888
 1370.5000  -999.2500  -999.2500  -999.2500  -116.1931
 1371.0000  -999.2500  -999.2500  -999.2500  -116.2974
 1371.5000  -999.2500  -999.2500  -999.2500  -131.2827
 1372.0000  -999.2500  -999.2500  -999.2500  -146.2679
 1372.5000  -999.2500  -999.2500  -999.2500  -161.2532
 1373.0000  -999.2500  -999.2500  -999.2500  -161.3575
 1373.5000  -999.2500  -999.2500  -999.2500  -161.4618
 1374.0000  -999.2500  -999.2500  -999.2500  -161.5661
 1374.5000  -999.2500  -999.2500  -999.2500  -161.6709
 1375.0000  -999.2500  -999.2500  -999.2500  -176.6582
 1375.5000  -999.2500  -999.2500  -999.2500  -176.7645
 1376.0000  -999.2500  -999.2500  -999.2500  -176.8708
 1376.5000  -999.2500  -999.2500  -999.2500  -176.9770
 1377.0000  -999.2500  -999.2500  -999.2500  -194.9405
 1377.5000  -999.2500  -999.2500  -999.2500  -225.3787
 1378.0000  -999.2500  -999.2500  -999.2500  -250.0000
 1378.5000  -999.2500  -999.2500  -999.2500  -235.8872
 1379.0000  -999.2500  -999.2500  -999.2500  -235.6431
 1379.5000  -999.2500  -999.2500  -999.2500  -235.3991
 1380.0000  -999.2500  -999.2500  -999.2500  -249.9919
