~VERSION INFORMATION
 VERS.                2.0:   CWLS LOG ASCII STANDARD - VERSION 2.0
 WRAP.                 NO:   ONE LINE PER DEPTH STEP
~WELL INFORMATION
#MNEM.UNIT      DATA TYPE    INFORMATION
#----------   ------------   ------------------------------
 STRT.F         2933.0000:   START DEPTH
 STOP.F         5494.0000:   STOP DEPTH
 STEP.F            0.5000:   STEP LENGTH
 NULL.          -999.2500:   NO VALUE
 COMP.    FENIX & SCISSON:   COMPANY
 WELL. FENIX "TPX" #56-10:   WELL
 FLD .        TEAPOT DOME:   FIELD
 LOC .      S10 T38N R78W:   LOCATION
 CNTY.            NATRONA:   COUNTY
 STAT.            WYOMING:   STATE
 CTRY. UNITED STATES OF AMERICA:   COUNTRY
 SRVC.       SCHLUMBERGER:   SERVICE COMPANY
 DATE.        22-MAY-1978:   LOGDATE
 API .     49025106100000:   API NUMBER
~CURVE INFORMATION
#MNEM.UNIT       API CODE    CURVE DESCRIPTION
#----------   ------------   ------------------------------
 DEPT.F                  :   
 NPHI.DEC    42 890 03 00:   NEUTRON POROSITY SANDSTONE
 GRD .GAPI   45 310 01 00:   GAMMA RAY FROM DENSITY LOG
 CALD.IN     45 280 60 00:   CALIPER FROM DENSITY LOG
 CORR.G/C3   45 356 01 00:   DENSITY CORRECTION
 RHOB.G/C3   45 350 01 00:   BULK DENSITY
 SPR .MV     07 010 01 00:   SPONTANEOUS POTENTIAL
 ILD .OHMM   07 120 46 00:   INDUCTION LOG DEEP RESISTIVITY
 ILM .OHMM   07 120 44 00:   INDUCTION LOG MEDIUM RESISTIVITY
 SFL .OHMM   07 220 01 00:   SHALLOW FOCUSED LOG RESISITIVITY
 DT  .US/F   60 520 00 00:   DELTA TIME
~PARAMETER INFORMATION
#MNEM.UNIT          VALUE    DESCRIPTION
#----------   ------------   ------------------------------
 EKB .F         5212.0000:   Kelly bushing
 EGL .F         5202.0000:   Ground level
 TD  .F         5500.0000:   Total depth
 CLNT.            A2DTECH:   Client Code
 SL  . 1270' FSL & 2130' FEL:   Surface Location
 PD  .                 GL:   Permanent Datum
 EPD .F              5202:   Elevation Permanent Datum
 LMF .                 KB:   Log Measured From
 DMF .                 KB:   Drilling Measured From
 DAPD.F                10:   Feet Above Permanent Datum
 DATE.        22-MAY-1978:   Date Logged [DD-MMM-YYYY]
 DD  .F              5500:   Depth driller
 DL  .F              5499:   Depth logger
 BLI .F              5497:   Bottom log interval
 TLI .F              2971:   Top log interval
 CS1 .IN            8.625:   Casing size
 CBD1.     8.625" @ 2972':   Casing driller 1
 CBL1.F              2971:   Casing logger 1
 BS1 .IN            7.875:   Bit size
 BSD1.F              5500:   Depth drilled with bit1
 DFT .                FGM:   Type fluid in hole
 DFD .                9.3:   Density
 DFV .                 57:   Viscosity
 DFPH.               10.5:   pH
 DFL .                  6:   Fluid loss
 MSS .           MUD TANK:   Source of sample
 RMS .OHMM           0.93:   Rm
 MST .F                58:   Rm Meas. temp.
 RMF .OHMM           0.71:   Rmf
 MFST.F                61:   Rmf Meas. temp.
 MFSS.               MEAS:   Source Rmf.
 RMB .OHMM           0.27:   Rm. at BHT
 BHT .F               198:   BHT.
 TCS .HRS            1500:   Time Circ. stopped
 TLAB.HRS            0100:   Time logger at bottom
 MRT .F               198:   Maximum recorded temp.
 LUN .               8039:   Logging unit number
 LUL .               CSPR:   Logging unit location
 ENGI.          CHALUPSKY:   Recorded By
 WITN.            RHOADES:   Witnessed by
 ORIG.      2.5" 5" PRINT:   Origin of data
 UWI .     49025106100000:   Unique Well ID
 DICO. A2D TECHNOLOGIES, INC.:   Digitizing Company
~OTHER INFORMATION
~A  DEPTH     NPHI        GRD       CALD       CORR       RHOB        SPR        ILD        ILM        SFL         DT
# ...
 4608.0000     0.1087    50.4743    10.2091     0.0084     2.6182   -48.6030    25.4315    22.4945    26.3140    58.9165
 4608.5000     0.1052    49.3050    10.2093     0.0128     2.6300   -48.3103    27.6300    24.4425    27.9987    58.7001
 4609.0000     0.1058    49.3174    10.2096     0.0187     2.6342   -48.0177    29.6048    26.9303    30.2077    58.7075
 4609.5000     0.1124    50.0226    10.2099     0.0187     2.6357   -48.0250    31.2834    28.6594    34.6917    59.1660
 4610.0000     0.1290    53.0525    10.2102     0.0157     2.6265   -48.6279    32.6015    30.0790    37.9519    60.1509
 4610.5000     0.1397    60.4078    10.2105     0.0127     2.6087   -49.2309    33.2934    31.1337    39.8250    61.0605
 4611.0000     0.1457    64.5074    10.2108     0.0097     2.5866   -49.5353    33.4943    31.5633    40.6504    61.8198
 4611.5000     0.1505    65.7421    10.2111     0.0052     2.5750   -49.6904    32.5619    31.9952    39.7924    62.2031
 4612.0000     0.1582    66.3792    10.2114     0.0022     2.5670   -49.6963    31.2221    31.5463    35.8432    62.2857
 4612.5000     0.1665    69.4629    10.2117     0.0007     2.5658   -49.5515    30.1459    30.4630    30.1211    62.2179
 4613.0000     0.1751    76.8601    10.2120     0.0066     2.5740   -49.5589    28.5070    28.9710    28.6809    62.4882
 4613.5000     0.1840    81.7676    10.2123     0.0111     2.5793   -49.7140    26.7707    26.7995    28.4707    63.0303
 4614.0000     0.1882    84.8226    10.2126     0.0126     2.5845   -49.8692    25.1402    24.5466    28.2411    63.6381
 4614.5000     0.1925    87.2800    10.2129     0.0139     2.5890   -49.8751    23.7734    23.0547    27.4143    63.7079
 4615.0000     0.1966    85.3914    10.2132     0.0124     2.5896   -50.0302    22.3254    21.9561    25.2684    63.6387
 4615.5000     0.1982    81.8103    10.2135     0.0054     2.5866   -49.8854    21.2587    20.9099    23.2396    63.6460
 4616.0000     0.1953    78.2292    10.2138    -0.0054     2.5895   -49.4450    20.6689    19.9135    20.7884    63.5753
 4616.5000     0.1789    75.2469    10.2141    -0.0054     2.6058   -49.0030    20.5181    19.0967    20.4934    63.3571
 4617.0000     0.1628    72.2646    10.2144    -0.0035     2.6131   -48.5613    20.3684    18.4409    20.6298    62.8367
 4617.5000     0.1477    68.0847    10.2147     0.0009     2.6176   -48.2687    20.4601    18.3090    20.9075    62.1659
 4618.0000     0.1397    63.9048    10.2151     0.0054     2.6205   -48.1254    20.6233    18.4332    21.0466    60.8184
 4618.5000     0.1360    59.1261    10.2154     0.0105     2.6264   -48.1313    20.7627    18.9465    21.7787    60.3732
 4619.0000     0.1345    56.7426    10.2157     0.0158     2.6367   -48.1373    21.1952    19.7474    24.1584    60.0782
 4619.5000     0.1343    60.4334    10.2160     0.0181     2.6458   -48.4418    22.2447    21.0153    26.6128    59.8587
 4620.0000     0.1521    66.5095    10.2162     0.0203     2.6622   -48.1490    23.6737    22.5203    29.5207    60.2457
 4620.5000     0.1711    72.0114    10.2165     0.0210     2.6736   -48.1563    25.3701    23.9887    32.7464    60.7085
 4621.0000     0.1890    75.9521    10.1868     0.0209     2.6698   -47.8623    26.9999    25.3761    34.1249    61.6072
 4621.5000     0.1807    76.5629    10.1571     0.0150     2.6464   -48.1681    27.9476    26.7667    34.3485    61.7634
 4622.0000     0.1742    77.4605    10.1574     0.0046     2.6219   -48.3233    28.5298    27.1360    32.3999    61.6175
 4622.5000     0.1772    79.3215    10.1577     0.0001     2.5996   -48.7770    28.9226    26.0214    30.0039    61.4730
 4623.0000     0.1888    82.5761    10.1580     0.0016     2.6109   -49.2306    28.9167    25.6566    28.4409    62.5330
 4623.5000     0.2040    87.6749    10.1282     0.0060     2.6274   -49.0858    27.9179    25.6504    29.0274    63.4412
 4624.0000     0.2193    92.5825    10.0985     0.0089     2.6440   -49.0932    26.1996    25.2908    30.4631    64.1990
 4624.5000     0.2176    95.7450    10.0926     0.0119     2.6491   -49.0991    24.7547    24.2534    29.8201    64.3538
 4625.0000     0.2094    93.7168    10.0616     0.0148     2.6402   -49.1050    23.2985    23.0977    28.0029    63.4589
 4625.5000     0.2023    84.8877    10.0393     0.0148     2.6304   -49.4094    22.6559    21.8449    23.6963    62.8633
 4626.0000     0.1952    77.5563    10.0396     0.0118     2.6220   -49.8630    22.1845    20.6601    22.2522    62.5684
 4626.5000     0.1893    72.4932    10.0399     0.0087     2.6201   -50.1674    22.0266    20.2295    22.0893    61.8130
 4627.0000     0.1774    70.1097    10.0402     0.0058     2.6216   -50.3226    22.0220    20.3655    22.3911    61.0557
 4627.5000     0.1608    68.3250    10.0405     0.0043     2.6230   -50.3285    22.3253    21.3743    22.8506    60.3320
 4628.0000     0.1573    67.1391    10.0408     0.0057     2.6245   -50.3344    22.9491    22.6195    24.4828    60.1860
 4628.5000     0.1585    66.5509    10.0411     0.0057     2.6274   -50.0418    24.0867    24.0846    26.4144    60.3438
 4629.0000     0.1597    66.5638    10.0415     0.0057     2.6304   -49.7492    25.6341    25.5816    28.3092    60.6504
 4629.5000     0.1609    67.1743    10.0418     0.0038     2.6141   -49.1581    27.2808    26.4786    32.1022    60.9571
 4630.0000     0.1609    67.7848    10.0421     0.0022     2.5993   -48.8655    28.6331    27.0309    33.8706    60.8111
 4630.5000     0.1610    68.9941    10.0424    -0.0003     2.5933   -48.8716    29.4340    27.4022    32.9263    60.7419
 4631.0000     0.1612    72.0478    10.0427    -0.0004     2.6008   -48.5802    30.2556    27.7786    32.2346    60.8244
 4631.5000     0.1653    77.6307    10.0430    -0.0019     2.6067   -48.2876    30.4911    27.7703    32.4458    61.1311
 4632.0000     0.1782    85.2429    10.0733     0.0016     2.6082   -47.8458    30.0325    27.7636    33.5778    62.3400
 4632.5000     0.2009    94.2203    10.0736     0.0062     2.6112   -47.4039    28.6024    27.5650    34.7492    64.3008
 4633.0000     0.2277   102.0848    10.0739     0.0084     2.6183   -47.4098    26.8649    26.6185    35.2205    66.4390
 4633.5000     0.2538   107.6731    10.1042     0.0084     2.6316   -47.7142    24.7129    24.3160    34.7208    68.3283
 4634.0000     0.2632   108.5972    10.1045     0.0054     2.6451   -48.0186    22.4199    21.0130    31.7121    68.6809
 4634.5000     0.2458   103.4690    10.1380     0.0053     2.6528   -48.3230    19.9206    19.0627    26.4652    67.1830
 4635.0000     0.2290    94.3495    10.1652     0.0049     2.6468   -48.3289    17.9473    17.6572    20.1808    65.6100
 4635.5000     0.2130    87.8873    10.2014     0.0053     2.6413   -48.1841    16.9744    16.8002    17.3159    63.2850
 4636.0000     0.1969    81.2703    10.2330     0.0053     2.6411   -48.0408    16.8536    16.2235    16.9521    62.0879
 4636.5000     0.1803    74.8317    10.2562     0.0052     2.6478   -48.6452    16.8501    15.5714    17.0633    61.4923
 4637.0000     0.1679    70.8995    10.2565     0.0052     2.6538   -49.2481    17.0822    15.7853    17.0562    61.2727
 4637.5000     0.1637    68.2139    10.2568     0.0037     2.6575   -49.8510    17.8049    16.1136    18.9754    60.7522
 4638.0000     0.1638    67.3794    10.2270     0.0007     2.6240   -50.1554    19.1093    16.9117    21.6670    60.0060
 4638.5000     0.1663    66.7904    10.2273    -0.0008     2.6166   -50.1613    20.7961    18.3762    24.2680    60.1626
 4639.0000     0.1730    71.5945    10.2276    -0.0008     2.6240   -50.1672    22.5288    20.2467    26.3650    60.6196
 4639.5000     0.1956    78.7919    10.2279     0.0037     2.6373   -50.1731    23.4820    22.3074    30.0692    61.3157
 4640.0000     0.2245    87.1868    10.2283     0.0111     2.6417   -49.8805    24.3063    23.9050    34.0566    62.8180
 4640.5000     0.2515    99.1746    10.2286     0.0168     2.6476   -49.5538    24.6422    24.2348    35.9864    65.7515
 4641.0000     0.2600   105.7731    10.2289     0.0168     2.6491   -48.9498    24.2963    23.7283    36.4782    67.7875
