~VERSION INFORMATION
 VERS.                2.0:   CWLS LOG ASCII STANDARD - VERSION 2.0
 WRAP.                 NO:   ONE LINE PER DEPTH STEP
~WELL INFORMATION
#MNEM.UNIT      DATA TYPE    INFORMATION
#----------   ------------   ------------------------------
 STRT.F           90.0000:   START DEPTH
 STOP.F         3342.0000:   STOP DEPTH
 STEP.F            0.5000:   STEP LENGTH
 NULL.          -999.2500:   NO VALUE
 COMP. LAWRENCE ALLISON AND ASSOCIATES:   COMPANY
 WELL. LAWERNCE "X" #83-3:   WELL
 FLD .             NPR #3:   FIELD
 LOC .       S3 T38N R78W:   LOCATION
 CNTY.            NATRONA:   COUNTY
 STAT.            WYOMING:   STATE
 CTRY. UNITED STATES OF AMERICA:   COUNTRY
 SRVC.      DRESSER ATLAS:   SERVICE COMPANY
 DATE.        23-APR-1985:   LOGDATE
 API .     49025110210000:   API NUMBER
~CURVE INFORMATION
#MNEM.UNIT       API CODE    CURVE DESCRIPTION
#----------   ------------   ------------------------------
 DEPT.F                  :   
 TENR.LBS    07 635 01 00:   TENSION FROM RESISTIVITY
 CALR.IN     07 280 01 00:   CALIPER FROM RESISTIVITY
 SPR .MV     07 010 01 00:   SPONTANEOUS POTENTIAL
 GRR .GAPI   07 310 01 00:   GAMMA RAY FROM RESISTIVITY
 RFOC.OHMM   07 220 04 00:   RESISTIVITY FOCUSED LOG RES.
 RILD.OHMM   07 120 46 00:   DEEP INDUCTION RESISTIVITY
 RILM.OHMM   07 120 44 00:   INDUCTION LOG MEDIUM RESISTIVITY
 NPHI.DEC    42 890 03 00:   NEUTRON POROSITY SANDSTONE
 RHOB.G/C3   45 350 01 00:   BULK DENSITY
 TEND.LBS    45 635 01 00:   TENSION FROM DENSITY LOG
 CORR.G/C3   45 356 01 00:   DENSITY CORRECTION
~PARAMETER INFORMATION
#MNEM.UNIT          VALUE    DESCRIPTION
#----------   ------------   ------------------------------
 EKB .F         5125.0000:   Kelly bushing
 EGL .F         5112.0000:   Ground level
 EDF .F            0.0000:   Drilling floor
 TD  .F         3330.0000:   Total depth
 DATE.        23-APR-1985:   Date logged
 CLNT.            A2DTECH:   Client Code
 SL  . 1745' FNL & 612' FEL:   Surface Location
 PD  .                 GL:   Permanent Datum
 DD  .F              3330:   Depth driller
 DL  .F              3328:   Depth logger
 BLI .F              3326:   Bottom log interval
 CS1 .IN            8.625:   Casing size
 CBD1.      8.625" @ 526':   Casing driller 1
 CBL1.F               528:   Casing logger 1
 BS1 .IN            7.875:   Bit size
 DFT .            KCL-GEL:   Type fluid in hole
 DFD .                9.1:   Density
 DFV .                 43:   Viscosity
 DFPH.                  8:   pH
 DFL .                  8:   Fluid loss
 MSS .           FLOWLINE:   Source of sample
 RMS .OHMM          0.445:   Rm
 MST .F                72:   Rm Meas. temp.
 RMF .OHMM           0.36:   Rmf
 MFST.F                70:   Rmf Meas. temp.
 RMC .OHMM           0.55:   Rmc
 MCST.F                72:   Rmc Meas. temp.
 MFSS.               MEAS:   Source Rmf.
 RMB .OHMM          0.286:   Rm. at BHT
 BHT .F               116:   BHT.
 TCS .HRS               3:   Time Circ. stopped
 MRT .F               116:   Maximum recorded temp.
 LUN .               6274:   Logging unit number
 LUL .               GLTE:   Logging unit location
 ENGI.             RAUTIO:   Recorded By
 WITN.             STRONG:   Witnessed by
 ORIG.           5" PRINT:   Origin of data
 UWI .     49025110210000:   Unique Well ID
 DICO. A2D TECHNOLOGIES, INC.:   Digitizing Company
 DAPD.                 13:   Feet Above Permanent Datum
 BSD1.               3330:   Depth drilled with bit1
 MCSS.               CALC:   Source Rmc.
 EPD .               5112:   Elevation Permanent Datum
 LMF .                 KB:   Log Measured From
 DMF .                 KB:   Drilling Measured From
~OTHER INFORMATION
~A   DEPT     TENR       CALR        SPR         GRR      RFOC       RILD       RILM       NPHI       RHOB       TEND       CORR   
# ...
 1645.5000   -72.5780    11.3660   -65.2120   113.4500     7.0860     6.5620     6.8020  -999.2500  -999.2500  -999.2500  -999.2500
 1646.0000   -72.3790    11.3660   -65.2470   111.7240     6.9570     6.5590     6.7990  -999.2500  -999.2500  -999.2500  -999.2500
 1646.5000   -72.1810    11.3660   -65.2480   108.3710     6.9570     6.5560     6.7960  -999.2500  -999.2500  -999.2500  -999.2500
 1647.0000   -71.9830    11.3660   -65.2480   105.0090     6.9570     6.5530     6.7930  -999.2500  -999.2500  -999.2500  -999.2500
 1647.5000   -71.7850    11.3640   -65.2480   102.0330     6.9570     6.5490     6.7900  -999.2500  -999.2500  -999.2500  -999.2500
 1648.0000   -71.5860    11.3600   -65.2480   103.1310     6.9570     6.5460     6.7870  -999.2500  -999.2500  -999.2500  -999.2500
 1648.5000   -71.3880    11.3570   -65.2480   103.9260     6.9550     6.5430     6.7830  -999.2500  -999.2500  -999.2500  -999.2500
 1649.0000   -71.1900    11.3530   -65.2480   103.6870     6.9510     6.5400     6.7800  -999.2500  -999.2500  -999.2500  -999.2500
 1649.5000   -70.9920    11.3490   -65.2470   103.7460     7.0240     6.5370     6.7770  -999.2500  -999.2500  -999.2500  -999.2500
 1650.0000   -70.7940    11.3450   -65.2470   103.8460     6.9900     6.5330     6.7740  -999.2500  -999.2500  -999.2500  -999.2500
 1650.5000   -70.5950    11.3340   -65.1690   101.2900     6.9710     6.5300     6.7710  -999.2500  -999.2500  -999.2500  -999.2500
 1651.0000   -70.3970    11.3260   -65.0140    99.3380     6.9530     6.5260     6.7670  -999.2500  -999.2500  -999.2500  -999.2500
 1651.5000   -70.1990    11.3270   -64.8580    97.7520     6.9350     6.5190     6.7680  -999.2500  -999.2500  -999.2500  -999.2500
 1652.0000   -70.0010    11.3290   -64.8510    98.0460     6.9160     6.6440     6.7100  -999.2500  -999.2500  -999.2500  -999.2500
 1652.5000   -69.8020    11.3310   -64.8790   102.3460     6.8930     6.8300     6.7420  -999.2500  -999.2500  -999.2500  -999.2500
 1653.0000   -69.6040    11.3320   -64.9090   106.4920     6.9570     6.7660     6.7730  -999.2500  -999.2500  -999.2500  -999.2500
 1653.5000   -69.4060    11.3340   -64.9380   110.6020     6.6730     6.6990     6.8040  -999.2500  -999.2500  -999.2500  -999.2500
 1654.0000   -69.2080    11.3350   -64.9670   109.3650     6.5240     6.6320     6.8300  -999.2500  -999.2500  -999.2500  -999.2500
 1654.5000   -69.0100    11.3370   -64.9970   107.6040     6.4800     6.5640     6.7440  -999.2500  -999.2500  -999.2500  -999.2500
 1655.0000   -68.8110    11.3380   -65.0260   105.8250     6.4060     6.5240     6.6710  -999.2500  -999.2500  -999.2500  -999.2500
 1655.5000   -68.6130    11.3400   -65.0560   104.5290     6.3320     6.4640     6.5980  -999.2500  -999.2500  -999.2500  -999.2500
 1656.0000   -68.4150    11.3410   -65.0850   102.9460     6.2880     6.4640     6.5840  -999.2500  -999.2500  -999.2500  -999.2500
 1656.5000   -68.2170    11.3430   -65.1140   101.3820     6.4250     6.5130     6.6450  -999.2500  -999.2500  -999.2500  -999.2500
 1657.0000   -68.0180    11.3450   -65.1440    99.8140     6.5380     6.5730     6.7420  -999.2500  -999.2500  -999.2500  -999.2500
 1657.5000   -67.8200    11.3440   -65.1730    98.2230     6.6450     6.6330     6.8930  -999.2500  -999.2500  -999.2500  -999.2500
 1658.0000   -67.6220    11.2880   -65.2030    99.5410     6.5610     6.6930     6.8410  -999.2500  -999.2500  -999.2500  -999.2500
 1658.5000   -67.4240    11.2450   -65.2320   101.8440     6.4050     6.7530     6.7270  -999.2500  -999.2500  -999.2500  -999.2500
 1659.0000   -67.2250    11.2020   -65.2470   103.9360     6.4450     6.8130     6.6450  -999.2500  -999.2500  -999.2500  -999.2500
 1659.5000   -67.0270    11.1600   -65.2790   102.7340     6.4820     6.8730     6.7580  -999.2500  -999.2500  -999.2500  -999.2500
 1660.0000   -66.8290    11.1170   -65.3260   101.1510     6.5240     6.9330     6.8470  -999.2500  -999.2500  -999.2500  -999.2500
 1660.5000   -66.6310    11.0750   -65.3720    99.6380     6.5780     6.9930     6.9360  -999.2500  -999.2500  -999.2500  -999.2500
 1661.0000   -66.4330    11.0330   -65.4190    98.1370     6.6380     7.0530     7.0250  -999.2500  -999.2500  -999.2500  -999.2500
 1661.5000   -66.2340    10.9900   -65.4650    96.7640     6.6980     7.1130     7.1130  -999.2500  -999.2500  -999.2500  -999.2500
 1662.0000   -66.0360    10.9710   -65.5120    96.2190     6.7580     7.1730     7.2020  -999.2500  -999.2500  -999.2500  -999.2500
 1662.5000   -65.8380    10.9730   -65.5590    95.6270     6.8190     7.2330     7.2910  -999.2500  -999.2500  -999.2500  -999.2500
 1663.0000   -65.6400    10.9750   -65.6050    93.7270     6.8790     7.2840     7.4190  -999.2500  -999.2500  -999.2500  -999.2500
 1663.5000   -61.6790    10.9780   -65.6120    91.7430     6.9570     7.2610     7.3770  -999.2500  -999.2500  -999.2500  -999.2500
 1664.0000   -54.8130    10.9800   -65.4100    92.1110     6.8940     7.1990     7.3020  -999.2500  -999.2500  -999.2500  -999.2500
 1664.5000   -47.9470    10.9820   -65.2100    94.8770     6.8290     7.1370     7.2280  -999.2500  -999.2500  -999.2500  -999.2500
 1665.0000   -41.0810    10.9850   -65.0100    95.9020     6.7640     7.0750     7.1540  -999.2500  -999.2500  -999.2500  -999.2500
 1665.5000   -37.8470    10.9870   -64.8100    95.7190     6.6990     7.0130     7.0800  -999.2500  -999.2500  -999.2500  -999.2500
 1666.0000   -48.4470    10.9890   -64.6100    95.5250     6.6350     6.9510     7.0050  -999.2500  -999.2500  -999.2500  -999.2500
 1666.5000   -59.0470    10.9860   -64.4100    95.3020     6.5700     6.8890     6.9310  -999.2500  -999.2500  -999.2500  -999.2500
 1667.0000   -69.6460    10.9670   -64.2440    96.4330     6.5050     6.8270     6.8570  -999.2500  -999.2500  -999.2500  -999.2500
 1667.5000   -76.5430    10.9480   -64.4910    98.2860     6.4050     6.7680     6.8300  -999.2500  -999.2500  -999.2500  -999.2500
 1668.0000   -78.8320    10.9290   -64.7640   100.1400     6.4310     6.7680     6.8300  -999.2500  -999.2500  -999.2500  -999.2500
 1668.5000   -81.1200    10.9110   -65.0410   100.5950     6.4870     6.8110     6.9000  -999.2500  -999.2500  -999.2500  -999.2500
 1669.0000   -83.4090    10.8720   -65.3180   100.7790     6.5440     6.9730     6.9270  -999.2500  -999.2500  -999.2500  -999.2500
 1669.5000   -85.4940    10.8280   -65.5940   100.1730     6.6000     7.1350     6.9540  -999.2500  -999.2500  -999.2500  -999.2500
 1670.0000   -78.1820    10.7850   -65.8380    97.7000     6.6570     7.3170     6.9810  -999.2500  -999.2500  -999.2500  -999.2500
 1670.5000   -71.4690    10.7480   -65.8070    95.2950     6.7130     7.3510     7.0080  -999.2500  -999.2500  -999.2500  -999.2500
 1671.0000   -65.5530    10.7170   -65.7730    92.8960     6.7700     6.8930     7.0340  -999.2500  -999.2500  -999.2500  -999.2500
 1671.5000   -65.5530    10.7510   -65.7410    91.3040     6.8270     6.8930     7.0610  -999.2500  -999.2500  -999.2500  -999.2500
 1672.0000   -65.5530    10.7310   -65.7080    94.7140     6.8830     6.8930     7.0880  -999.2500  -999.2500  -999.2500  -999.2500
 1672.5000   -65.5530    10.7280   -65.6750    98.4050     6.9400     6.8300     7.1150  -999.2500  -999.2500  -999.2500  -999.2500
 1673.0000   -65.5530    10.7220   -65.6430   101.6420     6.9960     6.7680     7.1420  -999.2500  -999.2500  -999.2500  -999.2500
 1673.5000   -65.5530    10.7160   -65.6100   102.9560     7.0210     6.7680     7.1680  -999.2500  -999.2500  -999.2500  -999.2500
 1674.0000   -65.5530    10.7100   -65.5770   102.5390     7.0210     6.7880     7.1950  -999.2500  -999.2500  -999.2500  -999.2500
 1674.5000   -65.5530    10.7040   -65.5450   103.6400     7.0210     6.8150     7.2170  -999.2500  -999.2500  -999.2500  -999.2500
 1675.0000   -65.5530    10.6980   -65.5120   104.7320     7.0210     6.8420     7.1970  -999.2500  -999.2500  -999.2500  -999.2500
 1675.5000   -65.5530    10.6920   -65.4800   105.1830     7.0210     6.8680     7.1810  -999.2500  -999.2500  -999.2500  -999.2500
