~VERSION INFORMATION
 VERS.                2.0:   CWLS LOG ASCII STANDARD - VERSION 2.0
 WRAP.                 NO:   ONE LINE PER DEPTH STEP
~WELL INFORMATION
#MNEM.UNIT      DATA TYPE    INFORMATION
#----------   ------------   ------------------------------
 STRT.F            0.0000:   START DEPTH
 STOP.F         1071.5000:   STOP DEPTH
 STEP.F            0.5000:   STEP LENGTH
 NULL.          -999.2500:   NO VALUE
 COMP.       FLUOR DANIEL:   COMPANY
 WELL.     FLUOR X #82-22:   WELL
 FLD .                NPR:   FIELD
 LOC .      S22 T38N R78W:   LOCATION
 CNTY.            NATRONA:   COUNTY
 STAT.            WYOMING:   STATE
 CTRY. UNITED STATES OF AMERICA:   COUNTRY
 SRVC.      WESTERN ATLAS:   SERVICE COMPANY
 DATE.        19-SEP-1994:   LOGDATE
 API .     49025226520000:   API NUMBER
~CURVE INFORMATION
#MNEM.UNIT       API CODE    CURVE DESCRIPTION
#----------   ------------   ------------------------------
 DEPT.F                  :   
 GRR .GAPI   07 310 01 00:   GAMMA RAY FROM RESISTIVITY
 TENR.LBS    07 635 01 00:   TENSION
 ILD .OHMM   07 120 46 00:   INDUCTION LOG DEEP RESISTIVITY
 ILM .OHMM   07 120 44 00:   INDUCTION LOG MEDIUM RESISTIVITY
~PARAMETER INFORMATION
#MNEM.UNIT          VALUE    DESCRIPTION
#----------   ------------   ------------------------------
 EKB .F         5288.0000:   Kelly bushing
 EGL .F         5278.0000:   Ground level
 EDF .F         5287.0000:   Drilling floor
 EPD .F         5278.0000:   Permanent datum
 TD  .F         1062.0000:   Total depth
 DATE.        19-SEP-1994:   Date logged
 CLNT.            A2DTECH:   Client Code
 SL  . 937' FNL & 347' FEL:   Surface Location
 PD  .                 GL:   Permanent Datum
 LMF .                 KB:   Log Measured From
 DMF .                 KB:   Drilling Measured From
 DAPD.F                10:   Feet Above Permanent Datum
 DD  .F              1060:   Depth driller
 DL  .F              1062:   Depth logger
 BLI .F              1054:   Bottom log interval
 CS1 .IN            9.625:   Casing size
 CBD1.       9.625" @ 77':   Casing driller 1
 CBL1.F                78:   Casing logger 1
 BS1 .IN             8.75:   Bit size
 BSD1.F              1060:   Depth drilled with bit1
 DFT .                AIR:   Type fluid in hole
 LUN .            HL 6530:   Logging unit number
 LUL .             CASPER:   Logging unit location
 ENGI.      PAT RASMUSSEN:   Recorded By
 WITN.        GARY STRONG:   Witnessed by
 ORIG.           5" PRINT:   Origin of data
 UWI .     49025226520000:   Unique Well ID
 DICO. A2D TECHNOLOGIES, INC.:   Digitizing Company
~OTHER INFORMATION
~A    DEPT      GRR      TENR        ILD        ILM   
# ...
  876.0000   135.1760    10.1380     7.6650     8.1530
  876.5000   130.6990     8.1640     7.0160     7.7170
  877.0000   125.2130    -3.5210     6.3260     6.8350
  877.5000   124.2990    -3.5210     5.6360     5.9530
  878.0000   127.9290    -3.5210     4.9130     5.0710
  878.5000   137.6080    -3.5210     4.9420     4.3960
  879.0000   148.5260    -3.5210     4.9870     4.7050
  879.5000   159.3980    -3.5210     5.0320     5.2980
  880.0000   160.5380    -3.5210     5.0770     5.8910
  880.5000   145.1620    -3.2590     5.2760     6.4840
  881.0000   130.8510    -1.0280     5.8400     7.0770
  881.5000   127.0480     1.2030     6.5940     7.6700
  882.0000   125.5140     3.4340     7.3480     8.2640
  882.5000   123.8370     5.6640     8.0880     8.9730
  883.0000   122.3350     9.1380     8.7700     8.9550
  883.5000   124.5360    13.4140     8.8900     8.9250
  884.0000   126.8550    13.3300     8.8900     8.8900
  884.5000   129.1560     0.5030     8.8990     8.9160
  885.0000   131.4520   -12.3240     8.9300     8.9470
  885.5000   133.7610   -10.1950     8.9620     8.9770
  886.0000   136.0550    -6.4410     8.9940     9.0070
  886.5000   137.8510    -2.6870     9.0250     9.0380
  887.0000   133.9280     1.0670     9.0570     9.1470
  887.5000   128.3740     4.8220     9.4360     9.3910
  888.0000   125.6630     8.5760     9.8220     9.8260
  888.5000   123.2250    12.3300    10.2090    10.3860
  889.0000   115.1290    16.0840    10.5950    10.9460
  889.5000   105.5950    16.6000    11.0780    11.5060
  890.0000    95.1490    16.6000    11.6680    12.0660
  890.5000    84.2060    16.6000    12.2580    12.6260
  891.0000    79.5470    16.6000    12.8480    13.1420
  891.5000    79.4210    16.6000    13.4290    13.5710
  892.0000    79.6830    16.6000    14.0050    14.0000
  892.5000    80.1750    16.6000    14.1460    14.2610
  893.0000    79.7130    16.6000    14.1880    14.0760
  893.5000    77.4580    16.6000    14.2300    13.9430
  894.0000    76.7150    16.6000    14.2610    13.7610
  894.5000    74.9480    16.6000    13.9830    13.5210
  895.0000    73.1170    16.6000    13.7590    13.2800
  895.5000    74.7310    16.6000    13.5330    13.0390
  896.0000    79.4990    16.6000    13.3060    12.7980
  896.5000    84.4440    16.6000    13.0800    12.6380
  897.0000    86.1390    16.6000    12.8530    12.6060
  897.5000    87.3250    16.6000    12.7100    12.5740
  898.0000    88.9430    16.6000    12.6260    12.5420
  898.5000    89.0250    15.3160    12.5410    12.5100
  899.0000    86.9370    13.7580    12.4570    12.4780
  899.5000    84.8760    12.1990    12.3720    12.4460
  900.0000    84.9870    10.6410    12.3050    12.4140
  900.5000    85.4500     9.0820    12.5160    12.5710
  901.0000    88.8860     7.5240    12.7160    12.7480
  901.5000    93.0440     7.3660    12.9990    12.9990
  902.0000    96.3760     9.6100    12.6960    12.7830
  902.5000    95.5450    11.8540    12.2530    12.4170
  903.0000    93.4040    14.0980    12.0630    12.0700
  903.5000    93.2750    16.3420    11.8730    11.9780
  904.0000    95.6150    15.0250    11.7230    11.8900
  904.5000    97.6510    13.2450    11.6680    11.8030
  905.0000    96.6200    11.4650    11.6130    11.7150
  905.5000    95.5300     9.6860    11.5580    11.6270
  906.0000    95.5580     7.9060    11.5030    11.5400
  906.5000    95.5920     6.5390    11.4480    11.5000
  907.0000    95.0060     6.5390    11.4110    11.4720
  907.5000    91.6360     6.5390    11.3970    11.4430
  908.0000    88.5600     9.5410    11.3830    11.4150
  908.5000    90.5010    13.8410    11.3700    11.3860
  909.0000    93.0350    16.2570    11.3560    11.3580
  909.5000    95.4900    15.3010    11.3420    11.3290
  910.0000    95.8180    14.3450    11.3280    11.3110
  910.5000    95.4260    13.3900    11.3130    11.3020
  911.0000    94.1800    12.4340    11.3280    11.2940
  911.5000    93.9610    11.4780    11.3470    11.2860
  912.0000    95.0670    10.5220    11.3660    11.2770
  912.5000    97.5020     9.5670    11.3850    11.2690
  913.0000    99.9300     8.6110    11.4050    11.2610
  913.5000   100.2430     7.6550    11.4240    11.2530
  914.0000    99.9200     6.6990    11.4430    11.2450
  914.5000    97.3690    12.6760    11.4620    11.2360
  915.0000    95.2820    20.0490    11.4810    11.2280
  915.5000    95.1340    27.4220    11.5000    11.2200
  916.0000    95.9280    34.7940    11.5190    11.2080
  916.5000    95.8350    29.5710    11.5930    11.3030
  917.0000    95.6660    19.8940    11.6860    11.4780
  917.5000    95.8690    10.2180    11.7800    11.6530
  918.0000    96.6800     7.4280    11.8730    11.8280
  918.5000    97.5230     8.8620    11.9670    11.9590
  919.0000    95.5790    10.2950    12.0700    11.9100
  919.5000    93.9470    11.7290    11.8040    11.8490
  920.0000    96.9930    13.1620    11.5050    11.5790
  920.5000   100.2770    14.5960    11.2490    11.2840
  921.0000   100.3760    16.0300    11.0730    10.9900
  921.5000   100.3010    17.4630    10.9010    10.7000
  922.0000   100.2420    18.8970    10.8570    10.7000
  922.5000   100.1880    20.3300    10.8150    10.7000
  923.0000   100.1340    21.7640    10.7720    10.7000
  923.5000   100.0780    23.1980    10.7290    10.7010
  924.0000   100.0300    24.6310    10.6870    10.7010
  924.5000    99.0230    26.0650    10.6440    10.6920
  925.0000    97.3050    26.0040    10.6020    10.6380
  925.5000    95.8560    24.8820    10.5460    10.5840
  926.0000    96.7560    23.7600    10.4910    10.5300
  926.5000    98.6730    22.6380    10.4350    10.4760
  927.0000    97.9030    21.5160    10.4070    10.4070
  927.5000    97.1780    20.3940    10.5320    10.4540
  928.0000    98.3630    19.2720    10.6150    10.5210
  928.5000    99.9600    18.1500    10.7000    10.6020
  929.0000   100.6280    17.0280    10.7220    10.5810
  929.5000   101.2620    18.4220    10.7440    10.5550
  930.0000    99.0540    21.3710    10.7670    10.5290
  930.5000    96.7750    24.3200    10.7980    10.5030
  931.0000    95.2210    27.2690    10.7780    10.4770
  931.5000    94.9780    30.2180    10.7340    10.4510
  932.0000    94.8210    33.1680    10.6900    10.4250
  932.5000    94.7310    36.1170    10.6450    10.3990
  933.0000    96.7250    39.0660    10.6020    10.3730
  933.5000    99.7610    42.0150    10.5510    10.3470
  934.0000   100.4710    44.9640    10.5020    10.3210
  934.5000    98.7960    47.9130    10.4520    10.2950
  935.0000    97.8230    50.8620    10.4020    10.2690
  935.5000    97.4580    53.8110    10.3520    10.2430
  936.0000    97.1130    56.8410    10.3110    10.2160
  936.5000    96.7700    54.1990    10.3110    10.2260
  937.0000    96.4430    51.4830    10.3110    10.2360
  937.5000    95.4380    48.7660    10.3110    10.2460
  938.0000    94.3270    47.2290    10.3110    10.2560
  938.5000    93.5440    48.8930    10.3110    10.2650
  939.0000    93.6620    50.5580    10.3110    10.2750
  939.5000    93.7580    52.2230    10.3110    10.2850
  940.0000    93.8590    53.8880    10.3110    10.2950
  940.5000    94.1820    55.5530    10.3110    10.3050
  941.0000    95.5480    57.2170    10.3120    10.3100
  941.5000    96.8960    58.8820    10.2130    10.2620
  942.0000    98.2300    60.5470    10.1330    10.2270
  942.5000    98.3780    62.2120    10.0520    10.1930
  943.0000    98.4140    63.8770     9.9360    10.1580
  943.5000   100.3160    65.5420     9.9630    10.1240
  944.0000   102.4140    67.2060    10.0140    10.0890
  944.5000   103.2540    68.8710    10.0640    10.0550
  945.0000   102.0050    70.5360    10.1220    10.0240
  945.5000   100.4950    72.2010    10.1100    10.0070
  946.0000    98.9850    73.8660    10.0930     9.9900
  946.5000    97.4680    75.5310    10.0760     9.9730
  947.0000    96.8010    76.6470    10.0580     9.9560
  947.5000    97.9750    74.4000    10.0410     9.9380
  948.0000    98.7020    72.1540    10.0240     9.9210
  948.5000    98.4740    69.9080    10.0060     9.9040
