~VERSION INFORMATION
 VERS.                2.0:   CWLS LOG ASCII STANDARD - VERSION 2.0
 WRAP.                 NO:   ONE LINE PER DEPTH STEP
~WELL INFORMATION
#MNEM.UNIT      DATA TYPE    INFORMATION
#----------   ------------   ------------------------------
 STRT.F          748.0000:   START DEPTH
 STOP.F         2734.0000:   STOP DEPTH
 STEP.F            0.5000:   STEP LENGTH
 NULL.          -999.2500:   NO VALUE
 COMP.    FENIX & SCISSON:   COMPANY
 WELL. FENIX NPR 3 "SHX" #84-4:   WELL
 FLD .             TEAPOT:   FIELD
 LOC .       S4 T38N R78W:   LOCATION
 CNTY.            NATRONA:   COUNTY
 STAT.            WYOMING:   STATE
 CTRY. UNITED STATES OF AMERICA:   COUNTRY
 SRVC.              WELEX:   SERVICE COMPANY
 DATE.        08-MAY-1980:   LOGDATE
 API .     49025108050000:   API NUMBER
~CURVE INFORMATION
#MNEM.UNIT       API CODE    CURVE DESCRIPTION
#----------   ------------   ------------------------------
 DEPT.F                  :   
 CALD.IN     45 280 60 00:   CALIPER FROM DENSITY LOG
 GRD .GAPI   45 310 01 00:   GAMMA RAY FROM DENSITY LOG
 RHOB.G/C3   45 350 01 00:   BULK DENSITY
 CORR.G/C3   45 356 01 00:   DENSITY CORRECTION
~PARAMETER INFORMATION
#MNEM.UNIT          VALUE    DESCRIPTION
#----------   ------------   ------------------------------
 EKB .F         5244.0000:   Kelly bushing
 EGL .F         5234.0000:   Ground level
 EDF .F            0.0000:   Drilling floor
 TD  .F         2733.0000:   Total depth
 DATE.        08-MAY-1980:   Date logged
 CLNT.            A2DTECH:   Client Code
 SL  . 7461' FNL & 383' FEL:   Surface Location
 PD  .                 GL:   Permanent Datum
 EPD .F              5234:   Elevation Permanent Datum
 LMF .                 KB:   Log Measured From
 DMF .                 KB:   Drilling Measured From
 DAPD.F                10:   Feet Above Permanent Datum
 DD  .F              2700:   Depth driller
 DL  .F              2733:   Depth logger
 BLI .F              2731:   Bottom log interval
 TLI .F               752:   Top log interval
 CS1 .IN            9.625:   Casing size
 CBD1.      9.625" @ 260':   Casing driller 1
 BS1 .IN              8.5:   Bit size
 BSD1.F              2700:   Depth drilled with bit1
 DFT .                AIR:   Type fluid in hole
 MRT .F               118:   Maximum recorded temp.
 LUN .                  2:   Logging unit number
 ENGI.           TORTILLE:   Recorded By
 WITN.              AMEND:   Witnessed by
 ORIG.           5" PRINT:   Origin of data
 UWI .     49025108050000:   Unique Well ID
 DICO. A2D TECHNOLOGIES, INC.:   Digitizing Company
~OTHER INFORMATION
~A   DEPT       CALD       GRD        RHOB       CORR 
# ...
 1916.0000     8.9230    95.3660     2.4860     0.0500
 1916.5000     8.9180    95.0790     2.5020     0.0630
 1917.0000     8.9130    94.7850     2.5180     0.0770
 1917.5000     8.9080    94.5210     2.5350     0.0900
 1918.0000     8.9030    94.5440     2.5360     0.1010
 1918.5000     8.9000    94.9970     2.5330     0.1010
 1919.0000     8.9020    95.4020     2.5240     0.1030
 1919.5000     8.9030    95.8010     2.5290     0.1040
 1920.0000     8.9050    96.2600     2.5440     0.1050
 1920.5000     8.9060    96.2940     2.5470     0.1020
 1921.0000     8.9080    96.3150     2.5390     0.0970
 1921.5000     8.9100    96.2830     2.5380     0.0930
 1922.0000     8.9110    96.3150     2.5470     0.0980
 1922.5000     8.9130    96.3670     2.5390     0.0950
 1923.0000     8.9150    97.5410     2.5220     0.0810
 1923.5000     8.9160    98.7450     2.5350     0.0870
 1924.0000     8.9180    99.9680     2.5500     0.1000
 1924.5000     8.9190   101.2510     2.5430     0.1060
 1925.0000     8.9210   101.5340     2.5370     0.1050
 1925.5000     8.9230   101.0850     2.5320     0.1030
 1926.0000     8.9240   100.7210     2.4970     0.0740
 1926.5000     8.9260   100.3550     2.4930     0.0650
 1927.0000     8.9270    99.9700     2.4920     0.0650
 1927.5000     8.9290    99.6000     2.4960     0.0650
 1928.0000     8.9310    99.2310     2.5000     0.0650
 1928.5000     8.9320    98.8370     2.5040     0.0650
 1929.0000     8.9340    98.7540     2.4990     0.0640
 1929.5000     8.9350    98.9060     2.4780     0.0520
 1930.0000     8.9370    99.0260     2.4830     0.0390
 1930.5000     8.9390    99.1390     2.5070     0.0450
 1931.0000     8.9400    99.3150     2.5120     0.0490
 1931.5000     8.9420    98.9710     2.4910     0.0390
 1932.0000     8.9440    98.1020     2.4850     0.0330
 1932.5000     8.9450    97.2260     2.5000     0.0460
 1933.0000     8.9470    96.8750     2.4940     0.0470
 1933.5000     8.9480    96.9050     2.4830     0.0390
 1934.0000     8.9500    96.9020     2.4710     0.0330
 1934.5000     8.9520    96.8980     2.4640     0.0260
 1935.0000     8.9530    96.9020     2.4650     0.0250
 1935.5000     8.9550    96.9000     2.4650     0.0250
 1936.0000     8.9560    96.9000     2.4690     0.0250
 1936.5000     8.9580    96.9000     2.4800     0.0320
 1937.0000     8.9600    96.9000     2.4900     0.0400
 1937.5000     8.9610    96.9000     2.5000     0.0480
 1938.0000     8.9630    96.8990     2.5000     0.0540
 1938.5000     8.9650    96.8990     2.5000     0.0540
 1939.0000     8.9660    96.9020     2.5000     0.0550
 1939.5000     8.9680    96.8930     2.5010     0.0560
 1940.0000     8.9690    96.9090     2.4920     0.0570
 1940.5000     8.9710    96.8950     2.4800     0.0580
 1941.0000     8.9730    96.8350     2.4790     0.0590
 1941.5000     8.9740    96.0790     2.4750     0.0600
 1942.0000     8.9760    95.4540     2.4720     0.0610
 1942.5000     8.9770    94.7480     2.4590     0.0560
 1943.0000     8.9790    94.4800     2.4340     0.0510
 1943.5000     8.9800    94.5060     2.4100     0.0460
 1944.0000     8.9800    94.5080     2.4040     0.0370
 1944.5000     8.9810    94.4780     2.4150     0.0770
 1945.0000     8.9790    94.7330     2.4100     0.1120
 1945.5000     8.9800    95.1920     2.3980     0.1030
 1946.0000     8.9840    95.6120     2.3920     0.1050
 1946.5000     9.0350    96.0450     2.4120     0.1420
 1947.0000     9.0800    96.4690     2.4350     0.1770
 1947.5000     9.1240    96.8730     2.4560     0.1610
 1948.0000     9.1750    96.9150     2.4650     0.1190
 1948.5000     9.1480    96.9620     2.4830     0.0910
 1949.0000     9.1090    96.9900     2.4680     0.0810
 1949.5000     9.0680    97.0290     2.4550     0.0690
 1950.0000     9.0270    97.0640     2.4390     0.0560
 1950.5000     8.9890    97.1000     2.4460     0.0490
 1951.0000     8.9440    97.1360     2.4600     0.0500
 1951.5000     8.9400    97.1710     2.4610     0.0510
 1952.0000     8.9390    97.2070     2.4520     0.0520
 1952.5000     8.9400    97.2430     2.4710     0.0530
 1953.0000     8.9400    97.2790     2.4610     0.0510
 1953.5000     8.9400    97.3140     2.4540     0.0480
 1954.0000     8.9400    97.3500     2.4610     0.0450
 1954.5000     8.9400    97.3880     2.4580     0.0450
 1955.0000     8.9400    97.4180     2.4560     0.0450
 1955.5000     8.9400    97.4630     2.4610     0.0490
 1956.0000     8.9400    97.5110     2.4660     0.0590
 1956.5000     8.9400    98.0420     2.4700     0.0690
 1957.0000     8.9400    98.7480     2.4680     0.0690
 1957.5000     8.9400    99.4430     2.4590     0.0640
 1958.0000     8.9400   100.1050     2.4660     0.0620
 1958.5000     8.9400   100.8830     2.4810     0.0760
 1959.0000     8.9400   100.6340     2.4950     0.0850
 1959.5000     8.9400    99.6440     2.4910     0.0810
 1960.0000     8.9400    98.7570     2.4760     0.0710
 1960.5000     8.9400    97.8640     2.4630     0.0610
 1961.0000     8.9400    96.9660     2.4470     0.0510
 1961.5000     8.9400    96.0430     2.4490     0.0410
 1962.0000     8.9400    95.6770     2.4560     0.0410
 1962.5000     8.9400    95.6960     2.4630     0.0470
 1963.0000     8.9400    95.8350     2.4600     0.0530
 1963.5000     8.9400    96.1010     2.4580     0.0490
 1964.0000     8.9400    96.3570     2.4620     0.0460
 1964.5000     8.9400    96.5830     2.4710     0.0570
 1965.0000     8.9380    96.9040     2.4770     0.0680
 1965.5000     8.9350    96.6060     2.4840     0.0690
 1966.0000     8.9320    95.8510     2.4740     0.0680
 1966.5000     8.9290    95.1430     2.4700     0.0660
 1967.0000     8.9260    95.1140     2.4720     0.0640
 1967.5000     8.9230    95.1620     2.4720     0.0630
 1968.0000     8.9190    95.2320     2.4660     0.0610
 1968.5000     8.9160    95.2840     2.4760     0.0660
 1969.0000     8.9130    95.3430     2.4880     0.0800
 1969.5000     8.9100    95.4010     2.4990     0.0920
 1970.0000     8.9070    95.4580     2.4840     0.0920
 1970.5000     8.9040    95.5160     2.4640     0.0860
 1971.0000     8.9000    95.5720     2.4670     0.0800
 1971.5000     8.9030    95.6340     2.4770     0.0750
 1972.0000     8.9070    95.7030     2.4710     0.0680
 1972.5000     8.9110    96.0380     2.4720     0.0620
 1973.0000     8.9150    96.4720     2.4810     0.0630
 1973.5000     8.9180    96.9020     2.4940     0.0780
 1974.0000     8.9220    97.3270     2.5100     0.0930
 1974.5000     8.9260    97.7590     2.5060     0.1030
 1975.0000     8.9300    98.1850     2.4970     0.0930
 1975.5000     8.9340    98.6090     2.4880     0.0780
 1976.0000     8.9380    99.0650     2.4790     0.0640
 1976.5000     8.9400    99.3640     2.4680     0.0490
 1977.0000     8.9400    99.4490     2.4530     0.0350
 1977.5000     8.9400    99.5670     2.4400     0.0210
 1978.0000     8.9400    99.6790     2.4230     0.0060
 1978.5000     8.9400    99.7880     2.4250     0.0040
 1979.0000     8.9400    99.9000     2.4320     0.0130
 1979.5000     8.9400   100.0120     2.4400     0.0200
 1980.0000     8.9400   100.1220     2.4480     0.0290
 1980.5000     8.9400   100.2330     2.4540     0.0330
 1981.0000     8.9400   100.3490     2.4570     0.0340
 1981.5000     8.9400   100.4420     2.4600     0.0460
 1982.0000     8.9400   100.6650     2.4780     0.0670
 1982.5000     8.9400   100.9850     2.5080     0.0880
 1983.0000     8.9400   101.2730     2.4890     0.0780
 1983.5000     8.9400   101.5900     2.4780     0.0570
 1984.0000     8.9400   101.7130     2.4820     0.0500
 1984.5000     8.9400   101.8860     2.5040     0.0730
 1985.0000     8.9400   102.1810     2.4890     0.0780
 1985.5000     8.9400   102.0950     2.4940     0.0710
 1986.0000     8.9400   101.4780     2.5030     0.0960
 1986.5000     8.9370   100.9190     2.5040     0.0870
 1987.0000     8.9350   100.3390     2.4930     0.0750
 1987.5000     8.9330    99.7590     2.4820     0.0610
 1988.0000     8.9310    99.0710     2.4740     0.0570
 1988.5000     8.9290    98.1870     2.4680     0.0610
