~VERSION INFORMATION
 VERS.                2.0:   CWLS LOG ASCII STANDARD - VERSION 2.0
 WRAP.                 NO:   ONE LINE PER DEPTH STEP
~WELL INFORMATION
#MNEM.UNIT      DATA TYPE    INFORMATION
#----------   ------------   ------------------------------
 STRT.F          216.0000:   START DEPTH
 STOP.F         3184.0000:   STOP DEPTH
 STEP.F            0.5000:   STEP LENGTH
 NULL.          -999.2500:   NO VALUE
 COMP.    FENIX & SCISSON:   COMPANY
 WELL. FENIX & SCISSON INCNRP "A" #311-14:   WELL
 FLD .                NPR:   FIELD
 LOC .      S14 T38N R78W:   LOCATION
 CNTY.            NATRONA:   COUNTY
 STAT.            WYOMING:   STATE
 CTRY. UNITED STATES OF AMERICA:   COUNTRY
 SRVC.              WELEX:   SERVICE COMPANY
 DATE.        22-JUN-1977:   LOGDATE
 API .     49025103810000:   API NUMBER
~CURVE INFORMATION
#MNEM.UNIT       API CODE    CURVE DESCRIPTION
#----------   ------------   ------------------------------
 DEPT.F                  :   
 CALD.IN     45 280 60 00:   CALIPER FROM DENSITY LOG
 GRD .GAPI   45 310 01 00:   GAMMA RAY FROM DENSITY LOG
 DPHI.DEC    45 890 12 00:   DENSITY POROSITY SANDSTONE
 RHOB.G/C3   45 350 01 00:   BULK DENSITY
 CORR.G/C3   45 356 01 00:   DENSITY CORRECTION
 SPR .MV     07 010 01 00:   SPONTANEOUS POTENTIAL
 SFLU.OHMM   07 220 01 00:   SPHERICALLY FOCUSED LOG UNAVERAGED RESISTIVITY
 ILD .OHMM   07 120 46 00:   DEEP INDUCTION RESISTIVITY
 ILM .OHMM   07 120 44 00:   INDUCTION LOG MEDIUM RESISTIVITY
~PARAMETER INFORMATION
#MNEM.UNIT          VALUE    DESCRIPTION
#----------   ------------   ------------------------------
 EKB .F         5225.0000:   Kelly bushing
 EGL .F         5215.0000:   Ground level
 TD  .F         3183.0000:   Total depth
 DATE.        22-JUN-1977:   Date logged
 CLNT.            A2DTECH:   Client Code
 CTRY.                USA:   Country
 SL  . 330' FNL & 330' FWL:   Surface Location
 PD  .                 GL:   Permanent Datum
 EPD .F              5215:   Elevation Permanent Datum
 LMF .                 KB:   Log Measured From
 DMF .                 KB:   Drilling Measured From
 DAPD.F                10:   Feet Above Permanent Datum
 DD  .F              3178:   Depth driller
 DL  .F              3183:   Depth logger
 BLI .F              3181:   Bottom log interval
 TLI .F                20:   Top log interval
 CS1 .IN            8.625:   Casing size
 CBD1.      8.625" @ 217':   Casing driller 1
 BS1 .IN            7.875:   Bit size
 BSD1.F              3178:   Depth drilled with bit1
 DFT .            KCL MUD:   Type fluid in hole
 DFD .                9.5:   Density
 DFV .                 40:   Viscosity
 DFPH.                7.5:   pH
 DFL .               13.6:   Fluid loss
 MSS .           FLOWLINE:   Source of sample
 RMS .OHMM            .36:   Rm
 MST .F                80:   Rm Meas. temp.
 RMF .OHMM            .30:   Rmf
 MFST.F                80:   Rmf Meas. temp.
 RMC .OHMM            .86:   Rmc
 MCST.F                80:   Rmc Meas. temp.
 MFSS.               FANN:   Source Rmf.
 MCSS.                KIT:   Source Rmc.
 RMB .OHMM            .25:   Rm. at BHT
 BHT .F               114:   BHT.
 TCS .HRS             2.5:   Time Circ. stopped
 MRT .F               114:   Maximum recorded temp.
 LUN .               8766:   Logging unit number
 LUL .             CASPER:   Logging unit location
 ENGI.          T. TOYNER:   Recorded By
 WITN.      B. HARRINGTON:   Witnessed by
 PWI .                  -:   Primary Well Identifier
 ORIG.           5" PRINT:   Origin of data
 UWI .     49025103810000:   Unique Well ID
 DICO. A2D TECHNOLOGIES, INC.:   Digitizing Company
~OTHER INFORMATION
~A   DEPT       CALD       GRD        DPHI       RHOB       CORR      SPR         SFLU      ILD        ILM   
# ...
 2150.5000     8.6643   117.6464     0.1371     2.4243     0.0029   -58.5107    10.9516     7.6497     8.9329
 2151.0000     8.6638   117.5886     0.1358     2.4274     0.0048   -58.5259    10.6534     7.6497     9.0155
 2151.5000     8.6636   117.9822     0.1358     2.4274     0.0048   -58.5412    10.3634     7.7204     9.0155
 2152.0000     8.6634   115.9902     0.1354     2.4284     0.0068   -58.5564    10.6534     7.7204     9.1831
 2152.5000     8.6632   115.5886     0.1362     2.4264     0.0068   -58.5717    10.8513     7.7918     9.4404
 2153.0000     8.6829   114.3918     0.1398     2.4214     0.0048   -58.5869    11.1549     7.8638     9.3539
 2153.5000     8.6826   114.3880     0.1418     2.4174     0.0047   -58.6022    11.4671     7.9365     9.3539
 2154.0000     8.6625   115.5768     0.1458     2.4114     0.0027   -58.6174    11.5731     8.0098     9.2681
 2154.5000     8.6623   115.9704     0.1470     2.4094     0.0047   -58.6327    11.4671     8.0098     9.1831
 2155.0000     8.6622   116.3640     0.1482     2.4064     0.0047   -58.6479    11.2580     8.0098     9.0155
 2155.5000     8.6620   115.9624     0.1489     2.4034     0.0027   -58.6632    11.1549     7.9365     8.9329
 2156.0000     8.6618   114.7658     0.1482     2.4044     0.0026   -58.6784    10.7519     7.7918     8.9329
 2156.5000     8.6616   114.7618     0.1479     2.4074     0.0026   -58.6597    10.5558     7.8638     9.0155
 2157.0000     8.6614   115.1554     0.1455     2.4094     0.0026   -58.6410    10.8167     7.7918     8.9329
 2157.5000     8.6612   115.1514     0.1411     2.4154     0.0046   -58.6223    11.1549     7.7918     8.8510
 2158.0000     8.6808   114.3522     0.1395     2.4214     0.0046   -58.6036    11.0528     7.6497     8.9329
 2158.5000     8.6806   113.1556     0.1387     2.4224     0.0066   -58.5848    10.9516     7.5102     8.7698
 2159.0000     8.6804   111.9588     0.1351     2.4263     0.0126   -58.5661    10.8513     7.5102     8.6894
 2159.5000     8.6802   110.3644     0.1327     2.4323     0.0125   -58.5474    10.7519     7.3733     8.6894
 2160.0000     8.6801   106.7812     0.1295     2.4363     0.0146   -58.5287    10.4592     7.4414     8.2983
 2160.5000     8.6799   105.9820     0.1259     2.4413     0.0165   -58.5100     9.8068     7.4414     8.2983
 2161.0000     8.6797   104.7852     0.1239     2.4443     0.0165   -58.4913     9.3659     7.4414     8.6894
 2161.5000     8.6795   103.1910     0.1223     2.4473     0.0165   -58.4725     9.4525     7.4414     9.0989
 2162.0000     8.6793   103.1870     0.1255     2.4473     0.0165   -58.4538    10.4592     7.5102     9.0155
 2162.5000     8.6592   104.7734     0.1291     2.4353     0.0125   -58.4351    10.8513     7.6497     9.0155
 2163.0000     8.6590   105.1670     0.1323     2.4283     0.0064   -58.4164    11.0528     7.6497     8.9329
 2163.5000     8.6588   105.5606     0.1392     2.4213     0.0044   -58.3977    10.9516     7.7918     8.9329
 2164.0000     8.6586   105.1592     0.1455     2.4123     0.0044   -58.3790    11.1549     7.8638     8.8510
 2164.5000     8.6584   104.7576     0.1459     2.4103     0.0044   -58.3603    10.9516     7.8638     8.8510
 2165.0000     8.6582   105.5488     0.1463     2.4103     0.0044   -58.3415    10.8513     7.8638     8.8510
 2165.5000     8.6580   105.5448     0.1467     2.4083     0.0024   -58.3228    10.5558     7.8638     8.6894
 2166.0000     8.6578   105.5408     0.1443     2.4103     0.0024   -58.3041    10.5558     7.7204     8.8510
 2166.5000     8.6377   106.7298     0.1431     2.4153     0.0083   -58.2854    10.5558     7.7918     8.8510
 2167.0000     8.6574   108.7138     0.1407     2.4183     0.0103   -58.2667    10.6534     7.7204     8.6894
 2167.5000     8.6373   109.9026     0.1403     2.4193     0.0123   -58.2480    10.6534     7.6497     8.5308
 2168.0000     8.6570   109.5010     0.1407     2.4183     0.0123   -58.2293    10.6534     7.5796     8.4526
 2168.5000     8.6568   109.0996     0.1427     2.4163     0.0043   -58.2105    10.4592     7.5102     8.3751
 2169.0000     8.6566   108.6980     0.1467     2.4103     0.0022   -58.1918    10.2685     7.4414     8.1468
 2169.5000     8.6365   107.8988     0.1483     2.4043     0.0022   -58.1731     9.9889     7.3733     8.0721
 2170.0000     8.6562   106.3044     0.1479     2.4043     0.0042   -58.1544     9.8068     7.2389     8.0721
 2170.5000     8.6361   105.5052     0.1462     2.4083     0.0022   -58.1357     9.7170     7.2389     7.9981
 2171.0000     8.6359   104.7060     0.1451     2.4112     0.0062   -58.1170     9.4525     7.2389     8.0721
 2171.5000     8.6556   102.7142     0.1447     2.4122     0.0122   -58.0982     8.6216     7.3058     8.1468
 2172.0000     8.6554   102.7102     0.1447     2.4122     0.0161   -58.0837     9.3659     7.3733     8.4526
 2172.5000     8.6353   102.3086     0.1439     2.4122     0.0181   -58.0837    10.4592     7.5796     8.7698
 2173.0000     8.6550   101.9070     0.1415     2.4152     0.0181   -57.8855    11.3621     7.7204     8.8510
 2173.5000     8.6548   101.9030     0.1411     2.4172     0.0201   -57.4890    11.3621     7.7918     8.8510
 2174.0000     8.6347   101.1040     0.1419     2.4172     0.0201   -57.4890    11.1549     7.9365     8.4526
 2174.5000     8.6544   100.3048     0.1439     2.4132     0.0221   -57.4890    11.0528     7.9365     8.2983
 2175.0000     8.6344    99.5048     0.1503     2.4032     0.0201   -57.4890    10.7519     8.0098     8.1468
 2175.5000     8.6342    98.7056     0.1540     2.3982     0.0200   -57.0925    10.5558     8.0098     8.0721
 2176.0000     8.6538    97.5088     0.1591     2.3892     0.0180   -57.0925    10.0813     8.0839     8.1468
 2176.5000     8.6735    95.1192     0.1603     2.3862     0.0180   -57.0925     9.4525     8.0098     8.2222
 2177.0000     8.6733    94.7178     0.1595     2.3862     0.0140   -57.4890     8.7817     7.8638     8.3751
 2177.5000     8.6731    94.7138     0.1587     2.3962     0.0120   -57.4890     8.0098     7.8638     8.3751
 2178.0000     8.6928    92.7218     0.1479     2.4062     0.0120   -57.4890     8.0839     7.7204     8.4526
 2178.5000     8.6926    91.9226     0.1395     2.4182     0.0120   -57.4890     8.7013     7.5796     8.3751
 2179.0000     8.6924    91.1234     0.1371     2.4242     0.0119   -57.4890     9.3659     7.3733     7.9981
 2179.5000     8.6723    91.1196     0.1359     2.4272     0.0119   -57.6872     9.3659     7.1726     7.7801
 2180.0000     8.6721    90.7180     0.1347     2.4292     0.0119   -57.6872     9.3659     6.9773     7.4986
 2180.5000     8.6520    90.3164     0.1343     2.4302     0.0139   -57.4890     8.9065     6.8501     7.0953
 2181.0000     8.6518    90.3124     0.1331     2.4321     0.0139   -57.4890     8.4644     6.7252     6.8386
 2181.5000     8.6516    89.5132     0.1331     2.4321     0.0138   -57.4890     8.4644     6.5421     6.5911
 2182.0000     8.6514    89.9070     0.1331     2.4311     0.0138   -57.4890     8.4644     6.4822     6.5307
 2182.5000     8.6512    89.9030     0.1323     2.4331     0.0158   -57.8855     8.2340     6.3057     6.5307
 2183.0000     8.6510    89.5014     0.1319     2.4341     0.0178   -57.8855     8.1586     6.1908     6.5911
 2183.5000     8.6309    89.0998     0.1315     2.4341     0.0178   -57.8855     8.3869     6.1908     6.5911
 2184.0000     8.6307    88.3006     0.1304     2.4361     0.0178   -57.8855     8.4644     6.2480     6.6521
 2184.5000     8.6504    88.2968     0.1312     2.4351     0.0178   -57.8855     8.4644     6.3057     6.7759
 2185.0000     8.6502    88.6904     0.1324     2.4301     0.0157   -57.8855     8.7817     6.4822     7.0303
 2185.5000     8.6500    89.0840     0.1347     2.4291     0.0157   -57.4890     8.8629     6.6636     7.1610
 2186.0000     8.6697    89.4776     0.1348     2.4281     0.0157   -57.4890     9.1951     6.9134     7.3617
 2186.5000     8.6496    89.4736     0.1344     2.4291     0.0137   -57.4890     9.4525     7.3733     7.9247
