~VERSION INFORMATION
 VERS.                2.0:   CWLS LOG ASCII STANDARD - VERSION 2.0
 WRAP.                 NO:   ONE LINE PER DEPTH STEP
~WELL INFORMATION
#MNEM.UNIT      DATA TYPE    INFORMATION
#----------   ------------   ------------------------------
 STRT.F            6.0000:   START DEPTH
 STOP.F         3190.0000:   STOP DEPTH
 STEP.F            0.5000:   STEP LENGTH
 NULL.          -999.2500:   NO VALUE
 COMP. LAWRENCE ALLISON & ASSOCIATES:   COMPANY
 WELL. LAWRENCE N. P. R. 73AX #3-3:   WELL
 FLD .              N P R:   FIELD
 LOC .       S3 T38N R78W:   LOCATION
 CNTY.            NATRONA:   COUNTY
 STAT.            WYOMING:   STATE
 CTRY. UNITED STATES OF AMERICA:   COUNTRY
 SRVC.      DRESSER ATLAS:   SERVICE COMPANY
 DATE.        04-JUN-1986:   LOGDATE
 API .     49025110910000:   API NUMBER
~CURVE INFORMATION
#MNEM.UNIT       API CODE    CURVE DESCRIPTION
#----------   ------------   ------------------------------
 DEPT.F                  :   
 CALD.IN     45 280 60 00:   CALIPER FROM DENSITY LOG
 DEN .LBS    45 635 01 00:   BUCK DENSITY
 CORR.G/C3   45 356 01 00:   DENSITY CORRECTION
 TEND.LBS    45 635 01 00:   TENSION FROM DENSITY LOG
 SPR .MV     07 010 01 00:   SPONTANEOUS POTENTIAL
 GRR .GAPI   07 310 01 00:   GAMMA RAY FROM RESISTIVITY
 SFLU.OHMM   07 220 01 00:   SPHERICALLY FOCUSED LOG UNAVERAGED RESISTIVITY
 ILD .OHMM   07 120 46 00:   DEEP INDUCTION RESISTIVITY
 ILM .OHMM   07 120 44 00:   INDUCTION LOG MEDIUM RESISTIVITY
 TENR.LBS    07 635 01 00:   TENSION FROM RESISTIVITY
 CNC .DEC    42 890 01 00:   NEUTRON PORISITY LIMESTONE
~PARAMETER INFORMATION
#MNEM.UNIT          VALUE    DESCRIPTION
#----------   ------------   ------------------------------
 EKB .F         5173.0000:   Kelly bushing
 EGL .F         5161.0000:   Ground level
 TD  .F         3170.0000:   Total depth
 DATE.        04-JUN-1986:   Date logged
 CLNT.            A2DTECH:   Client Code
 PD  .                 GL:   Permanent Datum
 EPD .F              5161:   Elevation Permanent Datum
 LMF .                 KB:   Log Measured From
 DMF .                 KB:   Drilling Measured From
 DAPD.F                12:   Feet Above Permanent Datum
 DD  .F              3170:   Depth driller
 DL  .F              3168:   Depth logger
 BLI .F               8.9:   Bottom log interval
 TLI .F                38:   Top log interval
 CS1 .IN            8.625:   Casing size
 CBD1.      8.625" @ 603':   Casing driller 1
 CBL1.F               602:   Casing logger 1
 BS1 .IN            7.875:   Bit size
 BSD1.F              3170:   Depth drilled with bit1
 DFT .        KCL/POLYMER:   Type fluid in hole
 DFD .                8.9:   Density
 DFV .                 38:   Viscosity
 DFPH.                9.0:   pH
 DFL .               13.2:   Fluid loss
 MSS .           FLOWLINE:   Source of sample
 RMS .OHMM           .446:   Rm
 MST .F                64:   Rm Meas. temp.
 RMF .OHMM           .361:   Rmf
 MFST.F                64:   Rmf Meas. temp.
 RMC .OHMM            .56:   Rmc
 MCST.F                64:   Rmc Meas. temp.
 MFSS.               MEAS:   Source Rmf.
 MCSS.               CALC:   Source Rmc.
 RMB .OHMM           .242:   Rm. at BHT
 BHT .F               118:   BHT.
 TCS .HRS               3:   Time Circ. stopped
 MRT .F               118:   Maximum recorded temp.
 LUN .               6274:   Logging unit number
 LUL .           GILLETTE:   Logging unit location
 WITN.             STRONG:   Witnessed by
 ORIG.           5" PRINT:   Origin of data
 UWI .     49025110910000:   Unique Well ID
 DICO. A2D TECHNOLOGIES, INC.:   Digitizing Company
~OTHER INFORMATION
~A    DEPT    CALD        DEN       CORR       TEND        SPR         GRR      SFLU        ILD        ILM       TENR        CNC   
# ...
 1287.0000  -999.2500  -999.2500  -999.2500  -999.2500   -59.0998    91.0828     8.3842     8.3069     7.3673   -78.2562  -999.2500
 1287.5000  -999.2500  -999.2500  -999.2500  -999.2500   -59.1011    91.8874     8.3839     8.3839     7.4143   -77.9578  -999.2500
 1288.0000  -999.2500  -999.2500  -999.2500  -999.2500   -59.3042    91.0777     8.5402     8.3834     7.4616   -77.6594  -999.2500
 1288.5000  -999.2500  -999.2500  -999.2500  -999.2500   -59.5073    87.0393     8.6193     8.4611     7.4990   -77.3610  -999.2500
 1289.0000  -999.2500  -999.2500  -999.2500  -999.2500   -59.5086    85.4218     8.6991     8.3826     7.4989   -77.0626  -999.2500
 1289.5000  -999.2500  -999.2500  -999.2500  -999.2500   -59.7114    85.4188     8.7797     8.4603     7.4867   -76.7642  -999.2500
 1290.0000  -999.2500  -999.2500  -999.2500  -999.2500   -59.7132    90.6635     8.7793     8.6181     7.4745   -76.4658  -999.2500
 1290.5000  -999.2500  -999.2500  -999.2500  -999.2500   -59.7145    94.2933     8.3814     8.6979     7.4624   -76.1674  -999.2500
 1291.0000  -999.2500  -999.2500  -999.2500  -999.2500   -59.7158    95.0980     8.3811     8.6975     7.4502   -75.8690  -999.2500
 1291.5000  -999.2500  -999.2500  -999.2500  -999.2500   -59.5153    94.2883     8.1510     8.6972     7.4381   -75.5706  -999.2500
 1292.0000  -999.2500  -999.2500  -999.2500  -999.2500   -59.5166    93.4786     8.0757     8.7777     7.4275   -75.2722  -999.2500
 1292.5000  -999.2500  -999.2500  -999.2500  -999.2500   -59.3161    97.5121     8.1502     8.6964     7.3958   -74.9738  -999.2500
 1293.0000  -999.2500  -999.2500  -999.2500  -999.2500   -59.5189    97.5096     8.2257     8.6158     7.3642   -74.6754  -999.2500
 1293.5000  -999.2500  -999.2500  -999.2500  -999.2500   -59.9241    92.6638     8.3792     8.5359     7.3328   -74.3771  -999.2500
 1294.0000  -999.2500  -999.2500  -999.2500  -999.2500   -60.1272    88.2215     8.3015     8.6150     7.3016   -74.0787  -999.2500
 1294.5000  -999.2500  -999.2500  -999.2500  -999.2500   -60.1284    89.0257     8.0737     8.3784     7.2704   -73.7803  -999.2500
 1295.0000  -999.2500  -999.2500  -999.2500  -999.2500   -60.1292    92.2521     7.8518     8.3780     7.2394   -73.4819  -999.2500
 1295.5000  -999.2500  -999.2500  -999.2500  -999.2500   -59.7274    95.4785     7.7791     8.3003     7.1549   -73.1835  -999.2500
 1296.0000  -999.2500  -999.2500  -999.2500  -999.2500   -59.7279    97.0905     7.9242     8.3003     7.1548   -72.8851  -999.2500
 1296.5000  -999.2500  -999.2500  -999.2500  -999.2500   -59.9321    98.2989     7.9976     8.3186     7.1591   -72.5867  -999.2500
 1297.0000  -999.2500  -999.2500  -999.2500  -999.2500   -59.7315    98.2964     8.1468     8.3369     7.1635   -72.2883  -999.2500
 1297.5000  -999.2500  -999.2500  -999.2500  -999.2500   -59.7328    97.0830     8.1464     8.3553     7.1678   -71.9899  -999.2500
 1298.0000  -999.2500  -999.2500  -999.2500  -999.2500   -59.1287    94.6587     8.2219     8.3738     7.1722   -71.6915  -999.2500
 1298.5000  -999.2500  -999.2500  -999.2500  -999.2500   -58.5245    87.3909     8.1457     8.3923     7.1765   -71.3931  -999.2500
 1299.0000  -999.2500  -999.2500  -999.2500  -999.2500   -58.3240    85.3702     8.1453     8.4108     7.1809   -71.0947  -999.2500
 1299.5000  -999.2500  -999.2500  -999.2500  -999.2500   -58.5271    84.9640     8.2208     8.4294     7.1852   -70.7963  -999.2500
 1300.0000  -999.2500  -999.2500  -999.2500  -999.2500   -59.1338    88.1905     8.2204     8.4519     7.1896   -70.4979  -999.2500
 1300.5000  -999.2500  -999.2500  -999.2500  -999.2500   -59.7406    92.2243     8.2965     8.4517     7.1940   -70.1995  -999.2500
 1301.0000  -999.2500  -999.2500  -999.2500  -999.2500   -59.7419    94.6431     8.1438     8.4324     7.1983   -69.9011  -999.2500
 1301.5000  -999.2500  -999.2500  -999.2500  -999.2500   -59.9450    89.7969     8.1434     8.4131     7.2027   -69.6027  -999.2500
 1302.0000  -999.2500  -999.2500  -999.2500  -999.2500   -59.9463    86.5652     8.1430     8.3939     7.2071   -69.3043  -999.2500
 1302.5000  -999.2500  -999.2500  -999.2500  -999.2500   -59.7458    86.5627     8.1427     8.3721     7.2114   -69.0059  -999.2500
 1303.0000  -999.2500  -999.2500  -999.2500  -999.2500   -59.7473    88.9820     8.1423     8.4497     7.2164   -68.7075  -999.2500
 1303.5000  -999.2500  -999.2500  -999.2500  -999.2500   -59.5468    88.1722     8.1421     8.4493     7.1498   -68.4091  -999.2500
 1304.0000  -999.2500  -999.2500  -999.2500  -999.2500   -59.5481    85.7477     8.1415     8.3710     7.1034   -68.1930  -999.2500
 1304.5000  -999.2500  -999.2500  -999.2500  -999.2500   -59.3468    84.9378     8.1412     8.4486     7.0574   -58.0729  -999.2500
 1305.0000  -999.2500  -999.2500  -999.2500  -999.2500   -58.9452    85.7426     8.0657     8.4482     7.0174   -65.1514  -999.2500
 1305.5000  -999.2500  -999.2500  -999.2500  -999.2500   -58.9464    86.1437     8.1404     8.4478     7.0825   -72.2300  -999.2500
 1306.0000  -999.2500  -999.2500  -999.2500  -999.2500   -58.7456    86.1411     8.2158     8.4474     7.3013   -78.0652  -999.2500
 1306.5000  -999.2500  -999.2500  -999.2500  -999.2500   -58.7472    85.7349     8.2919     8.4470     7.4866   -78.0157  -999.2500
 1307.0000  -999.2500  -999.2500  -999.2500  -999.2500   -58.5466    82.0994     8.3687     8.5252     7.4864   -77.9562  -999.2500
 1307.5000  -999.2500  -999.2500  -999.2500  -999.2500   -58.7498    80.8858     8.5248     8.6041     7.5281   -67.8361  -999.2500
 1308.0000  -999.2500  -999.2500  -999.2500  -999.2500   -58.9529    80.8832     8.5244     8.6838     7.5700   -67.7866  -999.2500
 1308.5000  -999.2500  -999.2500  -999.2500  -999.2500   -59.1560    82.0916     8.6834     8.7643     7.6121   -67.7370  -999.2500
 1309.0000  -999.2500  -999.2500  -999.2500  -999.2500   -59.3586    81.2812     8.6830     8.8454     7.6545   -67.6874  -999.2500
 1309.5000  -999.2500  -999.2500  -999.2500  -999.2500   -59.3607    81.2786     8.6826     8.8450     7.6971   -67.6379  -999.2500
 1310.0000  -999.2500  -999.2500  -999.2500  -999.2500   -59.3617    84.9091     8.3664     9.0101     7.7399   -67.5883  -999.2500
 1310.5000  -999.2500  -999.2500  -999.2500  -999.2500   -59.3630    84.9066     8.2888     9.0096     7.7830   -77.6093  -999.2500
 1311.0000  -999.2500  -999.2500  -999.2500  -999.2500   -59.5661    86.1151     8.3656     9.0931     7.8381   -77.5597  -999.2500
 1311.5000  -999.2500  -999.2500  -999.2500  -999.2500   -59.3658    85.7088     8.4431     9.1773     7.9109   -77.5102  -999.2500
 1312.0000  -999.2500  -999.2500  -999.2500  -999.2500   -59.3671    85.3011     8.7615     9.0923     7.9105   -77.4606  -999.2500
 1312.5000  -999.2500  -999.2500  -999.2500  -999.2500   -59.1666    86.5111     8.8426     9.1765     7.9838   -77.4110  -999.2500
 1313.0000  -999.2500  -999.2500  -999.2500  -999.2500   -58.5623    86.9122     8.9245     9.1761     7.9833   -77.3516  -999.2500
 1313.5000  -999.2500  -999.2500  -999.2500  -999.2500   -58.9673    88.9281     8.7603     9.2610     8.0575   -77.3020  -999.2500
 1314.0000  -999.2500  -999.2500  -999.2500  -999.2500   -58.9686    88.9256     8.6790     9.2606     8.0160   -57.1114  -999.2500
 1314.5000  -999.2500  -999.2500  -999.2500  -999.2500   -59.3736    85.6935     8.9232     9.3463     7.9747   -77.2029  -999.2500
 1315.0000  -999.2500  -999.2500  -999.2500  -999.2500   -59.1730    82.4613     9.0059     9.3459     7.9336   -67.0828  -999.2500
 1315.5000  -999.2500  -999.2500  -999.2500  -999.2500   -59.1746    80.0366     9.0893     9.2593     7.8928   -77.1038  -999.2500
 1316.0000  -999.2500  -999.2500  -999.2500  -999.2500   -59.1759    80.8409     9.0050     9.2589     7.8521   -77.0542  -999.2500
 1316.5000  -999.2500  -999.2500  -999.2500  -999.2500   -58.9753    82.8563     8.9216     9.0885     7.8117   -87.0752  -999.2500
 1317.0000  -999.2500  -999.2500  -999.2500  -999.2500   -58.9766    86.8563     8.8389     9.0880     7.7714   -87.0256  -999.2500
