~VERSION INFORMATION
 VERS.                2.0:   CWLS LOG ASCII STANDARD - VERSION 2.0
 WRAP.                 NO:   ONE LINE PER DEPTH STEP
~WELL INFORMATION
#MNEM.UNIT      DATA TYPE    INFORMATION
#----------   ------------   ------------------------------
 STRT.F            7.0000:   START DEPTH
 STOP.F         3304.0000:   STOP DEPTH
 STEP.F            0.5000:   STEP LENGTH
 NULL.          -999.2500:   NO VALUE
 COMP. LAWRENCE ALLISON ASSOC. WEST:   COMPANY
 WELL. LAWRENCE NPR  "X" #18-2:   WELL
 FLD .              N P R:   FIELD
 LOC .       S2 T38N R78W:   LOCATION
 CNTY.            NATRONA:   COUNTY
 STAT.            WYOMING:   STATE
 CTRY. UNITED STATES OF AMERICA:   COUNTRY
 SRVC.      DRESSER ATLAS:   SERVICE COMPANY
 DATE.        28-APR-1986:   LOGDATE
 API .     49025110710000:   API NUMBER
~CURVE INFORMATION
#MNEM.UNIT       API CODE    CURVE DESCRIPTION
#----------   ------------   ------------------------------
 DEPT.F                  :   
 TEND.LBS    45 635 01 00:   TENSION FROM DENSITY LOG
 DEN .G/C3   45 635 01 00:   DENSITY
 CORR.G/C3   45 356 01 00:   DENSITY CORRECTION
 CNC .DEC    42 890 03 00:   NEUTRON PORISITY SANDSTONE
 TENR.LBS    07 635 01 00:   TENSION FROM RESISTIVITY
 CALR.IN     07 280 01 00:   CALIPER FROM RESISTIVITY
 SPR .MV     07 010 01 00:   SPONTANEOUS POTENTIAL
 GRR .GAPI   07 310 01 00:   GAMMA RAY FROM RESISTIVITY
 RFOC.OHMM   07 220 04 00:   RESISTIVITY FOCUSED LOG RES.
 RILD.OHMM   07 120 46 00:   DEEP INDUCTION RESISTIVITY
 RILM.OHMM   07 120 44 00:   INDUCTION LOG MEDIUM RESISTIVITY
 TENS.LBS    60 635 01 00:   TENSION
 AC  .US/F   60 250 00 00:   ACCOUSTIC
~PARAMETER INFORMATION
#MNEM.UNIT          VALUE    DESCRIPTION
#----------   ------------   ------------------------------
 EKB .F         5142.0000:   Kelly bushing
 EGL .F         5130.0000:   Ground level
 EDF .F            0.0000:   Drilling floor
 EPD .F         5130.0000:   Permanent datum
 TD  .F         3296.0000:   Total depth
 DATE.        28-APR-1986:   Date logged
 CLNT.            A2DTECH:   Client Code
 SL  . 210' FSL & 204' FWL:   Surface Location
 PD  .                 GL:   Permanent Datum
 DD  .F              3295:   Depth driller
 DL  .F              3290:   Depth logger
 BLI .F              3296:   Bottom log interval
 CS1 .IN            8.625:   Casing size
 CBD1.      8.625" @ 563':   Casing driller 1
 CBL1.F               560:   Casing logger 1
 BS1 .IN            7.875:   Bit size
 BSD1.F              3295:   Depth drilled with bit1
 DFT .        POLYMER KCL:   Type fluid in hole
 DFD .                8.9:   Density
 DFV .                 38:   Viscosity
 DFPH.                8.5:   pH
 DFL .                9.2:   Fluid loss
 MSS .           FLOWLINE:   Source of sample
 RMS .OHMM           .435:   Rm
 MST .F                74:   Rm Meas. temp.
 RMF .OHMM            .33:   Rmf
 MFST.F                74:   Rmf Meas. temp.
 RMC .OHMM            .54:   Rmc
 MCST.F                74:   Rmc Meas. temp.
 MFSS.               CALC:   Source Rmf.
 MCSS.               CALC:   Source Rmc.
 RMB .OHMM            .77:   Rm. at BHT
 BHT .F               119:   BHT.
 TCS .HRS               4:   Time Circ. stopped
 MRT .F               119:   Maximum recorded temp.
 LUN .            HL 6264:   Logging unit number
 LUL .           GILLETTE:   Logging unit location
 ENGI.      P.M. FAHLSING:   Recorded By
 WITN.             STRONG:   Witnessed by
 ORIG.         2.5" PRINT:   Origin of data
 UWI .     49025110710000:   Unique Well ID
 DICO. A2D TECHNOLOGIES, INC.:   Digitizing Company
 DAPD.                 12:   Feet Above Permanent Datum
~OTHER INFORMATION
~A    DEPT    TEND        DEN       CORR        CNC       TENR       CALR        SPR         GRR      RFOC       RILD       RILM       TENS         AC   
# ...
 2555.0000   -82.5380     2.5470     0.0400     0.2210   -83.3330     9.4840   -52.0520   109.5100     8.7940     7.2090     8.1530   -89.9310    79.4370
 2555.5000   -78.2910     2.5470     0.0490     0.2160   -83.3330     9.4840   -52.3560   108.4020     8.7410     7.2090     8.1750   -90.2980    79.5870
 2556.0000   -69.9740     2.5480     0.0610     0.2130   -83.3330     9.4840   -52.5600   107.2260     8.6360     7.2090     8.1810   -90.6650    79.6510
 2556.5000   -61.6570     2.5510     0.0630     0.2170   -84.6960     9.4840   -52.5580   106.6250     8.7100     7.2100     8.1810   -91.0330    79.7090
 2557.0000   -53.3400     2.5530     0.0570     0.2230   -87.1760     9.4840   -52.5590   106.7240     8.8440     7.2100     8.1810   -91.4000    79.7670
 2557.5000   -45.0230     2.5600     0.0510     0.2260   -89.6570     9.4840   -52.5620   106.8300     8.9540     7.2070     8.2140   -91.7670    79.8250
 2558.0000   -36.7060     2.5610     0.0460     0.2280   -92.1370     9.4840   -52.5600   108.3220     8.8460     7.2990     8.2480   -92.1340    79.8840
 2558.5000   -28.3890     2.5600     0.0380     0.2290   -94.6180     9.4840   -52.5510   110.4340     8.5660     7.3450     8.2830   -92.5010    79.9420
 2559.0000   -24.0670     2.5600     0.0490     0.2280   -97.0980     9.4840   -52.5860   113.3680     8.2870     7.3360     8.3170   -92.8690    79.9800
 2559.5000   -25.1730     2.5600     0.0730     0.2270   -99.5780     9.4840   -52.3180   114.7210     8.0340     7.5290     8.3940   -93.2360    79.9800
 2560.0000   -28.8690     2.5590     0.0920     0.2260  -102.0590     9.4840   -52.1510   111.5210     8.1810     7.6180     8.6800   -93.6030    79.4410
 2560.5000   -32.5660     2.5590     0.0850     0.2210  -102.0770     9.4840   -52.1520   104.8000     8.7610     7.7060     8.9670   -93.9700    78.7260
 2561.0000   -36.2620     2.5630     0.0790     0.2130  -100.7370     9.4840   -52.0420   100.1890     9.2830     7.7950     9.2530   -94.3370    78.0110
 2561.5000   -39.9590     2.5720     0.0700     0.2170   -99.3960     9.4840   -51.9170   100.0410     9.4520     7.8840     9.5390   -94.7050    77.4260
 2562.0000   -43.6550     2.5700     0.0690     0.2210   -98.0550     9.4840   -51.8180    99.5250     9.4520     7.9720     9.8000   -95.0720    77.0330
 2562.5000   -47.3510     2.5680     0.0600     0.2150   -96.7140     9.4840   -51.8250    98.9930     9.4520     8.0340     9.8000   -95.4390    77.0330
 2563.0000   -51.0480     2.5660     0.0540     0.2050   -95.3740     9.4730   -52.4130    99.1350     9.4520     7.9500     9.6460   -95.8060    77.0330
 2563.5000   -54.7440     2.5660     0.0490     0.1980   -94.0330     9.4590   -52.9390   100.5170     9.4520     7.7840     9.4750   -96.1740    77.0330
 2564.0000   -58.4410     2.5710     0.0580     0.2000   -92.6920     9.4450   -53.4780   102.8980     9.2580     7.6170     9.3050   -96.5410    77.0330
 2564.5000   -62.1370     2.5740     0.0740     0.2080   -91.3510     9.4310   -54.0880   106.1910     9.0480     7.4510     9.1340   -96.9080    77.4390
 2565.0000   -63.3600     2.5790     0.0750     0.2200   -90.0110     9.4180   -54.1270   110.2580     8.9540     7.2840     8.9630   -97.2750    77.8190
 2565.5000   -63.3600     2.5810     0.0650     0.2220   -88.6700     9.4050   -54.1440   115.1340     8.6080     7.1180     8.7930   -97.6420    78.7080
 2566.0000   -63.3600     2.5820     0.0630     0.2240   -87.3290     9.3910   -54.1300   113.9950     8.3090     6.9510     8.6220   -98.0100    79.5630
 2566.5000   -63.3600     2.5800     0.0840     0.2270   -85.9880     9.3790   -54.1340   110.6380     8.0100     6.7850     8.4510   -98.3770    80.4190
 2567.0000   -63.3600     2.5780     0.1100     0.2290   -84.6480     9.3660   -54.1370   108.9440     7.8910     6.5870     8.2810   -98.7440    81.2740
 2567.5000   -63.3600     2.5750     0.1220     0.2260   -83.3330     9.3660   -54.1340   109.9780     8.0340     6.5870     8.1810   -99.1110    81.5520
 2568.0000   -63.3600     2.5730     0.1150     0.2240   -90.5600     9.3680   -54.1280   110.5870     8.0340     6.5810     8.0340   -99.4780    81.5520
 2568.5000   -63.3600     2.5760     0.1070     0.2260   -97.6470     9.3620   -54.1590   110.6260     8.0120     6.5550     7.9740   -99.8460    81.5520
 2569.0000   -63.3600     2.5790     0.0990     0.2290  -102.2980     9.3980   -53.9070   110.5690     7.9600     6.5300     7.9020  -100.2130    81.4850
 2569.5000   -63.3600     2.5820     0.0910     0.2320   -99.7540     9.4070   -53.7250   110.3320     7.9080     6.5040     7.8300  -100.5800    81.3500
 2570.0000   -63.3600     2.5840     0.0830     0.2340   -97.2100     9.4140   -53.7380   110.2060     7.7490     6.4780     7.7490  -100.9470    81.2150
 2570.5000   -63.3600     2.5850     0.0770     0.2300   -94.6660     9.4170   -53.7560   109.9760     7.7490     6.4520     7.7490  -101.3150    81.0790
 2571.0000   -63.3600     2.5820     0.0750     0.2230   -92.1220     9.4240   -53.5590   109.7070     7.8330     6.4270     7.7490  -101.6820    80.9630
 2571.5000   -63.3600     2.5760     0.0730     0.2200   -89.5780     9.4290   -53.1720   107.9100     7.9530     6.4010     7.7490  -102.0490    80.8500
 2572.0000   -63.3600     2.5700     0.0670     0.2230   -87.0340     9.4350   -52.7580   106.1270     8.0340     6.3750     7.5720  -102.4160    80.7510
 2572.5000   -63.3600     2.5640     0.0610     0.2270   -84.4900     9.4400   -52.7000   104.9130     8.0340     6.3530     7.4530  -100.4420    80.6520
 2573.0000   -63.3600     2.5610     0.0550     0.2300   -81.9460     9.4460   -53.2090   106.7310     7.9030     6.3520     7.3350   -94.2530    80.5700
 2573.5000   -63.3600     2.5600     0.0550     0.2320   -79.4020     9.4510   -53.6700   111.4620     7.7260     6.3040     7.2160   -88.0650    81.0360
 2574.0000   -63.3600     2.5510     0.0560     0.2330   -76.8580     9.4570   -54.1430   113.3080     7.5490     6.2530     7.0970   -81.8760    81.6410
 2574.5000   -63.3600     2.5420     0.0580     0.2250   -74.3140     9.4620   -54.6200   110.4120     7.4740     6.2030     6.9780   -75.6880    82.2460
 2575.0000   -63.3600     2.5310     0.0580     0.2200   -71.7700     9.4680   -55.0870   102.5700     7.3410     6.1520     6.9540   -69.4990    82.7310
 2575.5000   -63.3600     2.5240     0.0420     0.2250   -69.2260     9.4730   -55.5680    98.4470     7.3700     6.1010     6.9540   -63.3600    82.6710
 2576.0000   -63.3600     2.5240     0.0310     0.2300   -66.6820     9.4790   -56.0320    99.6800     7.5090     6.0500     6.9540   -63.3600    82.5220
 2576.5000   -63.3600     2.5270     0.0450     0.2340   -63.7250     9.4840   -56.4740   103.1240     7.6480     5.9990     6.9540   -63.3600    82.3740
 2577.0000   -63.3600     2.5300     0.0610     0.2300   -69.2680     9.4930   -56.4970   104.4220     7.8570     5.9480     7.0800   -63.3600    82.2250
 2577.5000   -63.3600     2.5300     0.0580     0.2270   -75.8820     9.5020   -56.4980   104.2780     7.7800     5.9100     7.2090   -63.3600    82.2860
 2578.0000   -63.3600     2.5260     0.0490     0.2310   -82.4970     9.5100   -56.4990   105.0600     7.3470     5.9100     7.4740   -63.3600    82.6970
 2578.5000   -65.4550     2.5230     0.0410     0.2350   -89.1110     9.5190   -56.5130   106.6070     6.9150     6.0180     7.7490   -63.3600    83.3570
 2579.0000   -69.6140     2.5200     0.0400     0.2350   -95.7250     9.5280   -56.4140   107.3120     6.4830     6.2390     7.8370   -63.3600    84.1060
 2579.5000   -73.7720     2.5250     0.0620     0.2330  -102.9410     9.5360   -55.9890   102.9330     6.3530     6.8290     9.3250   -63.3600    83.9630
 2580.0000   -77.9310     2.5290     0.0880     0.2180   -96.4990     9.5450   -54.9590    89.5320     6.7070     8.2710    11.3760   -63.3600    82.6570
 2580.5000   -82.0890     2.5070     0.0940     0.2040   -89.4120     9.5540   -53.9030    77.3240    10.2250    10.8340    13.5640   -63.3600    80.8010
