~VERSION INFORMATION
 VERS.                2.0:   CWLS LOG ASCII STANDARD - VERSION 2.0
 WRAP.                 NO:   ONE LINE PER DEPTH STEP
~WELL INFORMATION
#MNEM.UNIT      DATA TYPE    INFORMATION
#----------   ------------   ------------------------------
 STRT.F           85.5000:   START DEPTH
 STOP.F         2750.0000:   STOP DEPTH
 STEP.F            0.5000:   STEP LENGTH
 NULL.          -999.2500:   NO VALUE
 COMP.          INTEX OIL:   COMPANY
 WELL. INTEX NPR 3 "AX" #74-20:   WELL
 FLD .             TEAPOT:   FIELD
 LOC .      S20 T39N R78W:   LOCATION
 CNTY.            NATRONA:   COUNTY
 STAT.            WYOMING:   STATE
 CTRY. UNITED STATES OF AMERICA:   COUNTRY
 SRVC.       SCHLUMBERGER:   SERVICE COMPANY
 DATE.        08-MAY-1966:   LOGDATE
 API .     49025095210000:   API NUMBER
~CURVE INFORMATION
#MNEM.UNIT       API CODE    CURVE DESCRIPTION
#----------   ------------   ------------------------------
 DEPT.F                  :   
 CALD.IN     45 280 60 00:   CALIPER FROM DENSITY LOG
 GRD .GAPI   45 310 01 00:   GAMMA RAY FROM DENSITY LOG
 RHOB.G/C3   45 350 01 00:   BULK DENSITY
 CORR.G/C3   45 356 01 00:   DENSITY CORRECTION
 SPR .MV     05 010 01 00:   SPONTANEOUS POTENTIAL FROM RES.
 ILD .OHMM   05 120 46 00:   INDUCTION LOG DEEP
 SN  .OHMM   05 040 00 00:   SHORT NORMAL
~PARAMETER INFORMATION
#MNEM.UNIT          VALUE    DESCRIPTION
#----------   ------------   ------------------------------
 EKB .F         5018.3000:   Kelly bushing
 EGL .F         5008.0000:   Ground level
 EDF .F            0.0000:   Drilling floor
 EPD .F         5008.0000:   Permanent datum
 TD  .F         2750.0000:   Total depth
 DATE.        08-MAY-1966:   Date logged
 CLNT.            A2DTECH:   Client Code
 DAPD.F              10.3:   Feet Above Permanent Datum
 DD  .F              2750:   Depth driller
 DL  .F              2749:   Depth logger
 BLI .F              2748:   Bottom log interval
 TLI .F                87:   Top log interval
 CS1 .IN            10.75:   Casing size
 CBD1.       10.75" @ 30':   Casing driller 1
 BS1 .IN            7.875:   Bit size
 BSD1.F              2750:   Depth drilled with bit1
 DFT .           OIL EMUL:   Type fluid in hole
 DFD .               10.1:   Density
 DFV .                 54:   Viscosity
 MSS .         CIRCULATED:   Source of sample
 RMS .OHMM           1.90:   Rm
 MST .F                72:   Rm Meas. temp.
 RMF .OHMM           1.15:   Rmf
 MFST.F                72:   Rmf Meas. temp.
 MFSS.                 FP:   Source Rmf.
 RMB .OHMM           1.23:   Rm. at BHT
 BHT .F               111:   BHT.
 TCS .HRS             1.5:   Time Circ. stopped
 MRT .F               111:   Maximum recorded temp.
 LUN .               4507:   Logging unit number
 LUL .               CSPR:   Logging unit location
 ENGI.               HAUG:   Recorded By
 WITN.             TUTTLE:   Witnessed by
 ORIG.        2" 5" PRINT:   Origin of data
 UWI .     49025095210000:   Unique Well ID
 DICO. A2D TECHNOLOGIES, INC.:   Digitizing Company
~OTHER INFORMATION
~A   DEPT     CALD        GRD       RHOB       CORR        SPR        ILD         SN   
# ...
 2724.5000     8.0070   106.0330     2.5310     0.0590   -24.5990     4.4830     6.1110
 2725.0000     8.0080   103.6630     2.5390     0.0640   -24.2860     4.4380     6.0330
 2725.5000     8.0090   103.8800     2.5310     0.0680   -23.9430     4.3940     5.9460
 2726.0000     8.0110   102.1900     2.5150     0.0590   -23.8300     4.3500     5.8380
 2726.5000     8.0120   100.2310     2.5070     0.0480   -23.8860     4.3040     5.7350
 2727.0000     8.0130   101.6010     2.4990     0.0410   -23.9200     4.2620     5.6310
 2727.5000     8.0150   101.4280     2.4980     0.0480   -23.9610     4.2580     5.5230
 2728.0000     8.0160   102.4860     2.5160     0.0540   -24.0000     4.4060     5.4410
 2728.5000     8.0170   105.5140     2.5330     0.0620   -24.0380     4.5690     5.4480
 2729.0000     8.0190   107.7920     2.5420     0.0670   -24.0770     4.7310     5.6320
 2729.5000     8.0200   105.9070     2.5540     0.0760   -24.1130     4.8980     5.8440
 2730.0000     8.0210   107.3630     2.5260     0.0590   -24.1610     5.0560     6.0540
 2730.5000     8.0230   105.1630     2.5300     0.0690   -24.1770     5.2180     6.2590
 2731.0000     8.0240   100.5340     2.5170     0.0610   -24.3680     5.1470     6.4890
 2731.5000     8.0250    97.1890     2.5420     0.0680   -24.7070     5.0490     6.6280
 2732.0000     8.0270    94.3810     2.5380     0.0700   -24.9650     4.9510     6.5200
 2732.5000     8.0270    91.4200     2.5290     0.0600   -24.7560     4.8520     6.4230
 2733.0000     8.0240    88.2970     2.5440     0.0720   -24.5540     4.8550     6.3150
 2733.5000     8.0220  -999.2500     2.5500     0.0840   -24.3170     4.8700     6.2110
 2734.0000     8.0190  -999.2500     2.5450     0.0820   -24.1750     4.8870     6.1060
 2734.5000     8.0160  -999.2500     2.5430     0.0740   -24.1150     4.9010     6.0260
 2735.0000     8.0140  -999.2500     2.5300     0.0580   -24.0440     4.9170     6.0670
 2735.5000     8.0110  -999.2500     2.5070     0.0450   -23.9770     4.9320     6.1570
 2736.0000     8.0090  -999.2500     2.4860     0.0290   -23.9100     4.9470     6.2470
 2736.5000     8.0060  -999.2500     2.4930     0.0280   -23.8410     4.9630     6.3340
 2737.0000     8.0030  -999.2500     2.5110     0.0360   -23.7730     4.9780     6.4160
 2737.5000     8.0010  -999.2500     2.5060     0.0420   -23.7040     4.9930     6.4010
 2738.0000     7.9980  -999.2500     2.4860     0.0480   -23.6360     5.0090     6.3820
 2738.5000     7.9960  -999.2500     2.4920     0.0550   -23.5680     5.0240     6.3610
 2739.0000     7.9930  -999.2500     2.5300     0.0630   -23.5000     5.0380     6.3410
 2739.5000     7.9900  -999.2500     2.5230     0.0620   -23.4320     5.0390     6.3220
 2740.0000     7.9880  -999.2500     2.5130     0.0630   -23.3640     5.0400     6.3010
 2740.5000     7.9850  -999.2500     2.5390     0.0670   -23.2960     5.0390     6.2810
 2741.0000     7.9830  -999.2500     2.5190     0.0520   -23.2280     5.0400     6.2640
 2741.5000     7.9800  -999.2500     2.4960     0.0400   -23.1610     5.0390     6.2300
 2742.0000     7.9770  -999.2500     2.5020     0.0300   -23.0930     5.0400     6.3390
 2742.5000     7.9750  -999.2500     2.5110     0.0440   -23.0330     5.0400     6.6970
 2743.0000     7.9720  -999.2500     2.5210     0.0460   -23.0390     5.0400     7.0370
 2743.5000     7.9700  -999.2500     2.5310     0.0420   -23.0150     5.0390     7.3940
 2744.0000     7.9670  -999.2500     2.5350     0.0240   -23.1840     5.0390     7.7330
 2744.5000     7.9650  -999.2500     2.5270     0.0290   -23.4450     5.0390     8.0920
 2745.0000     7.9620  -999.2500     2.5380     0.0480   -23.6960     5.0400     8.2070
 2745.5000     7.9590  -999.2500     2.5530     0.0660   -23.9240     5.0390     8.1770
 2746.0000     7.9570  -999.2500     2.5510     0.0800   -24.1690     5.0400     7.9350
 2746.5000     7.9540  -999.2500     2.5660     0.0890   -23.7460     5.0390     7.6940
 2747.0000     7.9520  -999.2500     2.5720     0.0970   -23.2060     5.0370     7.4460
 2747.5000     7.9510  -999.2500     2.5640     0.0900   -22.6460     4.9720     7.2280
 2748.0000     7.9810  -999.2500     2.5620     0.0720   -22.2550     4.8840     7.2150
 2748.5000     7.9880  -999.2500     2.5620     0.0650   -22.2490  -999.2500  -999.2500
 2749.0000     7.9880  -999.2500     2.5620     0.0660  -999.2500  -999.2500  -999.2500
 2749.5000     7.9880  -999.2500     2.5620     0.0660  -999.2500  -999.2500  -999.2500
 2750.0000     7.9880  -999.2500     2.5620     0.0660  -999.2500  -999.2500  -999.2500
