~VERSION INFORMATION
 VERS.                2.0:   CWLS LOG ASCII STANDARD - VERSION 2.0
 WRAP.                 NO:   ONE LINE PER DEPTH STEP
~WELL INFORMATION
#MNEM.UNIT      DATA TYPE    INFORMATION
#----------   ------------   ------------------------------
 STRT.F          195.5000:   START DEPTH
 STOP.F         3197.0000:   STOP DEPTH
 STEP.F            0.5000:   STEP LENGTH
 NULL.          -999.2500:   NO VALUE
 COMP.    FENIX & SCISSON:   COMPANY
 WELL.  FENIX "AX" #17-11:   WELL
 FLD .              NPR-3:   FIELD
 LOC .      S11 T38N R78W:   LOCATION
 CNTY.            NATRONA:   COUNTY
 STAT.            WYOMING:   STATE
 CTRY. UNITED STATES OF AMERICA:   COUNTRY
 SRVC.              WELEX:   SERVICE COMPANY
 DATE.        16-SEP-1977:   LOGDATE
 API .     49025104170000:   API NUMBER
~CURVE INFORMATION
#MNEM.UNIT       API CODE    CURVE DESCRIPTION
#----------   ------------   ------------------------------
 DEPT.F                  :   
 GRD .GAPI   45 310 01 00:   GAMMA RAY FROM DENSITY LOG
 CALD.IN     45 280 60 00:   CALIPER FROM DENSITY LOG
 CORR.G/C3   45 356 01 00:   DENSITY CORRECTION
 TEND.LBS    45 635 01 00:   TENSION FORM DENSITY LOG
 RHOB.G/C3   45 350 01 00:   BULK DENSITY
 SPR .MV     07 010 01 00:   SPONTANEOUS POTENTIAL
 TENR.LBS    07 635 01 00:   TENSION FROM RESISTIVITY
 ILD .OHMM   07 120 46 00:   DEEP INDUCTION RESISTIVITY
 ILM .OHMM   07 120 44 00:   INDUCTION LOG MEDIUM RESISTIVITY
 SGRD.OHMM   07 220 05 00:   SHALLOW SHORT GUARD RESISTIVITY
~PARAMETER INFORMATION
#MNEM.UNIT          VALUE    DESCRIPTION
#----------   ------------   ------------------------------
 EKB .F         5212.0000:   Kelly bushing
 EGL .F         5202.0000:   Ground level
 TD  .F         3195.0000:   Total depth
 CLNT.            A2DTECH:   Client Code
 SL  . 1090' FSL & 330' FWL:   Surface Location
 PD  .                 GL:   Permanent Datum
 EPD .F              5202:   Elevation Permanent Datum
 LMF .                 KB:   Log Measured From
 DMF .                 KB:   Drilling Measured From
 DAPD.F                10:   Feet Above Permanent Datum
 DATE.        16-SEP-1977:   Date Logged [DD-MMM-YYYY]
 DD  .F              3195:   Depth driller
 DL  .F              3195:   Depth logger
 BLI .F              3193:   Bottom log interval
 TLI .F               217:   Top log interval
 CS1 .IN            8.625:   Casing size
 CBD1.      8.625" @ 216':   Casing driller 1
 CBL1.F               217:   Casing logger 1
 BS1 .IN            7.875:   Bit size
 BSD1.F              3195:   Depth drilled with bit1
 DFT .            KCL MUD:   Type fluid in hole
 DFD .                9.2:   Density
 DFV .                 36:   Viscosity
 DFPH.                 11:   pH
 DFL .                8.8:   Fluid loss
 MSS .           FLOWLINE:   Source of sample
 RMS .OHMM           2.76:   Rm
 MST .F                99:   Rm Meas. temp.
 RMF .OHMM           1.54:   Rmf
 MFST.F                99:   Rmf Meas. temp.
 MFSS.               MEAS:   Source Rmf.
 RMC .OHMM           3.01:   Rmc
 MCST.F                99:   Rmc Meas. temp.
 MCSS.               MEAS:   Source Rmc.
 RMB .OHMM           2.40:   Rm. at BHT
 BHT .F               112:   BHT.
 TCS .HRS               6:   Time Circ. stopped
 MRT .F               112:   Maximum recorded temp.
 LUN .               8611:   Logging unit number
 LUL .             CASPER:   Logging unit location
 ENGI.          D. LAWSON:   Recorded By
 WITN.         HARRINGTON:   Witnessed by
 ORIG.           5" PRINT:   Origin of data
 UWI .     49025104170000:   Unique Well ID
 DICO. A2D TECHNOLOGIES, INC.:   Digitizing Company
~OTHER INFORMATION
~A   DEPT       GRD      CALD       CORR       TEND       RHOB        SPR       TENR        ILD        ILM       SGRD   
# ...
 2205.5000    97.6378     8.5256     0.0169  1783.9513     2.5116   -75.4030  1703.2229     5.2990     5.8311     9.4795
 2206.0000    97.5655     8.5229     0.0184  1784.1318     2.5138   -75.4126  1704.2319     5.2251     5.8295     7.8101
 2206.5000    93.9982     8.4788     0.0184  1784.3563     2.5193   -75.4213  1705.2415     5.1166     5.6290     9.5388
 2207.0000    92.1796     8.4709     0.0183  1784.5844     2.5236   -75.4303  1706.2874     5.0454     5.7460    11.4141
 2207.5000    92.7741     8.4623     0.0198  1784.8054     2.5190   -75.4410  1692.5417     5.0098     5.9063    12.9254
 2208.0000    93.0692     8.4615     0.0183  1785.0299     2.5123   -75.4498  1678.3290     5.0091     5.9459    16.4482
 2208.5000    90.6451     8.4758     0.0122  1785.2545     2.5078   -75.4576  1649.6501     5.0785     5.8213    12.0477
 2209.0000    89.1280     8.4751     0.0077  1785.5067     2.5021   -75.4667  1650.6593     5.1846     5.7395     9.5882
 2209.5000    87.9125     8.4744     0.0077  1785.7238     2.5006   -75.4761  1636.6768     5.2932     5.7379    10.4858
 2210.0000    88.5050     8.4735     0.0091  1800.8981     2.5013   -75.4849  1622.7377     5.4794     5.7364    12.4587
 2210.5000    92.7195     8.4728     0.0106  1801.1278     2.5035   -75.4939  1623.9990     5.6330     5.7349    10.6238
 2211.0000    96.9340     8.4720     0.0106  1811.5389     2.5072   -75.5046  1654.9487     5.7909     5.9807    11.3808
 2211.5000    97.8324     8.4713     0.0091  1816.5863     2.5110   -75.5133  1655.9578     5.9948     6.4947    11.8576
 2212.0000    93.5983     8.4706     0.0075  1816.7664     2.5154   -75.5221  1686.9069     6.1628     6.7693    13.3311
 2212.5000    94.1929     8.4698     0.0075  1801.9961     2.5169   -75.5303  1717.8566     6.3356     6.8626    17.2087
 2213.0000    97.8393     8.4689     0.0045  1802.2855     2.5131   -75.5394  1718.8656     6.4679     6.9568    19.6163
 2213.5000    99.9069     8.4683     0.0014  1787.5000     2.5108   -75.5485  1719.9100     6.6033     7.1009    16.9612
 2214.0000    96.2761     8.4675    -0.0001  1787.7314     2.5093   -75.5593  1706.1664     6.6024     7.1485    13.4974
 2214.5000    90.8375     8.4668    -0.0016  1787.9490     2.5063   -75.5681  1691.9531     6.6938     7.1465    13.2029
 2215.0000    86.6055     8.4660    -0.0047  1788.1737     2.5032   -75.5769  1678.2444     6.6006     7.1441    12.5890
 2215.5000    82.4665     8.4758    -0.0077  1784.6024     2.5008   -75.5856  1664.0316     6.5085     7.0928    13.0272
 2216.0000    80.0474     8.4591    -0.0092  1772.6234     2.4987   -75.5944  1635.3528     6.4178     6.9931    12.9321
 2216.5000    82.4548     8.4587    -0.0107  1763.8409     2.4979   -75.6031  1636.3772     6.4170     6.9912    12.7514
 2217.0000    80.9406     8.4582    -0.0078  1764.2947     2.4986   -75.6121  1637.6237     6.4610     7.1365    13.6579
 2217.5000    77.6166     8.4578    -0.0063  1764.6578     2.5016   -75.6229  1629.6140     6.5050     7.2344    15.7943
 2218.0000    76.1024     8.4572    -0.0048  1764.9701     2.5068   -75.6316  1609.7021     6.5994     7.4357    16.6769
 2218.5000    77.0137     8.4569    -0.0049  1765.3839     2.5120   -75.6404  1610.7112     6.7798     7.5903    13.8329
 2219.0000    80.1453     8.4579    -0.0034  1765.7469     2.5151   -75.6491  1611.7203     6.8737     7.8020    13.4514
 2219.5000    85.7365     8.4710    -0.0019  1781.0802     2.5157   -75.6579  1612.7299     7.0175     7.8548    15.7630
 2220.0000    90.8589     8.4766    -0.0004  1796.4132     2.5149   -75.6667  1613.7727     7.2645     7.7978    14.9104
 2220.5000    93.8711     8.4852     0.0010  1796.7815     2.5157   -75.6758  1629.9702     7.4165     7.5821    14.7782
 2221.0000    91.7521     8.4848     0.0070  1797.1556     2.5217   -75.6849  1645.9498     7.1572     7.3105    17.1282
 2221.5000    88.1264     8.4691     0.0100  1782.6232     2.5329   -75.6951  1646.9589     6.7741     6.9233    19.6595
 2222.0000    86.3106     8.4688     0.0129  1782.9341     2.5456   -75.7039  1677.9081     6.2750     6.6389    17.5748
 2222.5000    89.3505     8.4683     0.0144  1783.3083     2.5516   -75.7127  1678.8921     5.8531     6.3662    15.3014
 2223.0000    94.9853     8.4527     0.0159  1783.7122     2.5490   -75.7214  1679.9399     5.6526     6.1473    13.4144
 2223.5000   102.5812     8.4523     0.0128  1793.0229     2.5335   -75.7303  1681.1880     5.4970     6.1031    11.9238
 2224.0000   108.6085     8.4519     0.0098  1799.4086     2.5207   -75.7411  1682.1975     5.3456     6.0173    10.9714
 2224.5000   104.9827     8.4514     0.0068  1799.7755     2.5124   -75.7499  1698.1765     5.2710     5.9323    11.1203
 2225.0000   101.3570     8.4510     0.0067  1800.9740     2.5034   -75.7587  1714.1558     5.2703     5.8489    10.3624
 2225.5000   106.1777     8.4505     0.0067  1815.5585     2.4973   -75.7674  1715.1653     5.1969     5.8473    11.5823
 2226.0000   101.9486     8.4501     0.0067  1815.8683     2.4951   -75.7762  1701.1975     5.1962     5.7651    16.4698
 2226.5000    97.3618     8.4561     0.0067  1816.2845     2.4958   -75.7850  1702.2133     5.1955     5.7636    15.4717
 2227.0000    93.0839     8.4643     0.0066  1831.6177     2.5055   -75.7939  1688.2528     5.2675     5.7620    12.8343
 2227.5000    96.4997     8.4638     0.0081  1831.9807     2.5092   -75.8047  1689.3713     5.3405     5.8411    11.8910
 2228.0000   101.6221     8.4633     0.0051  1832.3438     2.5092   -75.8134  1690.5237     5.4900     5.8391    11.8871
 2228.5000   105.8395     8.4781     0.0020  1817.7368     2.5114   -75.8222  1676.5626     5.6439     5.9192    12.4152
 2229.0000   102.2137     8.4775     0.0020  1833.0839     2.5091   -75.8310  1677.5717     5.7620     6.0004    13.0846
 2229.5000    96.7780     8.4771     0.0020  1833.5237     2.5061   -75.8397  1678.5930     5.8418     6.1678    12.2916
 2230.0000    95.5655     8.4918     0.0019  1833.8867     2.5038   -75.8485  1694.8126     5.9227     6.3399    12.2039
 2230.5000    99.5724     8.4912     0.0019  1834.2498     2.5031   -75.8576  1695.8218     5.9632     6.4717    12.2844
 2231.0000   101.8887     8.4908     0.0034  1819.5521     2.5030   -75.8682  1696.8313     5.9210     6.2487    13.8097
 2231.5000    99.7697     8.4903     0.0049  1820.0361     2.5037   -75.8770  1697.8403     5.7981     6.0758    19.2419
 2232.0000    98.8589     8.5050     0.0093  1820.3594     2.5082   -75.8857  1698.8494     5.7173     5.9904    16.4013
 2232.5000   100.6630     8.5045     0.0123  1820.7336     2.5195   -75.8945  1699.8589     5.5987     5.9062    11.6064
 2233.0000   103.9754     8.5109     0.0187  1821.1079     2.5330   -75.9033  1700.8981     5.5207     5.7428    10.9030
 2233.5000   106.3828     8.5488     0.0257  1821.4821     2.5419   -75.9121  1702.1293     5.4418     5.5839    11.8416
 2234.0000   115.1251     8.5635     0.0302  1821.8563     2.5503   -75.9230  1703.1388     5.2571     5.4259    13.1303
 2234.5000   121.8651     8.5839     0.0332  1822.2751     2.5486   -75.9317  1704.1478     5.0418     5.2789    12.5929
 2235.0000   128.0833     8.6146     0.0316  1822.6049     2.5343   -75.9405  1705.1570     4.8691     5.2775    10.8812
 2235.5000   132.3007     8.6376     0.0271  1823.0012     2.5140   -75.9493  1706.1665     4.7680     5.2033    10.2995
 2236.0000   129.2782     8.6370     0.0181  1823.4248     2.5035   -75.9580  1707.1858     4.7016     5.1659    12.2364
 2236.5000   123.8425     8.6366     0.0060  1823.7275     2.4967   -75.9668  1708.4374     4.7010     5.1288    11.2590
 2237.0000   120.8201     8.5909     0.0030  1824.1019     2.4884   -75.9758  1709.4464     4.7002     5.2729    10.3605
 2237.5000   120.7641     8.5710     0.0000  1824.5139     2.4846   -75.9865  1710.4554     4.7655     5.4190    12.4801
 2238.0000   124.4283     8.5448    -0.0015  1824.8503     2.4816   -75.9953  1696.4949     4.8314     5.2687    11.8051
 2238.5000   126.8357     8.5373    -0.0001  1825.2246     2.4838   -76.0040  1682.5338     4.8983     5.1946    10.5549
