~VERSION INFORMATION
 VERS.                2.0:   CWLS LOG ASCII STANDARD - VERSION 2.0
 WRAP.                 NO:   ONE LINE PER DEPTH STEP
~WELL INFORMATION
#MNEM.UNIT      DATA TYPE    INFORMATION
#----------   ------------   ------------------------------
 STRT.F            5.5000:   START DEPTH
 STOP.F         3006.0000:   STOP DEPTH
 STEP.F            0.5000:   STEP LENGTH
 NULL.          -999.2500:   NO VALUE
 COMP.    FENIX & SCISSON:   COMPANY
 WELL.  FENIX "AX" #28-28:   WELL
 FLD .  TEAPOT DOME NPR-3:   FIELD
 LOC .      S28 T39N R78W:   LOCATION
 CNTY.            NATRONA:   COUNTY
 STAT.            WYOMING:   STATE
 CTRY. UNITED STATES OF AMERICA:   COUNTRY
 SRVC.           BIRDWELL:   SERVICE COMPANY
 DATE.        23-JAN-1980:   LOGDATE
 API .     49025107960000:   API NUMBER
~CURVE INFORMATION
#MNEM.UNIT       API CODE    CURVE DESCRIPTION
#----------   ------------   ------------------------------
 DEPT.F                  :   
 GRD .GAPI   45 310 01 00:   GAMMA RAY FROM DENSITY LOG
 CALD.IN     45 280 60 00:   CALIPER FROM DENSITY LOG
 DPHI.DEC    45 890 12 00:   DENSITY POROSITY SANDSTONE
 NPHI.DEC    42 890 03 00:   NEUTRON POROSITY SANDSTONE
 CORR.G/C3   45 356 01 00:   DENSITY CORRECTION
 SPR .MV     05 010 01 00:   SPONTANEOUS POTENTIAL FROM RES.
 ILD .OHMM   05 120 40 00:   INDUCTION LOG DEEP RESISTIVITY
 SN  .OHMM   05 040 16 00:   SHORT NORMAL 16"
~PARAMETER INFORMATION
#MNEM.UNIT          VALUE    DESCRIPTION
#----------   ------------   ------------------------------
 EKB .F         5120.0000:   Kelly bushing
 EGL .F         5110.0000:   Ground level
 EDF .F         5119.0000:   Drilling floor
 EPD .F         5110.0000:   Permanent datum
 TD  .F         3006.0000:   Total depth
 CLNT.            A2DTECH:   Client Code
 SL  . 600' FSL & 1300' FWL:   Surface Location
 PD  .                 GL:   Permanent Datum
 DAPD.F                 9:   Feet Above Permanent Datum
 DATE.        23-JAN-1980:   Date Logged [DD-MMM-YYYY]
 DD  .F              3006:   Depth driller
 DL  .F              3006:   Depth logger
 BLI .F              3006:   Bottom log interval
 TLI .F                10:   Top log interval
 CS1 .IN            8.625:   Casing size
 CBD1.      8.625" @ 440':   Casing driller 1
 CBL1.F               460:   Casing logger 1
 BS1 .IN            7.875:   Bit size
 BSD1.F              3006:   Depth drilled with bit1
 DFT .       GEL MUD FULL:   Type fluid in hole
 DFD .                  9:   Density
 DFV .                 46:   Viscosity
 DFPH.                 11:   pH
 DFL .               17.2:   Fluid loss
 MSS .           MUD TANK:   Source of sample
 RMS .OHMM            1.9:   Rm
 MST .F                60:   Rm Meas. temp.
 RMF .OHMM            .73:   Rmf
 MFST.F                62:   Rmf Meas. temp.
 MFSS.               MEAS:   Source Rmf.
 RMC .OHMM            .95:   Rmc
 MCST.F                62:   Rmc Meas. temp.
 TCS .HRS               5:   Time Circ. stopped
 MRT .F               110:   Maximum recorded temp.
 LUN .               3029:   Logging unit number
 LUL .             CASPER:   Logging unit location
 ENGI.           T. WOLFF:   Recorded By
 WITN.           DINSMORE:   Witnessed by
 ORIG.           5" PRINT:   Origin of data
 UWI .     49025107960000:   Unique Well ID
 DICO. A2D TECHNOLOGIES, INC.:   Digitizing Company
~OTHER INFORMATION
~A    DEPT      GRD      CALD       DPHI         NPHI     CORR        SPR        ILD         SN   
# ...
 2962.0000   130.0000     8.0652     0.1778     0.0909     0.0573   -29.6456     5.3321     5.6939
 2962.5000   122.3364     8.0674     0.1789     0.0881     0.0485   -29.6228     5.4901     5.8636
 2963.0000   111.9908     8.0547     0.1810     0.0920     0.0427   -29.3005     5.5330     5.9098
 2963.5000   103.5711     8.0422     0.1825     0.0929     0.0430   -29.5745     5.5770     6.0851
 2964.0000   100.1884     8.0444     0.1839     0.0947     0.0402   -30.7415     5.5400     6.3105
 2964.5000   102.8798     8.0466     0.1827     0.0976     0.0434   -30.2704     5.5042     6.1373
 2965.0000   113.8675     8.0488     0.1893     0.1040     0.0196   -29.6568     5.4685     5.8843
 2965.5000   117.1515     8.0515     0.1958     0.1202     0.0046   -28.8953     5.3945     5.7217
 2966.0000   119.8450     8.0537     0.2006     0.1184     0.0110   -27.5476     5.3224     5.5656
 2966.5000   119.6812     8.0558     0.1976     0.1159     0.0082   -29.5913     5.2122     5.2606
 2967.0000   115.9674     8.0577     0.1903     0.1087     0.0176   -28.9777     5.1059     5.0900
 2967.5000   107.7751     8.0602     0.1795     0.1021     0.0239   -27.9203     5.0368     5.4593
 2968.0000   111.7998     8.0772     0.1774     0.0960     0.0271   -27.7505     5.0041     5.6213
 2968.5000   113.4480     8.0794     0.1815     0.0936     0.0244   -28.1725     4.9718     5.6655
 2969.0000   113.1765     8.0814     0.1893     0.0947     0.0292   -28.7423     4.9397     5.5891
 2969.5000   115.8740     8.0836     0.1950     0.1007     0.0219   -29.3130     4.9429     5.4746
 2970.0000   116.7815     8.1007     0.2033     0.1120     0.0251   -29.7434     4.9107     5.3634
 2970.5000   108.2198     8.1028     0.2051     0.1126     0.0103   -29.8602     4.9057     5.2535
 2971.0000   104.2445     8.1051     0.1940     0.1107     0.0151   -29.3383     4.9007     5.0730
 2971.5000   104.7137     8.1073     0.1840     0.1053     0.0214   -28.7809     4.8957     5.1495
 2972.0000   110.9607     8.1095     0.1771     0.1019     0.0201   -29.2029     4.8907     5.4558
 2972.5000   114.0965     8.1117     0.1708     0.1010     0.0234   -29.6193     4.9668     5.6579
 2973.0000   113.4994     8.1139     0.1647     0.1003     0.0282   -30.0412     5.1466     5.9518
 2973.5000   110.3422     8.1160     0.1563     0.0970     0.0360   -29.8715     5.3369     6.3058
 2974.0000   103.3621     8.1034     0.1524     0.0901     0.0453   -29.2579     5.6138     6.6809
 2974.5000   101.0164     8.0908     0.1542     0.0789     0.0290   -29.0881     5.8631     7.0279
 2975.0000    98.3745     8.0788     0.1568     0.0860     0.0232   -28.9183     6.1234     7.2882
 2975.5000    99.8807     8.0810     0.1592     0.0929     0.0250   -28.8964     6.4411     7.5582
 2976.0000   102.4240     8.0678     0.1639     0.0929     0.0252   -29.1704     6.7272     7.8382
 2976.5000   104.3746     8.0555     0.1699     0.0931     0.0285   -29.5924     6.8282     7.7313
 2977.0000   114.4734     8.0579     0.1813     0.0952     0.0333   -29.5705     6.7840     7.4049
 2977.5000   115.6833     8.0552     0.1887     0.1023     0.0350   -28.6611     6.6445     7.0427
 2978.0000   112.7451     8.0470     0.1926     0.1052     0.0202   -28.0473     6.3703     6.6719
 2978.5000   107.8809     8.0497     0.1920     0.0992     0.0265   -28.0251     6.0639     6.3514
 2979.0000   107.0163     8.0458     0.1829     0.0947     0.0282   -28.2996     5.6882     6.1770
 2979.5000   107.7823     8.0392     0.1817     0.0979     0.0255   -28.7161     5.3364     6.0938
 2980.0000   111.1167     8.0415     0.1841     0.1003     0.0243   -28.8476     5.1502     6.0106
 2980.5000   114.4751     8.0288     0.1864     0.0993     0.0245   -28.6724     5.0864     5.9296
 2981.0000   118.2330     8.0310     0.1900     0.0987     0.0248   -27.9109     5.1636     5.9348
 2981.5000   120.7763     8.0184     0.1921     0.0995     0.0266   -27.5986     5.1670     5.8957
 2982.0000   119.1714     8.0033     0.1899     0.0989     0.0252   -28.7547     5.2073     5.8590
 2982.5000   111.4924     7.9932     0.1881     0.0958     0.0271   -29.3300     5.2480     5.8631
 2983.0000   113.8875     7.9806     0.1893     0.0928     0.0349   -29.8999     5.2513     5.8672
 2983.5000   108.8752     7.9680     0.1932     0.0927     0.0412   -30.0259     5.2547     5.8296
 2984.0000   109.1962     7.9707     0.2042     0.0992     0.0384   -29.4069     5.2207     5.8337
 2984.5000   110.1037     7.9724     0.2075     0.1053     0.0266   -28.9413     5.1861     5.8378
 2985.0000   109.8321     7.9598     0.1999     0.1064     0.0237   -29.3639     5.1532     5.7182
 2985.5000   109.4186     7.9477     0.1969     0.1054     0.0301   -29.3413     5.1200     5.6010
 2986.0000   107.6655     7.9497     0.1975     0.1045     0.0394   -28.8757     5.0507     5.7272
 2986.5000   104.2771     7.9521     0.1971     0.1050     0.0397   -27.9592     4.9824     5.5700
 2987.0000   104.3774     7.9393     0.1944     0.1077     0.0339   -27.7964     4.8152     5.4559
 2987.5000   105.8138     7.9416     0.1917     0.1115     0.0311   -28.0704     4.6872     5.2684
 2988.0000   103.9188     7.9438     0.1940     0.1151     0.0298   -27.7473     4.5626     5.1965
 2988.5000   103.7892     7.9460     0.1970     0.1123     0.0286   -27.4295     4.5031     5.1265
 2989.0000   106.3386     7.9334     0.1997     0.1096     0.0291   -27.4112     4.4745     5.1310
 2989.5000   109.9189     7.9208     0.1930     0.1024     0.0322   -27.5478     4.4467     5.0972
 2990.0000   107.4251     7.8915     0.1888     0.0963     0.0370   -28.1262     4.4506     5.2120
 2990.5000   107.5980     7.8222     0.1863     0.0783     0.0508   -28.8196     4.4537     5.3667
 2991.0000   108.5116     7.8244     0.1838     0.0411     0.0722   -29.2470     4.4253     5.5259
 2991.5000   108.3820     7.9597     0.1737     0.0350     0.0513   -28.7758     4.4599     5.7716
 2992.0000   111.0796     8.0654     0.1689     0.0578     0.0471   -27.7185     4.4630     5.9429
 2992.5000   110.5117     8.1120     0.1785     0.1003     0.0428   -27.8500     4.4661     5.8587
 2993.0000   110.8328     8.1290     0.1841     0.1254     0.0294   -28.2665     4.4692     5.4977
 2993.5000   109.1671     8.1607     0.1892     0.1220     0.0251   -28.8363     4.4109     5.2248
 2994.0000   107.9193     8.1629     0.1879     0.1062     0.0375   -29.1158     4.3526     4.9515
 2994.5000   111.6539     8.1651     0.1846     0.0963     0.0377   -27.6092     4.2663     4.8500
 2995.0000   109.7527     8.1673     0.1807     0.0931     0.0395   -27.7352     4.2059     4.7839
 2995.5000   110.9626     8.1695     0.1771     0.0913     0.0534   -27.8668     4.1271     4.6203
 2996.0000   114.8392     8.1717     0.1770     0.0927     0.0539   -27.5436     4.0696     4.4934
 2996.5000   112.7898     8.1887     0.1788     0.1041     0.0403   -27.6701     4.0170     4.3693
 2997.0000   102.2961     8.1908     0.1797     0.1088     0.0269   -27.7997     3.9651     4.4998
 2997.5000   103.8023     8.2078     0.1796     0.1028     0.0304   -27.3301     3.9410     4.5676
 2998.0000   109.1603     8.2101     0.1784     0.0982     0.0335   -27.6041     3.9188     4.5375
 2998.5000   112.8888     8.2145     0.1787     0.0991     0.0289   -26.9671     3.9761     4.6398
 2999.0000   113.9505     8.2445     0.1801     0.1065     0.0249   -26.3714     4.0064     4.7098
 2999.5000   114.1234     8.2467     0.1828     0.1131     0.0237   -26.4975     3.9537     4.6795
 3000.0000   114.7407     8.2489     0.1798     0.1127     0.0240   -26.4756     3.8757     4.5511
 3000.5000   115.2099     8.2511     0.1797     0.1112     0.0288  -999.2500  -999.2500  -999.2500
 3001.0000   112.7212     8.2533     0.1809     0.1088     0.0381  -999.2500  -999.2500  -999.2500
 3001.5000   108.8890     8.4478     0.1815     0.1138     0.0443  -999.2500  -999.2500  -999.2500
 3002.0000   111.2903     8.6275     0.1820     0.1179     0.0385  -999.2500  -999.2500  -999.2500
