~VERSION INFORMATION
 VERS.                2.0:   CWLS LOG ASCII STANDARD - VERSION 2.0
 WRAP.                 NO:   ONE LINE PER DEPTH STEP
~WELL INFORMATION
#MNEM.UNIT      DATA TYPE    INFORMATION
#----------   ------------   ------------------------------
 STRT.F          174.0000:   START DEPTH
 STOP.F         3492.0000:   STOP DEPTH
 STEP.F            0.5000:   STEP LENGTH
 NULL.          -999.2500:   NO VALUE
 COMP.    FENIX & SCISSON:   COMPANY
 WELL.   FENIX "AX" #18-3:   WELL
 FLD .        TEAPOT DOME:   FIELD
 LOC .       S3 T38N R78W:   LOCATION
 CNTY.            NATRONA:   COUNTY
 STAT.            WYOMING:   STATE
 CTRY. UNITED STATES OF AMERICA:   COUNTRY
 SRVC.       SCHLUMBERGER:   SERVICE COMPANY
 DATE.        09-FEB-1981:   LOGDATE
 API .     49025108630000:   API NUMBER
~CURVE INFORMATION
#MNEM.UNIT       API CODE    CURVE DESCRIPTION
#----------   ------------   ------------------------------
 DEPT.F                  :   
 CALD.IN     45 280 60 00:   CALIPER FROM DENSITY LOG
 GRD .GAPI   45 310 01 00:   GAMMA RAY FROM DENSITY LOG
 RHOB.G/C3   45 350 01 00:   BULK DENSITY
 DRHO.G/C3   45 356 01 00:   DENSITY CORRECTION
 TENR.LBS    07 635 01 00:   TENSION FROM RESISTIVITY
 SPR .MV     07 010 01 00:   SPONTANEOUS POTENTIAL
 ILM .OHMM   07 120 44 00:   INDUCTION LOG MEDIUM RESISTIVITY
 ILD .OHMM   07 120 46 00:   INDUCTION LOG DEEP RESISTIVITY
 SFLU.OHMM   07 220 01 00:   SPHERICALLY FOCUSED LOG UNAVERAGED RESISTIVITY
~PARAMETER INFORMATION
#MNEM.UNIT          VALUE    DESCRIPTION
#----------   ------------   ------------------------------
 EKB .F         5267.0000:   Kelly bushing
 EGL .F         5257.0000:   Ground level
 EDF .F            0.0000:   Drilling floor
 TD  .F         3472.0000:   Total depth
 DATE.        09-FEB-1981:   Date logged
 CLNT.            A2DTECH:   Client Code
 SL  . 669' FSL & 42' FWL:   Surface Location
 PD  .                 GL:   Permanent Datum
 DD  .F              3401:   Depth driller
 DL  .F              3472:   Depth logger
 BLI .F              3466:   Bottom log interval
 CS1 .IN            8.625:   Casing size
 CBD1.      8.625" @ 200':   Casing driller 1
 CBL1.F               196:   Casing logger 1
 BS1 .IN            7.875:   Bit size
 DFT .            KCL/GEL:   Type fluid in hole
 DFD .                  9:   Density
 DFV .                 60:   Viscosity
 DFPH.                8.5:   pH
 DFL .                 10:   Fluid loss
 MSS .            MUD/PIT:   Source of sample
 RMS .OHMM           1.88:   Rm
 MST .F                75:   Rm Meas. temp.
 RMF .OHMM           1.12:   Rmf
 MFST.F                75:   Rmf Meas. temp.
 MFSS.               MEAS:   Source Rmf.
 RMB .OHMM           1.21:   Rm. at BHT
 BHT .F               120:   BHT.
 TCS .HRS            1800:   Time Circ. stopped
 MRT .F               120:   Maximum recorded temp.
 LUN .               8043:   Logging unit number
 LUL .               CSPR:   Logging unit location
 ENGI.            CONNETT:   Recorded By
 WITN.              SCOTT:   Witnessed by
 ORIG.           5" PRINT:   Origin of data
 UWI .     49025108630000:   Unique Well ID
 DICO. A2D TECHNOLOGIES, INC.:   Digitizing Company
 DAPD.F                10:   Feet Above Permanent Datum
 BSD1.F              3401:   Depth drilled with bit1
 EPD .F              5257:   Elevation Permanent Datum
 LMF .                 KB:   Log Measured From
 DMF .                 KB:   Drilling Measured From
 TLI .F               196:   Top log interval
 TLAB.               0000:   Time logger at bottom
~OTHER INFORMATION
~A   DEPT     CALD         GRD      RHOB       DRHO       TENR        SPR        ILM        ILD       SFLU   
# ...
  648.5000     8.8050    84.9950     2.5290     0.0820   890.8910   -61.9760    12.4980    11.9310    12.7300
  649.0000     8.8050    84.6320     2.5000     0.0700   890.8910   -62.1610    12.4980    11.9350    12.7640
  649.5000     8.8050    83.0460     2.4800     0.0690   890.8910   -62.3460    12.4980    11.8250    12.8300
  650.0000     8.8060    81.5120     2.4760     0.0730   890.8910   -62.5310    12.4970    12.0190    12.8960
  650.5000     8.8060    79.9910     2.4740     0.0830   890.8910   -62.7170    12.5560    12.1480    12.9620
  651.0000     8.8060    78.4690     2.4750     0.0860   890.8910   -62.9030    12.6090    12.2770    13.0290
  651.5000     8.8060    76.9360     2.4760     0.0880   890.8910   -63.0660    12.6620    12.4060    13.0950
  652.0000     8.8070    75.3700     2.4710     0.0860   890.8910   -62.8580    12.7150    12.4980    13.1610
  652.5000     8.8070    75.5180     2.4620     0.0800   890.8910   -62.6190    12.7680    12.4410    13.2080
  653.0000     8.8070    75.9580     2.4550     0.0730   890.8910   -62.3810    12.8210    12.3970    13.1530
  653.5000     8.8070    76.4020     2.4630     0.0780   890.8910   -62.1430    12.8480    12.3530    13.0390
  654.0000     8.8080    75.9890     2.4920     0.0840   890.8910   -61.9050    12.6930    12.3090    12.9260
  654.5000     8.8080    75.0390     2.5030     0.0890   890.8910   -61.6670    12.5730    12.2690    12.8120
  655.0000     8.8080    75.4640     2.5060     0.0860   890.8910   -61.4290    12.4530    12.1120    12.7300
  655.5000     8.8080    76.8310     2.5090     0.0900   890.8910   -61.1910    12.3330    11.9660    12.6300
  656.0000     8.8090    80.6020     2.5120     0.0970   890.8910   -60.9530    12.2130    11.8200    12.5170
  656.5000     8.8090    84.6490     2.5070     0.1000   890.8910   -60.7160    12.0930    11.6740    12.4040
  657.0000     8.8090    85.6350     2.5020     0.0970   890.8910   -60.4980    11.9730    11.5290    12.2900
  657.5000     8.8090    83.3110     2.5030     0.0950   890.8910   -60.3650    11.8530    11.3830    12.1770
  658.0000     8.8100    80.9220     2.5140     0.1010   890.8910   -60.2180    11.7320    11.2370    12.0630
  658.5000     8.8100    78.6870     2.5260     0.1080   890.8910   -60.0690    11.7160    11.0910    11.9500
  659.0000     8.8100    79.7950     2.5300     0.1100   890.8910   -59.9210    11.4770    10.9840    11.4360
  659.5000     8.8100    83.0770     2.5180     0.1050   890.8910   -60.0230    11.1990    11.5640    10.8600
  660.0000     8.8100    86.3400     2.5040     0.0980   890.8910   -60.1640    10.9220    12.1080    10.2840
  660.5000     8.8110    87.4310     2.4900     0.0850   890.8910   -60.3030    11.5420    12.6530    11.1620
  661.0000     8.8110    81.6040     2.4760     0.0670   890.8910   -60.4410    12.3080    13.1240    12.2780
  661.5000     8.8110    75.0980     2.4620     0.0690   890.8910   -60.5520    13.0740    13.5820    13.3940
  662.0000     8.8110    72.1700     2.4640     0.0730   890.8910   -62.0810    13.8400    14.0410    14.5100
  662.5000     8.8120    69.3810     2.4910     0.1230   890.8910   -63.6050    14.6060    14.5000    15.6260
  663.0000     8.8120    66.8770     2.5000     0.1510   890.8910   -64.7900    15.1710    14.9580    16.7410
  663.5000     8.8120    66.0300     2.4930     0.1440   890.8910   -65.5540    15.4900    15.1250    17.8570
  664.0000     8.8120    66.5920     2.4600     0.1240   890.8910   -66.3100    15.8090    15.2400    18.9240
  664.5000     8.8130    70.0950     2.4210     0.0990   890.8910   -66.6960    16.1280    15.3550    17.8170
  665.0000     8.8130    72.3750     2.4200     0.0870   890.8910   -67.0010    16.1950    15.4700    16.7570
  665.5000     8.8130    70.6630     2.4150     0.0890   890.8910   -67.3080    16.2160    15.5850    15.7370
  666.0000     8.8130    68.4450     2.4010     0.0880   890.8910   -67.6150    16.2360    15.6990    15.7370
  666.5000     8.8140    67.2460     2.3870     0.0820   890.8910   -67.9220    16.2560    15.8140    16.8050
  667.0000     8.8140    66.0910     2.3880     0.0920   890.8910   -68.2110    16.2760    15.9290    17.8350
  667.5000     8.8140    64.9540     2.3920     0.1000   890.8910   -68.2700    16.2970    16.0440    18.8660
  668.0000     8.8140    63.9110     2.3880     0.0950   890.8910   -68.3470    16.3270    16.1780    19.6350
  668.5000     8.8150    63.8760     2.3800     0.0890   890.8910   -68.4260    16.2990    15.9510    19.3670
  669.0000     8.8150    65.6210     2.3780     0.0910   890.7090   -68.5040    16.2310    15.6770    18.7420
  669.5000     8.8150    67.3270     2.3830     0.0980   890.4180   -68.5870    16.0910    15.4030    18.1160
  670.0000     8.8150    68.9710     2.3880     0.1030   890.1260   -68.4250    15.6960    15.1280    17.4900
  670.5000     8.8160    70.1800     2.3940     0.0830   889.8350   -68.1260    15.3010    14.8540    16.8640
  671.0000     8.8160    71.2810     2.3990     0.0820   889.5440   -67.8250    14.7560    14.5790    16.2380
  671.5000     8.8160    72.3760     2.4080     0.0890   889.2530   -67.5230    14.7690    14.3050    15.6130
  672.0000     8.8160    73.4750     2.4210     0.1020   888.9610   -67.2350    14.7930    14.0890    14.6180
  672.5000     8.8170    74.5610     2.4160     0.1110   888.6700   -67.2810    14.8170    14.1680    14.8190
  673.0000     8.8170    74.6970     2.4080     0.1060   888.3790   -67.3720    14.8420    14.2340    15.3080
  673.5000     8.8170    74.7270     2.4000     0.0980   888.0880   -67.4620    14.8660    14.3000    15.7970
  674.0000     8.8170    73.2420     2.3950     0.1020   887.7960   -67.5520    14.8900    14.3650    16.4740
  674.5000     8.8180    71.3800     2.4120     0.1070   887.5050   -67.6420    14.9440    14.4310    16.4490
  675.0000     8.8180    71.2780     2.4250     0.1130   887.2140   -67.7320    15.0110    14.4960    16.3990
  675.5000     8.8180    71.2110     2.4330     0.1130   886.9220   -67.8190    15.0790    14.5620    16.3490
  676.0000     8.8180    71.1420     2.4190     0.1040   886.6310   -67.8030    15.1460    14.6270    16.2990
  676.5000     8.8210    71.0600     2.3960     0.0870   886.3400   -67.7530    15.2130    14.6930    16.2490
  677.0000     8.8230    70.5360     2.4020     0.0840   886.0490   -67.7040    15.3080    14.7580    16.1780
  677.5000     8.8260    69.8790     2.4090     0.0900   885.7570   -67.6560    15.2870    14.8240    16.3170
  678.0000     8.8280    68.9160     2.4100     0.0960   885.4660   -67.7460    15.2330    14.8900    16.5510
  678.5000     8.8310    67.9470     2.4050     0.0990   885.1750   -68.0680    15.1800    14.7830    16.7850
  679.0000     8.8330    68.0110     2.4000     0.0970   884.8840   -68.3870    15.1260    14.6750    17.0190
  679.5000     8.8360    68.5250     2.3950     0.0900   884.5920   -68.7070    15.0720    14.5670    17.2570
  680.0000     8.8380    69.9480     2.3900     0.0790   884.3010   -69.0270    15.0090    14.4590    16.6210
  680.5000     8.8410    71.3600     2.3920     0.0800   884.0100   -69.3460    14.9000    14.3510    15.8070
  681.0000     8.8430    72.3420     2.4050     0.0900   883.7190   -69.6640    14.7910    14.2430    14.9930
  681.5000     8.8460    70.2920     2.4220     0.1040   883.4270   -69.5830    14.6820    14.1350    14.5180
  682.0000     8.8480    67.8160     2.4440     0.1190   883.1360   -68.9860    14.5730    14.0810    14.8580
  682.5000     8.8500    65.9490     2.4360     0.1100   882.8450   -68.3940    14.4640    14.0330    15.1300
  683.0000     8.8530    66.9190     2.4240     0.0960   882.5540   -67.8010    14.3510    13.9850    15.4020
  683.5000     8.8550    68.9620     2.4070     0.0820   882.2620   -67.2080    14.3150    13.9370    15.7370
  684.0000     8.8580    71.2050     2.4120     0.0750   881.9710   -66.6200    14.2520    13.8890    15.4610
  684.5000     8.8600    73.4650     2.4210     0.0890   881.6800   -66.3550    14.1890    13.8410    15.1000
