~VERSION INFORMATION
 VERS.                2.0:   CWLS LOG ASCII STANDARD - VERSION 2.0
 WRAP.                 NO:   ONE LINE PER DEPTH STEP
~WELL INFORMATION
#MNEM.UNIT      DATA TYPE    INFORMATION
#----------   ------------   ------------------------------
 STRT.F          200.5000:   START DEPTH
 STOP.F         3164.0000:   STOP DEPTH
 STEP.F            0.5000:   STEP LENGTH
 NULL.          -999.2500:   NO VALUE
 COMP. FENIX & SCISSON U.S NAVY:   COMPANY
 WELL. FENIX & SCISSON "A" #83-4:   WELL
 FLD .              NPR-3:   FIELD
 LOC .       S4 T38N R78W:   LOCATION
 CNTY.            NATRONA:   COUNTY
 STAT.            WYOMING:   STATE
 CTRY. UNITED STATES OF AMERICA:   COUNTRY
 SRVC.       SCHLUMBERGER:   SERVICE COMPANY
 DATE.        25-MAY-1977:   LOGDATE
 API .     49025103660000:   API NUMBER
~CURVE INFORMATION
#MNEM.UNIT       API CODE    CURVE DESCRIPTION
#----------   ------------   ------------------------------
 DEPT.F                  :   
 CALD.IN     45 280 60 00:   CALIPER FROM DENSITY LOG
 GRD .GAPI   45 310 01 00:   GAMMA RAY FROM DENSITY LOG
 RHOB.G/C3   45 350 01 00:   BULK DENSITY
 CORR.G/C3   45 356 01 00:   DENSITY CORRECTION
 SPR .MV     07 010 01 00:   SPONTANEOUS POTENTIAL
 SFLU.OHMM   07 220 01 00:   SPHERICALLY FOCUSED LOG UNAVERAGED RESISTIVITY
 ILD .OHMM   07 120 46 00:   DEEP INDUCTION RESISTIVITY
 ILM .OHMM   07 120 44 00:   INDUCTION LOG MEDIUM RESISTIVITY
~PARAMETER INFORMATION
#MNEM.UNIT          VALUE    DESCRIPTION
#----------   ------------   ------------------------------
 EKB .F         5163.0000:   Kelly bushing
 EGL .F         5149.0000:   Ground level
 EDF .F            0.0000:   Drilling floor
 EPD .F            0.0000:   Permanent datum
 TD  .F         3173.0000:   Total depth
 DATE.        25-MAY-1977:   Date logged
 CLNT.            A2DTECH:   Client Code
 SL  . 1650' FNL & 330 ' FEL:   Surface Location
 PD  .                 GL:   Permanent Datum
 DAPD.F                14:   Feet Above Permanent Datum
 DD  .F              3173:   Depth driller
 DL  .F              3157:   Depth logger
 BLI .F              3165:   Bottom log interval
 TLI .F               200:   Top log interval
 CS1 .IN            8.625:   Casing size
 CBD1.      8.625" @ 204':   Casing driller 1
 CBL1.F               220:   Casing logger 1
 BS1 .IN            7.875:   Bit size
 BSD1.F              3173:   Depth drilled with bit1
 DFT .            KCL MUD:   Type fluid in hole
 DFD .                8.8:   Density
 DFV .                 37:   Viscosity
 DFPH.                7.5:   pH
 DFL .                4.4:   Fluid loss
 MSS .           FLOWLINE:   Source of sample
 RMS .OHMM            .39:   Rm
 MST .F                79:   Rm Meas. temp.
 RMF .OHMM            .31:   Rmf
 MFST.F                79:   Rmf Meas. temp.
 RMC .OHMM            .63:   Rmc
 MCST.F                79:   Rmc Meas. temp.
 MFSS.           FANN KIT:   Source Rmf.
 MCSS.           FANN KIT:   Source Rmc.
 RMB .OHMM            .27:   Rm. at BHT
 BHT .F               112:   BHT.
 TCS .HRS             2.5:   Time Circ. stopped
 MRT .F               112:   Maximum recorded temp.
 LUN .               8611:   Logging unit number
 LUL .             CASPER:   Logging unit location
 ENGI.            C. DOAK:   Recorded By
 WITN.      B. HARRINGTON:   Witnessed by
 ORIG.       2.5"5" PRINT:   Origin of data
 UWI .     49025103660000:   Unique Well ID
 DICO. A2D TECHNOLOGIES, INC.:   Digitizing Company
~OTHER INFORMATION
~A   DEPT     CALD        GRD         RHOB     CORR        SPR       SFLU        ILD        ILM   
# ...
 2144.5000     8.1479   118.8014     2.4700     0.0106   -40.1701    25.9092    34.3918    10.2304
 2145.0000     8.1478   118.0152     2.4719     0.0105   -40.1716    24.5353    32.5781    10.6090
 2145.5000     8.1552   118.7904     2.4719     0.0105   -40.1740    23.2350    31.4236    10.8035
 2146.0000     8.1627   119.5634     2.4660     0.0065   -40.1755    22.0029    30.8612    11.0020
 2146.5000     8.1701   120.3387     2.4601     0.0064   -40.1778    22.0045    30.3099    11.0024
 2147.0000     8.1776   120.3321     2.4541     0.0024   -40.1794    23.6675    29.2368    11.0040
 2147.5000     8.1850   121.8870     2.4502     0.0024   -40.1817    23.6701    27.6950    11.0048
 2148.0000     8.1925   118.7619     2.4423    -0.0016   -40.1833    21.6142    27.2003    10.8086
 2148.5000     8.1999   117.9778     2.4384    -0.0017   -40.1856    20.0999    24.8500    10.8094
 2149.0000     8.2074   117.9712     2.4344    -0.0056   -40.1871    20.1013    24.8518    10.6167
 2149.5000     8.2149   116.4074     2.4324     0.0021   -40.1895    21.2317    24.8545    10.6175
 2150.0000     8.2223   117.1804     2.4363     0.0099   -40.1910    21.6221    25.3102    10.4282
 2150.5000     8.2298   114.8346     2.4520     0.0020   -40.1933    22.8371    25.9537    10.2420
 2151.0000     8.2372   114.0504     2.4559     0.0020   -40.1949    23.6848    26.7281    10.0594
 2151.5000     8.2447   115.6032     2.4617     0.0019   -40.5848    23.6865    26.7290    10.0604
 2152.0000     8.2521   112.4796     2.4656     0.0097   -40.1988    22.8429    25.7818    10.0609
 2152.5000     8.0655   112.4729     2.4695     0.0057   -40.2011    22.0286    24.8681    10.0616
 2153.0000     8.0653   113.2482     2.4773     0.0057   -40.5902    20.8612    23.9859     9.8826
 2153.5000     8.1818   114.0213     2.4714     0.0017   -40.5926    20.1175    23.9877     9.5304
 2154.0000     8.1815   114.7967     2.4675    -0.0062   -40.5941    19.0514    23.9903     9.3601
 2154.5000     8.2201   114.0102     2.4615     0.0055   -40.5964    18.3722    22.3168     9.3608
 2155.0000     8.2198   114.0057     2.4615     0.0054   -40.5980    19.7607    20.7607     9.1952
 2155.5000     8.2194   119.4583     2.4634     0.0054   -40.6003    17.0119    19.6652     8.8697
 2156.0000     8.2193   118.6740     2.4673     0.0053   -40.6019    16.7075    19.6673     8.7116
 2156.5000     8.2166   118.6674     2.4693     0.0052   -40.6042    18.7162    19.3160     8.7122
 2157.0000     8.2140   117.8831     2.4751     0.0091   -40.6057    18.7183    19.3174     8.7131
 2157.5000     8.2113   116.3165     2.4829     0.0130   -40.6081    17.0925    19.6723     8.7138
 2158.0000     8.2086   114.7522     2.4947     0.0208   -40.6096    18.0529    19.6745     8.7147
 2158.5000     8.2060   114.7455     2.5005     0.0207   -40.6119    19.0667    20.4010     8.7154
 2159.0000     8.2033   114.7410     2.5044     0.0285   -40.6135    18.3876    20.7758     8.7163
 2159.5000     8.2006   114.7343     2.5024     0.0245   -40.6158    17.4125    21.1568     8.7169
 2160.0000     8.1980   113.1698     2.4985     0.0166   -40.6174    17.0993    21.5454     8.7179
 2160.5000     8.1953   113.1631     2.4906     0.0126   -40.6197    19.0736    21.5470     8.7185
 2161.0000     8.1367   113.1586     2.4788     0.0086   -40.6213    22.0632    21.5493     8.8787
 2161.5000     8.1363   115.4921     2.4729     0.0086   -41.0112    20.1469    21.5509     8.8793
 2162.0000     8.1403   113.1474     2.4729     0.0085   -40.6251    19.4294    21.9468     8.8800
 2162.5000     8.1443   112.3606     2.4787     0.0103   -40.6275    19.0806    22.3484     8.8810
 2163.0000     8.1483   111.5760     2.4787     0.0142   -40.6290    18.7388    23.5228     9.3771
 2163.5000     8.1523   111.5692     2.4767     0.0141   -40.6313    17.9858    25.3738     9.3781
 2164.0000     8.1563   113.1250     2.4767     0.0141   -40.6329    19.0862    24.9187     9.3788
 2164.5000     8.1603   115.2367     2.4727     0.0179   -40.6352    19.4379    24.4745     9.0464
 2165.0000     8.1643   116.6019     2.4786     0.0179   -40.6368    19.7968    23.7683     8.8848
 2165.5000     8.1683   119.1289     2.4844     0.0178   -40.6391    19.0911    23.0825     8.7264
 2166.0000     8.1723   119.9047     2.4844     0.0177   -40.2530    18.0793    22.4165     8.4169
 2166.5000     8.1763   118.3377     2.4863     0.0177   -40.2554    17.7541    21.7697     8.8874
 2167.0000     8.1803   115.9926     2.4843     0.0137   -40.2569    17.7561    21.1860     8.8881
 2167.5000     8.1843   112.8649     2.4863     0.0097   -40.2592    17.4380    20.4344     8.8890
 2168.0000     8.1883   111.2999     2.4823     0.0057   -40.2608    19.4514    20.4359     8.8897
 2168.5000     8.1923   108.3917     2.4548     0.0018   -40.2631    19.1015    20.4381     8.8906
 2169.0000     8.1963   107.6069     2.4489    -0.0061   -40.2647    17.7632    21.9700     8.8913
 2169.5000     8.2003   106.0394     2.4704    -0.0101   -40.2670    18.0906    22.7804     8.8923
 2170.0000     8.2044   103.6938     2.4587    -0.0141   -40.2685    19.8149    24.0539     8.8929
 2170.5000     8.2080   103.4649     2.4488    -0.0142   -40.2709    19.8163    22.7846     9.3900
 2171.0000     8.2101   104.2429     2.4449    -0.0142   -40.2724    20.8159    24.4975     9.3907
 2171.5000     8.2121   105.0164     2.4468    -0.0143   -40.6623    20.4441    24.9466     9.3918
 2172.0000     8.2142   105.0118     2.4468    -0.0143   -40.2763    19.3660    24.9494     9.3924
 2172.5000     8.2162   103.4441     2.4507    -0.0105   -40.2786    20.8212    24.9512     9.3935
 2173.0000     8.2183   101.8786     2.4526    -0.0105   -40.2802    21.2037    24.0670     9.3938
 2173.5000     8.2203   101.0912     2.4702    -0.0067   -40.2825    21.2053    22.8029     9.2267
 2174.0000     8.2224   101.0866     2.4741    -0.0067   -40.2840    18.4374    20.4589     9.0619
 2174.5000     8.2244   102.6405     2.4859    -0.0029   -40.2864    17.7807    19.7332     8.7407
 2175.0000     8.2265   103.4164     2.4878    -0.0029   -40.2879    16.8378    18.6918     8.7414
 2175.5000     8.2285   104.9704     2.4976    -0.0030   -40.2902    15.9455    17.3886     8.4316
 2176.0000     8.2306   105.7464     2.4975     0.0030   -40.2918    15.1010    16.7717     8.4322
 2176.5000     8.2326   104.9589     2.4975     0.0068   -40.2941    15.1016    15.8872     8.2971
 2177.0000     8.2347   101.8322     2.4955     0.0068   -40.2957    14.8305    15.8884     8.1642
 2177.5000     8.2367   101.2641     2.4955     0.0067   -40.2980    15.1043    15.6052     7.9892
 2178.0000     8.2387   101.2594     2.4955     0.0066   -40.2995    15.6650    15.8913     7.9895
 2178.5000     8.2414   101.2524     2.4954     0.0027   -40.3019    16.1794    16.4787     8.1363
 2179.0000     8.2812   101.2477     2.4934     0.0026   -39.9166    16.4760    16.4799     8.1369
 2179.5000     8.3199   102.0214     2.4875    -0.0014   -40.3057    16.4778    16.4817     7.9919
 2180.0000     8.2403   102.7973     2.4816    -0.0014   -40.3073    16.4790    16.4829     7.9924
 2180.5000     8.2011   102.7904     2.4698     0.0024   -40.3096    16.1852    16.4847     7.8500
 2181.0000     8.2010   105.1277     2.4620     0.0024   -40.3112    15.8962    16.1903     7.8505
 2181.5000     8.2006   106.4628     2.4560     0.0023   -40.3135    14.5227    15.6165     7.8514
 2182.0000     8.2002   106.4583     2.4521    -0.0056   -40.3150    14.0075    15.6176     7.8520
 2182.5000     8.1998   104.8900     2.4521     0.0022   -40.3174    12.5678    15.9046     7.8528
 2183.0000     8.1994   104.1047     2.4501     0.0021   -39.9313    16.8625    16.7931     8.1428
 2183.5000     8.1990   102.5363     2.4500     0.0021   -40.7088    18.4697    17.7318     8.1437
 2184.0000     8.1987   101.7509     2.4500     0.0020   -39.9352    19.8649    18.0538     8.1443
 2184.5000     8.1983   100.9631     2.4519    -0.0020   -39.9375    22.1577    18.0545     8.7569
