~VERSION INFORMATION
 VERS.                2.0:   CWLS LOG ASCII STANDARD - VERSION 2.0
 WRAP.                 NO:   ONE LINE PER DEPTH STEP
~WELL INFORMATION
#MNEM.UNIT      DATA TYPE    INFORMATION
#----------   ------------   ------------------------------
 STRT.F          200.0000:   START DEPTH
 STOP.F         2968.0000:   STOP DEPTH
 STEP.F            0.5000:   STEP LENGTH
 NULL.          -999.2500:   NO VALUE
 COMP. FENIX & SCISSON U.S. NAVY:   COMPANY
 WELL.   FENIX "A" #23-28:   WELL
 FLD .              NPR 3:   FIELD
 LOC .      S28 T39N R78W:   LOCATION
 CNTY.            NATRONA:   COUNTY
 STAT.            WYOMING:   STATE
 CTRY. UNITED STATES OF AMERICA:   COUNTRY
 SRVC.       SCHLUMBERGER:   SERVICE COMPANY
 DATE.        10-JUN-1977:   LOGDATE
 API .     49025103860000:   API NUMBER
~CURVE INFORMATION
#MNEM.UNIT       API CODE    CURVE DESCRIPTION
#----------   ------------   ------------------------------
 DEPT.F                  :   
 SPR .MV     07 010 01 00:   SPONTANEOUS POTENTIAL
 RILM.OHMM   07 120 44 00:   INDUCTION LOG MEDIUM RESISTIVITY
 RILD.OHMM   07 120 46 00:   DEEP INDUCTION RESISTIVITY
 LL8 .None   99 022 08 00:   LATEROLOG
 GRD .GAPI   45 310 01 00:   GAMMA RAY FROM DENSITY LOG
 CALD.IN     45 280 60 00:   CALIPER FROM DENSITY LOG
 RHOB.G/C3   45 350 01 00:   BULK DENSITY
 DRHO.G/C3   45 356 01 00:   DENSITY CORRECTION
~PARAMETER INFORMATION
#MNEM.UNIT          VALUE    DESCRIPTION
#----------   ------------   ------------------------------
 EKB .F         5019.0000:   Kelly bushing
 EGL .F         5009.0000:   Ground level
 EDF .F            0.0000:   Drilling floor
 EPD .F         5009.0000:   Permanent datum
 TD  .F         2971.0000:   Total depth
 DATE.        10-JUN-1977:   Date logged
 CLNT.            A2DTECH:   Client Code
 SL  . 1650' FNL & 990' FWL:   Surface Location
 DAPD.F                10:   Feet Above Permanent Datum
 DD  .F              2970:   Depth driller
 DL  .F              2971:   Depth logger
 BLI .F              2905:   Bottom log interval
 TLI .F               216:   Top log interval
 CS1 .IN            8.625:   Casing size
 CBD1.      9.625" @ 216':   Casing driller 1
 CBL1.F               216:   Casing logger 1
 BS1 .IN            7.875:   Bit size
 BSD1.F              2970:   Depth drilled with bit1
 DFT .            KCL MUD:   Type fluid in hole
 DFD .                8.8:   Density
 DFV .                 32:   Viscosity
 DFPH.                8.5:   pH
 DFL .                7.4:   Fluid loss
 MSS .               CIRC:   Source of sample
 RMS .OHMM           1.87:   Rm
 MST .F                85:   Rm Meas. temp.
 RMF .OHMM           1.69:   Rmf
 MFST.F                85:   Rmf Meas. temp.
 RMC .OHMM           2.80:   Rmc
 MCST.F                85:   Rmc Meas. temp.
 MFSS.               MEAS:   Source Rmf.
 MCSS.               CALC:   Source Rmc.
 RMB .OHMM           1.43:   Rm. at BHT
 BHT .F               111:   BHT.
 TCS .HRS            1600:   Time Circ. stopped
 TLAB.HRS            0945:   Time logger at bottom
 MRT .F               111:   Maximum recorded temp.
 LUN .               7711:   Logging unit number
 LUL .               CSPR:   Logging unit location
 ENGI.             SAYLER:   Recorded By
 WITN.         HARRINGTON:   Witnessed by
 ORIG.           5" PRINT:   Origin of data
 UWI .     49025103860000:   Unique Well ID
 DICO. A2D TECHNOLOGIES, INC.:   Digitizing Company
~OTHER INFORMATION
~A  DEPTH      SPR       RILM       RILD        LL8        GRD       CALD       RHOB       DRHO
# ...
  564.5000  -104.2600     7.6890     7.3710     7.9260   107.2170     9.2400     2.5380     0.0120
  565.0000  -104.2870     7.6280     7.3330     7.9260   109.5660     9.2490     2.5480     0.0220
  565.5000  -104.3130     7.5690     7.2950     7.9260   109.5970     9.2590     2.5420     0.0170
  566.0000  -104.3400     7.3930     7.0210     7.8470   110.2360     9.2680     2.5340     0.0040
  566.5000  -104.3660     7.1300     6.6840     7.7510   108.2720     9.2790     2.5270     0.0070
  567.0000  -104.3930     6.8670     6.3470     7.5590   109.1920     9.3010     2.5190    -0.0020
  567.5000  -104.4190     6.6040     6.1240     7.3350   109.6940     9.3110     2.5130     0.0030
  568.0000  -104.4450     6.4130     6.1810     7.1060   111.3630     9.3210     2.5210     0.0070
  568.5000  -104.4520     6.4130     5.9020     6.7160   114.3550     9.3290     2.5310     0.0260
  569.0000  -104.4020     6.4130     6.0420     6.3270   116.3230     9.3560     2.5340     0.0220
  569.5000  -104.3530     6.4130     6.1700     5.8400   121.5230     9.3510     2.5330     0.0280
  570.0000  -104.3050     6.5990     6.2950     6.6050   123.0280     9.3470     2.5350     0.0220
  570.5000  -104.2630     6.8220     6.2540     7.3630   122.2580     9.3440     2.5280     0.0330
  571.0000  -104.2550     7.0450     6.2030     7.3630   121.0540     9.3400     2.5110     0.0220
  571.5000  -104.2450     7.1630     6.1810     7.3630   119.0880     9.3380     2.4820     0.0240
  572.0000  -104.2360     7.2820     6.4720     7.5000   116.1590     9.3420     2.4530     0.0130
  572.5000  -104.2270     7.3980     6.7840     7.6400   116.6600     9.4100     2.4190     0.0190
  573.0000  -104.2170     7.7130     7.1190     7.8790   116.8650     9.5140     2.3860     0.0310
  573.5000  -104.2080     8.0270     7.3630     8.3250   115.3780     9.6210     2.3630     0.0660
  574.0000  -104.1990     8.3420     7.3630     8.6320   113.8490     9.8650     2.3670     0.1330
  574.5000  -104.1890     8.6560     7.6950     9.4410   113.1810    10.2020     2.4160     0.1960
  575.0000  -104.1800     8.9710     8.1480     9.4410   114.2620    10.9390     2.3960     0.1310
  575.5000  -104.1710     9.4240     7.7810     9.8750   115.2920    11.1710     2.4180     0.0440
  576.0000  -104.1610     9.8860     8.0730    10.6420   115.3460     9.4370     2.4640     0.0050
  576.5000  -104.1520     8.3570     7.8590     9.3480   116.1160     9.4820     2.5110     0.0090
  577.0000  -104.1430     7.9550     7.5730     8.0730   115.9570     9.3420     2.5240     0.0030
  577.5000  -104.1330     7.8710     7.4310     7.9730   114.0040     9.3290     2.5190     0.0080
  578.0000  -104.1240     7.7870     7.5690     7.8630   109.0240     9.3190     2.5130     0.0010
  578.5000  -104.1150     7.7030     7.4230     7.7810   104.4630     9.3070     2.5190     0.0170
  579.0000  -104.1050     7.6180     7.2880     7.8060   102.9170     9.2900     2.5280     0.0110
  579.5000  -104.0960     7.5690     7.0960     7.8350   100.8340     9.2820     2.5360     0.0120
  580.0000  -104.0870     7.7810     7.1960     7.9630    99.2080     9.2910     2.5410     0.0060
  580.5000  -104.0770     7.9570     7.2830     8.3760    96.8480     9.3030     2.5490     0.0030
  581.0000  -104.0680     8.0730     7.3690     8.3520    99.5010     9.3110     2.5570     0.0100
  581.5000  -104.0580     8.0730     7.4560     8.3080   103.9340     9.3390     2.5620     0.0150
  582.0000  -104.0470     8.0730     7.4990     8.2640   110.4350     9.3850     2.5400     0.0190
  582.5000  -104.0370     8.0730     7.5280     8.2230   111.7130     9.4310     2.5220     0.0090
  583.0000  -104.0260     8.0730     7.5540     8.2230   112.2250     9.4770     2.5050     0.0120
  583.5000  -104.0160     8.0730     7.5690     8.2230   113.5880     9.4880     2.4910     0.0000
  584.0000  -104.0060     7.8310     7.2970     8.0250   115.0260     9.4790     2.4840    -0.0080
  584.5000  -103.9950     7.6390     7.1620     7.8320   115.9080     9.4710     2.4800     0.0000
  585.0000  -103.9850     7.6390     7.2700     7.7100   115.7500     9.4620     2.4870     0.0090
  585.5000  -103.9740     7.6390     7.3630     7.7690   115.5900     9.4540     2.4800     0.0120
  586.0000  -103.9640     7.6390     7.0310     7.8310   116.2400     9.4440     2.4890     0.0180
  586.5000  -103.9530     7.6390     7.1060     7.9260   116.4670     9.4260     2.5060     0.0240
  587.0000  -103.9430     7.5690     7.2530     7.8690   113.8780     9.4080     2.5160     0.0190
  587.5000  -103.9330     7.6690     7.3630     7.7810   112.6440     9.3900     2.5150     0.0190
  588.0000  -103.9220     7.9260     7.2280     8.1260   114.1340     9.3720     2.5430     0.0320
  588.5000  -103.9120     7.7970     7.2690     8.0350   115.5700     9.3530     2.5380     0.0370
  589.0000  -103.9010     7.6390     7.2950     7.9260   116.5760     9.3780     2.5270     0.0240
  589.5000  -103.8910     7.7420     7.3320     8.0330   117.2400     9.3860     2.5160     0.0140
  590.0000  -103.8800     7.8530     7.3790     8.2230   115.0350     9.3950     2.5070     0.0040
  590.5000  -103.8690     7.7100     7.4310     8.0950   112.5640     9.4040     2.5090     0.0040
  591.0000  -103.8180     7.7010     7.3580     7.8530   112.6030     9.4090     2.5120     0.0050
  591.5000  -103.7630     7.6840     7.3430     7.8530   113.4050     9.3840     2.5070     0.0030
  592.0000  -103.7070     7.6670     7.3280     7.8530   114.2560     9.3670     2.5130     0.0020
  592.5000  -103.6520     7.6500     7.3130     7.8530   113.9010     9.3500     2.5260     0.0080
  593.0000  -103.5970     7.6320     7.2980     7.8530   112.9340     9.3340     2.5290     0.0080
  593.5000  -103.5410     7.6150     7.2950     7.8530   111.9330     9.3180     2.5200     0.0080
  594.0000  -103.4860     7.5980     7.2950     7.8530   112.5250     9.3170     2.5160     0.0170
  594.5000  -103.4300     7.5810     7.2950     7.8530   113.1260     9.3210     2.5450     0.0250
  595.0000  -103.3750     7.5640     7.2950     7.8530   111.5580     9.3250     2.5500     0.0340
  595.5000  -103.3200     7.5470     7.2870     7.8530   111.2510     9.3300     2.5390     0.0300
  596.0000  -103.2640     7.5300     7.2760     7.8530   114.0600     9.3340     2.5300     0.0240
  596.5000  -103.2090     7.5130     7.2640     7.8530   114.2200     9.3140     2.5230     0.0200
  597.0000  -103.1530     7.4990     7.2530     7.8530   114.3560     9.2910     2.5340     0.0240
  597.5000  -103.0980     7.5160     7.2420     7.8530   115.5790     9.2670     2.5490     0.0150
  598.0000  -103.0420     7.5320     7.2280     7.8530   115.9860     9.2440     2.5400     0.0190
  598.5000  -102.9870     7.5480     7.2460     7.8530   118.2380     9.2200     2.5230     0.0130
  599.0000  -102.9320     7.5650     7.2950     8.0550   117.9570     9.1960     2.5170     0.0150
  599.5000  -102.8760     7.7260     7.3680     8.2990   115.4140     9.1980     2.5310     0.0190
  600.0000  -102.8210     8.0730     7.4440     8.2230   112.3240     9.2040     2.5170     0.0230
  600.5000  -102.7660     7.8530     7.4990     8.9340   109.1240     9.2090     2.5020     0.0140
  601.0000  -102.7110     7.8740     7.4250     8.2120   107.4810     9.2150     2.5050     0.0080
  601.5000  -102.6790     7.9180     7.2950     8.2870   106.3440     9.1960     2.5100     0.0100
  602.0000  -102.6790     7.9630     7.4010     8.3610   108.9030     9.1660     2.5020    -0.0020
  602.5000  -102.6790     7.9990     7.5720     8.3760   111.9150     9.1370     2.4990     0.0100
  603.0000  -102.6790     7.9820     7.7430     8.3760   114.9710     9.1320     2.5180     0.0240
  603.5000  -102.6790     7.9680     7.9260     8.3640   118.4930     9.1590     2.5330     0.0200
  604.0000  -102.6790     7.9530     7.8360     8.3470   117.1420     9.1830     2.5380     0.0280
  604.5000  -102.6790     7.9390     7.7100     8.3320   114.7620     9.1880     2.5420     0.0170
