~VERSION INFORMATION
 VERS.                2.0:   CWLS LOG ASCII STANDARD - VERSION 2.0
 WRAP.                 NO:   ONE LINE PER DEPTH STEP
~WELL INFORMATION
#MNEM.UNIT      DATA TYPE    INFORMATION
#----------   ------------   ------------------------------
 STRT.F         1053.5000:   START DEPTH
 STOP.F         3062.0000:   STOP DEPTH
 STEP.F            0.5000:   STEP LENGTH
 NULL.          -999.2500:   NO VALUE
 COMP.    FENIX & SCISSON:   COMPANY
 WELL.  FENIX "A" #301-11:   WELL
 FLD .              NPR-3:   FIELD
 LOC .      S11 T38N R78W:   LOCATION
 CNTY.            NATRONA:   COUNTY
 STAT.            WYOMING:   STATE
 CTRY. UNITED STATES OF AMERICA:   COUNTRY
 SRVC.      NL MCCULLOUGH:   SERVICE COMPANY
 DATE.        13-OCT-1977:   LOGDATE
 API .     49025104410000:   API NUMBER
~CURVE INFORMATION
#MNEM.UNIT       API CODE    CURVE DESCRIPTION
#----------   ------------   ------------------------------
 DEPT.F                  :   
 GR  .GAPI   35 310 01 00:   GAMMA RAY
 NEUT.NAPI   35 330 01 00:   NEUTRON
~PARAMETER INFORMATION
#MNEM.UNIT          VALUE    DESCRIPTION
#----------   ------------   ------------------------------
 EDF .F         5165.0000:   Drilling floor
 TD  .F         3097.0000:   Total depth
 CLNT.            A2DTECH:   Client Code
 PD  .                 DF:   Permanent Datum
 EPD .F              5165:   Elevation Permanent Datum
 LMF .                 GL:   Log Measured From
 DMF .                 DF:   Drilling Measured From
 DATE.        13-OCT-1977:   Date Logged [DD-MMM-YYYY]
 DD  .F              3097:   Depth driller
 BLI .F              3060:   Bottom log interval
 TLI .F              1060:   Top log interval
 BSD1.F              3097:   Depth drilled with bit1
 DFT .              WATER:   Type fluid in hole
 ENGI.            MUNDELL:   Recorded By
 ORIG.           5" PRINT:   Origin of data
 UWI .     49025104410000:   Unique Well ID
 DICO. A2D TECHNOLOGIES, INC.:   Digitizing Company
~OTHER INFORMATION
~A  DEPT         GR      NEUT   
# ...
 1904.0000    98.1804   261.6691
 1904.5000   101.7851   270.6226
 1905.0000   101.1643   272.8447
 1905.5000   100.5432   267.7830
 1906.0000    98.6783   260.4789
 1906.5000    98.0576   260.3867
 1907.0000    99.9262   261.0070
 1907.5000    99.7717   259.3083
 1908.0000   100.2403   258.1674
 1908.5000   103.6641   257.5906
 1909.0000   103.9767   254.2107
 1909.5000   103.3559   245.7854
 1910.0000   104.1356   243.5267
 1910.5000   104.2926   242.3836
 1911.0000   105.5386   241.2512
 1911.5000   105.6956   245.5505
 1912.0000   103.0526   255.7946
 1912.5000   104.2986   257.4563
 1913.0000    99.0114   263.6069
 1913.5000    98.7014   257.9847
 1914.0000   101.8144   255.1655
 1914.5000   103.0608   254.5849
 1915.0000   103.3734   254.5688
 1915.5000   103.9971   255.1133
 1916.0000   104.4653   255.0972
 1916.5000   105.5557   256.2026
 1917.0000   107.0165   255.0645
 1917.5000   108.0480   249.9995
 1918.0000   107.5824   239.3318
 1918.5000   108.2062   227.5430
 1919.0000   101.0522   231.4512
 1919.5000    99.6536   237.0628
 1920.0000    96.8554   242.0665
 1920.5000    95.4569   242.0504
 1921.0000    94.6802   228.5797
 1921.5000    95.3043   224.0788
 1922.0000    96.0877   234.1536
 1922.5000    97.0188   265.7553
 1923.0000    97.1758   277.8447
 1923.5000    97.4884   281.7528
 1924.0000    99.8233   282.3014
 1924.5000   104.9583   281.7206
 1925.0000   102.7823   258.1591
 1925.5000   101.8504   241.3208
 1926.0000   100.9186   232.3350
 1926.5000    99.5200   234.5654
 1927.0000    94.2324   235.1099
 1927.5000    93.7672   232.8473
 1928.0000    93.7691   225.5434
 1928.5000    92.5261   223.2894
 1929.0000    91.5942   220.9813
 1929.5000    90.5068   219.2460
 1930.0000    90.6845   218.0713
 1930.5000    91.9101   220.8208
 1931.0000    92.5339   220.1498
 1931.5000    93.6243   216.2156
 1932.0000    92.5368   213.9197
 1932.5000    90.5160   212.7450
 1933.0000    86.7844   216.0551
 1933.5000    87.2526   227.2687
 1934.0000    88.4986   265.8287
 1934.5000    88.1886   283.1540
 1935.0000    89.9016   291.5096
 1935.5000    91.3762   299.8652
 1936.0000    95.1940   311.5844
 1936.5000   100.6401   327.4373
 1937.0000   104.9973   354.6307
 1937.5000   110.1323   365.7938
 1938.0000   112.9119   399.6741
 1938.5000   118.6915   409.4007
 1939.0000   122.7376   439.6199
 1939.5000   127.4059   459.7482
 1940.0000   132.0742   517.9888
 1940.5000   134.8935   553.8032
 1941.0000   136.1221   651.3016
 1941.5000   142.6571   715.1572
 1942.0000   147.0143   764.9977
 1942.5000   148.5714   767.2000
 1943.0000   153.4064   741.3453
 1943.5000   158.2195   641.4905
 1944.0000   160.3989   452.5172
 1944.5000   158.8447   393.0395
 1945.0000   158.5347   304.4058
 1945.5000   153.5586   293.1401
 1946.0000   151.3368   291.0272
 1946.5000   146.7173   279.5652
 1947.0000   143.6076   270.5420
 1947.5000   142.0535   263.7612
 1948.0000   142.0549   261.4653
 1948.5000   142.3676   259.7288
 1949.0000   142.9916   259.1025
 1949.5000   142.9931   260.7309
 1950.0000   143.1502   271.3422
 1950.5000   145.0184   279.1617
 1951.0000   146.4916   289.2365
 1951.5000   153.5776   288.6598
 1952.0000   153.8902   297.6134
 1952.5000   155.4473   298.7189
 1953.0000   155.2932   301.2122
 1953.5000   156.6953   306.5349
 1954.0000   154.2076   305.9581
 1954.5000   151.7201   314.3471
 1955.0000   150.7882   331.3182
 1955.5000   150.3230   347.0151
 1956.0000   147.0578   348.1364
 1956.5000   144.0475   349.8182
 1957.0000   137.1052   350.9394
 1957.5000   136.0178   347.5757
 1958.0000   132.4665   345.8940
 1958.5000   131.5362   351.5000
 1959.0000   130.4503   353.1818
 1959.5000   129.9859   353.1818
 1960.0000   132.1675   352.6212
 1960.5000   133.8818   352.6212
 1961.0000   134.9737   348.1364
 1961.5000   134.2632   347.0151
 1962.0000   120.9801   336.9243
 1962.5000   119.1164   316.7424
 1963.0000   117.5639   315.0606
 1963.5000   111.9667   316.1818
 1964.0000   109.4808   325.1515
 1964.5000   108.8608   334.6818
 1965.0000   109.4868   325.7121
 1965.5000   110.5788   323.9742
 1966.0000   106.5375   315.0606
 1966.5000   106.7316   307.7727
 1967.0000   106.9437   303.2879
 1967.5000   107.1557   301.6060
 1968.0000   107.3678   301.0454
 1968.5000   107.5798   301.0454
 1969.0000   111.6895   301.0454
 1969.5000   113.8704   298.8030
 1970.0000   118.4160   296.0000
 1970.5000   118.8545   294.3182
 1971.0000   119.9472   294.8788
 1971.5000   120.1050   297.6818
 1972.0000   119.4858   298.8030
 1972.5000   120.1119   299.3636
 1973.0000   120.1149   299.9243
 1973.5000   119.8068   300.4849
 1974.0000   119.3424   299.3636
 1974.5000   119.9685   299.3636
 1975.0000   120.1271   302.1667
 1975.5000   121.7580   303.2879
 1976.0000   122.9332   303.8485
 1976.5000   119.5147   304.4091
 1977.0000   118.5844   305.5303
 1977.5000   117.6540   308.8940
 1978.0000   115.7896   307.7727
 1978.5000   114.3933   310.5757
 1979.0000   113.7734   312.2576
 1979.5000   115.7995   307.2121
 1980.0000   114.2469   301.0454
 1980.5000   110.5081   299.3636
 1981.0000   109.8973   301.0454
 1981.5000   110.2122   308.8940
 1982.0000   110.2152   311.6970
 1982.5000   110.2183   318.9849
 1983.0000   110.2213   321.2273
 1983.5000   110.2244   310.5757
 1984.0000   110.2274   307.2121
 1984.5000   112.7194   303.8485
 1985.0000   113.0336   301.6060
 1985.5000   115.2145   303.3440
 1986.0000   113.3179   308.3333
 1986.5000   112.4204   312.2576
 1987.0000   112.1124   312.8182
 1987.5000   112.7384   311.6970
 1988.0000   112.5851   310.0151
 1988.5000   114.9223   310.5757
 1989.0000   117.2580   312.2576
 1989.5000   115.8618   312.2576
 1990.0000   114.6196   312.2576
 1990.5000   113.6900   314.5561
 1991.0000   114.0042   316.7424
 1991.5000   114.6296   318.9849
 1992.0000   114.6326   321.2273
 1992.5000   113.7029   321.2273
 1993.0000   114.4838   321.2273
 1993.5000   114.0201   318.9849
 1994.0000   111.8453   306.6515
 1994.5000   110.2920   304.8575
 1995.0000   111.5403   306.0909
 1995.5000   109.6766   304.8575
 1996.0000   110.4574   303.2879
 1996.5000   112.0181   310.5757
 1997.0000   112.8300   319.5454
 1997.5000   109.2228   318.4243
 1998.0000   107.8258   315.0606
 1998.5000   107.5170   307.7727
 1999.0000   108.9209   301.0454
 1999.5000   109.0794   317.3030
 2000.0000   111.1048   313.9394
 2000.5000   112.6634   312.2576
 2001.0000   112.1998   312.2576
 2001.5000   110.9583   312.8182
 2002.0000   111.6085   314.5000
 2002.5000   113.4948   318.9849
 2003.0000   114.7017   324.0303
 2003.5000   115.9492   325.7737
 2004.0000   116.5737   331.9161
 2004.5000   115.3330   331.3717
 2005.0000   113.7804   333.0559
 2005.5000   113.4715   326.6472
 2006.0000   114.0976   320.8094
 2006.5000   116.6106   323.0508
 2007.0000   115.6599   316.9303
 2007.5000   111.3073   306.9035
 2008.0000   109.9102   299.6650
 2008.5000   110.3799   296.8876
 2009.0000   110.6940   298.0138
 2009.5000   111.3193   299.6976
 2010.0000   112.8779   302.4968
 2010.5000   115.4529   305.3462
 2011.0000   115.9951   312.6269
 2011.5000   113.3544   310.8942
 2012.0000   113.5129   312.5807
 2012.5000   113.9819   318.0258
 2013.0000   111.0300   328.6090
 2013.5000   110.4107   321.3394
 2014.0000   111.3471   315.0109
 2014.5000   110.2612   313.5000
 2015.0000   110.4206   320.1757
 2015.5000   110.8902   316.8096
 2016.0000   110.1147   317.3552
 2016.5000   111.0518   316.7774
 2017.0000   111.0754   317.8765
 2017.5000   111.5245   313.3986
 2018.0000   113.4358   312.8214
 2018.5000   115.1092   312.8052
 2019.0000   114.8003   310.5585
 2019.5000   114.6478   302.1776
 2020.0000   117.2961   300.9728
 2020.5000   119.7881   302.1454
 2021.0000   119.7911   301.0133
 2021.5000   118.8187   299.3208
 2022.0000   116.6859   297.6317
 2022.5000   117.3119   297.6155
 2023.0000   116.5371   297.5994
 2023.5000   114.2067   299.2563
 2024.0000   112.6534   320.0713
 2024.5000   112.6571   338.8130
 2025.0000   110.6378   312.0297
