~VERSION INFORMATION
 VERS.                2.0:   CWLS LOG ASCII STANDARD - VERSION 2.0
 WRAP.                 NO:   ONE LINE PER DEPTH STEP
~WELL INFORMATION
#MNEM.UNIT      DATA TYPE    INFORMATION
#----------   ------------   ------------------------------
 STRT.F          207.0000:   START DEPTH
 STOP.F         3130.0000:   STOP DEPTH
 STEP.F            0.5000:   STEP LENGTH
 NULL.          -999.2500:   NO VALUE
 COMP. FENIX & SCISSON U.S. NAVY:   COMPANY
 WELL.    FENIX "A" #61-3:   WELL
 FLD .             NPR #3:   FIELD
 LOC .       S3 T38N R78W:   LOCATION
 CNTY.            NATRONA:   COUNTY
 STAT.            WYOMING:   STATE
 CTRY. UNITED STATES OF AMERICA:   COUNTRY
 SRVC.              WELEX:   SERVICE COMPANY
 DATE.        13-MAY-1977:   LOGDATE
 API .     49025103630000:   API NUMBER
~CURVE INFORMATION
#MNEM.UNIT       API CODE    CURVE DESCRIPTION
#----------   ------------   ------------------------------
 DEPT.F                  :   
 SPR .MV     07 010 01 00:   SPONTANEOUS POTENTIAL
 SFLU.OHMM   07 220 01 00:   SPHERICALLY FOCUSED LOG UNAVERAGED RESISTIVITY
 ILD .OHMM   07 120 46 00:   INDUCTION LOG DEEP RESISTIVITY
 ILM .OHMM   07 120 44 00:   INDUCTION LOG MEDIUM RESISTIVITY
 CALD.IN     45 280 60 00:   CALIPER FROM DENSITY LOG
 GRD .GAPI   45 310 01 00:   GAMMA RAY FROM DENSITY LOG
 RHOB.G/C3   45 350 01 00:   BULK DENSITY
 CORR.G/C3   45 356 01 00:   DENSITY CORRECTION
~PARAMETER INFORMATION
#MNEM.UNIT          VALUE    DESCRIPTION
#----------   ------------   ------------------------------
 EKB .F         5109.0000:   Kelly bushing
 EGL .F         5099.0000:   Ground level
 EDF .F            0.0000:   Drilling floor
 TD  .F         3130.0000:   Total depth
 DATE.        13-MAY-1977:   Date logged
 CLNT.            A2DTECH:   Client Code
 SL  . 330' FNL & 1650' FEL:   Surface Location
 PD  .                 GL:   Permanent Datum
 EPD .F              5099:   Elevation Permanent Datum
 LMF .                 KB:   Log Measured From
 DMF .                 KB:   Drilling Measured From
 DAPD.F                10:   Feet Above Permanent Datum
 DD  .F              3126:   Depth driller
 DL  .F              3129:   Depth logger
 BLI .F              3127:   Bottom log interval
 TLI .F               210:   Top log interval
 CS1 .IN            8.625:   Casing size
 CBD1.      8.625" @ 200':   Casing driller 1
 CBL1.F               216:   Casing logger 1
 BS1 .IN            7.875:   Bit size
 BSD1.F              3126:   Depth drilled with bit1
 DFT .            KCL MUD:   Type fluid in hole
 DFD .                9.1:   Density
 DFV .                 32:   Viscosity
 DFPH.                  8:   pH
 DFL .                8.4:   Fluid loss
 MSS .           FLOWLINE:   Source of sample
 RMS .OHMM            .29:   Rm
 MST .F                68:   Rm Meas. temp.
 RMF .OHMM            .28:   Rmf
 MFST.F                68:   Rmf Meas. temp.
 RMC .OHMM            .43:   Rmc
 MCST.F                68:   Rmc Meas. temp.
 MFSS.           FANN KIT:   Source Rmf.
 MCSS.           FANN KIT:   Source Rmc.
 RMB .OHMM            .16:   Rm. at BHT
 BHT .F               123:   BHT.
 TCS .HRS             2.5:   Time Circ. stopped
 MRT .F               123:   Maximum recorded temp.
 LUN .               9685:   Logging unit number
 LUL .           BRIGHTON:   Logging unit location
 ENGI.          T. JOYNER:   Recorded By
 WITN.      B. HARRINGTON:   Witnessed by
 ORIG.           5" PRINT:   Origin of data
 UWI .     49025103630000:   Unique Well ID
 DICO. A2D TECHNOLOGIES, INC.:   Digitizing Company
~OTHER INFORMATION
~A   DEPT      SPR       SFLU        ILD        ILM       CALD        GRD       RHOB       CORR   
# ...
  571.5000   -36.0649     4.6585     4.2100     4.6582     9.9313    99.2200     2.3737     0.0030
  572.0000   -35.8604     4.9234     4.3685     4.8783     9.9513    98.4319     2.3899     0.0030
  572.5000   -35.6558     5.6529     4.5328     5.4486     9.9317    97.2477     2.4349     0.0030
  573.0000   -35.6512     6.7960     4.9248     5.5506     9.9319    95.6275     2.4439     0.0030
  573.5000   -35.6465     7.6605     4.9255     5.5510     9.9519    95.2354     2.4469     0.0030
  574.0000   -35.4419     8.0965     5.0178     5.7601     9.9125    94.8433     2.4399     0.0030
  574.5000   -35.4373     8.0976     5.2546     6.0323     9.9127    93.6991     2.4449     0.0030
  575.0000   -35.2327     8.0983     5.7619     6.3756     9.9129    92.9110     2.4499     0.0030
  575.5000   -35.2280     8.0999     5.9239     6.7384     9.9131    92.1229     2.4549     0.0030
  576.0000   -34.8235     8.1010     6.2035     6.9920     9.8934    90.9387     2.4587     0.0066
  576.5000   -35.0189     8.1019     6.4967     7.0574     9.8936    90.5466     2.4557     0.0066
  577.0000   -35.0170     8.1030     6.5575     7.1897     9.9136    90.9466     2.4527     0.0066
  577.5000   -34.9189     8.1793     6.6804     7.2572     9.9138    91.7427     2.4487     0.0047
  578.0000   -34.8207     8.2556     6.8054     7.2582     9.9537    93.3309     2.4477     0.0047
  578.5000   -34.7226     8.4881     6.8691     7.3263     9.9142    92.5427     2.4477     0.0047
  579.0000   -34.6245     8.4895     6.8702     7.3269     9.9144    91.7546     2.4478     0.0031
  579.5000   -34.5263     8.7283     6.8712     7.4644     9.9146    92.1154     2.4478     0.0031
  580.0000   -34.4282     8.7295     6.9996     7.6744     9.9346    92.5146     2.4478     0.0071
  580.5000   -34.3301     8.9748     7.0007     7.7460     9.9150    93.3107     2.4458     0.0071
  581.0000   -34.2319     8.9761     7.0015     7.9639     9.8954    92.5226     2.4428     0.0071
  581.5000   -33.7762     8.9773     7.0027     8.1884     9.8956    92.1305     2.4438     0.0071
  582.0000   -33.7851     9.1453     7.0037     8.3414     9.8958    90.9463     2.4488     0.0091
  582.5000   -33.7940     9.3162     7.0043     8.4975     9.8960    91.3463     2.4528     0.0131
  583.0000   -33.8029     9.4903     7.0050     8.6565     9.8962    92.1424     2.4628     0.0191
  583.5000   -33.8118     9.5794     7.0062     8.7378     9.8964    91.3543     2.4678     0.0251
  584.0000   -33.8207     9.6695     7.0074     8.7390     9.8570    90.1701     2.4688     0.0251
  584.5000   -33.8296     9.6711     7.0083     8.7402     9.8572    90.1741     2.4668     0.0211
  585.0000   -33.8385     9.6725     7.0741     8.6613     9.8772    90.9701     2.4618     0.0171
  585.5000   -33.8474     9.6736     7.1405     8.6626     9.7784    90.9741     2.4568     0.0152
  586.0000   -33.8563     9.6749     7.2075     8.6638     9.8579    89.7899     2.4549     0.0112
  586.5000   -33.8652     9.6760     7.2747     8.9072     9.8580    87.8536     2.4539     0.0152
  587.0000   -33.8741     9.6773     7.4113     8.9911     9.8582    87.4616     2.4539     0.0132
  587.5000   -33.8830     9.5906     7.4123     9.0754     9.8584    87.4655     2.4549     0.0132
  588.0000   -33.8919     9.6806     7.4131     9.0767     9.8585    87.8656     2.4569     0.0132
  588.5000   -33.9050     9.6819     7.4144     9.0780     9.8587    89.0577     2.4569     0.0132
  589.0000   -34.1030     9.6827     7.4152     9.0792     9.8589    88.6656     2.4549     0.0112
  589.5000   -34.0984     9.6841     7.4162     9.0805     9.8592    88.6696     2.4509     0.0092
  590.0000   -34.0937     9.6857     7.3495     9.0818     9.8594    89.8617     2.4469     0.0072
  590.5000   -34.2890     9.7774     7.3506     8.9998     9.8596    90.2617     2.4450     0.0052
  591.0000   -34.2843     9.7782     7.2840     8.9186     9.8598    91.0578     2.4460     0.0033
  591.5000   -34.2796     9.7796     7.4210     8.9199     9.8203    91.4578     2.4520     0.0033
  592.0000   -34.4749     9.7804     7.4216     8.8394     9.8404    90.6297     2.4550     0.0053
  592.5000   -34.2702     9.7817     7.3546     8.8406     9.7416    91.8210     2.4590     0.0093
  593.0000   -34.4655     9.7834     7.3557     8.6007     9.7022    93.0131     2.4632     0.0133
  593.5000   -34.4608     9.6951     7.2893     8.6818     9.7024    93.4132     2.4652     0.0133
  594.0000   -34.6561     9.6959     7.1574     8.7631     9.6630    93.4171     2.4672     0.0133
  594.5000   -34.6515     9.5210     7.0928     8.7640     9.6632    93.0250     2.4692     0.0133
  595.0000   -34.4468     9.3484     7.0288     8.6850     9.6436    93.8211     2.4712     0.0133
  595.5000   -34.6421     9.2641     7.0298     8.5278     9.6636    95.4093     2.4732     0.0153
  596.0000   -34.8374     9.1805     7.0306     8.4511     9.6242    96.6014     2.4732     0.0153
  596.5000   -34.6328     8.8500     7.0316     8.2222     9.6244    97.0014     2.4732     0.0173
  597.0000   -34.8281     8.6901     7.0326     7.9261     9.6246    97.0054     2.4732     0.0173
  597.5000   -34.8234     8.6117     6.9691     7.8542     9.6644    97.0094     2.4732     0.0153
  598.0000   -35.0187     8.5340     6.9062     7.7123     9.6249    97.8054     2.4680     0.0153
  598.5000   -35.0140     8.4570     6.8439     7.5729     9.6251    98.6015     2.4630     0.0153
  599.0000   -35.2094     8.3039     6.6585     7.5044     9.6055    99.0015     2.4621     0.0134
  599.5000   -35.2047     8.1537     6.5380     7.5054     9.5859    99.0055     2.4571     0.0134
  600.0000   -35.2000     8.0796     6.4790     7.4377     9.5861    98.6134     2.4571     0.0134
  600.5000   -34.9965     8.0238     6.3684     7.3327     9.5864    98.6178     2.4571     0.0114
  601.0000   -34.9928     8.0090     6.3049     7.3047     9.5665    98.2220     2.4551     0.0114
  601.5000   -34.9922     8.0102     6.2483     7.1728     9.5666    99.0156     2.4481     0.0114
  602.0000   -35.1898     8.0114     6.1922     7.1084     9.5469    99.8097     2.4461     0.0074
  602.5000   -35.2554     8.0131     6.1934     7.0449     9.5668   100.6038     2.4481     0.0074
  603.0000   -35.3209     8.0155     6.1945     6.9809     9.5867   100.6058     2.4501     0.0094
  603.5000   -35.3865     7.9430     6.1957     6.9187     9.5868   100.2117     2.4501     0.0094
  604.0000   -35.4521     8.0184     6.1968     6.8566     9.5473    99.4216     2.4461     0.0074
  604.5000   -35.5177     8.0193     6.1979     6.8576     9.5672    99.0275     2.4401     0.0055
  605.0000   -35.5832     8.0205     6.1991     6.8591     9.5475    98.6334     2.4401     0.0055
  605.5000   -35.6488     8.0217     6.2002     6.8599     9.5674    98.6354     2.4431     0.0055
  606.0000   -35.7144     8.0235     6.2014     6.9893     9.5477    98.6374     2.4391     0.0055
  606.5000   -35.7800     8.0252     6.2025     6.9904     9.5280    99.0354     2.4352     0.0055
  607.0000   -35.8455     8.0264     6.1468     6.9274     9.5479    99.4335     2.4352     0.0055
  607.5000   -35.9111     7.9544     6.1477     6.7403     9.5282    99.8315     2.4382     0.0055
  608.0000   -35.9525     7.7398     6.1489     6.6186     9.5283   100.2295     2.4431     0.0055
  608.5000   -36.1495     7.7407     6.1502     6.4396     9.5086   100.2315     2.4432    -0.0005
  609.0000   -36.3465     7.7424     6.1511     6.3235     9.5285   100.6295     2.4402     0.0055
  609.5000   -36.3435     7.6726     6.0959     6.2665     9.4890   101.0275     2.4332     0.0055
  610.0000   -35.9404     7.6037     6.0412     6.2098     9.4891   101.4256     2.4262     0.0055
  610.5000   -36.3374     7.4664     6.0421     6.1543     9.4694   101.4275     2.4192     0.0055
  611.0000   -36.3344     7.4681     5.9334     6.0995     9.4299   101.4295     2.4202    -0.0024
  611.5000   -36.3314     7.4011     5.8263     6.1004     9.4300   101.4315     2.4222     0.0036
