~VERSION INFORMATION
 VERS.                2.0:   CWLS LOG ASCII STANDARD - VERSION 2.0
 WRAP.                 NO:   ONE LINE PER DEPTH STEP
~WELL INFORMATION
#MNEM.UNIT      DATA TYPE    INFORMATION
#----------   ------------   ------------------------------
 STRT.F          203.5000:   START DEPTH
 STOP.F         3126.0000:   STOP DEPTH
 STEP.F            0.5000:   STEP LENGTH
 NULL.          -999.2500:   NO VALUE
 COMP.    FENIX & SCISSON:   COMPANY
 WELL. FENIX NPR 3 "AX" #88-33:   WELL
 FLD .        TEAPOT DOME:   FIELD
 LOC .      S33 T39N R78W:   LOCATION
 CNTY.            NATRONA:   COUNTY
 STAT.            WYOMING:   STATE
 CTRY. UNITED STATES OF AMERICA:   COUNTRY
 SRVC.       SCHLUMBERGER:   SERVICE COMPANY
 DATE.        23-JAN-1978:   LOGDATE
 API .     49025105610000:   API NUMBER
~CURVE INFORMATION
#MNEM.UNIT       API CODE    CURVE DESCRIPTION
#----------   ------------   ------------------------------
 DEPT.F                  :   
 CALD.IN     45 280 60 00:   CALIPER FROM DENSITY LOG
 GRD .GAPI   45 310 01 00:   GAMMA RAY FROM DENSITY LOG
 RHOB.G/C3   45 350 01 00:   BULK DENSITY
 CORR.G/C3   45 356 01 00:   DENSITY CORRECTION
 SPR .MV     05 010 01 00:   SPONTANEOUS POTENTIAL
 SN  .OHMM   05 040 16 00:   SHORT NORMAL 16"
 ILD .OHMM   05 120 46 00:   DEEP INDUCTION RESISTIVITY
~PARAMETER INFORMATION
#MNEM.UNIT          VALUE    DESCRIPTION
#----------   ------------   ------------------------------
 EKB .F         5174.0000:   Kelly bushing
 EGL .F         5164.0000:   Ground level
 EDF .F            0.0000:   Drilling floor
 TD  .F         3115.0000:   Total depth
 DATE.        23-JAN-1978:   Date logged
 CLNT.            A2DTECH:   Client Code
 PD  .                 GL:   Permanent Datum
 EPD .F              5164:   Elevation Permanent Datum
 LMF .                 KB:   Log Measured From
 DMF .                 KB:   Drilling Measured From
 DD  .F              3115:   Depth driller
 DL  .F              3115:   Depth logger
 BLI .F              3115:   Bottom log interval
 TLI .F               210:   Top log interval
 CS1 .IN            8.625:   Casing size
 CBD1.      9.625" @ 219':   Casing driller 1
 CBL1.F               219:   Casing logger 1
 BS1 .IN            7.875:   Bit size
 BSD1.F              3115:   Depth drilled with bit1
 DFT .                GEL:   Type fluid in hole
 DFD .                8.9:   Density
 DFV .                 36:   Viscosity
 DFPH.                 10:   pH
 DFL .                7.8:   Fluid loss
 MSS .           FLOWLINE:   Source of sample
 RMS .OHMM            2.2:   Rm
 MST .F                62:   Rm Meas. temp.
 RMF .OHMM           1.94:   Rmf
 MFST.F                54:   Rmf Meas. temp.
 RMC .OHMM            3.4:   Rmc
 MCST.F                54:   Rmc Meas. temp.
 MFSS.               MEAS:   Source Rmf.
 MCSS.               MEAS:   Source Rmc.
 RMB .OHMM            1.1:   Rm. at BHT
 BHT .F               114:   BHT.
 TCS .HRS             4.5:   Time Circ. stopped
 MRT .F               114:   Maximum recorded temp.
 LUN .               2958:   Logging unit number
 LUL .             CASPER:   Logging unit location
 ENGI.           REYNOLDS:   Recorded By
 WITN.           MCGINLEY:   Witnessed by
 ORIG.           5" PRINT:   Origin of data
 UWI .     49025105610000:   Unique Well ID
 DICO. A2D TECHNOLOGIES, INC.:   Digitizing Company
 DAPD.F              5164:   Feet Above Permanent Datum
 SL  . 100' FSL & 550' FEL:   Surface Location
~OTHER INFORMATION
~A   DEPT     CALD        GRD       RHOB       CORR        SPR         SN        ILD   
# ...
  567.5000    10.9299    87.7552     2.4676     0.1982   -37.8974     9.7570    12.3031
  568.0000    10.9298    87.1583     2.4573     0.2042   -37.1152     9.3124    11.9600
  568.5000    10.9297    86.9585     2.4603     0.2241   -36.5317     9.2217    11.6264
  569.0000    10.9296    87.3543     2.4613     0.2301   -35.5510     9.2163    11.5128
  569.5000    10.9295    88.7430     2.4593     0.2321   -35.1662     9.0429    11.4003
  570.0000    10.9295    88.5434     2.4553     0.2401   -34.7814     8.7913    11.1852
  570.5000    10.9294    86.7551     2.4503     0.2520   -34.5951     8.7862    10.9741
  571.0000    10.9293    86.9524     2.4546     0.2520   -34.6075     8.7812    10.7670
  571.5000    10.9292    86.5539     2.4536     0.2520   -34.6199     8.6956    10.7608
  572.0000    10.9291    86.1555     2.4536     0.2520   -34.4337     8.4537    10.4463
  572.5000    10.9290    86.3528     2.4536     0.2500   -34.4436     8.2946    10.2497
  573.0000    10.9290    86.7487     2.4536     0.2480   -34.6545     8.2138    10.1511
  573.5000    10.9289    87.9390     2.4553     0.2440   -35.6597     8.1338    10.1360
  574.0000    10.9288    89.1293     2.4583     0.2419   -36.0692     8.0546    10.1210
  574.5000    10.9287    89.3267     2.4653     0.2419   -36.0816     7.9030    10.1060
  575.0000    10.9287    89.7227     2.4746     0.2419   -36.0939     7.8984    10.0910
  575.5000    10.9286    93.0979     2.4795     0.2359   -36.1063     7.8939    10.0760
  576.0000    10.9284    93.6928     2.4825     0.2259   -36.1186     7.8893    10.0611
  576.5000    10.9681    96.0751     2.4865     0.2079   -35.9324     7.8848    10.0462
  577.0000    10.9482    96.4713     2.4885     0.2039   -35.5477     7.8802    10.0313
  577.5000    10.9481    98.2572     2.4905     0.1999   -35.9571     7.8757    10.0164
  578.0000    10.9480    94.8801     2.4803     0.1868   -38.1533     7.8711     9.9182
  578.5000    10.9678    91.3035     2.4684     0.1919   -37.5700     7.8666     9.7333
  579.0000    10.9677    90.7064     2.4674     0.1819   -35.7956     7.5777     9.5496
  579.5000    10.9676    90.1093     2.4644     0.1779   -34.6168     7.5733     9.3694
  580.0000    10.9676    90.9027     2.4385     0.1799   -33.6341     7.4995     9.1927
  580.5000    10.9873    89.3122     2.4335     0.2038   -33.8450     7.4265     9.1029
  581.0000    10.9873    89.5097     2.4345     0.2078   -35.2470     7.2199     9.0987
  581.5000    10.9872    90.8991     2.4395     0.2147   -35.0608     7.2166     9.1767
  582.0000    10.9871    92.4872     2.4365     0.2148   -34.8747     7.1463     9.1714
  582.5000    10.9870    92.8834     2.4466     0.1958   -35.0855     7.0767     9.0818
  583.0000    10.9870    93.4785     2.4616     0.1818   -35.2964     7.0726     9.0766
  583.5000    10.9869    95.0667     2.4586     0.1818   -35.3087     7.0038     9.0713
  584.0000    10.9868    95.4630     2.4376     0.1977   -35.1226     6.8090     8.5774
  584.5000    10.9867    96.2562     2.4476     0.1878   -35.3335     6.7426     8.6560
  585.0000    10.9866    98.4411     2.4596     0.1698   -35.5443     6.6158     7.9583
  585.5000    10.9865    99.8309     2.4706     0.1638   -35.7551     6.5513     7.5939
  586.0000    10.9865    99.2340     2.4756     0.1578   -35.5690     6.4258     7.3822
  586.5000    10.9864    98.6367     2.4834     0.1338   -35.5813     6.3655     7.2429
  587.0000    10.9863   100.5222     2.4655     0.1398   -35.5937     6.0755     7.2387
  587.5000    11.0061   100.5216     2.4346     0.1418   -35.8045     6.0163     7.2345
  588.0000    11.0060    98.0374     2.4236     0.1438   -35.8119     6.1813     7.3651
  588.5000    11.0258    97.8377     2.4106     0.1517   -37.4168     6.1777     7.4980
  589.0000    11.0257    98.6319     2.3878     0.1697   -37.2307     6.2313     7.7766
  589.5000    11.0257    94.2585     2.3658     0.2036   -37.2430     6.6424     7.9188
  590.0000    11.0256    94.0589     2.3230     0.2435   -36.8559     7.2123     9.4297
  590.5000    11.0851    93.4616     2.3179     0.3352   -35.6776     7.4109     9.9611
  591.0000    11.1844    94.0566     2.3110     0.2235   -35.2931     7.8274    10.1409
  591.5000    11.2837    95.2479     2.4038     0.1896   -35.3055     7.9684    10.1351
  592.0000    10.9259    96.9355     2.4526     0.1676   -35.3178     8.2626    10.1292
  592.5000    10.8662    96.0407     2.4835     0.1516   -34.9333     8.3342    10.1233
  593.0000    10.8462    94.0514     2.4905     0.1436   -34.7472     8.4065    10.1174
  593.5000    10.8263    95.2435     2.4975     0.1097   -34.5612     8.4016    10.1116
  594.0000    10.8262    96.2362     2.5145     0.1077   -34.3751     8.4745    10.2006
  594.5000    10.7863   101.0054     2.4885     0.1077   -34.9827     8.3919    10.1010
  595.0000    10.7863   105.9736     2.4825     0.1197   -35.5903     8.3871    10.0952
  595.5000    10.7862   106.3701     2.4806     0.1276   -35.9994     8.4598    10.0893
  596.0000    10.7861   108.5561     2.4736     0.1575   -37.0037     8.4549    10.0835
  596.5000    10.7860   119.4877     2.4696     0.2094   -37.0161     8.4500    10.0776
  597.0000    10.7859   122.4692     2.4706     0.1715   -37.2268     8.3677    10.0718
  597.5000    10.7858   122.4688     2.5145     0.1675   -38.0326     8.3639    10.1593
  598.0000    10.7460   122.4682     2.4606     0.1754   -39.0384     8.2824    10.1534
  598.5000    10.7857   122.4677     2.4467     0.1934   -37.2612     8.4315    10.1475
  599.0000    10.7856   122.4670     2.4387     0.2073   -36.6784     8.5009    10.1417
  599.5000    10.7656   122.6653     2.4377     0.2193   -36.4924     8.4210    10.0426
  600.0000    10.7655   122.6650     2.4387     0.2252   -34.9178     8.3381     9.9446
  600.5000    10.7654   107.4857     2.4419     0.2252   -34.4013     8.2610     9.8577
  601.0000    10.7857    97.2201     2.4437     0.2253   -33.5494     8.1788     9.8447
  601.5000    10.7660    97.0228     2.4497     0.2273   -32.7679     8.1004     9.3101
  602.0000    10.7661    95.2349     2.4527     0.2213   -33.1726     8.0969     9.0519
  602.5000    10.7663    94.0435     2.4567     0.2074   -36.3566     7.8007     8.8825
  603.0000    10.7665    93.4485     2.4627     0.2014   -35.5731     7.7266     9.0465
  603.5000    10.7467    94.2452     2.4647     0.1934   -34.9879     7.5122     8.6325
  604.0000    10.7071    95.4396     2.4577     0.1895   -33.8077     7.1711     8.5495
  604.5000    10.4289    96.0372     2.4527     0.1775   -34.0161     6.9088     7.8636
  605.0000    10.4489    97.0337     2.4497     0.1716   -34.4228     6.3559     6.7151
  605.5000    10.4491    97.0343     2.4447     0.1672   -34.8295     5.8479     5.7344
  606.0000    10.4691    92.2638     2.4378     0.1413   -34.2444     5.3311     4.8969
  606.5000    10.5687    90.0781     2.4328     0.0994   -34.4528     4.8154     4.1817
  607.0000    10.9864    90.4772     2.3579     0.0480   -34.8595     4.4714     3.5709
  607.5000    10.9269    90.8763     2.3491     0.0281   -34.8675     4.1136     3.1727
  608.0000    10.9271    91.0765     2.2888    -0.0038   -35.0758     3.6819     3.2313
  608.5000    10.9273    92.4701     2.2075    -0.0217   -35.0858     3.5800     3.4447
  609.0000    10.9274    90.0851     2.1836    -0.0297   -35.2942     3.5456     3.4432
  609.5000    10.9673    89.4903     2.1148    -0.0297   -35.5026     3.4475     3.4420
  610.0000    11.0272    88.2983     1.9901    -0.0097   -35.5125     3.4144     3.4405
  610.5000    11.1267    81.5389     1.9243     0.0082   -35.5225     3.4129     3.5356
  611.0000    11.3456    79.9494     1.8306     0.0422   -35.5325     3.4114     3.7354
  611.5000    11.6243    76.5702     1.7219     0.0641   -36.3360     3.6037     4.1334
  612.0000    11.3658    73.9863     1.6990     0.0781   -36.9411     4.0604     6.1460
  612.5000    11.3461    74.1864     1.6990     0.0861   -36.3560     5.1096     7.9557
