~VERSION INFORMATION
 VERS.                2.0:   CWLS LOG ASCII STANDARD - VERSION 2.0
 WRAP.                 NO:   ONE LINE PER DEPTH STEP
~WELL INFORMATION
#MNEM.UNIT      DATA TYPE    INFORMATION
#----------   ------------   ------------------------------
 STRT.F          906.0000:   START DEPTH
 STOP.F         3426.0000:   STOP DEPTH
 STEP.F            0.5000:   STEP LENGTH
 NULL.          -999.2500:   NO VALUE
 COMP.    FENIX & SCISSON:   COMPANY
 WELL. FENIX NPR 3 "AX" #46-11:   WELL
 FLD .                NPR:   FIELD
 LOC .      S11 T38N R78W:   LOCATION
 CNTY.            NATRONA:   COUNTY
 STAT.            WYOMING:   STATE
 CTRY. UNITED STATES OF AMERICA:   COUNTRY
 SRVC.       SCHLUMBERGER:   SERVICE COMPANY
 DATE.        16-MAY-1981:   LOGDATE
 API .     49025108720000:   API NUMBER
~CURVE INFORMATION
#MNEM.UNIT       API CODE    CURVE DESCRIPTION
#----------   ------------   ------------------------------
 DEPT.F                  :   
 SPR .MV     07 010 01 00:   SPONTANEOUS POTENTIAL
 ILD .OHMM   07 120 46 00:   INDUCTION LOG DEEP RESISTIVITY
 SFL .OHMM   07 220 01 00:   SHALLOW FOCUSED LOG RESISTIVITY
 TENR.LBS    07 635 01 00:   TENSION
 ILM .OHMM   07 120 44 00:   INDUCTION LOG MEDIUM RESISTIVITY
 CALD.IN     45 280 60 00:   CALIPER FROM DENSITY LOG
 GRD .GAPI   45 310 01 00:   GAMMA RAY FROM DENSITY LOG
 RHOB.G/C3   45 350 01 00:   BULK DENSITY
 TEND.LBS    45 635 01 00:   TENSION FROM DENSITY LOG
 CORR.G/C3   45 356 01 00:   DENSITY CORRECTION
~PARAMETER INFORMATION
#MNEM.UNIT          VALUE    DESCRIPTION
#----------   ------------   ------------------------------
 EKB .F         5199.0000:   Kelly bushing
 EGL .F         5189.0000:   Ground level
 EDF .F            0.0000:   Drilling floor
 TD  .F         3422.0000:   Total depth
 DATE.        16-MAY-1981:   Date logged
 CLNT.            A2DTECH:   Client Code
 SL  . 1867' FSL & 2100' FWL:   Surface Location
 PD  .                 GL:   Permanent Datum
 EPD .F              5189:   Elevation Permanent Datum
 LMF .                 KB:   Log Measured From
 DMF .                 KB:   Drilling Measured From
 DAPD.F                10:   Feet Above Permanent Datum
 DD  .F              3421:   Depth driller
 DL  .F              3422:   Depth logger
 BLI .F              3416:   Bottom log interval
 TLI .F               926:   Top log interval
 CS1 .IN            8.625:   Casing size
 CBD1.      8.625" @ 925':   Casing driller 1
 CBL1.F               926:   Casing logger 1
 BS1 .IN            7.875:   Bit size
 BSD1.F              3421:   Depth drilled with bit1
 DFT .                FGM:   Type fluid in hole
 DFD .                8.5:   Density
 DFV .                 60:   Viscosity
 DFPH.                  9:   pH
 DFL .                 12:   Fluid loss
 MSS .               PITS:   Source of sample
 RMS .OHMM           1.17:   Rm
 MST .F                73:   Rm Meas. temp.
 RMF .OHMM           1.03:   Rmf
 MFST.F                73:   Rmf Meas. temp.
 MFSS.               MEAS:   Source Rmf.
 RMB .OHMM            .71:   Rm. at BHT
 BHT .F               120:   BHT.
 TCS .HRS            1200:   Time Circ. stopped
 TLAB.HRS            1745:   Time logger at bottom
 MRT .F               120:   Maximum recorded temp.
 LUN .               8133:   Logging unit number
 LUL .               CSPR:   Logging unit location
 ENGI.             TAYLOR:   Recorded By
 WITN.              RIVAS:   Witnessed by
 ORIG.           5" PRINT:   Origin of data
 UWI .     49025108720000:   Unique Well ID
 DICO. A2D TECHNOLOGIES, INC.:   Digitizing Company
~OTHER INFORMATION
~A   DEPT      SPR        ILD        SFL       TENR        ILM       CALD         GRD        RHOB     TEND        CORR  
  906.0000  -999.2500  -999.2500  -999.2500  -999.2500  -999.2500  -999.2500    78.0040     2.1110  -999.2500    -0.2160
  906.5000  -999.2500  -999.2500  -999.2500  -999.2500  -999.2500  -999.2500    86.0690     2.1210  -999.2500    -0.2070
  907.0000  -999.2500  -999.2500  -999.2500  -999.2500  -999.2500  -999.2500    81.6610     2.1240  -999.2500    -0.2030
  907.5000  -999.2500  -999.2500  -999.2500  -999.2500  -999.2500  -999.2500    84.3610     2.1150  -999.2500    -0.2100
  908.0000  -999.2500  -999.2500  -999.2500  -999.2500  -999.2500  -999.2500    86.0240     2.1150  -999.2500    -0.2150
  908.5000  -999.2500  -999.2500  -999.2500  -999.2500  -999.2500  -999.2500    86.1110     2.1290  -999.2500    -0.2150
  909.0000  -999.2500  -999.2500  -999.2500  -999.2500  -999.2500  -999.2500    84.7430     2.1470  -999.2500    -0.2090
  909.5000  -999.2500  -999.2500  -999.2500  -999.2500  -999.2500  -999.2500    82.9290     2.1660  -999.2500    -0.2020
  910.0000  -999.2500  -999.2500  -999.2500  -999.2500  -999.2500  -999.2500    81.0570     2.1840  -999.2500    -0.1960
  910.5000  -999.2500  -999.2500  -999.2500  -999.2500  -999.2500  -999.2500    80.8120     2.2020  -999.2500    -0.1900
  911.0000  -999.2500  -999.2500  -999.2500  -999.2500  -999.2500  -999.2500    81.0350     2.2140  -999.2500    -0.1900
  911.5000  -999.2500  -999.2500  -999.2500  -999.2500  -999.2500  -999.2500    81.2760     2.2160  -999.2500    -0.1930
  912.0000  -999.2500  -999.2500  -999.2500  -999.2500  -999.2500  -999.2500    81.5150     2.1940  -999.2500    -0.1970
  912.5000  -999.2500  -999.2500  -999.2500  -999.2500  -999.2500  -999.2500    81.7550     2.1780  -999.2500    -0.1970
  913.0000  -999.2500  -999.2500  -999.2500  -999.2500  -999.2500  -999.2500    82.0010     2.1770  -999.2500    -0.1970
  913.5000  -999.2500  -999.2500  -999.2500  -999.2500  -999.2500  -999.2500    82.2000     2.1670  -999.2500    -0.2000
  914.0000  -999.2500  -999.2500  -999.2500  -999.2500  -999.2500  -999.2500    80.9090     2.1520  -999.2500    -0.2070
  914.5000  -999.2500  -999.2500  -999.2500  -999.2500  -999.2500  -999.2500    79.5420     2.1370  -999.2500    -0.2150
  915.0000  -999.2500  -999.2500  -999.2500  -999.2500  -999.2500  -999.2500    78.3860     2.1220  -999.2500    -0.2230
  915.5000  -999.2500  -999.2500  -999.2500  -999.2500  -999.2500  -999.2500    79.5940     2.1270  -999.2500    -0.2220
  916.0000  -999.2500  -999.2500  -999.2500  -999.2500  -999.2500  -999.2500    82.7330     2.1330  -999.2500    -0.2180
  916.5000  -999.2500  -999.2500  -999.2500  -999.2500  -999.2500  -999.2500    85.1710     2.1370  -999.2500    -0.2160
  917.0000  -999.2500  -999.2500  -999.2500  -999.2500  -999.2500  -999.2500    83.5150     2.1310  -999.2500    -0.2200
  917.5000  -999.2500  -999.2500  -999.2500  -999.2500  -999.2500  -999.2500    81.3560     2.1280  -999.2500    -0.2220
  918.0000  -999.2500  -999.2500  -999.2500  -999.2500  -999.2500  -999.2500    80.1970     2.1310  -999.2500    -0.2190
  918.5000  -999.2500  -999.2500  -999.2500  -999.2500  -999.2500  -999.2500    80.6110     2.1290  -999.2500    -0.2150
  919.0000  -999.2500  -999.2500  -999.2500  -999.2500  -999.2500  -999.2500    80.7470     2.1260  -999.2500    -0.2360
  919.5000  -999.2500  -999.2500  -999.2500  -999.2500  -999.2500  -999.2500    78.3290     2.1230  -999.2500    -0.2470
  920.0000  -999.2500  -999.2500  -999.2500  -999.2500  -999.2500  -999.2500    75.8770     2.1230  -999.2500    -0.2470
  920.5000  -999.2500  -999.2500  -999.2500   586.4810  -999.2500  -999.2500    74.1450     2.1760  -999.2500    -0.2480
  921.0000  -999.2500  -999.2500  -999.2500   586.4810  -999.2500  -999.2500    76.9460     2.1900  -999.2500    -0.2480
  921.5000  -999.2500  -999.2500  -999.2500   586.4810  -999.2500  -999.2500    82.5330     2.1940  -999.2500    -0.2240
  922.0000  -999.2500  -999.2500  -999.2500   586.4810  -999.2500     8.1880    85.2720     2.1770  -999.2500    -0.1990
  922.5000  -999.2500  -999.2500  -999.2500   586.4810  -999.2500     8.1880    86.5960     2.1660  -999.2500    -0.1730
  923.0000  -999.2500  -999.2500  -999.2500   586.4810  -999.2500     8.1880    87.9020     2.1610  -999.2500    -0.1510
  923.5000  -999.2500  -999.2500  -999.2500   586.4810  -999.2500     8.1880    89.1790     2.1570  -999.2500    -0.1440
  924.0000  -999.2500  -999.2500  -999.2500   586.4810  -999.2500     8.1870    90.0940     2.1380   642.0150    -0.1520
  924.5000  -999.2500  -999.2500  -999.2500   586.4810  -999.2500     8.1870    87.8760     2.0920   640.7060    -0.1920
  925.0000  -999.2500  -999.2500  -999.2500   586.4810  -999.2500     8.1870    83.0890     2.0460   639.3970    -0.2410
  925.5000  -999.2500  -999.2500  -999.2500   586.4810  -999.2500     8.1710    78.3880     2.0350   638.0880    -0.2060
  926.0000  -999.2500  -999.2500     0.3670   586.4810  -999.2500     8.2830    77.8180     2.1220   637.1060    -0.0800
  926.5000  -999.2500  -999.2500     0.7680   586.4810  -999.2500     8.5220    87.7220     2.2360   635.7970     0.0730
  927.0000   -74.4420  -999.2500     3.1790   586.4810   807.2970     8.7610    95.8690     2.3590   634.4880     0.1410
  927.5000   -81.6850  -999.2500     6.0950   586.4810   530.2600     9.0000   102.6130     2.3760   633.1790     0.1380
  928.0000   -88.3400   417.9360     9.1010   586.4810   671.4740     9.2190   109.1870     2.3940   631.8700     0.1310
  928.5000   -88.7350    88.5890     6.3720   586.4810   988.2500     9.3390   113.3700     2.4130   630.5610     0.1180
  929.0000   -88.7350     2.1730     5.4280   587.1510   432.1860     9.4510   115.2040     2.4310   629.2510     0.1050
  929.5000   -86.6530     3.7270     5.1590   588.1760     4.0660     9.5630   114.4930     2.4390   627.9420     0.0920
  930.0000   -79.7200    64.4560     5.2540   589.2020     6.2510     9.6760   113.5680     2.4460   627.9210     0.0800
  930.5000   -76.2270   267.2160    10.1580   590.2270     7.2340     9.7880   112.6510     2.4530   628.5340     0.0670
  931.0000   -69.2650  1025.1130     9.7390   591.2520     9.1990     9.9270   111.7380     2.4600   629.1480     0.0540
  931.5000   -63.1250  1003.4960     9.3110   592.2780    11.1630    10.0900   110.8170     2.4680   629.7610     0.0420
  932.0000   -60.0120   556.9210     8.9360   593.3030    12.8880    10.2540   109.9140     2.4770   630.3750     0.0290
  932.5000   -57.1690     7.3060     8.1890   594.3290    10.4920    10.4170   110.6320     2.4860   630.9880     0.0170
  933.0000   -54.9310     7.2530     7.5780   595.3540     8.3580    10.5800   110.6430     2.4940   631.6010     0.0130
  933.5000   -53.9330     7.1460     7.8180   596.3800     6.6660    10.6940   109.2080     2.5010   632.2150     0.0120
  934.0000   -52.9450     7.0430     8.7240   597.4050     8.8060    10.7070   107.6540     2.4960   632.8280     0.0110
  934.5000   -52.0370     8.4450     9.6310   598.4300    11.7600    10.7210   106.1030     2.4920   633.4420     0.0100
  935.0000   -51.8850     9.7920    10.5370   599.4560     9.9570    10.7350   104.5530     2.4880   634.0550     0.0100
  935.5000   -51.7640     9.4930    10.0460   600.4810     8.1540    10.7490   103.0010     2.5000   634.6690     0.0130
  936.0000   -51.6760     9.1930     9.5560   601.5070     8.1950    10.7640   101.4610     2.5140   635.2820     0.0160
  936.5000   -51.5630     8.9360     9.0660   602.5320     8.2480    10.7780   100.0360     2.5250   635.8950     0.0170
  937.0000   -51.4630     8.8930     8.9180   603.5580     8.3050    10.7920    99.5640     2.5180   636.5090     0.0130
  937.5000   -51.3620     8.7630     8.8620   604.5830     8.2530    10.8060    99.7840     2.5120   637.1220     0.0100
  938.0000   -51.2480     8.6330     8.8060   605.6080     8.1970    10.8200    99.9960     2.5050   637.7360     0.0080
  938.5000   -51.1850     8.5030     8.7500   606.6340     8.1400    10.8350   100.2090     2.4990   638.3490     0.0090
  939.0000   -51.2080     8.4520     8.6950   607.6590     8.0840    10.8480   100.4110     2.4960   638.9620     0.0110
