~VERSION INFORMATION
 VERS.                2.0:   CWLS LOG ASCII STANDARD - VERSION 2.0
 WRAP.                 NO:   ONE LINE PER DEPTH STEP
~WELL INFORMATION
#MNEM.UNIT      DATA TYPE    INFORMATION
#----------   ------------   ------------------------------
 STRT.F          720.0000:   START DEPTH
 STOP.F         3416.0000:   STOP DEPTH
 STEP.F            0.5000:   STEP LENGTH
 NULL.          -999.2500:   NO VALUE
 COMP.    FENIX & SCISSON:   COMPANY
 WELL.  FENIX "AX" #31-14:   WELL
 FLD .                NPR:   FIELD
 LOC .      S14 T38N R78W:   LOCATION
 CNTY.            NATRONA:   COUNTY
 STAT.            WYOMING:   STATE
 CTRY. UNITED STATES OF AMERICA:   COUNTRY
 SRVC.       SCHLUMBERGER:   SERVICE COMPANY
 DATE.        04-JUN-1981:   LOGDATE
 API .     49025108730000:   API NUMBER
~CURVE INFORMATION
#MNEM.UNIT       API CODE    CURVE DESCRIPTION
#----------   ------------   ------------------------------
 DEPT.F                  :   
 TEND.LBS    45 635 01 00:   TENSION FROM DENSITY LOG
 CORR.G/C3   45 356 01 00:   DENSITY CORRECTION
 RHOB.G/C3   45 350 01 00:   BULK DENSITY
 CALD.IN     45 280 60 00:   CALIPER FROM DENSITY LOG
 GRD .GAPI   45 310 01 00:   GAMMA RAY FROM DENSITY LOG
 SPR .MV     07 010 01 00:   SPONTANEOUS POTENTIAL
 SFL .OHMM   07 220 01 00:   SHALLOW FOCUSED LOG RESISTIVITY
 ILD .OHMM   07 120 46 00:   INDUCTION LOG DEEP RESISTIVITY
 ILM .OHMM   07 120 44 00:   INDUCTION LOG MEDIUM RESISTIVITY
 TENR.LBS    07 635 01 00:   TENSION FROM RESISTIVITY
~PARAMETER INFORMATION
#MNEM.UNIT          VALUE    DESCRIPTION
#----------   ------------   ------------------------------
 EKB .F         5196.0000:   Kelly bushing
 EGL .F         5186.0000:   Ground level
 EDF .F            0.0000:   Drilling floor
 TD  .F         3402.0000:   Total depth
 DATE.        04-JUN-1981:   Date logged
 CLNT.            A2DTECH:   Client Code
 SL  . 377' FWL & 1733' FWL:   Surface Location
 PD  .                 GL:   Permanent Datum
 DD  .F              3400:   Depth driller
 DL  .F              3402:   Depth logger
 BLI .F              3395:   Bottom log interval
 TLI .F               720:   Top log interval
 CS1 .IN            8.625:   Casing size
 CBD1.      8.625" @ 707':   Casing driller 1
 CBL1.F               751:   Casing logger 1
 BS1 .IN            7.875:   Bit size
 BSD1.F              3400:   Depth drilled with bit1
 DFT .                FGM:   Type fluid in hole
 DFD .                8.8:   Density
 DFV .                 55:   Viscosity
 DFPH.                9.5:   pH
 DFL .                  9:   Fluid loss
 MSS .           MUD TANK:   Source of sample
 RMS .OHMM            1.7:   Rm
 MST .F                78:   Rm Meas. temp.
 RMF .OHMM           1.45:   Rmf
 MFST.F                78:   Rmf Meas. temp.
 MFSS.               MEAS:   Source Rmf.
 RMB .OHMM           1.12:   Rm. at BHT
 BHT .F               118:   BHT.
 TCS .HRS            1200:   Time Circ. stopped
 TLAB.HRS            1600:   Time logger at bottom
 MRT .F               118:   Maximum recorded temp.
 LUN .               8043:   Logging unit number
 LUL .             CASPER:   Logging unit location
 ENGI.             LARSON:   Recorded By
 WITN.              FIVAS:   Witnessed by
 ORIG.      2.5" 5" PRINT:   Origin of data
 UWI .     49025108730000:   Unique Well ID
 DICO. A2D TECHNOLOGIES, INC.:   Digitizing Company
 EPD .               5186:   Elevation Permanent Datum
 LMF .                 KB:   Log Measured From
 DMF .                 KB:   Drilling Measured From
 DAPD.                 10:   Feet Above Permanent Datum
~OTHER INFORMATION
~A   DEPT     TEND       CORR       RHOB       CALD         GRD       SPR        SFL        ILD        ILM       TENR   
# ...
 2160.5000  1275.1210     0.0080     2.4870     8.1940   134.3640    -7.5820    10.2350     7.9290     7.4160  1334.7020
 2161.0000  1275.4030     0.0060     2.4850     8.1940   135.0460    -7.5230     9.6890     7.8550     7.3540  1334.7020
 2161.5000  1275.6851     0.0010     2.4830     8.1930   135.6770    -7.1360     9.3120     7.7810     7.2860  1334.7020
 2162.0000  1275.9670    -0.0040     2.4810     8.1930   132.7120    -6.7660     9.3120     7.7070     7.2860  1334.7020
 2162.5000  1276.2480    -0.0060     2.4820     8.1930   127.1880    -6.8080     9.7160     7.6330     7.2860  1334.7020
 2163.0000  1276.5300    -0.0080     2.4830     8.1920   124.3960    -6.8720    10.2340     7.5670     7.2860  1334.7020
 2163.5000  1276.8120    -0.0080     2.4800     8.1920   125.8260    -6.9500    10.1250     7.6960     7.2860  1334.7020
 2164.0000  1277.0940    -0.0090     2.4750     8.1920   130.6610    -7.0170     9.9670     7.8830     7.4860  1334.7020
 2164.5000  1277.3750    -0.0090     2.4720     8.1920   135.2760    -7.0890     9.8550     8.0690     7.7110  1334.7020
 2165.0000  1277.6570    -0.0090     2.4710     8.1910   138.2840    -7.1590    10.0430     8.2550     7.9350  1334.7020
 2165.5000  1277.9390    -0.0080     2.4700     8.1910   138.6980    -7.2290    10.4030     8.3300     8.0090  1334.7020
 2166.0000  1278.2209    -0.0080     2.4670     8.1910   139.1500    -7.3000    10.7360     8.3520     8.0140  1334.7020
 2166.5000  1278.5031    -0.0080     2.4660     8.1910   139.6090    -7.3710    11.0690     8.3740     8.0190  1334.7020
 2167.0000  1278.7841    -0.0090     2.4680     8.1900   139.7090    -7.4410    11.2470     8.3960     8.0250  1334.7020
 2167.5000  1279.0660    -0.0090     2.4720     8.1900   139.1710    -7.5120    11.2080     8.4180     8.0300  1334.7020
 2168.0000  1279.3480    -0.0060     2.4760     8.1900   135.5630    -7.5830    11.1500     8.4400     8.0350  1334.7020
 2168.5000  1279.6300    -0.0040     2.4790     8.1890   132.7270    -7.6530    11.0920     8.4620     8.0400  1334.7020
 2169.0000  1279.9110    -0.0040     2.4790     8.1890   134.4870    -7.7240    11.0370     8.4810     8.0460  1334.7020
 2169.5000  1280.1930    -0.0050     2.4780     8.1890   136.5850    -7.7950    11.0370     8.4950     8.0510  1334.7020
 2170.0000  1280.4750    -0.0050     2.4790     8.1890   136.3160    -7.8640    11.3070     8.5090     8.0560  1334.7020
 2170.5000  1280.7570    -0.0010     2.4930     8.1880   131.1070    -7.9380    11.6790     8.5230     8.0620  1334.7020
 2171.0000  1281.0389     0.0040     2.5050     8.1880   127.8430    -7.9440    11.4060     8.5380     8.0670  1334.7020
 2171.5000  1281.3199     0.0040     2.5040     8.1880   128.4070    -7.9100    11.0790     8.5520     8.0720  1334.7020
 2172.0000  1281.6021     0.0040     2.5030     8.1880   133.8070    -7.8820    10.7510     8.5660     8.0770  1334.7020
 2172.5000  1281.8840     0.0060     2.5030     8.1870   137.9540    -7.8530    10.6280     8.5810     8.0830  1334.7020
 2173.0000  1282.1660     0.0110     2.5060     8.1870   137.3410    -7.8240    10.6280     8.5950     8.0880  1334.7020
 2173.5000  1282.4480     0.0110     2.5070     8.1870   134.8190    -7.7950    10.9290     8.6100     8.0930  1334.7020
 2174.0000  1282.7290     0.0080     2.5000     8.1870   132.1730    -7.7660    11.3740     8.6240     8.0990  1334.7020
 2174.5000  1283.0110     0.0050     2.4930     8.1860   129.5460    -7.7370    11.2470     8.6350     8.1040  1334.7020
 2175.0000  1283.2930     0.0040     2.4950     8.1860   128.3600    -7.7080    11.1110     8.6370     8.1090  1334.7020
 2175.5000  1283.5750     0.0040     2.4980     8.1860   127.2030    -7.6800    10.7710     8.6670     8.1140  1334.7020
 2176.0000  1283.8560     0.0070     2.5000     8.1850   124.8010    -7.6510    10.4290     8.6980     8.1200  1334.7020
 2176.5000  1284.1379     0.0140     2.5030     8.1850   122.3980    -7.6220    10.8300     8.7300     8.1250  1334.7020
 2177.0000  1284.4200     0.0190     2.5060     8.1850   121.0910    -7.5930    11.3590     8.7610     8.1300  1334.7020
 2177.5000  1284.7020     0.0160     2.5040     8.1850   124.9760    -7.5630    11.8040     8.7920     8.1350  1334.7020
 2178.0000  1284.9840     0.0070     2.4920     8.1840   130.2090    -7.5500    11.9020     8.8000     8.1410  1334.7020
 2178.5000  1285.2650     0.0000     2.4850     8.1840   135.5720    -7.5510    11.9020     8.8000     8.1460  1334.7020
 2179.0000  1285.3120     0.0000     2.4880     8.1840   136.1030    -7.5510    11.9020     8.8000     8.1510  1334.7020
 2179.5000  1285.0490     0.0020     2.4950     8.1840   134.3270    -7.5510    11.5180     8.8020     8.1570  1334.7020
 2180.0000  1284.7870     0.0030     2.5020     8.1830   132.5830    -7.5510    11.1220     8.7970     8.1600  1334.7020
 2180.5000  1284.5250     0.0040     2.5060     8.1830   130.8440    -7.5510    10.7250     8.7260     8.1600  1334.7020
 2181.0000  1284.2629     0.0020     2.4940     8.1830   129.1610    -7.5510    10.6280     8.6520     8.1600  1334.7020
 2181.5000  1284.0000     0.0000     2.4820     8.1830   128.4840    -7.5510    10.4290     8.5770     8.1600  1334.7020
 2182.0000  1283.7380    -0.0020     2.4740     8.1820   128.3780    -7.5510    10.6690     8.5010     8.1600  1334.7020
 2182.5000  1283.4760    -0.0020     2.4730     8.1820   129.9010    -7.5510    10.9900     8.4250     8.1600  1334.7020
 2183.0000  1283.2140     0.0010     2.4790     8.1820   130.2220    -7.5510    11.3110     8.3490     8.1600  1334.7020
 2183.5000  1282.9510     0.0030     2.4840     8.1810   130.4030    -7.5510    11.4610     8.3140     8.1600  1334.7020
 2184.0000  1282.6890     0.0030     2.4900     8.1810   132.4210    -7.5510    11.4100     8.2940     8.1600  1334.7020
 2184.5000  1282.4270     0.0030     2.4910     8.1810   132.7630    -7.5510    11.3390     8.2770     8.1590  1334.7020
 2185.0000  1282.1650     0.0030     2.4900     8.1810   132.3600    -7.5510    11.2690     8.2600     8.1600  1334.7020
 2185.5000  1281.9030     0.0010     2.4880     8.1800   131.7540    -7.5510    11.1980     8.2420     8.1220  1334.7020
 2186.0000  1281.6400    -0.0030     2.4800     8.1800   131.2040    -7.5510    11.1280     8.2240     8.0480  1334.7020
 2186.5000  1281.3781    -0.0070     2.4720     8.1800   132.3190    -7.5520    11.0570     8.2060     7.9740  1334.7020
 2187.0000  1281.1160    -0.0070     2.4650     8.1800   134.2340    -7.5490    10.9270     8.1880     7.9000  1334.7020
 2187.5000  1280.8540    -0.0060     2.4680     8.1790   136.1340    -7.5520    10.7730     8.1700     7.8260  1334.7020
 2188.0000  1280.5909    -0.0050     2.4720     8.1790   138.0490    -7.5530    10.6180     8.1520     7.7520  1334.7020
 2188.5000  1280.3290    -0.0050     2.4770     8.1790   139.1650    -7.5400    10.4630     8.1350     7.6780  1334.7020
 2189.0000  1280.0670    -0.0050     2.4790     8.1780   139.7550    -7.5810    10.3090     8.1170     7.6030  1334.7020
 2189.5000  1279.8051    -0.0060     2.4810     8.1780   140.1130    -7.2950    10.1540     8.0990     7.5650  1334.7020
 2190.0000  1279.5420    -0.0060     2.4860     8.1780   138.3820    -7.1290    10.0430     8.0810     7.5660  1334.7020
 2190.5000  1279.2800    -0.0010     2.4940     8.1780   135.5130    -7.1430    10.0430     8.0630     7.5660  1334.7020
 2191.0000  1279.0179     0.0030     2.5020     8.1770   132.5400    -7.1470    10.1290     8.0450     7.5720  1334.7020
 2191.5000  1278.7560     0.0020     2.4960     8.1770   131.7710    -7.1400    10.2090     8.0280     7.5920  1334.7020
 2192.0000  1278.4940    -0.0010     2.4820     8.1770   132.9230    -7.1440    10.2890     8.0090     7.6120  1334.7020
 2192.5000  1278.2310    -0.0030     2.4770     8.1770   134.4670    -7.1430    10.3690     8.0080     7.6320  1334.7020
 2193.0000  1277.9690    -0.0050     2.4840     8.1760   134.4300    -7.1430    10.4340     8.0070     7.6530  1334.7020
 2193.5000  1277.7070    -0.0040     2.4920     8.1760   134.4360    -7.1430    10.4540     8.0080     7.6730  1334.7020
