~VERSION INFORMATION
 VERS.                2.0:   CWLS LOG ASCII STANDARD - VERSION 2.0
 WRAP.                 NO:   ONE LINE PER DEPTH STEP
~WELL INFORMATION
#MNEM.UNIT      DATA TYPE    INFORMATION
#----------   ------------   ------------------------------
 STRT.F           95.0000:   START DEPTH
 STOP.F          866.5000:   STOP DEPTH
 STEP.F            0.5000:   STEP LENGTH
 NULL.          -999.2500:   NO VALUE
 COMP.          U.S. NAVY:   COMPANY
 WELL. U.S NAVY RES 3 TEAPOT DOM "SX" #41-2:   WELL
 FLD .        TEAPOT DOME:   FIELD
 LOC .       S2 T38N R78W:   LOCATION
 CNTY.            NATRONA:   COUNTY
 STAT.            WYOMING:   STATE
 CTRY. UNITED STATES OF AMERICA:   COUNTRY
 SRVC.       SCHLUMBERGER:   SERVICE COMPANY
 DATE.        20-JUL-1953:   LOGDATE
 API .     49025064770000:   API NUMBER
~CURVE INFORMATION
#MNEM.UNIT       API CODE    CURVE DESCRIPTION
#----------   ------------   ------------------------------
 DEPT.F                  :   
 SPR .MV     05 010 01 00:   SPONTANEOUS POTENTIAL FROM RES.
 ASN .OHMM   05 041 16 00:   AMPLIFIED SHORT NORMAL 16"
 ILD .OHMM   05 120 46 00:   INDUCTION LOG DEEP
 GR  .GAPI   30 310 01 00:   GAMMA RAY
~PARAMETER INFORMATION
#MNEM.UNIT          VALUE    DESCRIPTION
#----------   ------------   ------------------------------
 EKB .F         5140.0000:   Kelly bushing
 EGL .F         5135.0000:   Ground level
 TD  .F          862.0000:   Total depth
 DATE.        20-JUL-1953:   Date logged
 CLNT.            A2DTECH:   Client Code
 DD  .F               862:   Depth driller
 DL  .F               855:   Depth logger
 BLI .F               654:   Bottom log interval
 TLI .F                50:   Top log interval
 CS1 .IN            8.625:   Casing size
 CBD1.       8.625" @ 10':   Casing driller 1
 BS1 .IN             6.75:   Bit size
 BSD1.F               862:   Depth drilled with bit1
 DFT .            GEL-OIL:   Type fluid in hole
 DFD .                9.4:   Density
 DFV .                 50:   Viscosity
 DFPH.                8.0:   pH
 DFL .                3.1:   Fluid loss
 RMS .OHMM           1.83:   Rm
 MST .F                96:   Rm Meas. temp.
 RMF .OHMM           1.56:   Rmf
 MFST.F                96:   Rmf Meas. temp.
 TCS .HRS               1:   Time Circ. stopped
 LUN .               4507:   Logging unit number
 LUL .               CSPR:   Logging unit location
 ENGI.            WINKLER:   Recorded By
 WITN.          JORGENSON:   Witnessed by
 ORIG.           5" PRINT:   Origin of data
 UWI .     49025064770000:   Unique Well ID
 DICO. A2D TECHNOLOGIES, INC.:   Digitizing Company
 MSS .           FLOWLINE:   Source of sample
~OTHER INFORMATION
~A  DEPTH      SPR        ASN        ILD         GR
   95.0000   -73.9583  -999.2500  -999.2500  -999.2500
   95.5000   -73.8095  -999.2500  -999.2500  -999.2500
   96.0000   -73.3631  -999.2500  -999.2500  -999.2500
   96.5000   -73.2143  -999.2500  -999.2500  -999.2500
   97.0000   -73.0655  -999.2500  -999.2500  -999.2500
   97.5000   -73.0655  -999.2500  -999.2500  -999.2500
   98.0000   -72.9167     4.7707  -999.2500  -999.2500
   98.5000   -72.7679     5.8189     7.4605  -999.2500
   99.0000   -72.7679     6.7092     7.4613  -999.2500
   99.5000   -72.6190     7.7382     7.5367  -999.2500
  100.0000   -72.6190     8.3834     7.6119  -999.2500
  100.5000   -72.9167     8.4147     7.6128  -999.2500
  101.0000   -73.0655     8.4164     7.6134  -999.2500
  101.5000   -73.3631     8.4179     7.6142  -999.2500
  102.0000   -73.3631     8.4043     7.6150  -999.2500
  102.5000   -73.3631     8.3456     7.6157  -999.2500
  103.0000   -73.3631     8.3022     7.5418  -999.2500
  103.5000   -73.3631     8.3340     7.5159  -999.2500
  104.0000   -73.3631     8.3504     7.4687  -999.2500
  104.5000   -73.0655     8.2621     7.3949  -999.2500
  105.0000   -72.9167     7.9194     7.3595  -999.2500
  105.5000   -72.6190     7.8306     7.3216  -999.2500
  106.0000   -72.4702     7.8924     7.2476  -999.2500
  106.5000   -72.3214     7.9088     7.1737  -999.2500
  107.0000   -72.1726     7.8207     7.0999  -999.2500
  107.5000   -72.1726     7.6874     7.0261  -999.2500
  108.0000   -72.1726     7.5391     7.0270  -999.2500
  108.5000   -72.1726     7.3908     6.9530  -999.2500
  109.0000   -72.1726     7.3322     6.8791  -999.2500
  109.5000   -72.0238     7.3186     6.8053  -999.2500
  110.0000   -71.8750     7.2754     6.7315  -999.2500
  110.5000   -71.8750     7.1124     6.7322  -999.2500
  111.0000   -72.1726     6.9939     6.7329  -999.2500
  111.5000   -72.4702     7.2503     6.7336  -999.2500
  112.0000   -72.7679     7.3111     6.6596  -999.2500
  112.5000   -72.9167     7.1184     6.6573  -999.2500
  113.0000   -72.9167     6.9252     6.5865  -999.2500
  113.5000   -72.9167     6.7473     6.4380  -999.2500
  114.0000   -72.7679     6.5990     5.9912  -999.2500
  114.5000   -72.6190     6.4208     5.6188  -999.2500
  115.0000   -72.4702     6.3175     5.4701  -999.2500
  115.5000   -72.4702     6.0647     5.3962  -999.2500
  116.0000   -72.4702     5.3326     5.3972  -999.2500
  116.5000   -72.4702     5.6184     5.3979  -999.2500
  117.0000   -72.4702     6.0989     5.4732  -999.2500
  117.5000   -72.4702     6.6243     5.4739  -999.2500
  118.0000   -72.4702     6.6410     5.5494  -999.2500
  118.5000   -72.6190     6.6125     5.5501  -999.2500
  119.0000   -72.6190     6.5391     5.6255  -999.2500
  119.5000   -72.7679     6.4058     5.7008  -999.2500
  120.0000   -72.7679     6.4973     5.8509  -999.2500
  120.5000   -72.7679     6.6035     5.9262  -999.2500
  121.0000   -72.7679     6.5451     6.0016  -999.2500
  121.5000   -72.7679     6.5313     6.0023  -999.2500
  122.0000   -72.6190     6.6829     6.0031  -999.2500
  122.5000   -72.4702     6.6988     6.0038  -999.2500
  123.0000   -72.3214     6.6109     5.8552  -999.2500
  123.5000   -72.1726     6.5375     5.7813  -999.2500
  124.0000   -71.8750     6.3745     5.7074  -999.2500
  124.5000   -71.8750     6.1963     5.6335  -999.2500
  125.0000   -71.8750     6.0631     5.6344  -999.2500
  125.5000   -71.8750     5.9896     5.5604  -999.2500
  126.0000   -71.7262     5.9609     5.5612  -999.2500
  126.5000   -71.8750     5.9628     5.5619  -999.2500
  127.0000   -71.8750     5.9792     5.5628  -999.2500
  127.5000   -71.8750     6.1304     5.5634  -999.2500
  128.0000   -71.8750     6.4013     5.4895  -999.2500
  128.5000   -71.8750     6.5073     5.4156  -999.2500
  129.0000   -71.8750     6.2547     5.4164  -999.2500
  129.5000   -71.8750     6.2260     5.4172  -999.2500
  130.0000   -72.0312     6.2425     5.4179  -999.2500
  130.5000   -72.1726     6.2742     5.4188  -999.2500
  131.0000   -72.3214     6.2602     5.4195  -999.2500
  131.5000   -72.3214     6.2170     5.5695  -999.2500
  132.0000   -72.3214     6.2486     5.5702  -999.2500
  132.5000   -72.3214     6.2054     5.5710  -999.2500
  133.0000   -72.3214     6.1764     5.5717  -999.2500
  133.5000   -72.1726     6.3879     5.5725  -999.2500
  134.0000   -72.1726     6.4792     5.5732  -999.2500
  134.5000   -72.1508     6.4507     5.6485  -999.2500
  135.0000   -71.9717     6.1829     5.7453  -999.2500
  135.5000   -71.8750     6.0940     5.7993  -999.2500
  136.0000   -71.8586     6.8594     5.8747  -999.2500
  136.5000   -71.7262     6.7411     5.8755  -999.2500
  137.0000   -71.5774     6.6375     5.8762  -999.2500
  137.5000   -71.5774     6.7293     5.8769  -999.2500
  138.0000   -71.4286     6.9253     5.8776  -999.2500
  138.5000   -71.4286     6.9417     5.8785  -999.2500
  139.0000   -71.4286     6.8386     5.8792  -999.2500
  139.5000   -71.4286     6.6005     5.7218  -999.2500
  140.0000   -71.5774     6.4074     5.5821  -999.2500
  140.5000   -71.5774     6.3487     5.5830  -999.2500
  141.0000   -71.7262     6.4848     5.5836  -999.2500
  141.5000   -71.8750     6.3670     5.5844  -999.2500
  142.0000   -71.8750     6.2038     5.5851  -999.2500
  142.5000   -71.8750     6.1304     5.5860  -999.2500
  143.0000   -71.8750     6.1166     5.5867  -999.2500
  143.5000   -71.8750     6.1335     5.5873  -999.2500
  144.0000   -71.8750     6.1499     5.5881  -999.2500
  144.5000   -71.8750     6.2561     5.6636  -999.2500
  145.0000   -71.8750     6.4821     5.7407  -999.2500
  145.5000   -71.8750     6.6330     5.8889  -999.2500
  146.0000   -71.8750     6.2457     5.9279  -999.2500
  146.5000   -71.8750     6.1721     5.9651  -999.2500
  147.0000   -71.7262     6.4282     5.9658  -999.2500
  147.5000   -71.7262     6.7293     5.9665  -999.2500
  148.0000   -71.8750     6.8056     6.0418  -999.2500
  148.5000   -71.8750     6.7918     6.0427  -999.2500
  149.0000   -71.8750     6.7037     6.0434  -999.2500
  149.5000   -71.8750     6.6006     6.0441  -999.2500
  150.0000   -71.2800     6.5866     5.9701  -999.2500
  150.5000   -71.4317     6.8719     5.6704  -999.2500
  151.0000   -71.4351     6.8126     5.8926  -999.2500
  151.5000   -71.4380     6.6935     5.8909  -999.2500
  152.0000   -71.4409     6.5893     5.9643  -999.2500
  152.5000   -71.4435     6.5449     5.9626  -999.2500
  153.0000   -71.4467     6.5006     5.8863  -999.2500
  153.5000   -71.3003     6.4564     5.8848  -999.2500
  154.0000   -71.3041     6.4120     5.8088  -999.2500
  154.5000   -71.1573     6.3677     5.7328  -999.2500
  155.0000   -71.0123     6.3383     5.6567  -999.2500
  155.5000   -71.0152     6.3390     5.6551  -999.2500
  156.0000   -71.0181     6.3546     5.6537  -999.2500
  156.5000   -71.0210     6.4450     5.5776  -999.2500
  157.0000   -71.0244     6.5504     5.5759  -999.2500
  157.5000   -71.0273     6.6707     5.5744  -999.2500
  158.0000   -71.0298     6.7162     5.5731  -999.2500
  158.5000   -71.0327     6.6868     5.5716  -999.2500
  159.0000   -71.1848     6.6276     5.5701  -999.2500
  159.5000   -71.4853     6.5832     5.6433  -999.2500
  160.0000   -71.9351     6.6887     5.9400  -999.2500
  160.5000   -72.0868     7.0486     6.3117  -999.2500
  161.0000   -72.0897     7.7228     6.6834  -999.2500
  161.5000   -72.0926     8.1575     7.0551  -999.2500
  162.0000   -72.0228     8.1881     7.3521  -999.2500
  162.5000   -71.8003     8.3533     7.4255  -999.2500
  163.0000   -71.8042     9.2522     7.4987  -999.2500
  163.5000   -71.6573     8.8636     7.4221  -999.2500
  164.0000   -71.5118     8.1905     7.3460  -999.2500
  164.5000   -71.3664     8.1161     7.1953  -999.2500
  165.0000   -71.3690     7.9821     6.9700  -999.2500
  165.5000   -71.3722     7.5785     6.6700  -999.2500
  166.0000   -71.3756     7.3246     6.4447  -999.2500
  166.5000   -71.3785     7.3101     6.2191  -999.2500
  167.0000   -71.5298     7.3258     6.2177  -999.2500
  167.5000   -71.5331     7.3114     6.2162  -999.2500
