~VERSION INFORMATION
 VERS.                2.0:   CWLS LOG ASCII STANDARD - VERSION 2.0
 WRAP.                 NO:   ONE LINE PER DEPTH STEP
~WELL INFORMATION
#MNEM.UNIT      DATA TYPE    INFORMATION
#----------   ------------   ------------------------------
 STRT.F           16.0000:   START DEPTH
 STOP.F         2860.0000:   STOP DEPTH
 STEP.F            0.5000:   STEP LENGTH
 NULL.          -999.2500:   NO VALUE
 COMP.    FENIX & SCISSON:   COMPANY
 WELL. FENIX NPR 3 "AX" #22-21:   WELL
 FLD .  TEAPOT DOME - NPR:   FIELD
 LOC .      S21 T39N R78W:   LOCATION
 CNTY.            NATRONA:   COUNTY
 STAT.            WYOMING:   STATE
 CTRY. UNITED STATES OF AMERICA:   COUNTRY
 SRVC.      DRESSER ATLAS:   SERVICE COMPANY
 DATE.        07-AUG-1978:   LOGDATE
 API .     49025106790000:   API NUMBER
~CURVE INFORMATION
#MNEM.UNIT       API CODE    CURVE DESCRIPTION
#----------   ------------   ------------------------------
 DEPT.F                  :   
 CALD.IN     45 280 60 00:   CALIPER FROM DENSITY LOG
 GRD .GAPI   45 310 01 00:   GAMMA RAY FROM DENSITY LOG
 CORR.G/C3   45 356 01 00:   DENSITY CORRECTION
 RHOB.G/C3   45 350 01 00:   BULK DENSITY
 SPR .MV     05 010 01 00:   SPONTANEOUS POTENTIAL
 ILD .OHMM   05 120 46 00:   DEEP INDUCTION RESISTIVITY
 SN  .OHMM   05 040 00 00:   SHORT NORMAL
~PARAMETER INFORMATION
#MNEM.UNIT          VALUE    DESCRIPTION
#----------   ------------   ------------------------------
 EKB .F         4989.0000:   Kelly bushing
 EGL .F         4979.0000:   Ground level
 EDF .F            0.0000:   Drilling floor
 TD  .F         2847.0000:   Total depth
 DATE.        07-AUG-1978:   Date logged
 CLNT.            A2DTECH:   Client Code
 SL  . 880' FNL & 660' FWL:   Surface Location
 PD  .                 GL:   Permanent Datum
 DD  .F              2845:   Depth driller
 DL  .F              2847:   Depth logger
 BLI .F              2841:   Bottom log interval
 CS1 .IN            8.625:   Casing size
 CBD1.      8.625" @ 240':   Casing driller 1
 CBL1.F               240:   Casing logger 1
 BS1 .IN            7.875:   Bit size
 DFT .                KCL:   Type fluid in hole
 DFD .                9.2:   Density
 DFV .                 31:   Viscosity
 DFPH.               10.5:   pH
 MSS .           FLOWLINE:   Source of sample
 RMS .OHMM           1.25:   Rm
 MST .F                74:   Rm Meas. temp.
 RMF .OHMM            1.8:   Rmf
 MFST.F                76:   Rmf Meas. temp.
 RMC .OHMM              3:   Rmc
 MCST.F                78:   Rmc Meas. temp.
 MFSS.               MEAS:   Source Rmf.
 TCS .HRS               4:   Time Circ. stopped
 LUN .               3006:   Logging unit number
 LUL .               CASP:   Logging unit location
 ENGI.             MILLER:   Recorded By
 WITN.           MCGINLEY:   Witnessed by
 ORIG.           5" PRINT:   Origin of data
 UWI .     49025106790000:   Unique Well ID
 DICO. A2D TECHNOLOGIES, INC.:   Digitizing Company
 DAPD.                 10:   Feet Above Permanent Datum
 BSD1.F              2845:   Depth drilled with bit1
 EPD .F              4970:   Elevation Permanent Datum
 LMF .                 KB:   Log Measured From
 DMF .                 KB:   Drilling Measured From
 TLI .                240:   Top log interval
~OTHER INFORMATION
~A   DEPT     CALD         GRD      CORR       RHOB        SPR        ILD         SN   
# ...
 1108.0000     8.8970    98.9670     0.0660     2.5020    -8.7850     6.6200     9.1490
 1108.5000     8.9050   100.5010     0.0690     2.5020    -8.7410     6.6200     9.1470
 1109.0000     8.9220   100.7810     0.0720     2.5030    -8.6960     6.6200     9.1450
 1109.5000     8.9460   100.7150     0.0750     2.5040    -8.6520     6.6200     9.1430
 1110.0000     8.9680    99.0850     0.0780     2.5050    -8.6080     6.6200     9.1400
 1110.5000     8.9900    96.2810     0.0810     2.5070    -8.5640     6.6200     9.1380
 1111.0000     9.0160    94.1590     0.0840     2.5100    -8.5170     6.6200     9.1360
 1111.5000     9.0160    93.2030     0.0840     2.5160    -8.4960     6.6200     9.1330
 1112.0000     8.9750    94.0680     0.0820     2.5200    -8.4990     6.6200     9.1310
 1112.5000     8.9370    96.7670     0.0770     2.5210    -8.4980     6.6200     9.1290
 1113.0000     8.8950    97.0320     0.0730     2.5210    -8.4980     6.6200     9.1270
 1113.5000     8.8880    95.8560     0.0680     2.5200    -8.4980     6.6200     9.1240
 1114.0000     8.9500    93.0890     0.0640     2.5200    -8.4980     6.6200     9.1220
 1114.5000     9.0200    90.0390     0.0650     2.5190    -8.4980     6.6200     9.1200
 1115.0000     8.9820    88.8440     0.0670     2.5180    -8.4980     6.6200     9.1180
 1115.5000     8.9290    87.8360     0.0680     2.5170    -8.4980     6.6200     9.1150
 1116.0000     8.8720    88.3250     0.0700     2.5160    -8.4980     6.6200     9.1130
 1116.5000     8.8770    88.7210     0.0720     2.5190    -8.4980     6.6200     9.1110
 1117.0000     8.8810    90.2020     0.0750     2.5210    -8.4980     6.6200     9.1090
 1117.5000     8.8910    91.2220     0.0770     2.5230    -8.4980     6.6200     9.1060
 1118.0000     8.8950    90.5880     0.0800     2.5250    -8.4980     6.6200     9.1040
 1118.5000     8.9030    90.5830     0.0820     2.5270    -8.4980     6.6200     9.1020
 1119.0000     8.9250    91.1360     0.0830     2.5300    -8.4980     6.6200     9.1000
 1119.5000     8.9450    92.1980     0.0820     2.5280    -8.4980     6.6200     9.0970
 1120.0000     9.0370    93.2830     0.0800     2.5190    -8.4980     6.6200     9.0950
 1120.5000     8.7800    93.2660     0.0810     2.5110    -8.4980     6.6200     9.0930
 1121.0000     8.7710    92.1240     0.0830     2.5020    -8.4980     6.6110     9.0910
 1121.5000     8.8310    91.3050     0.0850     2.5020    -8.4980     6.6040     9.0880
 1122.0000     8.9150    91.4050     0.0870     2.5060    -8.4980     6.5950     9.0860
 1122.5000     8.9440    92.5760     0.0890     2.5090    -8.4980     6.5870     9.0840
 1123.0000     8.9270    92.6090     0.0910     2.5110    -8.4980     6.5790     9.0820
 1123.5000     8.9090    91.3990     0.0930     2.5060    -8.4980     6.5710     9.0790
 1124.0000     8.9210    91.4400     0.0950     2.5010    -8.4980     6.5630     9.0770
 1124.5000     8.9500    92.6580     0.0970     2.4950    -8.4980     6.5550     9.0750
 1125.0000     8.9830    93.6890     0.0990     2.4990    -8.4980     6.5470     9.0730
 1125.5000     9.0060    93.7450     0.1010     2.5010    -8.4980     6.5390     9.0700
 1126.0000     9.0560    93.4680     0.1030     2.4900    -8.4980     6.5310     9.0680
 1126.5000     8.9440    93.0130     0.1050     2.4760    -8.4980     6.5240     9.0660
 1127.0000     8.8590    92.5490     0.1080     2.4630    -8.4980     6.5150     9.0640
 1127.5000     8.8960    91.4480     0.1120     2.4500    -8.4980     6.5010     9.0610
 1128.0000     8.9630    90.1650     0.1250     2.4370    -8.4980     6.5040     9.0590
 1128.5000     9.1280    88.9270     0.1360     2.4230    -8.4980     6.5420     9.0570
 1129.0000     8.9530    86.4900     0.1510     2.4090    -8.5000     6.5770     9.0550
 1129.5000     8.8900    84.3620     0.1710     2.4160    -8.4970     6.6120     9.0520
 1130.0000     9.2200    81.7720     0.1890     2.4750    -8.5000     6.6470     9.0500
 1130.5000     9.5910    83.0960     0.1780     2.5400    -8.5100     6.6830     9.0480
 1131.0000     9.9010    86.2470     0.1690     2.5350    -8.6750     6.7190     9.0460
 1131.5000    10.2260    89.4270     0.1440     2.5310    -8.8310     6.7430     9.0430
 1132.0000     8.6540    92.2330     0.1390     2.5400    -8.9990     6.7430     9.0410
 1132.5000     8.7960    92.8660     0.1340     2.5520    -9.1600     6.7420     9.0390
 1133.0000     8.9280    92.0710     0.1250     2.5500    -9.2830     6.7420     9.0360
 1133.5000     8.8610    93.2530     0.1100     2.5460    -9.2120     6.7420     9.0310
 1134.0000     8.7920    94.1390     0.1000     2.5420    -9.1210     6.7420     9.0350
 1134.5000     8.7600    93.7730     0.0940     2.5380    -9.0260     6.7420     9.0730
 1135.0000     8.7800    92.9710     0.0870     2.5360    -8.9350     6.7420     9.1100
 1135.5000     8.8040    93.7020     0.0800     2.5300    -8.8410     6.7420     9.1480
 1136.0000     8.8300    94.7550     0.0780     2.5240    -8.7490     6.7420     9.1860
 1136.5000     8.8500    95.6660     0.0830     2.4950    -8.6580     6.7420     9.2240
 1137.0000     8.9000    96.1000     0.0880     2.4940    -8.5550     6.7420     9.2620
 1137.5000     8.8520    95.8590     0.0940     2.4920    -8.5020     6.7420     9.2990
 1138.0000     8.7950    95.2930     0.0990     2.4940    -8.5420     6.7420     9.3370
 1138.5000     8.7270    94.5460     0.1020     2.4980    -8.5700     6.7420     9.3680
 1139.0000     8.7430    93.7140     0.1090     2.5020    -8.6020     6.7420     9.3680
 1139.5000     8.8090    93.3030     0.1140     2.5070    -8.6340     6.7420     9.3680
 1140.0000     8.8640    92.6390     0.1190     2.5110    -8.6650     6.7430     9.3680
 1140.5000     8.9240    94.4770     0.1250     2.5160    -8.6970     6.7490     9.3680
 1141.0000     8.9620    97.0590     0.1300     2.5170    -8.7280     6.7560     9.3680
 1141.5000     8.9600    98.9290     0.1310     2.5150    -8.7590     6.7630     9.3680
 1142.0000     8.8850    98.1650     0.1280     2.5140    -8.7910     6.7700     9.3680
 1142.5000     8.7920    96.6240     0.1250     2.5120    -8.8230     6.7770     9.3690
 1143.0000     8.9380    95.1140     0.1240     2.5160    -8.8540     6.7840     9.3680
 1143.5000     9.2160    93.6430     0.1270     2.5190    -8.8850     6.7910     9.3790
 1144.0000     9.1080    92.2520     0.1260     2.5250    -8.8940     6.7980     9.4010
 1144.5000     8.6270    92.4140     0.1060     2.5170    -8.8930     6.8050     9.4230
 1145.0000     8.7380    92.6800     0.0950     2.5060    -8.8930     6.8120     9.4440
 1145.5000     8.7260    94.6890     0.0960     2.5030    -8.8930     6.8190     9.4660
 1146.0000     8.7520    96.6960     0.0980     2.5020    -8.8940     6.8260     9.4870
 1146.5000     8.7550    98.6310     0.1020     2.5030    -8.8920     6.8330     9.5090
 1147.0000     8.7910    97.4520     0.1060     2.5040    -8.8900     6.8400     9.5300
 1147.5000     8.8270    95.1810     0.1070     2.5050    -8.8200     6.8470     9.5520
 1148.0000     8.8750    91.9040     0.1060     2.5060    -8.7360     6.8540     9.5730
 1148.5000     8.8970    91.5300     0.1050     2.5060    -8.6510     6.8610     9.5950
 1149.0000     8.8520    92.1660     0.1040     2.5120    -8.5670     6.8670     9.6160
 1149.5000     8.8210    90.8860     0.1010     2.5100    -8.4830     6.8700     9.6380
 1150.0000     8.7930    87.5010     0.0950     2.5560    -8.3980     6.8750     9.6590
 1150.5000     8.8760    84.1210     0.0890     2.5500    -8.3160     6.8790     9.6810
 1151.0000     9.0070    80.9830     0.0830     2.5470    -8.2300     6.8830     9.7030
 1151.5000     9.0420    78.1520     0.0760     2.5470    -8.1440     6.8880     9.7460
 1152.0000     8.9410    84.0800     0.0710     2.5490    -8.1100     6.8920     9.8340
 1152.5000     8.8780    90.8910     0.0650     2.5140    -8.2530     6.8960     9.9220
 1153.0000     8.7820    91.8500     0.0730     2.4940    -8.3850     6.9010    10.0090
