~VERSION INFORMATION
 VERS.                2.0:   CWLS LOG ASCII STANDARD - VERSION 2.0
 WRAP.                 NO:   ONE LINE PER DEPTH STEP
~WELL INFORMATION
#MNEM.UNIT      DATA TYPE    INFORMATION
#----------   ------------   ------------------------------
 STRT.F           53.0000:   START DEPTH
 STOP.F         3110.0000:   STOP DEPTH
 STEP.F            0.5000:   STEP LENGTH
 NULL.          -999.2500:   NO VALUE
 COMP. LAWRENCE ALLISON & ASSOCIATES W:   COMPANY
 WELL. LAWRENCE NPR 3 "AX" #31-34:   WELL
 FLD .      NPR - WILDCAT:   FIELD
 LOC .      S34 T39N R78W:   LOCATION
 CNTY.            NATRONA:   COUNTY
 STAT.            WYOMING:   STATE
 CTRY. UNITED STATES OF AMERICA:   COUNTRY
 SRVC.      DRESSER ATLAS:   SERVICE COMPANY
 DATE.        11-JUL-1986:   LOGDATE
 API .     49025111020000:   API NUMBER
~CURVE INFORMATION
#MNEM.UNIT       API CODE    CURVE DESCRIPTION
#----------   ------------   ------------------------------
 DEPT.F                  :   
 DEN .G/C3   45 350 01 00:   BULK DENSITY
 TEND.LBS    45 635 01 00:   TENSION FROM DENSITY LOG
 CORR.G/C3   45 356 01 00:   DENSITY CORRECTION
 NPHI.DEC    42 890 03 00:   NEUTRON POROSITY SANDSTONE
 SPR .MV     07 010 01 00:   SPONTANEOUS POTENTIAL
 RILM.OHMM   07 120 44 00:   INDUCTION LOG MEDIUM RESISTIVITY
 RILD.OHMM   07 120 46 00:   DEEP INDUCTION RESISTIVITY
 RFOC.OHMM   07 220 04 00:   RESISTIVITY FOCUSED LOG RES.
 TENR.LBS    07 635 01 00:   TENSION FROM RESISTIVITY
 GRR .GAPI   07 310 01 00:   GAMMA RAY FROM RESISTIVITY
 CALR.IN     07 280 01 00:   CALIPER FROM RESISTIVITY
~PARAMETER INFORMATION
#MNEM.UNIT          VALUE    DESCRIPTION
#----------   ------------   ------------------------------
 EKB .F          5074.800:   Kelly bushing
 EGL .F          5063.000:   Ground level
 EDF .F            0.0000:   Drilling floor
 EPD .F            0.0000:   Permanent datum
 TD  .F         3108.0000:   Total depth
 DATE.        11-JUL-1986:   Date logged
 CLNT.            A2DTECH:   Client Code
 SL  . 1796' FWL & 318' FNL:   Surface Location
 PD  .                 GL:   Permanent Datum
 DAPD.F                11:   Feet Above Permanent Datum
 DD  .F              3103:   Depth driller
 DL  .F              3108:   Depth logger
 BLI .F              3106:   Bottom log interval
 CS1 .IN            8.625:   Casing size
 CBD1.      8.625" @ 602':   Casing driller 1
 CBL1.F               596:   Casing logger 1
 BS1 .IN            7.875:   Bit size
 BSD1.F              3103:   Depth drilled with bit1
 DFT .            KCL/GEL:   Type fluid in hole
 DFD .                  9:   Density
 DFV .                 42:   Viscosity
 MSS .           MUD/TANK:   Source of sample
 RMS .OHMM           .352:   Rm
 MST .F                82:   Rm Meas. temp.
 RMF .OHMM           .264:   Rmf
 MFST.F                82:   Rmf Meas. temp.
 RMC .OHMM            .44:   Rmc
 MCST.F                82:   Rmc Meas. temp.
 MFSS.               CALC:   Source Rmf.
 MCSS.               CALC:   Source Rmc.
 RMB .OHMM            .23:   Rm. at BHT
 BHT .F               115:   BHT.
 TCS .HRS               3:   Time Circ. stopped
 MRT .F               115:   Maximum recorded temp.
 LUN .            HL-6264:   Logging unit number
 LUL .           GILLETTE:   Logging unit location
 ENGI.     P. M. FASHSING:   Recorded By
 WITN.             STRONG:   Witnessed by
 ORIG.           5" PRINT:   Origin of data
 UWI .     49025111020000:   Unique Well ID
 DICO. A2D TECHNOLOGIES, INC.:   Digitizing Company
~OTHER INFORMATION
~A   DEPT      DEN       TEND       CORR       NPHI        SPR       RILM       RILD       RFOC       TENR         GRR      CALR   
# ...
 2920.0000     2.4800   -45.0110     0.0340     0.2560   -75.0090     4.6920     4.3850     5.5710   -45.8400   119.7800     8.3100
 2920.5000     2.4950   -44.1190     0.0410     0.2590   -75.0560     4.7430     4.7380     5.5520   -45.3890   120.0370     8.3100
 2921.0000     2.5010   -43.2280     0.0470     0.2550   -75.1030     4.7940     4.9710     5.4690   -44.9380   122.3640     8.3100
 2921.5000     2.5040   -42.3370     0.0560     0.2520   -75.1490     4.8440     4.9440     5.3770   -44.4870   125.6760     8.3100
 2922.0000     2.5150   -41.4460     0.0530     0.2500   -75.1960     4.8950     4.8970     5.2850   -44.0360   129.6680     8.3260
 2922.5000     2.5250   -40.5550     0.0460     0.2530   -75.2430     4.9710     4.8350     5.2540   -43.5850   132.5850     8.3450
 2923.0000     2.5350   -39.6630     0.0630     0.2560   -75.2900     4.9610     4.8410     5.2940   -43.1350   132.0300     8.3660
 2923.5000     2.5430   -38.7720     0.0850     0.2590   -75.3370     4.9410     4.8480     5.4260   -42.6840   130.5600     8.3520
 2924.0000     2.5450   -37.8810     0.1060     0.2640   -75.3840     4.9250     4.8560     5.5580   -42.2330   129.0380     8.3280
 2924.5000     2.5470   -36.9900     0.1180     0.2710   -75.4240     4.9630     4.8640     5.7080   -41.7820   128.3540     8.3100
 2925.0000     2.5440   -36.0990     0.0990     0.2750   -75.4600     4.9940     4.8720     5.6530   -41.3310   127.6760     8.3110
 2925.5000     2.5390   -35.2070     0.0910     0.2750   -75.4970     5.0250     4.8800     5.5890   -40.8800   127.0410     8.3110
 2926.0000     2.5370   -34.3160     0.0880     0.2700   -75.5330     5.0560     4.8910     5.5250   -40.4290   128.3080     8.3120
 2926.5000     2.5360   -33.4250     0.0850     0.2620   -75.5690     5.0870     4.9020     5.4610   -40.1650   131.3390     8.3130
 2927.0000     2.5360   -32.5340     0.0830     0.2600   -75.6050     5.1180     4.9130     5.4510   -40.1650   133.0120     8.3140
 2927.5000     2.5400   -31.6430     0.0780     0.2640   -75.5210     5.2050     4.9250     5.6140   -40.1650   131.5350     8.3140
 2928.0000     2.5490   -30.7520     0.0710     0.2670   -75.4270     5.1900     4.9360     5.9400   -40.1650   130.0470     8.3150
 2928.5000     2.5590   -30.6250     0.0650     0.2680   -75.3330     5.1630     4.9470     6.2020   -40.1650   128.2420     8.3160
 2929.0000     2.5610   -30.6250     0.0590     0.2640   -75.2390     5.1350     4.9580     6.1820   -40.1650   129.5100     8.3160
 2929.5000     2.5450   -30.6250     0.0470     0.2600   -75.1460     5.1100     4.9700     6.1620   -40.1650   131.5650     8.3170
 2930.0000     2.5300   -30.6250     0.0360     0.2580   -75.0520     4.9500     4.8770     6.1050   -40.1650   133.1510     8.3180
 2930.5000     2.5160   -30.6250     0.0400     0.2630   -74.9580     4.8030     4.7720     5.8080   -40.1650   133.5620     8.3180
 2931.0000     2.5110   -30.6250     0.0500     0.2710   -74.8650     4.6550     4.6680     5.5110   -40.1650   134.6590     8.3190
 2931.5000     2.5050   -30.6250     0.0590     0.2780   -74.7700     4.5080     4.5640     5.2140   -40.1650   136.7540     8.3200
 2932.0000     2.5000   -30.6250     0.0450     0.2850   -74.6770     4.3610     4.4590     5.0170   -40.1650   136.8330     8.3210
 2932.5000     2.4940   -30.6250     0.0290     0.2920   -74.6290     4.2140     4.3550     5.0170   -40.1650   135.2630     8.3210
 2933.0000     2.4920   -30.6250     0.0290     0.2990   -74.8600     4.0960     4.2110     5.0170   -40.1650   134.8340     8.3220
 2933.5000     2.4940   -30.6250     0.0500     0.2940   -75.0890     4.0960     4.2500     5.0030   -40.1650   135.1850     8.3230
 2934.0000     2.5030   -30.6250     0.0620     0.2850   -75.3170     4.0960     4.2500     4.9860   -40.1650   134.7450     8.3230
 2934.5000     2.5040   -30.6250     0.0570     0.2760   -75.5510     4.2540     4.2790     4.9710   -40.1650   133.3500     8.3240
 2935.0000     2.5020   -30.6250     0.0470     0.2750   -75.6680     4.3990     4.5060     4.9560   -40.1650   131.9560     8.3250
 2935.5000     2.5000   -30.6250     0.0460     0.2760   -75.7560     4.5440     4.7330     4.9250   -40.1650   131.0300     8.3250
 2936.0000     2.5060   -30.6250     0.0610     0.2750   -75.8430     4.6890     4.9590     5.5890   -41.4690   130.3990     8.3260
 2936.5000     2.5120   -30.6250     0.0700     0.2720   -75.9310     4.8860     5.2050     6.1390   -43.5070   129.7750     8.3270
 2937.0000     2.5190   -30.6250     0.0600     0.2690   -75.9730     5.2050     5.4130     6.6930   -45.5450   129.1610     8.3280
 2937.5000     2.5240   -30.6250     0.0580     0.2650   -75.7310     5.5250     5.6400     7.2460   -47.5830   127.7980     8.3280
 2938.0000     2.5300   -30.6250     0.0680     0.2610   -75.4920     5.7080     5.8140     7.5270   -49.6200   125.9140     8.3290
 2938.5000     2.5320   -30.6250     0.0770     0.2500   -75.2540     5.5810     5.7310     7.2970   -50.3340   123.5510     8.3300
 2939.0000     2.5310   -30.8310     0.0800     0.2530   -75.0160     5.4920     5.6630     6.9520   -50.8140   124.0370     8.3300
 2939.5000     2.5270   -31.4030     0.0680     0.2590   -74.7770     5.4010     5.5950     6.5310   -51.2950   127.4970     8.3300
 2940.0000     2.5220   -31.9740     0.0560     0.2690   -74.5390     5.4110     5.5270     5.9280   -51.7760   131.4130     8.3300
 2940.5000     2.5170   -32.5460     0.0470     0.2750   -74.3010     5.4210     5.4600     5.6560   -52.2560   135.3300     8.3300
 2941.0000     2.5150   -33.1170     0.0450     0.2730   -74.0510     5.4310     5.4510     5.7950   -52.7370   135.0140     8.3300
 2941.5000     2.5200   -33.6890     0.0480     0.2700   -74.0730     5.4410     5.4950     6.2660   -53.2170   131.5270     8.3300
 2942.0000     2.5280   -34.2600     0.0530     0.2640   -74.1790     5.4510     5.5250     6.8640   -53.6980   129.3820     8.3300
 2942.5000     2.5370   -34.8320     0.0650     0.2630   -74.2870     5.4730     5.5550     6.7200   -54.1790   128.7920     8.3300
 2943.0000     2.5370   -35.4030     0.0770     0.2660   -74.3940     5.5000     5.5850     6.5550   -54.6590   128.7080     8.3300
 2943.5000     2.5360   -35.9750     0.0900     0.2680   -74.5010     5.5280     5.6150     6.5720   -55.1400   127.4610     8.3300
 2944.0000     2.5380   -36.5460     0.0940     0.2680   -74.6080     5.5550     5.6440     6.5880   -55.6210   127.9360     8.3300
 2944.5000     2.5430   -37.1180     0.0990     0.2640   -74.7150     5.5820     5.6740     6.6030   -56.1010   129.4400     8.3300
 2945.0000     2.5470   -37.6890     0.1000     0.2610   -74.8220     5.6100     5.7040     6.6450   -56.5820   131.0960     8.3300
 2945.5000     2.5500   -38.2610     0.0980     0.2560   -74.9270     5.6370     5.7310     6.7670   -57.0620   130.4760     8.3300
 2946.0000     2.5400   -38.8320     0.0920     0.2490   -74.9840     5.6650     5.7570     7.0560   -57.5430   128.3110     8.3300
 2946.5000     2.5310   -39.4040     0.0550     0.2450   -74.9300     5.6920     5.7840     6.9720   -58.0240   126.7890     8.3300
 2947.0000     2.5230   -39.9750     0.0480     0.2460   -74.8780     5.7270     5.8100     6.8610   -58.5040   126.8410     8.3300
 2947.5000     2.5260   -40.5470     0.0480     0.2460   -74.8260     5.8130     5.8910     6.8010   -58.9850   127.1380     8.3300
 2948.0000     2.5310   -41.1180     0.0440     0.2470   -74.6450     5.8990     5.9820     6.8570   -59.4660   127.1580     8.3300
 2948.5000     2.5370   -41.6900     0.0330     0.2440   -74.3380     5.9850     6.0730     6.8950   -59.8640   125.1460     8.3300
 2949.0000     2.5380   -42.2610     0.0440     0.2420   -74.0280     6.0710     6.1970     6.9330   -60.3720   123.8350     8.3300
 2949.5000     2.5330   -42.8330     0.0690     0.2410   -73.6320     6.1570     6.4560     6.9720   -60.8810   123.5400     8.3300
 2950.0000     2.5230   -43.4050     0.0520     0.2410   -72.8760     6.5030     6.7380     7.1770   -61.3890   120.1350     8.3300
